~VERSION INFORMATION
 VERS.                 2.0:   CWLS LOG ASCII STANDARD - VERSION 2.0
 WRAP.                  NO:   SINGLE LINE PER DEPTH STEP
 CREA.                 08/01/2018 13:33:07
#CREATED USING DSPetro VERSION 5000.10.1.3 BY H191660 ON 08/01/2018 13:33:07
~WELL INFORMATION
#MNEM.UNIT       DATA                          DESCRIPTION MNEMONIC
#---------      ---------------------------   --------------------------
 STRT    .M         0.0000                    : START DEPTH
 STOP    .M         3199.9428                 : STOP DEPTH
 STEP    .M         0.1524                    : STEP VALUE
 NULL    .      -999.0000                     : NULL VALUE
 DATE    .      08/01/2018                    : LAS file Creation Date
 WELL .      2400_Nebo-1                 : Well Name
 COMP .      Neftex Exploration Insights : Company
 FLD  .      NEBO                        : Field
 UWI  .      ZAUWL_005243                : Unique Well Identifier (UWI)
 LOC  .                                  : Location
 RWS  .      -999                        : Def_Rw
 WST  .      -999                        : Def_Rwt
 SRVC .                                  : Contractor
~CURVE INFORMATION
#MNEM              UNIT       API CODE   Curve Type Comments
#----------  --------------- ----------  ---------- -----------
 DEPTH      .M                         : Depth       
 BitSize    .in                        : bitSize     
 CAL_INCH   .inch                      : caliper     Caliper Log - A representation of the measured diameter of a borehole along its depth
 SP_MV1     .mv                        : SP          Spontaneous Potential - Records the electrical potential produced by the interaction of formation water, conductive drilling mud, and certain ion-sele
 GR_API     .API                       : gammaRay    Gamma Ray (API) - Measures the intensity of natural gamma-ray radiation emitted from formations containing radioactive elements, such as K, Th and U
 LLD_OHMM   .ohmm                      : deepRes     Laterlog Deep Resistivity - Measurement made several feet into the formation; generally considered a measurement of the undisturbed formation
 LLS_OHMM   .ohmm                      : shalRes     Laterlog Shallow Resistivity - one to two feet into the formation; generally considered to measure the formation
 DT_US_FT   .us/ft                     : density     Interval Transit Time: Compressional Wave - Evaluates the time it takes for a compressional wave to traverse a fixed distance
 RHOB_G_CC  .g/cc                      : density     Bulk Density - Measures the density of bulk material, including any void space or other materials contained in the subject volume
 DRHO_G_CC  .g/cc                      : drho        Density Correction - Investigates the correction to the Bulk Density log; used as an indication of hole condition to validate the Bulk Density measure
 NPHI_v_v   .PC                        : Neutron     Neutron Porosity - Measured with an neutron logging device calibrated to a given matrix (limestone, sandstone and dolomite)
 PEF_B_E    .b/e-                      : PEF         Photoelectric Factor - A log of photoelectric absorption properties. Often expressed in an approximation unit barns/electron (b/e-)
 LITH       .                          : LITH        Lithology Curve
 LITH_v2    .                          : LITH        Lithology Curve
~A  DEPTH  BitSize   CAL_INCH   SP_MV1    GR_API   LLD_OHMM  LLS_OHMM  DT_US_FT RHOB_G_C  DRHO_G_C  NPHI_v_v  PEF_B_E     LITH    LITH_v2  
# ...
1303.0200   17.5000   17.7849   -0.6272   14.3361    1.0551    1.2548   87.7768 -999.0000 -999.0000 -999.0000 -999.0000 -999.0000 -999.0000 
1303.1724   17.5000   17.7596   -0.4213   13.6755    1.1336    1.3202   86.5181 -999.0000 -999.0000 -999.0000 -999.0000 -999.0000 -999.0000 
1303.3248   17.5000   17.7134   -0.0938   15.1157    1.1985    1.3650   86.4304 -999.0000 -999.0000 -999.0000 -999.0000 -999.0000 -999.0000 
1303.4772   17.5000   17.6736    0.2784   16.2551    1.2487    1.4039   86.6222 -999.0000 -999.0000 -999.0000 -999.0000 -999.0000 -999.0000 
1303.6296   17.5000   17.6693    0.4950   16.7694    1.2666    1.4488   86.0650 -999.0000 -999.0000 -999.0000 -999.0000 -999.0000 -999.0000 
1303.7820   17.5000   17.6693    0.5397   17.8521    1.2380    1.4410   85.1083 -999.0000 -999.0000 -999.0000 -999.0000 -999.0000 -999.0000 
1303.9344   17.5000   17.6707    0.5018   17.3706    1.1825    1.4073   84.4444 -999.0000 -999.0000 -999.0000 -999.0000 -999.0000 -999.0000 
1304.0868   17.5000   17.6596    0.4333   18.2951    1.1248    1.3595   84.7410 -999.0000 -999.0000 -999.0000 -999.0000 -999.0000 -999.0000 
1304.2392   17.5000   17.6410    0.3270   16.1118    1.1003    1.3326   85.7211 -999.0000 -999.0000 -999.0000 -999.0000 -999.0000 -999.0000 
1304.3916   17.5000   17.6334    0.2959   16.1017    1.1197    1.3522   87.4422 -999.0000 -999.0000 -999.0000 -999.0000 -999.0000 -999.0000 
1304.5440   17.5000   17.6974    0.6248   15.9841    1.1512    1.3807   89.6106 -999.0000 -999.0000 -999.0000 -999.0000 -999.0000 -999.0000 
1304.6964   17.5000   17.7620    1.0277   17.9156    1.1643    1.3968   91.2220 -999.0000 -999.0000 -999.0000 -999.0000 -999.0000 -999.0000 
1304.8488   17.5000   17.7819    1.6296   19.4231    1.0454    1.2809   91.6667 -999.0000 -999.0000 -999.0000 -999.0000 -999.0000 -999.0000 
1305.0012   17.5000   17.7863    2.4269   20.6585    0.9260    1.1674   91.2262 -999.0000 -999.0000 -999.0000 -999.0000 -999.0000 -999.0000 
1305.1536   17.5000   17.7793    3.0810   21.4766    0.8310    1.0269   90.7364 -999.0000 -999.0000 -999.0000 -999.0000 -999.0000 -999.0000 
1305.3060   17.5000   17.7483    3.4733   20.0326    0.7989    0.9863   90.6939 -999.0000 -999.0000 -999.0000 -999.0000 -999.0000 -999.0000 
1305.4584   17.5000   17.6856    3.5456   19.6102    0.8202    1.0316   90.7667 -999.0000 -999.0000 -999.0000 -999.0000 -999.0000 -999.0000 
1305.6108   17.5000   17.6273    3.0932   19.8895    0.8536    1.1212   90.6111 -999.0000 -999.0000 -999.0000 -999.0000 -999.0000 -999.0000 
1305.7632   17.5000   17.6064    2.3466   19.5150    0.8880    1.1650   90.9272 -999.0000 -999.0000 -999.0000 -999.0000 -999.0000 -999.0000 
1305.9156   17.5000   17.5852    1.5048   19.4728    0.9045    1.1532   91.5956 -999.0000 -999.0000 -999.0000 -999.0000 -999.0000 -999.0000 
1306.0680   17.5000   17.5519    0.6787   17.4873    0.8830    1.0741   92.5889 -999.0000 -999.0000 -999.0000 -999.0000 -999.0000 -999.0000 
1306.2204   17.5000   17.5320   -0.0149   17.8306    0.8435    1.0295   93.4783 -999.0000 -999.0000 -999.0000 -999.0000 -999.0000 -999.0000 
1306.3728   17.5000   17.5184   -0.5386   17.2706    0.8092    1.0025   93.8323 -999.0000 -999.0000 -999.0000 -999.0000 -999.0000 -999.0000 
1306.5252   17.5000   17.4817   -0.9504   17.0489    0.8105    1.0357   94.6106 -999.0000 -999.0000 -999.0000 -999.0000 -999.0000 -999.0000 
1306.6776   17.5000   17.4141   -1.2354   17.1790    0.8564    1.0952   95.1333 -999.0000 -999.0000 -999.0000 -999.0000 -999.0000 -999.0000 
1306.8300   17.5000   17.3660   -1.4954   14.5696    0.9253    1.1885   93.5358 -999.0000 -999.0000 -999.0000 -999.0000 -999.0000 -999.0000 
1306.9824   17.5000   17.3591   -1.7494   13.8821    0.9763    1.2111   92.5556 -999.0000 -999.0000 -999.0000 -999.0000 -999.0000 -999.0000 
1307.1348   17.5000   17.3607   -1.9512   12.7790    0.9943    1.2514   93.3494 -999.0000 -999.0000 -999.0000 -999.0000 -999.0000 -999.0000 
1307.2872   17.5000   17.3642   -2.1015   14.5460    0.9854    1.2389   93.9222 -999.0000 -999.0000 -999.0000 -999.0000 -999.0000 -999.0000 
1307.4396   17.5000   17.3646   -2.2592   17.7832    0.9724    1.2391   93.1413 -999.0000 -999.0000 -999.0000 -999.0000 -999.0000 -999.0000 
1307.5920   17.5000   17.3634   -2.3571   18.5494    0.9696    1.2332   92.6376 -999.0000 -999.0000 -999.0000 -999.0000 -999.0000 -999.0000 
1307.7444   17.5000   17.3636   -2.3721   19.8132    0.9850    1.2306   92.9315 -999.0000 -999.0000 -999.0000 -999.0000 -999.0000 -999.0000 
1307.8968   17.5000   17.3658   -2.4250   19.7372    0.9956    1.2614   93.0778 -999.0000 -999.0000 -999.0000 -999.0000 -999.0000 -999.0000 
1308.0492   17.5000   17.3698   -2.5006   20.1388    1.0001    1.2511   92.6211 -999.0000 -999.0000 -999.0000 -999.0000 -999.0000 -999.0000 
1308.2016   17.5000   17.3741   -2.6021   17.7922    0.9923    1.2443   92.0640 -999.0000 -999.0000 -999.0000 -999.0000 -999.0000 -999.0000 
1308.3540   17.5000   17.3763   -2.7220   14.5224    0.9857    1.2047   91.1905 -999.0000 -999.0000 -999.0000 -999.0000 -999.0000 -999.0000 
1308.5064   17.5000   17.3774   -2.8797   12.3890    0.9890    1.1923   90.0988 -999.0000 -999.0000 -999.0000 -999.0000 -999.0000 -999.0000 
1308.6588   17.5000   17.3792   -3.1079   13.8438    1.0034    1.2082   89.2582 -999.0000 -999.0000 -999.0000 -999.0000 -999.0000 -999.0000 
1308.8112   17.5000   17.3729   -3.2887   15.6983    1.0166    1.2329   89.1343 -999.0000 -999.0000 -999.0000 -999.0000 -999.0000 -999.0000 
1308.9636   17.5000   17.3627   -3.3736   18.1460    1.0262    1.2480   89.2778 -999.0000 -999.0000 -999.0000 -999.0000 -999.0000 -999.0000 
1309.1160   17.5000   17.3565   -3.4051   17.1982    1.0315    1.2429   88.5699 -999.0000 -999.0000 -999.0000 -999.0000 -999.0000 -999.0000 
1309.2684   17.5000   17.3527   -3.2430   18.2621    1.0283    1.2328   88.2000 -999.0000 -999.0000 -999.0000 -999.0000 -999.0000 -999.0000 
1309.4208   17.5000   17.3505   -2.9163   16.7660    1.0325    1.2061   89.0844 -999.0000 -999.0000 -999.0000 -999.0000 -999.0000 -999.0000 
1309.5732   17.5000   17.3504   -2.5182   16.4519    1.0352    1.2158   89.4000 -999.0000 -999.0000 -999.0000 -999.0000 -999.0000 -999.0000 
1309.7256   17.5000   17.3504   -2.1405   16.8723    1.0444    1.2054   88.1390 -999.0000 -999.0000 -999.0000 -999.0000 -999.0000 -999.0000 
1309.8780   17.5000   17.3585   -1.8881   16.5795    1.0633    1.2284   86.6828 -999.0000 -999.0000 -999.0000 -999.0000 -999.0000 -999.0000 
1310.0304   17.5000   17.3753   -1.7739   17.4495    1.0959    1.2497   85.4377 -999.0000 -999.0000 -999.0000 -999.0000 -999.0000 -999.0000 
1310.1828   17.5000   17.3930   -1.7737   15.5091    1.1234    1.2764   84.5371 -999.0000 -999.0000 -999.0000 -999.0000 -999.0000 -999.0000 
1310.3352   17.5000   17.4340   -1.8211   15.0438    1.1515    1.3292   84.2222 -999.0000 -999.0000 -999.0000 -999.0000 -999.0000 -999.0000 
1310.4876   17.5000   17.5230   -1.6541   14.5185    1.1542    1.3368   84.4974 -999.0000 -999.0000 -999.0000 -999.0000 -999.0000 -999.0000 
1310.6400   17.5000   17.6299   -1.3380   15.7518    1.1431    1.3214   84.1968 -999.0000 -999.0000 -999.0000 -999.0000 -999.0000 -999.0000 
1310.7924   17.5000   17.7232   -0.8893   15.9016    1.1130    1.2757   83.2569 -999.0000 -999.0000 -999.0000 -999.0000 -999.0000 -999.0000 
1310.9448   17.5000   17.7802   -0.4273   15.9722    1.0819    1.2277   82.9000 -999.0000 -999.0000 -999.0000 -999.0000 -999.0000 -999.0000 
1311.0972   17.5000   17.7952   -0.1463   16.0494    1.0704    1.1971   82.9904 -999.0000 -999.0000 -999.0000 -999.0000 -999.0000 -999.0000 
1311.2496   17.5000   17.7992   -0.0387   15.9487    1.0902    1.1793   82.7868 -999.0000 -999.0000 -999.0000 -999.0000 -999.0000 -999.0000 
1311.4020   17.5000   17.8025   -0.0468   16.2691    1.1375    1.1730   82.7444 -999.0000 -999.0000 -999.0000 -999.0000 -999.0000 -999.0000 
1311.5544   17.5000   17.8047   -0.1625   17.0984    1.2100    1.2882   83.8503 -999.0000 -999.0000 -999.0000 -999.0000 -999.0000 -999.0000 
