~VERSION INFORMATION
 VERS.                 2.0:   CWLS LOG ASCII STANDARD - VERSION 2.0
 WRAP.                  NO:   SINGLE LINE PER DEPTH STEP
 CREA.                 08/01/2018 13:33:07
#CREATED USING DSPetro VERSION 5000.10.1.3 BY H191660 ON 08/01/2018 13:33:07
~WELL INFORMATION
#MNEM.UNIT       DATA                          DESCRIPTION MNEMONIC
#---------      ---------------------------   --------------------------
 STRT    .M         0.0000                    : START DEPTH
 STOP    .M         3199.9428                 : STOP DEPTH
 STEP    .M         0.1524                    : STEP VALUE
 NULL    .      -999.0000                     : NULL VALUE
 DATE    .      08/01/2018                    : LAS file Creation Date
 WELL .      2400_Nebo-1                 : Well Name
 COMP .      Neftex Exploration Insights : Company
 FLD  .      NEBO                        : Field
 UWI  .      ZAUWL_005243                : Unique Well Identifier (UWI)
 LOC  .                                  : Location
 RWS  .      -999                        : Def_Rw
 WST  .      -999                        : Def_Rwt
 SRVC .                                  : Contractor
~CURVE INFORMATION
#MNEM              UNIT       API CODE   Curve Type Comments
#----------  --------------- ----------  ---------- -----------
 DEPTH      .M                         : Depth       
 BitSize    .in                        : bitSize     
 CAL_INCH   .inch                      : caliper     Caliper Log - A representation of the measured diameter of a borehole along its depth
 SP_MV1     .mv                        : SP          Spontaneous Potential - Records the electrical potential produced by the interaction of formation water, conductive drilling mud, and certain ion-sele
 GR_API     .API                       : gammaRay    Gamma Ray (API) - Measures the intensity of natural gamma-ray radiation emitted from formations containing radioactive elements, such as K, Th and U
 LLD_OHMM   .ohmm                      : deepRes     Laterlog Deep Resistivity - Measurement made several feet into the formation; generally considered a measurement of the undisturbed formation
 LLS_OHMM   .ohmm                      : shalRes     Laterlog Shallow Resistivity - one to two feet into the formation; generally considered to measure the formation
 DT_US_FT   .us/ft                     : density     Interval Transit Time: Compressional Wave - Evaluates the time it takes for a compressional wave to traverse a fixed distance
 RHOB_G_CC  .g/cc                      : density     Bulk Density - Measures the density of bulk material, including any void space or other materials contained in the subject volume
 DRHO_G_CC  .g/cc                      : drho        Density Correction - Investigates the correction to the Bulk Density log; used as an indication of hole condition to validate the Bulk Density measure
 NPHI_v_v   .PC                        : Neutron     Neutron Porosity - Measured with an neutron logging device calibrated to a given matrix (limestone, sandstone and dolomite)
 PEF_B_E    .b/e-                      : PEF         Photoelectric Factor - A log of photoelectric absorption properties. Often expressed in an approximation unit barns/electron (b/e-)
 LITH       .                          : LITH        Lithology Curve
 LITH_v2    .                          : LITH        Lithology Curve
~A  DEPTH  BitSize   CAL_INCH   SP_MV1    GR_API   LLD_OHMM  LLS_OHMM  DT_US_FT RHOB_G_C  DRHO_G_C  NPHI_v_v  PEF_B_E     LITH    LITH_v2  
# ...
 807.8724   17.5000   18.0512    4.9125   20.8145    1.1909    1.2776   90.4331 -999.0000 -999.0000 -999.0000 -999.0000 -999.0000 -999.0000 
 808.0248   17.5000   18.0358    5.1294   21.5211    1.1170    1.2312   79.5681 -999.0000 -999.0000 -999.0000 -999.0000 -999.0000 -999.0000 
 808.1772   17.5000   18.0373    5.5032   23.5924    1.0236    1.1715   73.4000 -999.0000 -999.0000 -999.0000 -999.0000 -999.0000 -999.0000 
 808.3296   17.5000   18.0395    6.0018   23.9397    0.9161    1.0862   76.2823 -999.0000 -999.0000 -999.0000 -999.0000 -999.0000 -999.0000 
 808.4820   17.5000   18.0403    6.5511   23.3041    0.8175    1.0063   81.4398 -999.0000 -999.0000 -999.0000 -999.0000 -999.0000 -999.0000 
 808.6344   17.5000   18.0425    7.0131   23.2799    0.7394    0.9240   84.6322 -999.0000 -999.0000 -999.0000 -999.0000 -999.0000 -999.0000 
 808.7868   17.5000   18.0436    7.4437   22.9659    0.6868    0.8792   85.7333 -999.0000 -999.0000 -999.0000 -999.0000 -999.0000 -999.0000 
 808.9392   17.5000   18.0440    7.7251   24.3011    0.6716    0.8666   84.7428 -999.0000 -999.0000 -999.0000 -999.0000 -999.0000 -999.0000 
 809.0916   17.5000   18.0549    7.8262   25.1323    0.7121    0.9395   83.9111 -999.0000 -999.0000 -999.0000 -999.0000 -999.0000 -999.0000 
 809.2440   17.5000   18.1069    7.8723   24.4746    0.7728    1.0093   87.5067 -999.0000 -999.0000 -999.0000 -999.0000 -999.0000 -999.0000 
 809.3964   17.5000   18.1642    7.9208   25.8590    0.8413    1.0717   94.6534 -999.0000 -999.0000 -999.0000 -999.0000 -999.0000 -999.0000 
 809.5488   17.5000   18.1805    7.9197   27.7053    0.9053    1.0936   98.8778 -999.0000 -999.0000 -999.0000 -999.0000 -999.0000 -999.0000 
 809.7012   17.5000   18.1731    7.8413   28.7305    0.9622    1.1199   95.6501 -999.0000 -999.0000 -999.0000 -999.0000 -999.0000 -999.0000 
 809.8536   17.5000   18.1491    7.7026   30.2948    1.0209    1.1619   89.9269 -999.0000 -999.0000 -999.0000 -999.0000 -999.0000 -999.0000 
 810.0060   17.5000   18.0961    7.4166   27.4075    1.1116    1.2619   86.3767 -999.0000 -999.0000 -999.0000 -999.0000 -999.0000 -999.0000 
 810.1584   17.5000   18.0021    6.9982   24.9821    1.2510    1.3939   86.4724 -999.0000 -999.0000 -999.0000 -999.0000 -999.0000 -999.0000 
 810.3108   17.5000   17.9067    6.4482   22.9562    1.4524    1.5674   87.6889 -999.0000 -999.0000 -999.0000 -999.0000 -999.0000 -999.0000 
 810.4632   17.5000   17.8447    5.8429   21.3046    1.7046    1.7590   83.9256 -999.0000 -999.0000 -999.0000 -999.0000 -999.0000 -999.0000 
 810.6156   17.5000   17.7016    5.1258   21.3887    1.9532    1.9665   81.1272 -999.0000 -999.0000 -999.0000 -999.0000 -999.0000 -999.0000 
 810.7680   17.5000   17.5141    4.3832   21.1695    2.1588    2.1265   82.3249 -999.0000 -999.0000 -999.0000 -999.0000 -999.0000 -999.0000 
 810.9204   17.5000   17.4458    3.7221   21.0362    2.3038    2.2653   84.3311 -999.0000 -999.0000 -999.0000 -999.0000 -999.0000 -999.0000 
 811.0728   17.5000   17.4470    3.0907   21.3312    2.3863    2.3289   82.3560 -999.0000 -999.0000 -999.0000 -999.0000 -999.0000 -999.0000 
 811.2252   17.5000   17.4492    2.5780   21.2967    2.4445    2.3932   76.0423 -999.0000 -999.0000 -999.0000 -999.0000 -999.0000 -999.0000 
 811.3776   17.5000   17.4495    2.1524   21.5902    2.5017    2.4460   69.0990 -999.0000 -999.0000 -999.0000 -999.0000 -999.0000 -999.0000 
 811.5300   17.5000   17.4524    1.7829   20.2418    2.5459    2.4882   63.8111 -999.0000 -999.0000 -999.0000 -999.0000 -999.0000 -999.0000 
 811.6824   17.5000   17.4329    1.4481   18.2537    2.5903    2.5396   65.2145 -999.0000 -999.0000 -999.0000 -999.0000 -999.0000 -999.0000 
 811.8348   17.5000   17.3484    1.2233   17.1743    2.6149    2.5296   70.6776 -999.0000 -999.0000 -999.0000 -999.0000 -999.0000 -999.0000 
 811.9872   17.5000   17.2559    0.9534   16.3430    2.6026    2.4876   73.0000 -999.0000 -999.0000 -999.0000 -999.0000 -999.0000 -999.0000 
 812.1396   17.5000   17.2255    0.5502   18.7615    2.5220    2.4219   71.7667 -999.0000 -999.0000 -999.0000 -999.0000 -999.0000 -999.0000 
 812.2920   17.5000   17.2276    0.0943   19.4204    2.2959    2.2921   76.5870 -999.0000 -999.0000 -999.0000 -999.0000 -999.0000 -999.0000 
 812.4444   17.5000   17.2311   -0.3408   19.2478    2.0252    2.1008   85.7065 -999.0000 -999.0000 -999.0000 -999.0000 -999.0000 -999.0000 
 812.5968   17.5000   17.2355   -0.6691   19.7866    1.8044    1.9257   88.9333 -999.0000 -999.0000 -999.0000 -999.0000 -999.0000 -999.0000 
 812.7492   17.5000   17.2384   -0.8370   19.4366    1.7630    1.8330   81.7323 -999.0000 -999.0000 -999.0000 -999.0000 -999.0000 -999.0000 
 812.9016   17.5000   17.2384   -0.7655   19.5757    2.0135    2.0500   68.9503 -999.0000 -999.0000 -999.0000 -999.0000 -999.0000 -999.0000 
 813.0540   17.5000   17.2337   -0.6255   18.0782    2.6124    2.6598   60.8111 -999.0000 -999.0000 -999.0000 -999.0000 -999.0000 -999.0000 
 813.2064   17.5000   17.2241   -0.5353   17.0819    3.5596    3.5657   62.8288 -999.0000 -999.0000 -999.0000 -999.0000 -999.0000 -999.0000 
 813.3588   17.5000   17.2180   -0.4441   17.0721    4.5594    4.4317   65.9314 -999.0000 -999.0000 -999.0000 -999.0000 -999.0000 -999.0000 
 813.5112   17.5000   17.2145   -0.3821   16.9343    4.9755    4.7890   66.1102 -999.0000 -999.0000 -999.0000 -999.0000 -999.0000 -999.0000 
 813.6636   17.5000   17.2126   -0.4014   15.3332    4.7174    4.5819   67.6576 -999.0000 -999.0000 -999.0000 -999.0000 -999.0000 -999.0000 
 813.8160   17.5000   17.2126   -0.4572   14.7659    4.0908    4.0377   71.7081 -999.0000 -999.0000 -999.0000 -999.0000 -999.0000 -999.0000 
 813.9684   17.5000   17.2132   -0.5695   14.7143    3.3951    3.4226   76.5852 -999.0000 -999.0000 -999.0000 -999.0000 -999.0000 -999.0000 
 814.1208   17.5000   17.2281   -0.6880   14.3926    2.7614    2.8513   81.7951 -999.0000 -999.0000 -999.0000 -999.0000 -999.0000 -999.0000 
 814.2732   17.5000   17.2794   -0.7247   16.6164    2.2992    2.4005   86.3523 -999.0000 -999.0000 -999.0000 -999.0000 -999.0000 -999.0000 
 814.4256   17.5000   17.3350   -0.5664   16.5140    2.0416    2.0848   88.4667 -999.0000 -999.0000 -999.0000 -999.0000 -999.0000 -999.0000 
 814.5780   17.5000   17.3575   -0.2552   17.0525    2.0724    2.1127   86.5521 -999.0000 -999.0000 -999.0000 -999.0000 -999.0000 -999.0000 
 814.7304   17.5000   17.3617    0.1472   16.4183    2.1965    2.2513   83.9768 -999.0000 -999.0000 -999.0000 -999.0000 -999.0000 -999.0000 
 814.8828   17.5000   17.3689    0.4480   16.8118    2.2614    2.3535   83.5889 -999.0000 -999.0000 -999.0000 -999.0000 -999.0000 -999.0000 
 815.0352   17.5000   17.3953    0.6214   17.5953    2.0725    2.2416   84.8834 -999.0000 -999.0000 -999.0000 -999.0000 -999.0000 -999.0000 
 815.1876   17.5000   17.4423    0.6774   19.2994    1.7733    1.9730   86.7923 -999.0000 -999.0000 -999.0000 -999.0000 -999.0000 -999.0000 
 815.3400   17.5000   17.4931    0.6905   19.7560    1.5204    1.6802   88.8843 -999.0000 -999.0000 -999.0000 -999.0000 -999.0000 -999.0000 
 815.4924   17.5000   17.5659    0.6811   20.1988    1.4128    1.5947   89.2778 -999.0000 -999.0000 -999.0000 -999.0000 -999.0000 -999.0000 
 815.6448   17.5000   17.6848    0.8796   19.3921    1.3921    1.5989   87.6222 -999.0000 -999.0000 -999.0000 -999.0000 -999.0000 -999.0000 
 815.7972   17.5000   17.7937    1.1960   20.7088    1.4350    1.7137   87.5000 -999.0000 -999.0000 -999.0000 -999.0000 -999.0000 -999.0000 
 815.9496   17.5000   17.8344    1.5737   22.3836    1.4922    1.7462   92.9807 -999.0000 -999.0000 -999.0000 -999.0000 -999.0000 -999.0000 
 816.1020   17.5000   17.8261    2.0192   24.5937    1.5419    1.7294   96.3716 -999.0000 -999.0000 -999.0000 -999.0000 -999.0000 -999.0000 
 816.2544   17.5000   17.8154    2.4871   24.9610    1.5655    1.7200   93.9626 -999.0000 -999.0000 -999.0000 -999.0000 -999.0000 -999.0000 
 816.4068   17.5000   17.8114    2.7077   24.8015    1.5461    1.7073   88.3647 -999.0000 -999.0000 -999.0000 -999.0000 -999.0000 -999.0000 
