~VERSION INFORMATION
 VERS.                 2.0:   CWLS LOG ASCII STANDARD - VERSION 2.0
 WRAP.                  NO:   SINGLE LINE PER DEPTH STEP
 CREA.                 08/01/2018 13:33:07
#CREATED USING DSPetro VERSION 5000.10.1.3 BY H191660 ON 08/01/2018 13:33:07
~WELL INFORMATION
#MNEM.UNIT       DATA                          DESCRIPTION MNEMONIC
#---------      ---------------------------   --------------------------
 STRT    .M         0.0000                    : START DEPTH
 STOP    .M         3199.9428                 : STOP DEPTH
 STEP    .M         0.1524                    : STEP VALUE
 NULL    .      -999.0000                     : NULL VALUE
 DATE    .      08/01/2018                    : LAS file Creation Date
 WELL .      2400_Nebo-1                 : Well Name
 COMP .      Neftex Exploration Insights : Company
 FLD  .      NEBO                        : Field
 UWI  .      ZAUWL_005243                : Unique Well Identifier (UWI)
 LOC  .                                  : Location
 RWS  .      -999                        : Def_Rw
 WST  .      -999                        : Def_Rwt
 SRVC .                                  : Contractor
~CURVE INFORMATION
#MNEM              UNIT       API CODE   Curve Type Comments
#----------  --------------- ----------  ---------- -----------
 DEPTH      .M                         : Depth       
 BitSize    .in                        : bitSize     
 CAL_INCH   .inch                      : caliper     Caliper Log - A representation of the measured diameter of a borehole along its depth
 SP_MV1     .mv                        : SP          Spontaneous Potential - Records the electrical potential produced by the interaction of formation water, conductive drilling mud, and certain ion-sele
 GR_API     .API                       : gammaRay    Gamma Ray (API) - Measures the intensity of natural gamma-ray radiation emitted from formations containing radioactive elements, such as K, Th and U
 LLD_OHMM   .ohmm                      : deepRes     Laterlog Deep Resistivity - Measurement made several feet into the formation; generally considered a measurement of the undisturbed formation
 LLS_OHMM   .ohmm                      : shalRes     Laterlog Shallow Resistivity - one to two feet into the formation; generally considered to measure the formation
 DT_US_FT   .us/ft                     : density     Interval Transit Time: Compressional Wave - Evaluates the time it takes for a compressional wave to traverse a fixed distance
 RHOB_G_CC  .g/cc                      : density     Bulk Density - Measures the density of bulk material, including any void space or other materials contained in the subject volume
 DRHO_G_CC  .g/cc                      : drho        Density Correction - Investigates the correction to the Bulk Density log; used as an indication of hole condition to validate the Bulk Density measure
 NPHI_v_v   .PC                        : Neutron     Neutron Porosity - Measured with an neutron logging device calibrated to a given matrix (limestone, sandstone and dolomite)
 PEF_B_E    .b/e-                      : PEF         Photoelectric Factor - A log of photoelectric absorption properties. Often expressed in an approximation unit barns/electron (b/e-)
 LITH       .                          : LITH        Lithology Curve
 LITH_v2    .                          : LITH        Lithology Curve
~A  DEPTH  BitSize   CAL_INCH   SP_MV1    GR_API   LLD_OHMM  LLS_OHMM  DT_US_FT RHOB_G_C  DRHO_G_C  NPHI_v_v  PEF_B_E     LITH    LITH_v2  
# ...
 903.4272   17.5000   17.1911    0.4007   20.1774    0.9426    1.0529   92.9431 -999.0000 -999.0000 -999.0000 -999.0000 -999.0000 -999.0000 
 903.5796   17.5000   17.1947    0.3270   21.6167    0.9500    1.0852   86.9753 -999.0000 -999.0000 -999.0000 -999.0000 -999.0000 -999.0000 
 903.7320   17.5000   17.1952    0.3151   22.6431    0.9580    1.0321   82.7817 -999.0000 -999.0000 -999.0000 -999.0000 -999.0000 -999.0000 
 903.8844   17.5000   17.1930    0.3954   23.4281    0.9624    0.9951   81.7556 -999.0000 -999.0000 -999.0000 -999.0000 -999.0000 -999.0000 
 904.0368   17.5000   17.1970    0.5464   20.8960    0.9700    0.9618   85.4839 -999.0000 -999.0000 -999.0000 -999.0000 -999.0000 -999.0000 
 904.1892   17.5000   17.2217    0.7007   20.0374    0.9364    0.9727   89.4506 -999.0000 -999.0000 -999.0000 -999.0000 -999.0000 -999.0000 
 904.3416   17.5000   17.2661    0.8200   19.7452    0.8534    0.9212   89.5804 -999.0000 -999.0000 -999.0000 -999.0000 -999.0000 -999.0000 
 904.4940   17.5000   17.3089    0.8667   22.0730    0.7413    0.8418   88.7348 -999.0000 -999.0000 -999.0000 -999.0000 -999.0000 -999.0000 
 904.6464   17.5000   17.3313    0.7373   24.3278    0.6349    0.7381   85.9991 -999.0000 -999.0000 -999.0000 -999.0000 -999.0000 -999.0000 
 904.7988   17.5000   17.3478    0.4964   23.0657    0.5707    0.6981   81.4602 -999.0000 -999.0000 -999.0000 -999.0000 -999.0000 -999.0000 
 904.9512   17.5000   17.3547    0.1959   21.2170    0.5499    0.6901   78.7672 -999.0000 -999.0000 -999.0000 -999.0000 -999.0000 -999.0000 
 905.1036   17.5000   17.3459   -0.0549   19.1332    0.5668    0.7270   74.1808 -999.0000 -999.0000 -999.0000 -999.0000 -999.0000 -999.0000 
 905.2560   17.5000   17.3395   -0.1464   17.0320    0.6100    0.7184   65.8538 -999.0000 -999.0000 -999.0000 -999.0000 -999.0000 -999.0000 
 905.4084   17.5000   17.3351   -0.1233   16.3972    0.6596    0.7612   62.9208 -999.0000 -999.0000 -999.0000 -999.0000 -999.0000 -999.0000 
 905.5608   17.5000   17.3332    0.0689   14.9156    0.7061    0.7870   70.3098 -999.0000 -999.0000 -999.0000 -999.0000 -999.0000 -999.0000 
 905.7132   17.5000   17.3602    0.3489   14.5672    0.7159    0.8043   78.4333 -999.0000 -999.0000 -999.0000 -999.0000 -999.0000 -999.0000 
 905.8656   17.5000   17.4321    0.6064   14.7232    0.6788    0.7744   77.7370 -999.0000 -999.0000 -999.0000 -999.0000 -999.0000 -999.0000 
 906.0180   17.5000   17.4851    0.8747   12.9728    0.5977    0.6753   75.4000 -999.0000 -999.0000 -999.0000 -999.0000 -999.0000 -999.0000 
 906.1704   17.5000   17.4918    1.0738   12.5243    0.4870    0.5708   78.5128 -999.0000 -999.0000 -999.0000 -999.0000 -999.0000 -999.0000 
 906.3228   17.5000   17.4926    1.0452   13.5116    0.3979    0.4909   85.6805 -999.0000 -999.0000 -999.0000 -999.0000 -999.0000 -999.0000 
 906.4752   17.5000   17.4955    0.8594   14.1385    0.3573    0.4840   90.5523 -999.0000 -999.0000 -999.0000 -999.0000 -999.0000 -999.0000 
 906.6276   17.5000   17.4984    0.5672   14.5684    0.3728    0.5243   90.4456 -999.0000 -999.0000 -999.0000 -999.0000 -999.0000 -999.0000 
 906.7800   17.5000   17.4984    0.1932   15.4667    0.4223    0.5827   90.8367 -999.0000 -999.0000 -999.0000 -999.0000 -999.0000 -999.0000 
 906.9324   17.5000   17.4958   -0.0360   14.1666    0.4779    0.6260   91.1427 -999.0000 -999.0000 -999.0000 -999.0000 -999.0000 -999.0000 
 907.0848   17.5000   17.4661   -0.0702   13.2233    0.5214    0.6479   84.9300 -999.0000 -999.0000 -999.0000 -999.0000 -999.0000 -999.0000 
 907.2372   17.5000   17.4312    0.1415   13.5576    0.5390    0.6803   74.6656 -999.0000 -999.0000 -999.0000 -999.0000 -999.0000 -999.0000 
 907.3896   17.5000   17.4237    0.4934   13.3837    0.5487    0.6916   68.1158 -999.0000 -999.0000 -999.0000 -999.0000 -999.0000 -999.0000 
 907.5420   17.5000   17.4294    0.8687   13.5587    0.5544    0.7013   70.8959 -999.0000 -999.0000 -999.0000 -999.0000 -999.0000 -999.0000 
 907.6944   17.5000   17.4138    1.1524   12.6345    0.5847    0.7053   78.7142 -999.0000 -999.0000 -999.0000 -999.0000 -999.0000 -999.0000 
 907.8468   17.5000   17.3980    1.2742   12.5027    0.6148    0.7016   82.3111 -999.0000 -999.0000 -999.0000 -999.0000 -999.0000 -999.0000 
 907.9992   17.5000   17.3903    1.1829   12.5297    0.6519    0.7538   80.5560 -999.0000 -999.0000 -999.0000 -999.0000 -999.0000 -999.0000 
 908.1516   17.5000   17.3790    0.8977   11.1934    0.6872    0.8278   79.8333 -999.0000 -999.0000 -999.0000 -999.0000 -999.0000 -999.0000 
 908.3040   17.5000   17.3691    0.5343   10.7734    0.7154    0.8865   82.8082 -999.0000 -999.0000 -999.0000 -999.0000 -999.0000 -999.0000 
 908.4564   17.5000   17.3620    0.2318   10.8747    0.7481    0.9566   84.5957 -999.0000 -999.0000 -999.0000 -999.0000 -999.0000 -999.0000 
 908.6088   17.5000   17.3379    0.0405   10.9814    0.7775    0.9753   83.2032 -999.0000 -999.0000 -999.0000 -999.0000 -999.0000 -999.0000 
 908.7612   17.5000   17.2834    0.1053   11.6322    0.8141    0.9893   79.9313 -999.0000 -999.0000 -999.0000 -999.0000 -999.0000 -999.0000 
 908.9136   17.5000   17.2394    0.3339   11.8908    0.8457    0.9542   78.9254 -999.0000 -999.0000 -999.0000 -999.0000 -999.0000 -999.0000 
 909.0660   17.5000   17.2327    0.6633   13.4822    0.8611    0.9175   80.4876 -999.0000 -999.0000 -999.0000 -999.0000 -999.0000 -999.0000 
 909.2184   17.5000   17.2341    0.9683   14.7447    0.8696    0.8853   78.8747 -999.0000 -999.0000 -999.0000 -999.0000 -999.0000 -999.0000 
 909.3708   17.5000   17.2341    1.1382   15.0549    0.8513    0.8446   75.0255 -999.0000 -999.0000 -999.0000 -999.0000 -999.0000 -999.0000 
 909.5232   17.5000   17.2341    1.1473   15.3100    0.8220    0.8292   76.4184 -999.0000 -999.0000 -999.0000 -999.0000 -999.0000 -999.0000 
 909.6756   17.5000   17.2504    0.9936   14.9806    0.7698    0.7588   83.1503 -999.0000 -999.0000 -999.0000 -999.0000 -999.0000 -999.0000 
 909.8280   17.5000   17.3121    0.7199   15.0350    0.7074    0.7185   86.5991 -999.0000 -999.0000 -999.0000 -999.0000 -999.0000 -999.0000 
 909.9804   17.5000   17.3653    0.4801   15.5502    0.6411    0.6387   87.8910 -999.0000 -999.0000 -999.0000 -999.0000 -999.0000 -999.0000 
 910.1328   17.5000   17.3749    0.3077   16.2332    0.5921    0.6103   91.5546 -999.0000 -999.0000 -999.0000 -999.0000 -999.0000 -999.0000 
 910.2852   17.5000   17.3667    0.2862   14.7038    0.5721    0.6272   94.2026 -999.0000 -999.0000 -999.0000 -999.0000 -999.0000 -999.0000 
 910.4376   17.5000   17.3523    0.4340   13.2537    0.5751    0.6532   96.9659 -999.0000 -999.0000 -999.0000 -999.0000 -999.0000 -999.0000 
 910.5900   17.5000   17.3404    0.7261   12.1201    0.5954    0.6884  100.6462 -999.0000 -999.0000 -999.0000 -999.0000 -999.0000 -999.0000 
 910.7424   17.5000   17.2877    1.0359   13.2780    0.6212    0.6891   99.9462 -999.0000 -999.0000 -999.0000 -999.0000 -999.0000 -999.0000 
 910.8948   17.5000   17.2020    1.2245   13.1245    0.6438    0.7169   90.2344 -999.0000 -999.0000 -999.0000 -999.0000 -999.0000 -999.0000 
 911.0472   17.5000   17.1666    1.3100   13.4083    0.6648    0.7442   79.4174 -999.0000 -999.0000 -999.0000 -999.0000 -999.0000 -999.0000 
 911.1996   17.5000   17.1680    1.3090   13.4565    0.6683    0.7805   77.1111 -999.0000 -999.0000 -999.0000 -999.0000 -999.0000 -999.0000 
 911.3520   17.5000   17.1607    1.0430   14.8798    0.6475    0.7724   88.7063 -999.0000 -999.0000 -999.0000 -999.0000 -999.0000 -999.0000 
 911.5044   17.5000   17.1519    0.7535   15.4850    0.5919    0.7566   94.6111 -999.0000 -999.0000 -999.0000 -999.0000 -999.0000 -999.0000 
 911.6568   17.5000   17.1470    0.5207   14.2963    0.5231    0.6832   93.3281 -999.0000 -999.0000 -999.0000 -999.0000 -999.0000 -999.0000 
 911.8092   17.5000   17.1438    0.3003   13.1686    0.4638    0.6372   92.9390 -999.0000 -999.0000 -999.0000 -999.0000 -999.0000 -999.0000 
 911.9616   17.5000   17.1416    0.1961   12.8878    0.4368    0.5852   97.1035 -999.0000 -999.0000 -999.0000 -999.0000 -999.0000 -999.0000 
