~VERSION INFORMATION
 VERS.                 2.0:   CWLS LOG ASCII STANDARD - VERSION 2.0
 WRAP.                  NO:   SINGLE LINE PER DEPTH STEP
 CREA.                 08/01/2018 13:33:07
#CREATED USING DSPetro VERSION 5000.10.1.3 BY H191660 ON 08/01/2018 13:33:07
~WELL INFORMATION
#MNEM.UNIT       DATA                          DESCRIPTION MNEMONIC
#---------      ---------------------------   --------------------------
 STRT    .M         0.0000                    : START DEPTH
 STOP    .M         3199.9428                 : STOP DEPTH
 STEP    .M         0.1524                    : STEP VALUE
 NULL    .      -999.0000                     : NULL VALUE
 DATE    .      08/01/2018                    : LAS file Creation Date
 WELL .      2400_Nebo-1                 : Well Name
 COMP .      Neftex Exploration Insights : Company
 FLD  .      NEBO                        : Field
 UWI  .      ZAUWL_005243                : Unique Well Identifier (UWI)
 LOC  .                                  : Location
 RWS  .      -999                        : Def_Rw
 WST  .      -999                        : Def_Rwt
 SRVC .                                  : Contractor
~CURVE INFORMATION
#MNEM              UNIT       API CODE   Curve Type Comments
#----------  --------------- ----------  ---------- -----------
 DEPTH      .M                         : Depth       
 BitSize    .in                        : bitSize     
 CAL_INCH   .inch                      : caliper     Caliper Log - A representation of the measured diameter of a borehole along its depth
 SP_MV1     .mv                        : SP          Spontaneous Potential - Records the electrical potential produced by the interaction of formation water, conductive drilling mud, and certain ion-sele
 GR_API     .API                       : gammaRay    Gamma Ray (API) - Measures the intensity of natural gamma-ray radiation emitted from formations containing radioactive elements, such as K, Th and U
 LLD_OHMM   .ohmm                      : deepRes     Laterlog Deep Resistivity - Measurement made several feet into the formation; generally considered a measurement of the undisturbed formation
 LLS_OHMM   .ohmm                      : shalRes     Laterlog Shallow Resistivity - one to two feet into the formation; generally considered to measure the formation
 DT_US_FT   .us/ft                     : density     Interval Transit Time: Compressional Wave - Evaluates the time it takes for a compressional wave to traverse a fixed distance
 RHOB_G_CC  .g/cc                      : density     Bulk Density - Measures the density of bulk material, including any void space or other materials contained in the subject volume
 DRHO_G_CC  .g/cc                      : drho        Density Correction - Investigates the correction to the Bulk Density log; used as an indication of hole condition to validate the Bulk Density measure
 NPHI_v_v   .PC                        : Neutron     Neutron Porosity - Measured with an neutron logging device calibrated to a given matrix (limestone, sandstone and dolomite)
 PEF_B_E    .b/e-                      : PEF         Photoelectric Factor - A log of photoelectric absorption properties. Often expressed in an approximation unit barns/electron (b/e-)
 LITH       .                          : LITH        Lithology Curve
 LITH_v2    .                          : LITH        Lithology Curve
~A  DEPTH  BitSize   CAL_INCH   SP_MV1    GR_API   LLD_OHMM  LLS_OHMM  DT_US_FT RHOB_G_C  DRHO_G_C  NPHI_v_v  PEF_B_E     LITH    LITH_v2  
# ...
2632.1004    8.5000    9.4906   -0.6607  140.2029    5.7764    5.4779   83.9376    2.5072   -0.0148   24.5259    3.2236   37.0000   37.0000 
2632.2528    8.5000    9.4756   -0.6730  140.6014    5.6685    5.3707   83.6058    2.4900   -0.0100   24.5157    3.2470   37.0000   37.0000 
2632.4052    8.5000    9.4681   -0.6830  139.7420    5.6505    5.2907   82.3525    2.4499   -0.0202   25.0123    3.3427   37.0000   37.0000 
2632.5576    8.5000    9.4769   -0.6979  139.0063    5.6302    5.2876   81.0247    2.4279   -0.0217   24.5657    3.3792   37.0000   37.0000 
2632.7100    8.5000    9.4930   -0.7187  139.9013    5.5942    5.2861   83.5973    2.4526   -0.0201   24.6335    3.3835   37.0000   37.0000 
2632.8624    8.5000    9.5163   -0.7293  140.5812    5.6008    5.2952   85.7788    2.4703   -0.0157   24.9692    3.3853   37.0000   37.0000 
2633.0148    8.5000    9.5395   -0.7259  142.9730    5.6304    5.3201   84.9403    2.4653    0.0006   24.9064    3.2043   37.0000   37.0000 
2633.1672    8.5000    9.5506   -0.7224  144.8168    5.6679    5.3320   82.7393    2.4570    0.0004   24.7993    3.2087   37.0000   37.0000 
2633.3196    8.5000    9.5479   -0.7084  152.0313    5.7254    5.3888   81.6655    2.4903    0.0107   24.7335    3.2101   37.0000   37.0000 
2633.4720    8.5000    9.5465   -0.7019  155.5090    5.8689    5.4797   81.2679    2.5076    0.0049   24.5787    3.1821   37.0000   37.0000 
2633.6244    8.5000    9.5476   -0.7068  153.0287    6.1002    5.6874   81.5606    2.4901   -0.0076   23.4370    3.1967   37.0000   37.0000 
2633.7768    8.5000    9.5529   -0.7055  143.6861    6.4042    5.9647   88.4945    2.4970   -0.0065   22.1845    3.5127   37.0000   37.0000 
2633.9292    8.5000    9.5868   -0.6929  138.4102    6.6294    6.1842  100.7061    2.5514    0.0068   21.3397    3.7023   37.0000   37.0000 
2634.0816    8.5000    9.6408   -0.6720  136.4468    6.7954    6.3296  104.5068    2.5807    0.0214   21.1913    3.7194   37.0000   37.0000 
2634.2340    8.5000    9.6870   -0.6476  137.4646    6.8288    6.2820  104.8322    2.5301    0.0096   21.8988    3.5078   37.0000   37.0000 
2634.3864    8.5000    9.6926   -0.6247  138.3412    6.7045    6.1374  106.8247    2.4834   -0.0057   23.0690    3.3310   37.0000   37.0000 
2634.5388    8.5000    9.6958   -0.6302  139.9188    6.4179    5.8622  102.0116    2.5163   -0.0266   23.8206    3.5351   37.0000   37.0000 
2634.6912    8.5000    9.6958   -0.6468  143.8235    6.1702    5.6806   86.5853    2.6182   -0.0131   23.9963    3.6574   37.0000   37.0000 
2634.8436    8.5000    9.7040   -0.6786  148.7942    5.9332    5.5147   79.6992    2.6142   -0.0097   24.2103    3.5676   37.0000   37.0000 
2634.9960    8.5000    9.7216   -0.7247  148.7083    5.8917    5.4777   79.0296    2.5362   -0.0197   24.4199    3.5373   37.0000   37.0000 
2635.1484    8.5000    9.7380   -0.7605  144.3438    5.8238    5.4652   80.7350    2.4987   -0.0008   24.7684    3.2530   37.0000   37.0000 
2635.3008    8.5000    9.7391   -0.7829  138.7039    5.7264    5.4044   81.4095    2.4608    0.0140   24.8839    3.3135   37.0000   37.0000 
2635.4532    8.5000    9.7391   -0.7975  138.4548    5.6557    5.3479   81.0358    2.4114    0.0026   24.5677    3.1981   37.0000   37.0000 
2635.6056    8.5000    9.7391   -0.7998  140.8408    5.5995    5.2808   82.1523    2.4343    0.0132   24.5532    3.2302   37.0000   37.0000 
2635.7580    8.5000    9.7391   -0.7871  145.3830    5.5799    5.2267   84.4070    2.3851   -0.0017   25.1192    3.4438   37.0000   37.0000 
2635.9104    8.5000    9.7400   -0.7708  144.1884    5.5953    5.2085   90.8038    2.3671   -0.0160   25.2887    3.6404   37.0000   37.0000 
2636.0628    8.5000    9.7430   -0.7555  143.7045    5.5861    5.2228   88.3250    2.4102   -0.0177   25.2517    3.8508   37.0000   37.0000 
2636.2152    8.5000    9.7482   -0.7325  142.9492    5.5279    5.2157   83.1273    2.4472   -0.0480   25.0203    3.9721   37.0000   37.0000 
2636.3676    8.5000    9.7535   -0.7112  143.5815    5.4675    5.1769   83.3358    2.4351   -0.0277   24.8880    3.6509   37.0000   37.0000 
2636.5200    8.5000    9.7599   -0.6985  147.9242    5.4190    5.1156   82.3060    2.4041    0.0028   25.0261    3.7005   37.0000   37.0000 
2636.6724    8.5000    9.7640   -0.6721  153.6964    5.3797    5.0477   82.2099    2.4348    0.0478   24.6810    3.7367   37.0000   37.0000 
2636.8248    8.5000    9.7658   -0.6435  156.4182    5.4526    5.0937   83.0779    2.4830    0.0542   24.3676    3.6287   37.0000   37.0000 
2636.9772    8.5000    9.7690   -0.6351  155.6715    5.6627    5.2467   83.0650    2.4598    0.0010   24.5675    3.4645   37.0000   37.0000 
2637.1296    8.5000    9.7723   -0.6356  151.8413    5.8994    5.4676   83.3340    2.4696   -0.0147   24.6494    3.2068   37.0000   37.0000 
2637.2820    8.5000    9.7700   -0.6504  143.4330    6.1465    5.6862   82.9614    2.5112   -0.0157   25.1669    3.5074   37.0000   37.0000 
2637.4344    8.5000    9.7592   -0.6763  142.2872    6.1997    5.7724   82.6086    2.5960   -0.0065   25.2727    3.6022   37.0000   37.0000 
2637.5868    8.5000    9.7449   -0.6942  142.2756    6.1983    5.8049   81.5798    2.7086    0.0268   25.2276    3.5826   23.0000   23.0000 
2637.7392    8.5000    9.7350   -0.7094  149.2848    5.9661    5.5914   79.7894    2.6233   -0.0029   24.8140    3.5102   37.0000   37.0000 
2637.8916    8.5000    9.7301   -0.7315  153.5454    5.7135    5.3638   77.3426    2.5318   -0.0031   24.5615    3.1295   37.0000   37.0000 
2638.0440    8.5000    9.7256   -0.7579  149.6752    5.5322    5.1708   79.9815    2.4881   -0.0101   24.5179    3.0370   37.0000   37.0000 
2638.1964    8.5000    9.7221   -0.7871  150.8063    5.4843    5.1242   84.6263    2.4924   -0.0067   24.5257    2.9753   37.0000   37.0000 
2638.3488    8.5000    9.7218   -0.8086  152.9231    5.5613    5.2097   85.6672    2.4930   -0.0068   24.6227    2.9683   37.0000   37.0000 
2638.5012    8.5000    9.7212   -0.8191  156.8291    5.5988    5.2462   84.1206    2.4939   -0.0079   24.7674    3.0251   37.0000   37.0000 
2638.6536    8.5000    9.7212   -0.8164  152.7226    5.5942    5.2461   83.0080    2.5024   -0.0064   24.7554    3.1726   37.0000   37.0000 
2638.8060    8.5000    9.7217   -0.8016  150.7049    5.5357    5.1943   83.5149    2.5408   -0.0161   25.3441    3.3821   37.0000   37.0000 
2638.9584    8.5000    9.7253   -0.8013  151.4835    5.5140    5.1684   84.0783    2.5961   -0.0042   25.6814    3.4482   23.0000   23.0000 
2639.1108    8.5000    9.7288   -0.7916  153.3583    5.5013    5.1431   82.9182    2.5776   -0.0067   26.0068    3.4723   37.0000   37.0000 
2639.2632    8.5000    9.7304   -0.7826  152.1325    5.5379    5.1728   82.0790    2.4968   -0.0095   26.6260    3.4818   37.0000   37.0000 
2639.4156    8.5000    9.7304   -0.7798  150.3975    5.5773    5.1942   82.6990    2.4809   -0.0058   26.9972    3.3353   37.0000   37.0000 
2639.5680    8.5000    9.7304   -0.7800  152.6865    5.6071    5.2444   82.1755    2.4842   -0.0078   26.7809    3.2515   37.0000   37.0000 
2639.7204    8.5000    9.7304   -0.7950  151.3917    5.6137    5.2739   81.6296    2.4858   -0.0090   26.8584    3.0848   37.0000   37.0000 
2639.8728    8.5000    9.7349   -0.8243  148.3021    5.5708    5.2656   81.7945    2.4650   -0.0161   27.0111    3.0522   37.0000   37.0000 
2640.0252    8.5000    9.7379   -0.8503  145.3130    5.4053    5.1071   81.0943    2.4432    0.0314   26.8625    3.3326   37.0000   37.0000 
2640.1776    8.5000    9.7367   -0.8671  146.7607    5.2960    4.9803   81.1485    2.4756    0.1387   27.0329    3.7879   37.0000   11.0000 
2640.3300    8.5000    9.7321   -0.8813  149.7814    5.2001    4.8683   81.8983    2.4989    0.1480   27.0926    3.9308   37.0000   11.0000 
2640.4824    8.5000    9.7304   -0.9018  152.8674    5.1934    4.8713   82.7633    2.5869    0.1689   26.9087    3.9067   23.0000   11.0000 
2640.6348    8.5000    9.7304   -0.9319  154.0854    5.2212    4.8874   84.4492    2.5410    0.0762   26.6327    3.6153   37.0000   37.0000 
