~VERSION INFORMATION
 VERS.                 2.0:   CWLS LOG ASCII STANDARD - VERSION 2.0
 WRAP.                  NO:   SINGLE LINE PER DEPTH STEP
 CREA.                 08/01/2018 13:33:07
#CREATED USING DSPetro VERSION 5000.10.1.3 BY H191660 ON 08/01/2018 13:33:07
~WELL INFORMATION
#MNEM.UNIT       DATA                          DESCRIPTION MNEMONIC
#---------      ---------------------------   --------------------------
 STRT    .M         0.0000                    : START DEPTH
 STOP    .M         3199.9428                 : STOP DEPTH
 STEP    .M         0.1524                    : STEP VALUE
 NULL    .      -999.0000                     : NULL VALUE
 DATE    .      08/01/2018                    : LAS file Creation Date
 WELL .      2400_Nebo-1                 : Well Name
 COMP .      Neftex Exploration Insights : Company
 FLD  .      NEBO                        : Field
 UWI  .      ZAUWL_005243                : Unique Well Identifier (UWI)
 LOC  .                                  : Location
 RWS  .      -999                        : Def_Rw
 WST  .      -999                        : Def_Rwt
 SRVC .                                  : Contractor
~CURVE INFORMATION
#MNEM              UNIT       API CODE   Curve Type Comments
#----------  --------------- ----------  ---------- -----------
 DEPTH      .M                         : Depth       
 BitSize    .in                        : bitSize     
 CAL_INCH   .inch                      : caliper     Caliper Log - A representation of the measured diameter of a borehole along its depth
 SP_MV1     .mv                        : SP          Spontaneous Potential - Records the electrical potential produced by the interaction of formation water, conductive drilling mud, and certain ion-sele
 GR_API     .API                       : gammaRay    Gamma Ray (API) - Measures the intensity of natural gamma-ray radiation emitted from formations containing radioactive elements, such as K, Th and U
 LLD_OHMM   .ohmm                      : deepRes     Laterlog Deep Resistivity - Measurement made several feet into the formation; generally considered a measurement of the undisturbed formation
 LLS_OHMM   .ohmm                      : shalRes     Laterlog Shallow Resistivity - one to two feet into the formation; generally considered to measure the formation
 DT_US_FT   .us/ft                     : density     Interval Transit Time: Compressional Wave - Evaluates the time it takes for a compressional wave to traverse a fixed distance
 RHOB_G_CC  .g/cc                      : density     Bulk Density - Measures the density of bulk material, including any void space or other materials contained in the subject volume
 DRHO_G_CC  .g/cc                      : drho        Density Correction - Investigates the correction to the Bulk Density log; used as an indication of hole condition to validate the Bulk Density measure
 NPHI_v_v   .PC                        : Neutron     Neutron Porosity - Measured with an neutron logging device calibrated to a given matrix (limestone, sandstone and dolomite)
 PEF_B_E    .b/e-                      : PEF         Photoelectric Factor - A log of photoelectric absorption properties. Often expressed in an approximation unit barns/electron (b/e-)
 LITH       .                          : LITH        Lithology Curve
 LITH_v2    .                          : LITH        Lithology Curve
~A  DEPTH  BitSize   CAL_INCH   SP_MV1    GR_API   LLD_OHMM  LLS_OHMM  DT_US_FT RHOB_G_C  DRHO_G_C  NPHI_v_v  PEF_B_E     LITH    LITH_v2  
# ...
2736.3420    8.5000    9.1929    2.8346  166.6773    3.3862    3.5159   83.2322    2.4564    0.0117   22.0390    2.9312   37.0000   37.0000 
2736.4944    8.5000    9.2202    2.9590  163.5958    3.6063    3.6861   84.3475    2.4388    0.0028   22.8472    3.0012   37.0000   37.0000 
2736.6468    8.5000    9.2493    2.7420  161.9325    3.7156    3.7948   83.8869    2.4175   -0.0037   22.7322    3.0179   37.0000   37.0000 
2736.7992    8.5000    9.2781    2.5303  161.8364    3.5829    3.6965   81.8849    2.4064   -0.0085   22.3266    3.0188   37.0000   37.0000 
2736.9516    8.5000    9.3000    2.1763  164.6738    3.4562    3.5718   81.0518    2.4119   -0.0057   21.7886    2.8370   37.0000   37.0000 
2737.1040    8.5000    9.3109    1.5568  168.8191    3.3525    3.4676   80.8854    2.4064   -0.0111   21.3156    2.8122   37.0000   37.0000 
2737.2564    8.5000    9.3202    1.2480  164.6312    3.3227    3.4067   80.1772    2.4104   -0.0069   20.9097    2.7611   37.0000   37.0000 
2737.4088    8.5000    9.3211    1.1041  160.1514    3.5008    3.5878   80.4532    2.4126   -0.0042   21.0115    2.7995   37.0000   37.0000 
2737.5612    8.5000    9.3179    0.9705  154.3267    3.6912    3.8096   81.7528    2.4158   -0.0038   21.3659    2.8046   37.0000   37.0000 
2737.7136    8.5000    9.3154    1.0165  149.1891    3.8306    3.9499   81.5745    2.4238   -0.0041   21.8730    2.6960   37.0000   37.0000 
2737.8660    8.5000    9.3154    0.9488  145.8558    3.9037    3.9849   80.8580    2.4067   -0.0055   22.4022    2.6423   37.0000   37.0000 
2738.0184    8.5000    9.3154    0.7466  142.7019    3.8751    3.8887   82.9317    2.3795   -0.0113   22.8743    2.5780   37.0000   37.0000 
2738.1708    8.5000    9.3154    0.6217  138.8722    3.8718    3.8856   85.6595    2.3676   -0.0127   23.1084    2.6199   37.0000   37.0000 
2738.3232    8.5000    9.3123    0.3816  135.6337    3.8140    3.8784   83.5417    2.3827   -0.0145   22.7292    2.6180   37.0000   37.0000 
2738.4756    8.5000    9.3113    0.1607  129.5884    3.6926    3.7743   77.8559    2.4119   -0.0053   22.8545    2.6814   37.0000   37.0000 
2738.6280    8.5000    9.3133    0.1850  131.5688    3.5890    3.6867   75.0134    2.4302    0.0079   22.8413    2.7019   37.0000   37.0000 
2738.7804    8.5000    9.3159    0.1847  149.6208    3.5369    3.5893   76.8455    2.4217    0.0108   22.8239    2.7153   37.0000   37.0000 
2738.9328    8.5000    9.3128    0.1795  167.9827    3.7224    3.8190   81.5622    2.4296   -0.0001   22.8450    2.7499   37.0000   37.0000 
2739.0852    8.5000    9.3031    0.1515  182.7650    3.9969    4.1800   83.2160    2.4654   -0.0043   22.9220    2.6979   37.0000   37.0000 
2739.2376    8.5000    9.2637   -0.0925  181.6789    4.2035    4.3829   80.9605    2.4740   -0.0106   23.0426    2.7111   37.0000   37.0000 
2739.3900    8.5000    9.2161   -0.3508  159.8152    4.2134    4.4498   79.3144    2.4551   -0.0119   23.2780    2.6808   37.0000   37.0000 
2739.5424    8.5000    9.1875   -0.3551  147.8198    4.0249    4.2308   81.1141    2.4844   -0.0186   23.5164    2.9671   37.0000   37.0000 
2739.6948    8.5000    9.1809   -0.0129  129.2430    3.8647    4.1104   82.9893    2.6086    0.0143   23.6771    2.9801   37.0000   37.0000 
2739.8472    8.5000    9.1776    0.4558  132.9563    3.8124    4.0752   79.2488    2.7970    0.0803   23.6407    2.9069   23.0000   23.0000 
2739.9996    8.5000    9.1752    0.9489  140.0682    3.8435    4.1028   74.0854    2.7282    0.0439   22.8560    2.9994   37.0000   37.0000 
2740.1520    8.5000    9.1616    1.6265  157.4899    3.9497    4.1880   72.5914    2.5752    0.0083   23.0341    2.7376   37.0000   37.0000 
2740.3044    8.5000    9.1465    2.1052  163.3272    4.1326    4.3058   73.7425    2.5074   -0.0271   23.2669    2.8773   37.0000   37.0000 
2740.4568    8.5000    9.1367    2.4267  165.6123    4.4571    4.7622   75.8035    2.5091   -0.0518   23.4902    3.1363   37.0000   37.0000 
2740.6092    8.5000    9.1273    2.5836  154.3656    4.8548    5.1869   78.3024    2.5452   -0.0719   24.0710    3.4404   37.0000   37.0000 
2740.7616    8.5000    9.1131    2.5691  155.5265    5.2802    5.6574   79.2418    2.6319   -0.0651   24.5509    3.8912   37.0000   37.0000 
2740.9140    8.5000    9.0949    2.6958  164.0835    5.4938    5.8823   74.0517    2.6014   -0.0465   24.4646    3.6059   37.0000   37.0000 
2741.0664    8.5000    9.0798    2.9565  168.5481    5.5812    5.9694   68.5213    2.4937   -0.0444   24.2844    3.2929   37.0000   37.0000 
2741.2188    8.5000    9.0520    3.0423  170.4117    5.3912    5.8480   71.2311    2.4847   -0.0122   23.9428    2.7820   37.0000   37.0000 
2741.3712    8.5000    9.0098    2.8330  165.2046    4.9838    5.4289   76.4676    2.4374   -0.0160   23.3919    2.6719   37.0000   37.0000 
2741.5236    8.5000    8.9685    2.3396  155.3015    4.3040    4.8517   78.4720    2.3642   -0.0218   22.8725    2.6727   37.0000   37.0000 
2741.6760    8.5000    8.9535    1.6551  144.0545    3.6014    4.0197   78.4494    2.3155   -0.0277   22.4204    2.8975   37.0000   37.0000 
2741.8284    8.5000    8.9441    1.3803  134.7735    3.3029    3.6088   78.2877    2.3264   -0.0275   21.9803    3.2235   37.0000   37.0000 
2741.9808    8.5000    8.9424    1.3609  127.9683    3.5276    3.8914   79.8554    2.3736   -0.0344   21.6510    3.6701   37.0000   37.0000 
2742.1332    8.5000    8.9425    1.3664  123.4386    5.0529    6.7040   81.6147    2.4814   -0.0282   20.4508    3.8787   37.0000   37.0000 
2742.2856    8.5000    8.9430    1.6527  114.5491    8.6200   14.4285   79.1367    2.6290   -0.0266   18.3353    4.3103   37.0000   37.0000 
2742.4380    8.5000    8.9436    1.8406  111.0751   14.2955   21.4970   71.8928    2.7837   -0.0316   16.5564    4.9234   23.0000   23.0000 
2742.5904    8.5000    8.9439    2.0126  109.0162   14.4491   21.5940   63.4978    2.9009   -0.0396   15.0665    5.7126   37.0000   37.0000 
2742.7428    8.5000    8.9474    2.2535  119.4979    9.6893   15.9808   59.5978    2.9139   -0.0496   13.1989    6.3310   37.0000   37.0000 
2742.8952    8.5000    8.9510    2.5520  140.5517    6.3777    7.8474   60.4286    2.7459   -0.0496   14.0592    5.1276   23.0000   23.0000 
2743.0476    8.5000    8.9551    2.7763  166.2412    4.9507    5.1853   61.0666    2.5555   -0.0433   15.7447    4.0160   37.0000   37.0000 
2743.2000    8.5000    8.9586    2.9387  180.1348    4.4534    4.7506   63.7018    2.4658   -0.0216   17.7329    3.2118   37.0000   37.0000 
2743.3524    8.5000    8.9608    2.9489  179.1901    4.3702    4.7320   71.0109    2.5373    0.0260   20.4327    2.8508   37.0000   37.0000 
2743.5048    8.5000    8.9641    2.7228  174.3627    4.2559    4.6706   76.4487    2.5370    0.0241   23.4131    2.8798   37.0000   37.0000 
2743.6572    8.5000    8.9706    2.4254  164.6685    4.1641    4.4709   76.8825    2.5150    0.0165   22.9481    2.8258   37.0000   37.0000 
2743.8096    8.5000    8.9749    2.1595  156.8605    4.0125    4.2847   77.8351    2.4806    0.0003   22.1750    2.8482   37.0000   37.0000 
2743.9620    8.5000    8.9650    2.0995  146.4901    3.8780    4.1482   80.3709    2.5025   -0.0121   21.4171    3.0685   37.0000   37.0000 
2744.1144    8.5000    8.9509    2.1179  136.9216    3.9557    4.2326   81.1649    2.5625   -0.0502   20.5878    3.7620   37.0000   37.0000 
2744.2668    8.5000    8.9459    2.3669  132.7126    4.2669    4.5331   82.6034    2.5820   -0.1016   20.9275    5.0484   37.0000   11.0000 
2744.4192    8.5000    8.9459    2.9523  133.6432    4.6882    5.0366   84.5827    2.5582   -0.1648   21.5093    6.6366   37.0000   11.0000 
2744.5716    8.5000    8.9374    3.6519  132.4010    5.2081    5.4748   83.8582    2.5629   -0.1807   21.8240    7.5339   37.0000   11.0000 
2744.7240    8.5000    8.9236    4.1448  132.0677    5.4432    5.6677   80.4467    2.5799   -0.1771   21.9428    7.5342   37.0000   11.0000 
2744.8764    8.5000    8.9017    4.6371  127.4649    5.4494    5.6362   76.1871    2.5816   -0.1775   21.8997    7.3508   37.0000   11.0000 
