~VERSION INFORMATION
 VERS.                 2.0:   CWLS LOG ASCII STANDARD - VERSION 2.0
 WRAP.                  NO:   SINGLE LINE PER DEPTH STEP
 CREA.                 08/01/2018 13:33:07
#CREATED USING DSPetro VERSION 5000.10.1.3 BY H191660 ON 08/01/2018 13:33:07
~WELL INFORMATION
#MNEM.UNIT       DATA                          DESCRIPTION MNEMONIC
#---------      ---------------------------   --------------------------
 STRT    .M         0.0000                    : START DEPTH
 STOP    .M         3199.9428                 : STOP DEPTH
 STEP    .M         0.1524                    : STEP VALUE
 NULL    .      -999.0000                     : NULL VALUE
 DATE    .      08/01/2018                    : LAS file Creation Date
 WELL .      2400_Nebo-1                 : Well Name
 COMP .      Neftex Exploration Insights : Company
 FLD  .      NEBO                        : Field
 UWI  .      ZAUWL_005243                : Unique Well Identifier (UWI)
 LOC  .                                  : Location
 RWS  .      -999                        : Def_Rw
 WST  .      -999                        : Def_Rwt
 SRVC .                                  : Contractor
~CURVE INFORMATION
#MNEM              UNIT       API CODE   Curve Type Comments
#----------  --------------- ----------  ---------- -----------
 DEPTH      .M                         : Depth       
 BitSize    .in                        : bitSize     
 CAL_INCH   .inch                      : caliper     Caliper Log - A representation of the measured diameter of a borehole along its depth
 SP_MV1     .mv                        : SP          Spontaneous Potential - Records the electrical potential produced by the interaction of formation water, conductive drilling mud, and certain ion-sele
 GR_API     .API                       : gammaRay    Gamma Ray (API) - Measures the intensity of natural gamma-ray radiation emitted from formations containing radioactive elements, such as K, Th and U
 LLD_OHMM   .ohmm                      : deepRes     Laterlog Deep Resistivity - Measurement made several feet into the formation; generally considered a measurement of the undisturbed formation
 LLS_OHMM   .ohmm                      : shalRes     Laterlog Shallow Resistivity - one to two feet into the formation; generally considered to measure the formation
 DT_US_FT   .us/ft                     : density     Interval Transit Time: Compressional Wave - Evaluates the time it takes for a compressional wave to traverse a fixed distance
 RHOB_G_CC  .g/cc                      : density     Bulk Density - Measures the density of bulk material, including any void space or other materials contained in the subject volume
 DRHO_G_CC  .g/cc                      : drho        Density Correction - Investigates the correction to the Bulk Density log; used as an indication of hole condition to validate the Bulk Density measure
 NPHI_v_v   .PC                        : Neutron     Neutron Porosity - Measured with an neutron logging device calibrated to a given matrix (limestone, sandstone and dolomite)
 PEF_B_E    .b/e-                      : PEF         Photoelectric Factor - A log of photoelectric absorption properties. Often expressed in an approximation unit barns/electron (b/e-)
 LITH       .                          : LITH        Lithology Curve
 LITH_v2    .                          : LITH        Lithology Curve
~A  DEPTH  BitSize   CAL_INCH   SP_MV1    GR_API   LLD_OHMM  LLS_OHMM  DT_US_FT RHOB_G_C  DRHO_G_C  NPHI_v_v  PEF_B_E     LITH    LITH_v2  
# ...
1207.4652   17.5000   17.4489   -0.5285   13.3074    0.4373    0.6879   95.9614 -999.0000 -999.0000 -999.0000 -999.0000 -999.0000 -999.0000 
1207.6176   17.5000   17.3711   -0.6612   12.7620    0.4578    0.7196   95.0649 -999.0000 -999.0000 -999.0000 -999.0000 -999.0000 -999.0000 
1207.7700   17.5000   17.2758   -0.5400   13.1343    0.4886    0.7367   94.1664 -999.0000 -999.0000 -999.0000 -999.0000 -999.0000 -999.0000 
1207.9224   17.5000   17.1530   -0.2062   14.1381    0.5166    0.7445   94.0222 -999.0000 -999.0000 -999.0000 -999.0000 -999.0000 -999.0000 
1208.0748   17.5000   17.0836    0.1892   15.1475    0.5415    0.7393   94.3196 -999.0000 -999.0000 -999.0000 -999.0000 -999.0000 -999.0000 
1208.2272   17.5000   17.0486    0.4933   16.1940    0.5611    0.7378   94.5227 -999.0000 -999.0000 -999.0000 -999.0000 -999.0000 -999.0000 
1208.3796   17.5000   17.0156    0.5636   16.0190    0.5760    0.8098   94.2724 -999.0000 -999.0000 -999.0000 -999.0000 -999.0000 -999.0000 
1208.5320   17.5000   17.0029    0.3174   16.0210    0.5965    0.8684   93.5111 -999.0000 -999.0000 -999.0000 -999.0000 -999.0000 -999.0000 
1208.6844   17.5000   17.0048   -0.0100   14.7072    0.6154    0.8881   93.7309 -999.0000 -999.0000 -999.0000 -999.0000 -999.0000 -999.0000 
1208.8368   17.5000   17.0058   -0.3353   14.5867    0.6324    0.8488   94.6986 -999.0000 -999.0000 -999.0000 -999.0000 -999.0000 -999.0000 
1208.9892   17.5000   17.0058   -0.5241   15.6818    0.6361    0.7933   95.7052 -999.0000 -999.0000 -999.0000 -999.0000 -999.0000 -999.0000 
1209.1416   17.5000   17.0058   -0.5374   17.5321    0.6292    0.7696   96.4321 -999.0000 -999.0000 -999.0000 -999.0000 -999.0000 -999.0000 
1209.2940   17.5000   17.0078   -0.4742   18.4525    0.6190    0.8014   96.5889 -999.0000 -999.0000 -999.0000 -999.0000 -999.0000 -999.0000 
1209.4464   17.5000   17.0114   -0.3451   16.4847    0.6051    0.8464   95.0877 -999.0000 -999.0000 -999.0000 -999.0000 -999.0000 -999.0000 
1209.5988   17.5000   17.0143   -0.2220   15.5163    0.6003    0.8509   93.6870 -999.0000 -999.0000 -999.0000 -999.0000 -999.0000 -999.0000 
1209.7512   17.5000   17.0173   -0.1591   14.5409    0.5979    0.8608   93.6111 -999.0000 -999.0000 -999.0000 -999.0000 -999.0000 -999.0000 
1209.9036   17.5000   17.0187   -0.1387   14.6715    0.6078    0.8401   93.2284 -999.0000 -999.0000 -999.0000 -999.0000 -999.0000 -999.0000 
1210.0560   17.5000   17.0188   -0.2080   14.9435    0.6087    0.8227   91.8766 -999.0000 -999.0000 -999.0000 -999.0000 -999.0000 -999.0000 
1210.2084   17.5000   17.0274   -0.4000   14.9763    0.6018    0.7738   91.8556 -999.0000 -999.0000 -999.0000 -999.0000 -999.0000 -999.0000 
1210.3608   17.5000   17.0440   -0.6065   14.9405    0.5751    0.7491   95.2576 -999.0000 -999.0000 -999.0000 -999.0000 -999.0000 -999.0000 
1210.5132   17.5000   17.0517   -0.7435   15.2356    0.5387    0.7197   96.9127 -999.0000 -999.0000 -999.0000 -999.0000 -999.0000 -999.0000 
1210.6656   17.5000   17.0501   -0.8090   16.5594    0.5040    0.7203   98.2654 -999.0000 -999.0000 -999.0000 -999.0000 -999.0000 -999.0000 
1210.8180   17.5000   17.0488   -0.7007   17.3087    0.4829    0.7030   99.7385 -999.0000 -999.0000 -999.0000 -999.0000 -999.0000 -999.0000 
1210.9704   17.5000   17.0488   -0.5059   15.8000    0.4718    0.7039   99.8799 -999.0000 -999.0000 -999.0000 -999.0000 -999.0000 -999.0000 
1211.1228   17.5000   17.0499   -0.3249   14.1226    0.4689    0.7028   98.9529 -999.0000 -999.0000 -999.0000 -999.0000 -999.0000 -999.0000 
1211.2752   17.5000   17.0521   -0.2140   13.3901    0.4604    0.7177   98.5556 -999.0000 -999.0000 -999.0000 -999.0000 -999.0000 -999.0000 
1211.4276   17.5000   17.0532   -0.2168   14.3934    0.4606    0.7121   99.2544 -999.0000 -999.0000 -999.0000 -999.0000 -999.0000 -999.0000 
1211.5800   17.5000   17.0532   -0.4042   14.6829    0.4693    0.7026   99.8778 -999.0000 -999.0000 -999.0000 -999.0000 -999.0000 -999.0000 
1211.7324   17.5000   17.0543   -0.6744   14.1136    0.4868    0.6910   98.8836 -999.0000 -999.0000 -999.0000 -999.0000 -999.0000 -999.0000 
1211.8848   17.5000   17.0565   -0.8813   14.8692    0.5136    0.7180   96.7027 -999.0000 -999.0000 -999.0000 -999.0000 -999.0000 -999.0000 
1212.0372   17.5000   17.0575   -1.0419   15.5887    0.5461    0.7464   95.8111 -999.0000 -999.0000 -999.0000 -999.0000 -999.0000 -999.0000 
1212.1896   17.5000   17.0595   -1.0819   16.0288    0.5787    0.7720   96.8700 -999.0000 -999.0000 -999.0000 -999.0000 -999.0000 -999.0000 
1212.3420   17.5000   17.0603   -0.8577   14.8896    0.6076    0.8006   97.0981 -999.0000 -999.0000 -999.0000 -999.0000 -999.0000 -999.0000 
1212.4944   17.5000   17.0616   -0.6212   14.1944    0.6277    0.8381   95.1988 -999.0000 -999.0000 -999.0000 -999.0000 -999.0000 -999.0000 
1212.6468   17.5000   17.0688   -0.3682   14.0087    0.6438    0.8271   93.5053 -999.0000 -999.0000 -999.0000 -999.0000 -999.0000 -999.0000 
1212.7992   17.5000   17.0776   -0.2581   14.2730    0.6460    0.8110   93.0333 -999.0000 -999.0000 -999.0000 -999.0000 -999.0000 -999.0000 
1212.9516   17.5000   17.0863   -0.2571   15.1164    0.6455    0.8120   92.4873 -999.0000 -999.0000 -999.0000 -999.0000 -999.0000 -999.0000 
1213.1040   17.5000   17.0957   -0.4468   14.3780    0.6377    0.7683   91.3279 -999.0000 -999.0000 -999.0000 -999.0000 -999.0000 -999.0000 
1213.2564   17.5000   17.1010   -0.7143   15.0103    0.6203    0.7796   90.6000 -999.0000 -999.0000 -999.0000 -999.0000 -999.0000 -999.0000 
1213.4088   17.5000   17.1145   -1.0269   14.7638    0.6056    0.7954   91.6551 -999.0000 -999.0000 -999.0000 -999.0000 -999.0000 -999.0000 
1213.5612   17.5000   17.1476   -1.2793   15.2506    0.5858    0.7775   93.2958 -999.0000 -999.0000 -999.0000 -999.0000 -999.0000 -999.0000 
1213.7136   17.5000   17.2011   -1.3489   13.8211    0.5615    0.7947   93.9200 -999.0000 -999.0000 -999.0000 -999.0000 -999.0000 -999.0000 
1213.8660   17.5000   17.2351   -1.2252   14.4866    0.5381    0.7933   94.4402 -999.0000 -999.0000 -999.0000 -999.0000 -999.0000 -999.0000 
1214.0184   17.5000   17.2399   -1.1020   14.2992    0.5250    0.7982   95.7963 -999.0000 -999.0000 -999.0000 -999.0000 -999.0000 -999.0000 
1214.1708   17.5000   17.2384   -0.8774   15.0487    0.5232    0.8002   96.7071 -999.0000 -999.0000 -999.0000 -999.0000 -999.0000 -999.0000 
1214.3232   17.5000   17.2395   -0.6979   14.5759    0.5241    0.8003   96.5039 -999.0000 -999.0000 -999.0000 -999.0000 -999.0000 -999.0000 
1214.4756   17.5000   17.2417   -0.6181   14.6858    0.5222    0.7776   96.8888 -999.0000 -999.0000 -999.0000 -999.0000 -999.0000 -999.0000 
1214.6280   17.5000   17.2439   -0.6130   15.0775    0.5108    0.7613   98.6421 -999.0000 -999.0000 -999.0000 -999.0000 -999.0000 -999.0000 
1214.7804   17.5000   17.2460   -0.6967   15.1852    0.5005    0.7382   99.9885 -999.0000 -999.0000 -999.0000 -999.0000 -999.0000 -999.0000 
1214.9328   17.5000   17.2458   -0.8361   15.4747    0.4908    0.7569   99.8331 -999.0000 -999.0000 -999.0000 -999.0000 -999.0000 -999.0000 
1215.0852   17.5000   17.2343   -0.8968   16.3307    0.5111    0.7475   98.6234 -999.0000 -999.0000 -999.0000 -999.0000 -999.0000 -999.0000 
1215.2376   17.5000   17.2168   -0.8186   15.8740    0.5560    0.8088   96.4889 -999.0000 -999.0000 -999.0000 -999.0000 -999.0000 -999.0000 
1215.3900   17.5000   17.2091   -0.6629   16.6666    0.6297    0.8474   93.2856 -999.0000 -999.0000 -999.0000 -999.0000 -999.0000 -999.0000 
1215.5424   17.5000   17.2096   -0.4512   16.0626    0.7073    0.9041   90.4799 -999.0000 -999.0000 -999.0000 -999.0000 -999.0000 -999.0000 
1215.6948   17.5000   17.2444   -0.3238   15.3946    0.7693    0.9541   89.3570 -999.0000 -999.0000 -999.0000 -999.0000 -999.0000 -999.0000 
1215.8472   17.5000   17.3319   -0.3217   14.9264    0.7992    0.9578   89.3198 -999.0000 -999.0000 -999.0000 -999.0000 -999.0000 -999.0000 
1215.9996   17.5000   17.4030   -0.4393   14.1936    0.7880    0.9567   90.1759 -999.0000 -999.0000 -999.0000 -999.0000 -999.0000 -999.0000 
