~VERSION INFORMATION
 VERS.                 2.0:   CWLS LOG ASCII STANDARD - VERSION 2.0
 WRAP.                  NO:   SINGLE LINE PER DEPTH STEP
 CREA.                 08/01/2018 13:33:07
#CREATED USING DSPetro VERSION 5000.10.1.3 BY H191660 ON 08/01/2018 13:33:07
~WELL INFORMATION
#MNEM.UNIT       DATA                          DESCRIPTION MNEMONIC
#---------      ---------------------------   --------------------------
 STRT    .M         0.0000                    : START DEPTH
 STOP    .M         3199.9428                 : STOP DEPTH
 STEP    .M         0.1524                    : STEP VALUE
 NULL    .      -999.0000                     : NULL VALUE
 DATE    .      08/01/2018                    : LAS file Creation Date
 WELL .      2400_Nebo-1                 : Well Name
 COMP .      Neftex Exploration Insights : Company
 FLD  .      NEBO                        : Field
 UWI  .      ZAUWL_005243                : Unique Well Identifier (UWI)
 LOC  .                                  : Location
 RWS  .      -999                        : Def_Rw
 WST  .      -999                        : Def_Rwt
 SRVC .                                  : Contractor
~CURVE INFORMATION
#MNEM              UNIT       API CODE   Curve Type Comments
#----------  --------------- ----------  ---------- -----------
 DEPTH      .M                         : Depth       
 BitSize    .in                        : bitSize     
 CAL_INCH   .inch                      : caliper     Caliper Log - A representation of the measured diameter of a borehole along its depth
 SP_MV1     .mv                        : SP          Spontaneous Potential - Records the electrical potential produced by the interaction of formation water, conductive drilling mud, and certain ion-sele
 GR_API     .API                       : gammaRay    Gamma Ray (API) - Measures the intensity of natural gamma-ray radiation emitted from formations containing radioactive elements, such as K, Th and U
 LLD_OHMM   .ohmm                      : deepRes     Laterlog Deep Resistivity - Measurement made several feet into the formation; generally considered a measurement of the undisturbed formation
 LLS_OHMM   .ohmm                      : shalRes     Laterlog Shallow Resistivity - one to two feet into the formation; generally considered to measure the formation
 DT_US_FT   .us/ft                     : density     Interval Transit Time: Compressional Wave - Evaluates the time it takes for a compressional wave to traverse a fixed distance
 RHOB_G_CC  .g/cc                      : density     Bulk Density - Measures the density of bulk material, including any void space or other materials contained in the subject volume
 DRHO_G_CC  .g/cc                      : drho        Density Correction - Investigates the correction to the Bulk Density log; used as an indication of hole condition to validate the Bulk Density measure
 NPHI_v_v   .PC                        : Neutron     Neutron Porosity - Measured with an neutron logging device calibrated to a given matrix (limestone, sandstone and dolomite)
 PEF_B_E    .b/e-                      : PEF         Photoelectric Factor - A log of photoelectric absorption properties. Often expressed in an approximation unit barns/electron (b/e-)
 LITH       .                          : LITH        Lithology Curve
 LITH_v2    .                          : LITH        Lithology Curve
~A  DEPTH  BitSize   CAL_INCH   SP_MV1    GR_API   LLD_OHMM  LLS_OHMM  DT_US_FT RHOB_G_C  DRHO_G_C  NPHI_v_v  PEF_B_E     LITH    LITH_v2  
# ...
1502.8164   17.5000   17.8606    1.8407   22.6682    1.0952    1.1472   86.7778 -999.0000 -999.0000 -999.0000 -999.0000 -999.0000 -999.0000 
1502.9688   17.5000   17.8601    2.2311   24.8734    1.0791    1.1021   90.3080 -999.0000 -999.0000 -999.0000 -999.0000 -999.0000 -999.0000 
1503.1212   17.5000   17.8644    2.5306   25.9477    1.0527    1.1044   93.8461 -999.0000 -999.0000 -999.0000 -999.0000 -999.0000 -999.0000 
1503.2736   17.5000   17.8660    2.6266   26.0846    1.0175    1.0629   94.8222 -999.0000 -999.0000 -999.0000 -999.0000 -999.0000 -999.0000 
1503.4260   17.5000   17.8639    2.4444   26.4909    1.0099    1.0692   92.8070 -999.0000 -999.0000 -999.0000 -999.0000 -999.0000 -999.0000 
1503.5784   17.5000   17.8646    2.0201   24.7801    1.0165    1.0634   91.2600 -999.0000 -999.0000 -999.0000 -999.0000 -999.0000 -999.0000 
1503.7308   17.5000   17.8668    1.4676   23.2470    1.0603    1.0848   88.6689 -999.0000 -999.0000 -999.0000 -999.0000 -999.0000 -999.0000 
1503.8832   17.5000   17.8690    0.9026   24.2321    1.1074    1.1290   84.7528 -999.0000 -999.0000 -999.0000 -999.0000 -999.0000 -999.0000 
1504.0356   17.5000   17.8734    0.4801   24.2029    1.1634    1.1844   83.9667 -999.0000 -999.0000 -999.0000 -999.0000 -999.0000 -999.0000 
1504.1880   17.5000   17.8776    0.3674   24.4691    1.2070    1.2355   86.9387 -999.0000 -999.0000 -999.0000 -999.0000 -999.0000 -999.0000 
1504.3404   17.5000   17.8798    0.5343   25.0632    1.2072    1.2382   87.1000 -999.0000 -999.0000 -999.0000 -999.0000 -999.0000 -999.0000 
1504.4928   17.5000   17.8800    0.8456   24.0199    1.1099    1.1595   85.4222 -999.0000 -999.0000 -999.0000 -999.0000 -999.0000 -999.0000 
1504.6452   17.5000   17.8737    1.0662   24.0892    0.9947    1.0927   89.2919 -999.0000 -999.0000 -999.0000 -999.0000 -999.0000 -999.0000 
1504.7976   17.5000   17.8638    1.1368   23.7342    0.9046    1.0133   94.4772 -999.0000 -999.0000 -999.0000 -999.0000 -999.0000 -999.0000 
1504.9500   17.5000   17.8582    0.8899   23.0927    0.8819    1.0005   96.2222 -999.0000 -999.0000 -999.0000 -999.0000 -999.0000 -999.0000 
1505.1024   17.5000   17.8553    0.4345   22.2772    0.9612    1.0621   92.7519 -999.0000 -999.0000 -999.0000 -999.0000 -999.0000 -999.0000 
1505.2548   17.5000   17.8520   -0.0437   19.2368    1.0975    1.1578   88.5197 -999.0000 -999.0000 -999.0000 -999.0000 -999.0000 -999.0000 
1505.4072   17.5000   17.8502   -0.3759   18.2255    1.3470    1.3214   83.7852 -999.0000 -999.0000 -999.0000 -999.0000 -999.0000 -999.0000 
1505.5596   17.5000   17.8528   -0.4982   16.4698    1.6358    1.5357   77.1407 -999.0000 -999.0000 -999.0000 -999.0000 -999.0000 -999.0000 
1505.7120   17.5000   17.8565   -0.3621   16.1674    1.8576    1.6972   74.5889 -999.0000 -999.0000 -999.0000 -999.0000 -999.0000 -999.0000 
1505.8644   17.5000   17.8751   -0.0557   16.0373    1.8804    1.7219   81.6398 -999.0000 -999.0000 -999.0000 -999.0000 -999.0000 -999.0000 
1506.0168   17.5000   17.8992    0.3073   19.0244    1.5907    1.5189   88.3037 -999.0000 -999.0000 -999.0000 -999.0000 -999.0000 -999.0000 
1506.1692   17.5000   17.9075    0.5652   20.8202    1.2866    1.2522   91.9658 -999.0000 -999.0000 -999.0000 -999.0000 -999.0000 -999.0000 
1506.3216   17.5000   17.9118    0.7042   22.5010    1.0887    1.0673   93.4167 -999.0000 -999.0000 -999.0000 -999.0000 -999.0000 -999.0000 
1506.4740   17.5000   17.9148    0.7772   22.6187    1.0117    1.0061   92.4568 -999.0000 -999.0000 -999.0000 -999.0000 -999.0000 -999.0000 
1506.6264   17.5000   17.9149    0.8481   23.8046    1.0387    1.0234   90.7908 -999.0000 -999.0000 -999.0000 -999.0000 -999.0000 -999.0000 
1506.7788   17.5000   17.9149    1.0471   25.9673    1.0596    1.0359   90.1667 -999.0000 -999.0000 -999.0000 -999.0000 -999.0000 -999.0000 
1506.9312   17.5000   17.9170    1.4309   28.0321    1.0563    1.0650   90.6798 -999.0000 -999.0000 -999.0000 -999.0000 -999.0000 -999.0000 
1507.0836   17.5000   17.9207    1.9006   27.7399    1.0567    1.0892   93.3187 -999.0000 -999.0000 -999.0000 -999.0000 -999.0000 -999.0000 
1507.2360   17.5000   17.9237    2.3805   27.3676    1.0540    1.1248   96.0864 -999.0000 -999.0000 -999.0000 -999.0000 -999.0000 -999.0000 
1507.3884   17.5000   17.9265    2.6558   28.4208    1.0718    1.1484   95.2635 -999.0000 -999.0000 -999.0000 -999.0000 -999.0000 -999.0000 
1507.5408   17.5000   17.9287    2.6666   27.6474    1.0796    1.1544   93.7015 -999.0000 -999.0000 -999.0000 -999.0000 -999.0000 -999.0000 
1507.6932   17.5000   17.9306    2.3051   30.6955    1.0454    1.0599   95.0547 -999.0000 -999.0000 -999.0000 -999.0000 -999.0000 -999.0000 
1507.8456   17.5000   17.9268    1.6879   29.1579    1.0087    1.0159   96.5499 -999.0000 -999.0000 -999.0000 -999.0000 -999.0000 -999.0000 
1507.9980   17.5000   17.9166    0.9693   27.9413    0.9752    0.9547   95.4370 -999.0000 -999.0000 -999.0000 -999.0000 -999.0000 -999.0000 
1508.1504   17.5000   17.9099    0.2763   25.9757    0.9651    0.9410   92.2553 -999.0000 -999.0000 -999.0000 -999.0000 -999.0000 -999.0000 
1508.3028   17.5000   17.9070   -0.2940   24.8148    0.9952    1.0091   89.8303 -999.0000 -999.0000 -999.0000 -999.0000 -999.0000 -999.0000 
1508.4552   17.5000   17.9037   -0.6166   24.6863    1.0465    1.0470   88.8053 -999.0000 -999.0000 -999.0000 -999.0000 -999.0000 -999.0000 
1508.6076   17.5000   17.9019   -0.7599   25.6417    1.1082    1.1221   86.7237 -999.0000 -999.0000 -999.0000 -999.0000 -999.0000 -999.0000 
1508.7600   17.5000   17.9045   -0.7863   27.1181    1.1326    1.1542   84.8222 -999.0000 -999.0000 -999.0000 -999.0000 -999.0000 -999.0000 
1508.9124   17.5000   17.9067   -0.7284   27.3381    1.1163    1.1363   86.8835 -999.0000 -999.0000 -999.0000 -999.0000 -999.0000 -999.0000 
1509.0648   17.5000   17.9089   -0.6658   24.8235    1.0616    1.1064   90.9794 -999.0000 -999.0000 -999.0000 -999.0000 -999.0000 -999.0000 
1509.2172   17.5000   17.9105   -0.6291   23.0936    1.0160    1.0769   93.1667 -999.0000 -999.0000 -999.0000 -999.0000 -999.0000 -999.0000 
1509.3696   17.5000   17.9091   -0.6515   22.1421    1.0076    1.0859   91.0547 -999.0000 -999.0000 -999.0000 -999.0000 -999.0000 -999.0000 
1509.5220   17.5000   17.9133   -0.6702   22.8394    1.0203    1.0753   86.3872 -999.0000 -999.0000 -999.0000 -999.0000 -999.0000 -999.0000 
1509.6744   17.5000   17.9163   -0.6288   24.6046    1.0541    1.1074   84.6111 -999.0000 -999.0000 -999.0000 -999.0000 -999.0000 -999.0000 
1509.8268   17.5000   17.9149   -0.4803   24.3308    1.0689    1.1316   86.4888 -999.0000 -999.0000 -999.0000 -999.0000 -999.0000 -999.0000 
1509.9792   17.5000   17.9149   -0.3044   27.4942    1.0397    1.1272   87.0684 -999.0000 -999.0000 -999.0000 -999.0000 -999.0000 -999.0000 
1510.1316   17.5000   17.9171    0.0590   26.6397    1.0107    1.0806   86.6000 -999.0000 -999.0000 -999.0000 -999.0000 -999.0000 -999.0000 
1510.2840   17.5000   17.9207    0.5768   25.3083    0.9722    1.0519   89.8103 -999.0000 -999.0000 -999.0000 -999.0000 -999.0000 -999.0000 
1510.4364   17.5000   17.9237    1.1682   25.7497    0.9580    1.0194   93.6042 -999.0000 -999.0000 -999.0000 -999.0000 -999.0000 -999.0000 
1510.5888   17.5000   17.9265    1.9178   27.0429    0.9511    1.0284   94.5222 -999.0000 -999.0000 -999.0000 -999.0000 -999.0000 -999.0000 
1510.7412   17.5000   17.9287    2.8564   29.0875    0.9576    0.9856   93.6687 -999.0000 -999.0000 -999.0000 -999.0000 -999.0000 -999.0000 
1510.8936   17.5000   17.9306    3.7683   30.0060    0.9659    0.9827   94.4757 -999.0000 -999.0000 -999.0000 -999.0000 -999.0000 -999.0000 
1511.0460   17.5000   17.9267    4.7221   28.4036    0.9507    0.9870   96.0814 -999.0000 -999.0000 -999.0000 -999.0000 -999.0000 -999.0000 
1511.1984   17.5000   17.9165    5.7655   25.2768    0.9233    0.9297   97.6288 -999.0000 -999.0000 -999.0000 -999.0000 -999.0000 -999.0000 
1511.3508   17.5000   17.9099    6.8275   23.7235    0.9032    0.9237   99.0783 -999.0000 -999.0000 -999.0000 -999.0000 -999.0000 -999.0000 
