~VERSION INFORMATION
 VERS.                 2.0:   CWLS LOG ASCII STANDARD - VERSION 2.0
 WRAP.                  NO:   SINGLE LINE PER DEPTH STEP
 CREA.                 08/01/2018 13:33:07
#CREATED USING DSPetro VERSION 5000.10.1.3 BY H191660 ON 08/01/2018 13:33:07
~WELL INFORMATION
#MNEM.UNIT       DATA                          DESCRIPTION MNEMONIC
#---------      ---------------------------   --------------------------
 STRT    .M         0.0000                    : START DEPTH
 STOP    .M         3199.9428                 : STOP DEPTH
 STEP    .M         0.1524                    : STEP VALUE
 NULL    .      -999.0000                     : NULL VALUE
 DATE    .      08/01/2018                    : LAS file Creation Date
 WELL .      2400_Nebo-1                 : Well Name
 COMP .      Neftex Exploration Insights : Company
 FLD  .      NEBO                        : Field
 UWI  .      ZAUWL_005243                : Unique Well Identifier (UWI)
 LOC  .                                  : Location
 RWS  .      -999                        : Def_Rw
 WST  .      -999                        : Def_Rwt
 SRVC .                                  : Contractor
~CURVE INFORMATION
#MNEM              UNIT       API CODE   Curve Type Comments
#----------  --------------- ----------  ---------- -----------
 DEPTH      .M                         : Depth       
 BitSize    .in                        : bitSize     
 CAL_INCH   .inch                      : caliper     Caliper Log - A representation of the measured diameter of a borehole along its depth
 SP_MV1     .mv                        : SP          Spontaneous Potential - Records the electrical potential produced by the interaction of formation water, conductive drilling mud, and certain ion-sele
 GR_API     .API                       : gammaRay    Gamma Ray (API) - Measures the intensity of natural gamma-ray radiation emitted from formations containing radioactive elements, such as K, Th and U
 LLD_OHMM   .ohmm                      : deepRes     Laterlog Deep Resistivity - Measurement made several feet into the formation; generally considered a measurement of the undisturbed formation
 LLS_OHMM   .ohmm                      : shalRes     Laterlog Shallow Resistivity - one to two feet into the formation; generally considered to measure the formation
 DT_US_FT   .us/ft                     : density     Interval Transit Time: Compressional Wave - Evaluates the time it takes for a compressional wave to traverse a fixed distance
 RHOB_G_CC  .g/cc                      : density     Bulk Density - Measures the density of bulk material, including any void space or other materials contained in the subject volume
 DRHO_G_CC  .g/cc                      : drho        Density Correction - Investigates the correction to the Bulk Density log; used as an indication of hole condition to validate the Bulk Density measure
 NPHI_v_v   .PC                        : Neutron     Neutron Porosity - Measured with an neutron logging device calibrated to a given matrix (limestone, sandstone and dolomite)
 PEF_B_E    .b/e-                      : PEF         Photoelectric Factor - A log of photoelectric absorption properties. Often expressed in an approximation unit barns/electron (b/e-)
 LITH       .                          : LITH        Lithology Curve
 LITH_v2    .                          : LITH        Lithology Curve
~A  DEPTH  BitSize   CAL_INCH   SP_MV1    GR_API   LLD_OHMM  LLS_OHMM  DT_US_FT RHOB_G_C  DRHO_G_C  NPHI_v_v  PEF_B_E     LITH    LITH_v2  
# ...
1407.2616   17.5000   17.2456    0.1120   14.9385    0.6390    0.8524  100.2000 -999.0000 -999.0000 -999.0000 -999.0000 -999.0000 -999.0000 
1407.4140   17.5000   17.2543   -0.0240   14.4571    0.6312    0.8504   98.3196 -999.0000 -999.0000 -999.0000 -999.0000 -999.0000 -999.0000 
1407.5664   17.5000   17.3021    0.2634   15.1587    0.6247    0.8499   97.3943 -999.0000 -999.0000 -999.0000 -999.0000 -999.0000 -999.0000 
1407.7188   17.5000   17.3609    0.7070   14.6046    0.6202    0.8601   97.3275 -999.0000 -999.0000 -999.0000 -999.0000 -999.0000 -999.0000 
1407.8712   17.5000   17.3777    1.2111   15.0247    0.6183    0.8131   97.5433 -999.0000 -999.0000 -999.0000 -999.0000 -999.0000 -999.0000 
1408.0236   17.5000   17.3187    1.5964   14.2944    0.6144    0.7609   97.4288 -999.0000 -999.0000 -999.0000 -999.0000 -999.0000 -999.0000 
1408.1760   17.5000   17.2450    1.7255   16.2666    0.6113    0.7314   96.7399 -999.0000 -999.0000 -999.0000 -999.0000 -999.0000 -999.0000 
1408.3284   17.5000   17.2226    1.6155   16.4252    0.6191    0.7345   95.7443 -999.0000 -999.0000 -999.0000 -999.0000 -999.0000 -999.0000 
1408.4808   17.5000   17.2278    1.3451   17.8026    0.6239    0.7629   94.6844 -999.0000 -999.0000 -999.0000 -999.0000 -999.0000 -999.0000 
1408.6332   17.5000   17.2307    1.0900   18.2124    0.6334    0.7827   93.7873 -999.0000 -999.0000 -999.0000 -999.0000 -999.0000 -999.0000 
1408.7856   17.5000   17.2435    0.9535   16.3277    0.6385    0.7906   93.4111 -999.0000 -999.0000 -999.0000 -999.0000 -999.0000 -999.0000 
1408.9380   17.5000   17.2882    1.0267   15.8929    0.6478    0.7947   94.3505 -999.0000 -999.0000 -999.0000 -999.0000 -999.0000 -999.0000 
1409.0904   17.5000   17.3318    1.3270   16.1851    0.6514    0.7895   97.1060 -999.0000 -999.0000 -999.0000 -999.0000 -999.0000 -999.0000 
1409.2428   17.5000   17.3502    1.7972   15.8148    0.6579    0.8017   98.1667 -999.0000 -999.0000 -999.0000 -999.0000 -999.0000 -999.0000 
1409.3952   17.5000   17.3736    2.2455   15.8303    0.6495    0.7766   94.2895 -999.0000 -999.0000 -999.0000 -999.0000 -999.0000 -999.0000 
1409.5476   17.5000   17.4394    2.5261   16.3713    0.6209    0.7579   92.0748 -999.0000 -999.0000 -999.0000 -999.0000 -999.0000 -999.0000 
1409.7000   17.5000   17.5119    2.5900   17.2290    0.5792    0.7049   92.3337 -999.0000 -999.0000 -999.0000 -999.0000 -999.0000 -999.0000 
1409.8524   17.5000   17.5300    2.3962   17.8128    0.5337    0.6976   93.9436 -999.0000 -999.0000 -999.0000 -999.0000 -999.0000 -999.0000 
1410.0048   17.5000   17.5183    2.1499   16.2343    0.5087    0.6904   96.6926 -999.0000 -999.0000 -999.0000 -999.0000 -999.0000 -999.0000 
1410.1572   17.5000   17.5111    1.9669   15.0153    0.5192    0.6797   98.3333 -999.0000 -999.0000 -999.0000 -999.0000 -999.0000 -999.0000 
1410.3096   17.5000   17.5099    1.9455   14.8090    0.5427    0.7189   97.2085 -999.0000 -999.0000 -999.0000 -999.0000 -999.0000 -999.0000 
1410.4620   17.5000   17.5099    2.1712   17.3068    0.5634    0.7337   95.4390 -999.0000 -999.0000 -999.0000 -999.0000 -999.0000 -999.0000 
1410.6144   17.5000   17.5117    2.4366   19.7380    0.5598    0.7562   95.2752 -999.0000 -999.0000 -999.0000 -999.0000 -999.0000 -999.0000 
1410.7668   17.5000   17.5160    2.5958   22.1981    0.5376    0.7618   95.9143 -999.0000 -999.0000 -999.0000 -999.0000 -999.0000 -999.0000 
1410.9192   17.5000   17.5199    2.5838   20.7939    0.5172    0.7114   95.5078 -999.0000 -999.0000 -999.0000 -999.0000 -999.0000 -999.0000 
1411.0716   17.5000   17.4798    2.3352   19.7647    0.5090    0.6748   93.5221 -999.0000 -999.0000 -999.0000 -999.0000 -999.0000 -999.0000 
1411.2240   17.5000   17.3628    1.9645   18.6622    0.5415    0.6566   92.3556 -999.0000 -999.0000 -999.0000 -999.0000 -999.0000 -999.0000 
1411.3764   17.5000   17.2801    1.5169   20.2713    0.5876    0.7222   94.4994 -999.0000 -999.0000 -999.0000 -999.0000 -999.0000 -999.0000 
1411.5288   17.5000   17.2814    1.1718   21.4702    0.6377    0.7945   97.7642 -999.0000 -999.0000 -999.0000 -999.0000 -999.0000 -999.0000 
1411.6812   17.5000   17.2967    0.9840   22.0961    0.6692    0.8721   99.8556 -999.0000 -999.0000 -999.0000 -999.0000 -999.0000 -999.0000 
1411.8336   17.5000   17.3049    0.8085   22.3471    0.6735    0.8916   97.6692 -999.0000 -999.0000 -999.0000 -999.0000 -999.0000 -999.0000 
1411.9860   17.5000   17.3088    0.5989   21.9640    0.6844    0.8889   92.8189 -999.0000 -999.0000 -999.0000 -999.0000 -999.0000 -999.0000 
1412.1384   17.5000   17.2802    0.3140   19.8651    0.7750    0.9769   88.9269 -999.0000 -999.0000 -999.0000 -999.0000 -999.0000 -999.0000 
1412.2908   17.5000   17.2050   -0.1355   17.2297    0.9440    1.1188   84.8565 -999.0000 -999.0000 -999.0000 -999.0000 -999.0000 -999.0000 
1412.4432   17.5000   17.1597   -0.6950   15.1674    1.1442    1.2812   80.8886 -999.0000 -999.0000 -999.0000 -999.0000 -999.0000 -999.0000 
1412.5956   17.5000   17.1580   -1.2674   13.6814    1.2888    1.3942   81.2791 -999.0000 -999.0000 -999.0000 -999.0000 -999.0000 -999.0000 
1412.7480   17.5000   17.1739   -1.7629   16.0647    1.2309    1.4009   85.9193 -999.0000 -999.0000 -999.0000 -999.0000 -999.0000 -999.0000 
1412.9004   17.5000   17.2095   -2.1747   16.0598    1.0575    1.2609   90.0187 -999.0000 -999.0000 -999.0000 -999.0000 -999.0000 -999.0000 
1413.0528   17.5000   17.2299   -2.4375   17.4517    0.8852    1.1142   91.3706 -999.0000 -999.0000 -999.0000 -999.0000 -999.0000 -999.0000 
1413.2052   17.5000   17.2328   -2.5481   16.5143    0.7590    0.9977   91.7039 -999.0000 -999.0000 -999.0000 -999.0000 -999.0000 -999.0000 
1413.3576   17.5000   17.2372   -2.5583   17.2863    0.7369    0.9581   93.0632 -999.0000 -999.0000 -999.0000 -999.0000 -999.0000 -999.0000 
1413.5100   17.5000   17.2399   -2.4820   17.1812    0.7359    0.9395   95.0884 -999.0000 -999.0000 -999.0000 -999.0000 -999.0000 -999.0000 
1413.6624   17.5000   17.2390   -2.4455   17.2964    0.7226    0.9019   95.7581 -999.0000 -999.0000 -999.0000 -999.0000 -999.0000 -999.0000 
1413.8148   17.5000   17.2403   -2.4339   14.8049    0.6909    0.8854   95.3479 -999.0000 -999.0000 -999.0000 -999.0000 -999.0000 -999.0000 
1413.9672   17.5000   17.2446   -2.4352   14.7134    0.6559    0.8698   95.2333 -999.0000 -999.0000 -999.0000 -999.0000 -999.0000 -999.0000 
1414.1196   17.5000   17.2470   -2.5292   13.3766    0.6250    0.8343   95.7727 -999.0000 -999.0000 -999.0000 -999.0000 -999.0000 -999.0000 
1414.2720   17.5000   17.2470   -2.5766   12.5257    0.6108    0.7832   96.0998 -999.0000 -999.0000 -999.0000 -999.0000 -999.0000 -999.0000 
1414.4244   17.5000   17.2470   -2.5239   13.0860    0.6023    0.7404   96.1392 -999.0000 -999.0000 -999.0000 -999.0000 -999.0000 -999.0000 
1414.5768   17.5000   17.2481   -2.4782   13.5675    0.6188    0.7666   95.6820 -999.0000 -999.0000 -999.0000 -999.0000 -999.0000 -999.0000 
1414.7292   17.5000   17.2507   -2.3565   15.3750    0.6506    0.8020   93.8408 -999.0000 -999.0000 -999.0000 -999.0000 -999.0000 -999.0000 
1414.8816   17.5000   17.2539   -2.1363   16.3963    0.6898    0.8467   91.5454 -999.0000 -999.0000 -999.0000 -999.0000 -999.0000 -999.0000 
1415.0340   17.5000   17.2576   -2.0156   16.6759    0.7174    0.9018   90.3445 -999.0000 -999.0000 -999.0000 -999.0000 -999.0000 -999.0000 
1415.1864   17.5000   17.2622   -2.0057   16.8652    0.7160    0.9477   91.5808 -999.0000 -999.0000 -999.0000 -999.0000 -999.0000 -999.0000 
1415.3388   17.5000   17.2840   -2.0541   16.5994    0.6829    0.9560   94.4682 -999.0000 -999.0000 -999.0000 -999.0000 -999.0000 -999.0000 
1415.4912   17.5000   17.3156   -2.2197   17.0989    0.6423    0.9202   95.3798 -999.0000 -999.0000 -999.0000 -999.0000 -999.0000 -999.0000 
1415.6436   17.5000   17.3349   -2.4267   17.6827    0.6190    0.8740   92.7425 -999.0000 -999.0000 -999.0000 -999.0000 -999.0000 -999.0000 
1415.7960   17.5000   17.3444   -2.5838   18.5749    0.6281    0.8537   90.0090 -999.0000 -999.0000 -999.0000 -999.0000 -999.0000 -999.0000 
