~VERSION INFORMATION
 VERS.                 2.0:   CWLS LOG ASCII STANDARD - VERSION 2.0
 WRAP.                  NO:   SINGLE LINE PER DEPTH STEP
 CREA.                 08/01/2018 13:33:07
#CREATED USING DSPetro VERSION 5000.10.1.3 BY H191660 ON 08/01/2018 13:33:07
~WELL INFORMATION
#MNEM.UNIT       DATA                          DESCRIPTION MNEMONIC
#---------      ---------------------------   --------------------------
 STRT    .M         0.0000                    : START DEPTH
 STOP    .M         3199.9428                 : STOP DEPTH
 STEP    .M         0.1524                    : STEP VALUE
 NULL    .      -999.0000                     : NULL VALUE
 DATE    .      08/01/2018                    : LAS file Creation Date
 WELL .      2400_Nebo-1                 : Well Name
 COMP .      Neftex Exploration Insights : Company
 FLD  .      NEBO                        : Field
 UWI  .      ZAUWL_005243                : Unique Well Identifier (UWI)
 LOC  .                                  : Location
 RWS  .      -999                        : Def_Rw
 WST  .      -999                        : Def_Rwt
 SRVC .                                  : Contractor
~CURVE INFORMATION
#MNEM              UNIT       API CODE   Curve Type Comments
#----------  --------------- ----------  ---------- -----------
 DEPTH      .M                         : Depth       
 BitSize    .in                        : bitSize     
 CAL_INCH   .inch                      : caliper     Caliper Log - A representation of the measured diameter of a borehole along its depth
 SP_MV1     .mv                        : SP          Spontaneous Potential - Records the electrical potential produced by the interaction of formation water, conductive drilling mud, and certain ion-sele
 GR_API     .API                       : gammaRay    Gamma Ray (API) - Measures the intensity of natural gamma-ray radiation emitted from formations containing radioactive elements, such as K, Th and U
 LLD_OHMM   .ohmm                      : deepRes     Laterlog Deep Resistivity - Measurement made several feet into the formation; generally considered a measurement of the undisturbed formation
 LLS_OHMM   .ohmm                      : shalRes     Laterlog Shallow Resistivity - one to two feet into the formation; generally considered to measure the formation
 DT_US_FT   .us/ft                     : density     Interval Transit Time: Compressional Wave - Evaluates the time it takes for a compressional wave to traverse a fixed distance
 RHOB_G_CC  .g/cc                      : density     Bulk Density - Measures the density of bulk material, including any void space or other materials contained in the subject volume
 DRHO_G_CC  .g/cc                      : drho        Density Correction - Investigates the correction to the Bulk Density log; used as an indication of hole condition to validate the Bulk Density measure
 NPHI_v_v   .PC                        : Neutron     Neutron Porosity - Measured with an neutron logging device calibrated to a given matrix (limestone, sandstone and dolomite)
 PEF_B_E    .b/e-                      : PEF         Photoelectric Factor - A log of photoelectric absorption properties. Often expressed in an approximation unit barns/electron (b/e-)
 LITH       .                          : LITH        Lithology Curve
 LITH_v2    .                          : LITH        Lithology Curve
~A  DEPTH  BitSize   CAL_INCH   SP_MV1    GR_API   LLD_OHMM  LLS_OHMM  DT_US_FT RHOB_G_C  DRHO_G_C  NPHI_v_v  PEF_B_E     LITH    LITH_v2  
# ...
2536.5456    8.5000   10.7722    0.4390  125.0126    3.9390    3.2456   85.6660    2.5045    0.0401   31.7535    3.8222   37.0000   37.0000 
2536.6980    8.5000   10.6894    0.4365  127.3974    3.9583    3.2534   87.7768    2.5046    0.0409   30.8345    3.8705   37.0000   37.0000 
2536.8504    8.5000   10.6539    0.4305  125.1737    3.9756    3.2510   88.4802    2.4335    0.0368   31.0507    3.9851   37.0000   37.0000 
2537.0028    8.5000   10.7458    0.4085  127.6777    3.9843    3.2115   88.2814    2.3685    0.0158   31.6014    3.9235   37.0000   37.0000 
2537.1552    8.5000   10.8002    0.3819  128.8844    3.9022    3.1540   88.3827    2.3573   -0.0029   32.5413    3.8385   37.0000   37.0000 
2537.3076    8.5000   10.9711    0.3599  127.5677    3.7939    3.0582   86.2117    2.3709   -0.0205   33.7745    3.7956   37.0000   37.0000 
2537.4600    8.5000   11.1392    0.3330  125.9786    3.6860    3.0175   84.5943    2.3297   -0.0463   35.1603    3.8380   37.0000   37.0000 
2537.6124    8.5000   11.1003    0.3269  124.5603    3.6774    3.0163   86.7634    2.2759   -0.0587   35.3608    4.0371   37.0000   37.0000 
2537.7648    8.5000   10.9041    0.3206  124.6355    3.6675    3.0024   86.2296    2.3063   -0.0413   35.0614    4.1804   37.0000   37.0000 
2537.9172    8.5000   10.7914    0.3231  125.2197    3.7334    3.0133   84.3527    2.3979   -0.0211   34.2129    3.9739   37.0000   37.0000 
2538.0696    8.5000   10.7567    0.3311  125.4426    3.7689    2.9957   84.8828    2.4908   -0.0047   33.1665    3.7974   37.0000   37.0000 
2538.2220    8.5000   10.7281    0.3436  129.2844    3.8987    3.0654   87.2130    2.5112   -0.0123   32.1773    3.5165   37.0000   37.0000 
2538.3744    8.5000   10.7338    0.3646  134.1503    4.1364    3.2404   88.0303    2.5196   -0.0153   31.8476    3.4214   37.0000   37.0000 
2538.5268    8.5000   10.7497    0.3786  139.2811    4.4395    3.4909   85.7367    2.5288   -0.0127   31.6837    3.3525   37.0000   37.0000 
2538.6792    8.5000   10.7667    0.3953  139.9368    4.7550    3.7261   83.9891    2.5522   -0.0127   32.2205    3.5120   37.0000   37.0000 
2538.8316    8.5000   10.7745    0.4087  140.0464    4.9525    3.8722   80.5182    2.5787   -0.0123   32.4112    3.7558   37.0000   37.0000 
2538.9840    8.5000   10.7685    0.4110  140.1996    5.1153    3.9573   74.8700    2.5914   -0.0129   32.7117    3.9465   37.0000   37.0000 
2539.1364    8.5000   10.7702    0.4155  145.6666    5.1732    3.9853   75.8723    2.5955   -0.0141   32.7539    3.9819   37.0000   37.0000 
2539.2888    8.5000   10.5698    0.4143  147.0358    5.1550    3.9277   79.9900    2.5911   -0.0108   32.6311    3.6914   37.0000   37.0000 
2539.4412    8.5000   10.4035    0.4021  147.6286    4.9713    3.7973   81.5071    2.5626   -0.0121   32.2150    3.3717   37.0000   37.0000 
2539.5936    8.5000   10.2942    0.3816  140.9486    4.7684    3.6313   82.3077    2.5466   -0.0048   32.0227    3.3593   37.0000   37.0000 
2539.7460    8.5000   10.4135    0.3441  135.6374    4.6047    3.5097   82.5750    2.5520   -0.0013   32.0202    3.4860   37.0000   37.0000 
2539.8984    8.5000   10.4135    0.3126  130.9653    4.3995    3.3723   79.5358    2.5550    0.0040   32.5372    3.7545   37.0000   37.0000 
2540.0508    8.5000   10.4154    0.2820  125.2260    4.1857    3.2001   80.1101    2.4085    0.0103   33.1153    4.0243   37.0000   37.0000 
2540.2032    8.5000   10.4212    0.2662  121.1359    3.9434    3.0568   85.2079    2.2288    0.0115   33.5301    4.0001   37.0000   37.0000 
2540.3556    8.5000   10.4527    0.2561  119.5265    3.8100    2.9666   86.8123    2.2192    0.0663   34.1543    4.1210   37.0000   37.0000 
2540.5080    8.5000   10.4927    0.2511  120.6208    3.7222    2.8989   87.0210    2.3200    0.1221   33.6531    4.2546   37.0000   37.0000 
2540.6604    8.5000   10.5315    0.2498  123.2334    3.7319    2.9265   89.4392    2.3914    0.1578   32.8818    4.2249   37.0000   37.0000 
2540.8128    8.5000   10.5582    0.2486  127.0148    3.7386    2.9669   91.4462    2.3231    0.0989   31.7389    4.0329   37.0000   37.0000 
2540.9652    8.5000   10.5817    0.2634  123.5652    3.8050    3.0601   91.2144    2.3767    0.1305   31.1977    3.9386   37.0000   37.0000 
2541.1176    8.5000   10.6018    0.2735  120.2817    3.8562    3.1467   90.0284    2.3502    0.1575   30.8219    4.2257   37.0000   37.0000 
2541.2700    8.5000   10.6294    0.2768  112.3306    3.8940    3.1959   89.6063    2.2560    0.1257   30.5138    4.4459   37.0000   37.0000 
2541.4224    8.5000   10.6445    0.2873  116.8859    3.7470    3.0892   90.0107    2.2076    0.0893   31.2032    4.7908   37.0000   37.0000 
2541.5748    8.5000   10.8386    0.2971  116.1164    3.4312    2.8091   89.5094    2.1321    0.0014   32.0982    4.9885   37.0000   37.0000 
2541.7272    8.5000   11.1226    0.3021  117.8184    3.1899    2.5616   88.4872    2.1041    0.0011   32.8545    4.8907   37.0000   37.0000 
2541.8796    8.5000   11.3384    0.3009  118.0191    2.9817    2.3670   88.0278    2.1197    0.0213   32.9837    4.6380   37.0000   37.0000 
2542.0320    8.5000   11.3477    0.2987  116.6493    2.9828    2.3687   88.8306    2.1828    0.0852   33.5726    4.3560   11.0000   11.0000 
2542.1844    8.5000   11.3542    0.2911  117.2260    3.0906    2.4505   90.6220    2.3514    0.1920   32.8294    4.2917   11.0000   11.0000 
2542.3368    8.5000   11.3184    0.2919  116.0118    3.2506    2.6118   88.6339    2.3976    0.2198   31.5782    4.2961   11.0000   11.0000 
2542.4892    8.5000   11.0408    0.2881  116.6005    3.5068    2.8449   88.1741    2.4540    0.2476   31.2241    4.3602   11.0000   11.0000 
2542.6416    8.5000   10.7537    0.2838  117.9664    3.7321    3.0306   89.5876    2.3329    0.2211   31.1031    4.4150   11.0000   11.0000 
2542.7940    8.5000   10.6911    0.2743  120.7587    3.7912    3.0567   90.6906    2.1800    0.1664   31.5884    4.3361   11.0000   11.0000 
2542.9464    8.5000   10.7618    0.2660  120.6520    3.6890    2.9532   89.3876    2.0796    0.1229   32.2492    4.3820   11.0000   11.0000 
2543.0988    8.5000   10.7861    0.2620  124.0013    3.5502    2.8064   85.9406    2.1168    0.1187   32.4659    4.3946   11.0000   11.0000 
2543.2512    8.5000   10.5674    0.2675  125.3352    3.5010    2.7565   84.9889    2.1751    0.1050   32.6757    4.3001   11.0000   11.0000 
2543.4036    8.5000   10.3581    0.2900  126.2566    3.5833    2.7795   87.0375    2.2922    0.1306   31.3680    4.3313   11.0000   11.0000 
2543.5560    8.5000   10.3116    0.3211  126.1400    3.6552    2.8369   90.5017    2.4057    0.1981   29.9904    4.5489   11.0000   11.0000 
2543.7084    8.5000   10.3593    0.3638  122.5282    3.7721    2.9067   90.8669    2.4656    0.2156   29.3295    4.6495   11.0000   11.0000 
2543.8608    8.5000   10.3160    0.3974  120.7845    3.7616    2.9286   91.1432    2.4472    0.1874   29.4236    4.5314   11.0000   11.0000 
2544.0132    8.5000   10.3855    0.4093  118.2112    3.6402    2.8539   93.4743    2.3897    0.1227   30.4173    4.2093   11.0000   11.0000 
2544.1656    8.5000   10.7578    0.4244  118.2966    3.5261    2.7491   94.2354    2.3131    0.0622   31.0617    3.9740   11.0000   11.0000 
2544.3180    8.5000   10.9231    0.4413  118.3590    3.4073    2.6691   92.6481    2.2792    0.0978   30.3713    4.1064   11.0000   11.0000 
2544.4704    8.5000   10.6470    0.4523  119.7212    3.4892    2.6631   90.8070    2.2589    0.1568   29.2715    4.3408   11.0000   11.0000 
2544.6228    8.5000   10.2985    0.4704  115.4532    3.6760    2.8306   91.1052    2.2685    0.2182   28.1549    4.5284   11.0000   11.0000 
2544.7752    8.5000   10.2838    0.4741  119.3964    3.7934    2.8973   96.1090    2.2931    0.2548   27.8945    4.5735   11.0000   11.0000 
2544.9276    8.5000   10.4012    0.4543  118.9769    3.8550    2.9007   96.1127    2.2478    0.2365   28.4246    4.5729   11.0000   11.0000 
2545.0800    8.5000   10.5858    0.4405  121.1328    3.7254    2.8307   91.4032    2.3071    0.2522   29.6709    4.6274   11.0000   11.0000 
