~VERSION INFORMATION
 VERS.                 2.0:   CWLS LOG ASCII STANDARD - VERSION 2.0
 WRAP.                  NO:   SINGLE LINE PER DEPTH STEP
 CREA.                 08/01/2018 13:33:07
#CREATED USING DSPetro VERSION 5000.10.1.3 BY H191660 ON 08/01/2018 13:33:07
~WELL INFORMATION
#MNEM.UNIT       DATA                          DESCRIPTION MNEMONIC
#---------      ---------------------------   --------------------------
 STRT    .M         0.0000                    : START DEPTH
 STOP    .M         3199.9428                 : STOP DEPTH
 STEP    .M         0.1524                    : STEP VALUE
 NULL    .      -999.0000                     : NULL VALUE
 DATE    .      08/01/2018                    : LAS file Creation Date
 WELL .      2400_Nebo-1                 : Well Name
 COMP .      Neftex Exploration Insights : Company
 FLD  .      NEBO                        : Field
 UWI  .      ZAUWL_005243                : Unique Well Identifier (UWI)
 LOC  .                                  : Location
 RWS  .      -999                        : Def_Rw
 WST  .      -999                        : Def_Rwt
 SRVC .                                  : Contractor
~CURVE INFORMATION
#MNEM              UNIT       API CODE   Curve Type Comments
#----------  --------------- ----------  ---------- -----------
 DEPTH      .M                         : Depth       
 BitSize    .in                        : bitSize     
 CAL_INCH   .inch                      : caliper     Caliper Log - A representation of the measured diameter of a borehole along its depth
 SP_MV1     .mv                        : SP          Spontaneous Potential - Records the electrical potential produced by the interaction of formation water, conductive drilling mud, and certain ion-sele
 GR_API     .API                       : gammaRay    Gamma Ray (API) - Measures the intensity of natural gamma-ray radiation emitted from formations containing radioactive elements, such as K, Th and U
 LLD_OHMM   .ohmm                      : deepRes     Laterlog Deep Resistivity - Measurement made several feet into the formation; generally considered a measurement of the undisturbed formation
 LLS_OHMM   .ohmm                      : shalRes     Laterlog Shallow Resistivity - one to two feet into the formation; generally considered to measure the formation
 DT_US_FT   .us/ft                     : density     Interval Transit Time: Compressional Wave - Evaluates the time it takes for a compressional wave to traverse a fixed distance
 RHOB_G_CC  .g/cc                      : density     Bulk Density - Measures the density of bulk material, including any void space or other materials contained in the subject volume
 DRHO_G_CC  .g/cc                      : drho        Density Correction - Investigates the correction to the Bulk Density log; used as an indication of hole condition to validate the Bulk Density measure
 NPHI_v_v   .PC                        : Neutron     Neutron Porosity - Measured with an neutron logging device calibrated to a given matrix (limestone, sandstone and dolomite)
 PEF_B_E    .b/e-                      : PEF         Photoelectric Factor - A log of photoelectric absorption properties. Often expressed in an approximation unit barns/electron (b/e-)
 LITH       .                          : LITH        Lithology Curve
 LITH_v2    .                          : LITH        Lithology Curve
~A  DEPTH  BitSize   CAL_INCH   SP_MV1    GR_API   LLD_OHMM  LLS_OHMM  DT_US_FT RHOB_G_C  DRHO_G_C  NPHI_v_v  PEF_B_E     LITH    LITH_v2  
# ...
2936.1384    8.5000    8.6866 -999.0000 -999.0000    2.4156    2.6109   84.3351    2.3665    0.0498   13.0068    2.5684 -999.0000 -999.0000 
2936.2908    8.5000    8.7349 -999.0000 -999.0000    2.9612    3.2670   82.9515    2.3261    0.0368   12.9416    2.4868 -999.0000 -999.0000 
2936.4432    8.5000    8.7360 -999.0000 -999.0000    4.0300    4.5940   80.8065    2.3077    0.0297   12.9056    2.3705 -999.0000 -999.0000 
2936.5956    8.5000    8.7337 -999.0000 -999.0000    5.3500    5.8349   80.1123    2.2850    0.0032   12.9043    2.2244 -999.0000 -999.0000 
2936.7480    8.5000    8.7274 -999.0000 -999.0000    6.6638    6.8280   80.2056    2.2891   -0.0002   12.9014    2.1812 -999.0000 -999.0000 
2936.9004    8.5000    8.7274 -999.0000 -999.0000    7.3081    7.3569   77.1042    2.3409    0.0094   12.9063    2.2034 -999.0000 -999.0000 
2937.0528    8.5000    8.7355 -999.0000 -999.0000    6.9899    7.3234   73.6580    2.3932    0.0180   12.8636    2.2199 -999.0000 -999.0000 
2937.2052    8.5000    8.7360 -999.0000 -999.0000    5.9042    6.6967   72.9326    2.4201    0.0322   12.8759    2.2637 -999.0000 -999.0000 
2937.3576    8.5000    8.7321 -999.0000 -999.0000    4.7960    5.8016   74.1930    2.3990    0.0373   12.9301    2.2953 -999.0000 -999.0000 
2937.5100    8.5000    8.7502 -999.0000 -999.0000    3.9373    4.7046   76.7389    2.3966    0.0503   13.0503    2.3364 -999.0000 -999.0000 
2937.6624    8.5000    8.8207 -999.0000 -999.0000    3.3381    3.9376   80.5080    2.3968    0.0544   13.0272    2.3623 -999.0000 -999.0000 
2937.8148    8.5000    8.8902 -999.0000 -999.0000    3.5063    4.2533   81.4716    2.4094    0.0453   13.1469    2.3449 -999.0000 -999.0000 
2937.9672    8.5000    8.9078 -999.0000 -999.0000    4.2896    5.6937   81.2732    2.4798    0.0473   13.3906    2.4013 -999.0000 -999.0000 
2938.1196    8.5000    8.9072 -999.0000 -999.0000    5.7147    7.6449   81.3104    2.5446    0.0515   13.6570    2.4010 -999.0000 -999.0000 
2938.2720    8.5000    8.9105 -999.0000 -999.0000    8.2217   10.0103   81.6564    2.5271    0.0261   13.9840    2.3520 -999.0000 -999.0000 
2938.4244    8.5000    8.9151 -999.0000 -999.0000    9.1783   10.9877   81.4710    2.5344    0.0335   14.2443    2.3392 -999.0000 -999.0000 
2938.5768    8.5000    8.9025 -999.0000 -999.0000    8.9619   10.3862   79.0471    2.4866    0.0299   14.1812    2.2740 -999.0000 -999.0000 
2938.7292    8.5000    8.8821 -999.0000 -999.0000    8.8067    9.7797   75.8573    2.4262    0.0187   14.1296    2.2311 -999.0000 -999.0000 
2938.8816    8.5000    8.8796 -999.0000 -999.0000    8.4478    8.9298   79.7076    2.3608   -0.0014   14.1529    2.1762 -999.0000 -999.0000 
2939.0340    8.5000    8.8830 -999.0000 -999.0000    8.7554    9.1789   85.5432    2.3484   -0.0110   14.1545    2.1239 -999.0000 -999.0000 
2939.1864    8.5000    8.8868 -999.0000 -999.0000   10.0960   10.8312   85.6486    2.3584   -0.0134   14.1511    2.1354 -999.0000 -999.0000 
2939.3388    8.5000    8.8928 -999.0000 -999.0000   11.3457   11.8318   83.5439    2.3523   -0.0209   14.1467    2.1455 -999.0000 -999.0000 
2939.4912    8.5000    8.8679 -999.0000 -999.0000   12.8307   12.8796   82.9479    2.3502   -0.0217   14.1428    2.1589 -999.0000 -999.0000 
2939.6436    8.5000    8.8370 -999.0000 -999.0000   13.1981   12.9592   82.0600    2.3541   -0.0197   14.1697    2.1926 -999.0000 -999.0000 
2939.7960    8.5000    8.8225 -999.0000 -999.0000   13.0108   12.8886   78.0582    2.3544   -0.0193   14.2032    2.2128 -999.0000 -999.0000 
2939.9484    8.5000    8.8225 -999.0000 -999.0000   12.6437   12.7465   73.9437    2.3907   -0.0117 -999.0000    2.2906 -999.0000 -999.0000 
2940.1008    8.5000    8.8248 -999.0000 -999.0000   12.2584   12.5278   75.1596    2.4231    0.0001 -999.0000    2.3248 -999.0000 -999.0000 
2940.2532    8.5000    8.8074 -999.0000 -999.0000   12.3968   12.6700   82.9992    2.4105    0.0081 -999.0000    2.3535 -999.0000 -999.0000 
2940.4056    8.5000    8.7757 -999.0000 -999.0000   12.9608   13.5131   88.6222    2.3687    0.0021 -999.0000    2.3779 -999.0000 -999.0000 
2940.5580    8.5000    8.7469 -999.0000 -999.0000   13.3803   14.2608   90.3037    2.3710    0.0036 -999.0000    2.3881 -999.0000 -999.0000 
2940.7104    8.5000    8.7421 -999.0000 -999.0000   11.8429   13.6467   90.0964    2.3638   -0.0052 -999.0000    2.2963 -999.0000 -999.0000 
2940.8628    8.5000    8.7084 -999.0000 -999.0000    8.4847   10.8153   91.6699    2.3574   -0.0063 -999.0000    2.2248 -999.0000 -999.0000 
2941.0152    8.5000    8.6636 -999.0000 -999.0000    5.5428    7.4825   90.6955    2.3574   -0.0055 -999.0000    2.2513 -999.0000 -999.0000 
2941.1676    8.5000    8.6325 -999.0000 -999.0000    3.6617    4.5334   85.0709    2.3599   -0.0044 -999.0000    2.2959 -999.0000 -999.0000 
2941.3200    8.5000    8.6322 -999.0000 -999.0000    2.8200    3.4066   80.5655    2.3567   -0.0049 -999.0000    2.3057 -999.0000 -999.0000 
2941.4724    8.5000    8.6393 -999.0000 -999.0000    2.7867    3.4261   79.0926    2.3555   -0.0060 -999.0000    2.3107 -999.0000 -999.0000 
2941.6248    8.5000    8.6463 -999.0000 -999.0000    3.3000    4.1722   79.5517    2.3589   -0.0051 -999.0000    2.2821 -999.0000 -999.0000 
2941.7772    8.5000    8.6521 -999.0000 -999.0000    4.5695    5.8611   81.4272    2.3692   -0.0015 -999.0000    2.3044 -999.0000 -999.0000 
2941.9296    8.5000    8.6544 -999.0000 -999.0000    6.3934    8.4526   83.4119    2.3687   -0.0026 -999.0000    2.2948 -999.0000 -999.0000 
2942.0820    8.5000    8.6565 -999.0000 -999.0000    7.9693   10.5132   79.9192    2.3673   -0.0018 -999.0000    2.2984 -999.0000 -999.0000 
2942.2344    8.5000    8.6563 -999.0000 -999.0000    7.6645   10.3001   74.8838    2.3656   -0.0030 -999.0000    2.2801 -999.0000 -999.0000 
2942.3868    8.5000    8.6571 -999.0000 -999.0000    5.8737    8.3851   73.2296    2.3749   -0.0022 -999.0000    2.2748 -999.0000 -999.0000 
2942.5392    8.5000    8.6576 -999.0000 -999.0000    3.9655    5.2950   73.4840    2.3813    0.0011 -999.0000    2.3062 -999.0000 -999.0000 
2942.6916    8.5000    8.6507 -999.0000 -999.0000    2.8168    3.6428   74.3192    2.3765    0.0015 -999.0000    2.3398 -999.0000 -999.0000 
2942.8440    8.5000    8.6550 -999.0000 -999.0000    2.3203    2.9078   75.4409    2.3774    0.0030 -999.0000    2.3503 -999.0000 -999.0000 
2942.9964    8.5000    8.6944 -999.0000 -999.0000    2.1710    2.6405   75.4792    2.3780    0.0048 -999.0000    2.3642 -999.0000 -999.0000 
2943.1488    8.5000    8.7420 -999.0000 -999.0000    2.3800    2.8094   77.9475    2.3805    0.0052 -999.0000    2.3647 -999.0000 -999.0000 
2943.3012    8.5000    8.7585 -999.0000 -999.0000    3.0221    3.6244   83.5703    2.3817    0.0028 -999.0000    2.3530 -999.0000 -999.0000 
2943.4536    8.5000    8.7664 -999.0000 -999.0000    3.7855    4.5951   89.6601    2.3879    0.0058 -999.0000    2.4128 -999.0000 -999.0000 
2943.6060    8.5000    8.7092 -999.0000 -999.0000    4.7111    5.4944  101.4790    2.3941    0.0068 -999.0000    2.4646 -999.0000 -999.0000 
2943.7584    8.5000    8.5638 -999.0000 -999.0000    5.3806    6.0200  107.2654    2.3969    0.0102 -999.0000    2.5862 -999.0000 -999.0000 
2943.9108    8.5000    8.4259 -999.0000 -999.0000    4.4529    5.1062   99.0000    2.3979    0.0116 -999.0000    2.6000 -999.0000 -999.0000 
2944.0632    8.5000    8.3982 -999.0000 -999.0000    3.5018    4.0748   86.3314    2.3979    0.0116 -999.0000    2.6000 -999.0000 -999.0000 
2944.2156    8.5000    8.4033 -999.0000 -999.0000    2.8566    3.2004   74.6563    2.3979    0.0116 -999.0000    2.6000 -999.0000 -999.0000 
2944.3680    8.5000    8.4136 -999.0000 -999.0000    2.5489    2.7860   70.0386    2.3979    0.0116 -999.0000    2.6000 -999.0000 -999.0000 
2944.5204    8.5000    8.4161 -999.0000 -999.0000    2.5778    2.8067   69.3444    2.3979    0.0116 -999.0000    2.6000 -999.0000 -999.0000 
2944.6728    8.5000    8.4096 -999.0000 -999.0000    2.5643    2.7748   70.4650    2.3979    0.0116 -999.0000    2.6000 -999.0000 -999.0000 
