~VERSION INFORMATION
 VERS.                 2.0:   CWLS LOG ASCII STANDARD - VERSION 2.0
 WRAP.                  NO:   SINGLE LINE PER DEPTH STEP
 CREA.                 08/01/2018 13:33:07
#CREATED USING DSPetro VERSION 5000.10.1.3 BY H191660 ON 08/01/2018 13:33:07
~WELL INFORMATION
#MNEM.UNIT       DATA                          DESCRIPTION MNEMONIC
#---------      ---------------------------   --------------------------
 STRT    .M         0.0000                    : START DEPTH
 STOP    .M         3199.9428                 : STOP DEPTH
 STEP    .M         0.1524                    : STEP VALUE
 NULL    .      -999.0000                     : NULL VALUE
 DATE    .      08/01/2018                    : LAS file Creation Date
 WELL .      2400_Nebo-1                 : Well Name
 COMP .      Neftex Exploration Insights : Company
 FLD  .      NEBO                        : Field
 UWI  .      ZAUWL_005243                : Unique Well Identifier (UWI)
 LOC  .                                  : Location
 RWS  .      -999                        : Def_Rw
 WST  .      -999                        : Def_Rwt
 SRVC .                                  : Contractor
~CURVE INFORMATION
#MNEM              UNIT       API CODE   Curve Type Comments
#----------  --------------- ----------  ---------- -----------
 DEPTH      .M                         : Depth       
 BitSize    .in                        : bitSize     
 CAL_INCH   .inch                      : caliper     Caliper Log - A representation of the measured diameter of a borehole along its depth
 SP_MV1     .mv                        : SP          Spontaneous Potential - Records the electrical potential produced by the interaction of formation water, conductive drilling mud, and certain ion-sele
 GR_API     .API                       : gammaRay    Gamma Ray (API) - Measures the intensity of natural gamma-ray radiation emitted from formations containing radioactive elements, such as K, Th and U
 LLD_OHMM   .ohmm                      : deepRes     Laterlog Deep Resistivity - Measurement made several feet into the formation; generally considered a measurement of the undisturbed formation
 LLS_OHMM   .ohmm                      : shalRes     Laterlog Shallow Resistivity - one to two feet into the formation; generally considered to measure the formation
 DT_US_FT   .us/ft                     : density     Interval Transit Time: Compressional Wave - Evaluates the time it takes for a compressional wave to traverse a fixed distance
 RHOB_G_CC  .g/cc                      : density     Bulk Density - Measures the density of bulk material, including any void space or other materials contained in the subject volume
 DRHO_G_CC  .g/cc                      : drho        Density Correction - Investigates the correction to the Bulk Density log; used as an indication of hole condition to validate the Bulk Density measure
 NPHI_v_v   .PC                        : Neutron     Neutron Porosity - Measured with an neutron logging device calibrated to a given matrix (limestone, sandstone and dolomite)
 PEF_B_E    .b/e-                      : PEF         Photoelectric Factor - A log of photoelectric absorption properties. Often expressed in an approximation unit barns/electron (b/e-)
 LITH       .                          : LITH        Lithology Curve
 LITH_v2    .                          : LITH        Lithology Curve
~A  DEPTH  BitSize   CAL_INCH   SP_MV1    GR_API   LLD_OHMM  LLS_OHMM  DT_US_FT RHOB_G_C  DRHO_G_C  NPHI_v_v  PEF_B_E     LITH    LITH_v2  
# ...
 703.6308   17.5000   17.5303    0.8061   11.2917    2.7842    2.6330   77.2633 -999.0000 -999.0000 -999.0000 -999.0000 -999.0000 -999.0000 
 703.7832   17.5000   17.5247    0.9441   11.6693    3.1498    2.9377   74.1889 -999.0000 -999.0000 -999.0000 -999.0000 -999.0000 -999.0000 
 703.9356   17.5000   17.3426    1.3374   11.1469    3.3812    3.1409   75.8795 -999.0000 -999.0000 -999.0000 -999.0000 -999.0000 -999.0000 
 704.0880   17.5000   17.2255    1.8337   10.7277    3.3514    3.1143   81.1705 -999.0000 -999.0000 -999.0000 -999.0000 -999.0000 -999.0000 
 704.2404   17.5000   17.2312    2.1159   10.5942    3.0666    2.8696   84.2165 -999.0000 -999.0000 -999.0000 -999.0000 -999.0000 -999.0000 
 704.3928   17.5000   17.2361    2.1983   12.6086    2.7133    2.5491   84.3111 -999.0000 -999.0000 -999.0000 -999.0000 -999.0000 -999.0000 
 704.5452   17.5000   17.2394    2.1342   12.6600    2.3327    2.2285   85.7510 -999.0000 -999.0000 -999.0000 -999.0000 -999.0000 -999.0000 
 704.6976   17.5000   17.2413    1.9696   13.0614    1.9919    1.9462   87.9883 -999.0000 -999.0000 -999.0000 -999.0000 -999.0000 -999.0000 
 704.8500   17.5000   17.2380    1.8319   13.6236    1.7321    1.7477   88.6667 -999.0000 -999.0000 -999.0000 -999.0000 -999.0000 -999.0000 
 705.0024   17.5000   17.2269    1.7313   14.3861    1.5735    1.5658   87.2905 -999.0000 -999.0000 -999.0000 -999.0000 -999.0000 -999.0000 
 705.1548   17.5000   17.2104    1.5982   14.7686    1.5199    1.5120   85.2091 -999.0000 -999.0000 -999.0000 -999.0000 -999.0000 -999.0000 
 705.3072   17.5000   17.1958    1.4867   13.7162    1.5300    1.4839   83.6513 -999.0000 -999.0000 -999.0000 -999.0000 -999.0000 -999.0000 
 705.4596   17.5000   17.1873    1.4109   12.5454    1.5251    1.5271   83.5528 -999.0000 -999.0000 -999.0000 -999.0000 -999.0000 -999.0000 
 705.6120   17.5000   17.1838    1.3582   11.8206    1.4444    1.4919   84.4697 -999.0000 -999.0000 -999.0000 -999.0000 -999.0000 -999.0000 
 705.7644   17.5000   17.1945    1.4198   12.3270    1.2852    1.4204   88.7792 -999.0000 -999.0000 -999.0000 -999.0000 -999.0000 -999.0000 
 705.9168   17.5000   17.2085    1.5089   14.0213    1.0881    1.2509   95.3945 -999.0000 -999.0000 -999.0000 -999.0000 -999.0000 -999.0000 
 706.0692   17.5000   17.2153    1.5717   15.5244    0.9443    1.1135   96.6284 -999.0000 -999.0000 -999.0000 -999.0000 -999.0000 -999.0000 
 706.2216   17.5000   17.2169    1.6814   15.4177    0.8956    1.0100   88.9168 -999.0000 -999.0000 -999.0000 -999.0000 -999.0000 -999.0000 
 706.3740   17.5000   17.2169    1.7472   16.0926    0.9161    0.9782   82.3111 -999.0000 -999.0000 -999.0000 -999.0000 -999.0000 -999.0000 
 706.5264   17.5000   17.2222    1.7512   15.4437    0.9785    1.0495   86.2329 -999.0000 -999.0000 -999.0000 -999.0000 -999.0000 -999.0000 
 706.6788   17.5000   17.2470    1.7179   14.7218    1.0175    1.0860   92.1778 -999.0000 -999.0000 -999.0000 -999.0000 -999.0000 -999.0000 
 706.8312   17.5000   17.2905    1.5714   13.5557    1.0177    1.0930   90.6522 -999.0000 -999.0000 -999.0000 -999.0000 -999.0000 -999.0000 
 706.9836   17.5000   17.3449    1.3584   12.9684    0.9575    1.0481   86.5197 -999.0000 -999.0000 -999.0000 -999.0000 -999.0000 -999.0000 
 707.1360   17.5000   17.3801    1.1551   11.9866    0.9283    1.0045   85.6222 -999.0000 -999.0000 -999.0000 -999.0000 -999.0000 -999.0000 
 707.2884   17.5000   17.3965    0.9388   13.3174    0.9058    1.0245   87.9999 -999.0000 -999.0000 -999.0000 -999.0000 -999.0000 -999.0000 
 707.4408   17.5000   17.5148    0.7729   12.9778    0.8910    0.9975   89.7894 -999.0000 -999.0000 -999.0000 -999.0000 -999.0000 -999.0000 
 707.5932   17.5000   17.7604    0.7158   13.1570    0.8600    1.0010   91.4738 -999.0000 -999.0000 -999.0000 -999.0000 -999.0000 -999.0000 
 707.7456   17.5000   17.8962    0.7550   12.9602    0.7963    0.9330   93.7999 -999.0000 -999.0000 -999.0000 -999.0000 -999.0000 -999.0000 
 707.8980   17.5000   17.7566    0.9326   13.5491    0.7378    0.8953   95.1667 -999.0000 -999.0000 -999.0000 -999.0000 -999.0000 -999.0000 
 708.0504   17.5000   17.5565    1.1955   15.3344    0.6788    0.8283   91.5793 -999.0000 -999.0000 -999.0000 -999.0000 -999.0000 -999.0000 
 708.2028   17.5000   17.4782    1.4435   16.2477    0.6561    0.7944   83.5992 -999.0000 -999.0000 -999.0000 -999.0000 -999.0000 -999.0000 
 708.3552   17.5000   17.4516    1.6273   17.0541    0.6852    0.8317   73.5381 -999.0000 -999.0000 -999.0000 -999.0000 -999.0000 -999.0000 
 708.5076   17.5000   17.4375    1.6807   16.7472    0.7543    0.8872   67.2714 -999.0000 -999.0000 -999.0000 -999.0000 -999.0000 -999.0000 
 708.6600   17.5000   17.4412    1.6058   16.7948    0.8720    1.0103   70.1946 -999.0000 -999.0000 -999.0000 -999.0000 -999.0000 -999.0000 
 708.8124   17.5000   17.4664    1.4724   16.0339    0.9885    1.0772   77.7467 -999.0000 -999.0000 -999.0000 -999.0000 -999.0000 -999.0000 
 708.9648   17.5000   17.4834    1.3091   15.8839    1.0741    1.1666   83.3031 -999.0000 -999.0000 -999.0000 -999.0000 -999.0000 -999.0000 
 709.1172   17.5000   17.4802    1.1450   16.0074    1.0534    1.1422   87.3478 -999.0000 -999.0000 -999.0000 -999.0000 -999.0000 -999.0000 
 709.2696   17.5000   17.4531    1.0412   16.6907    0.9694    1.0632   91.4035 -999.0000 -999.0000 -999.0000 -999.0000 -999.0000 -999.0000 
 709.4220   17.5000   17.4159    0.9529   17.3054    0.8481    0.9517   95.3824 -999.0000 -999.0000 -999.0000 -999.0000 -999.0000 -999.0000 
 709.5744   17.5000   17.4021    0.9068   17.5041    0.7493    0.8585   98.5035 -999.0000 -999.0000 -999.0000 -999.0000 -999.0000 -999.0000 
 709.7268   17.5000   17.3901    0.8991   17.5755    0.7132    0.8136   99.3445 -999.0000 -999.0000 -999.0000 -999.0000 -999.0000 -999.0000 
 709.8792   17.5000   17.3565    0.9801   14.7938    0.7474    0.8535   92.0117 -999.0000 -999.0000 -999.0000 -999.0000 -999.0000 -999.0000 
 710.0316   17.5000   17.2999    1.0984   13.5193    0.8266    0.9175   80.3323 -999.0000 -999.0000 -999.0000 -999.0000 -999.0000 -999.0000 
 710.1840   17.5000   17.2600    1.2200   12.0930    0.8929    0.9869   75.9222 -999.0000 -999.0000 -999.0000 -999.0000 -999.0000 -999.0000 
 710.3364   17.5000   17.2774    1.2996   13.0758    0.8979    1.0077   84.8708 -999.0000 -999.0000 -999.0000 -999.0000 -999.0000 -999.0000 
 710.4888   17.5000   17.3454    1.3442   13.6820    0.8047    0.9164   96.7923 -999.0000 -999.0000 -999.0000 -999.0000 -999.0000 -999.0000 
 710.6412   17.5000   17.4422    1.3469   13.3648    0.6751    0.8376  104.5796 -999.0000 -999.0000 -999.0000 -999.0000 -999.0000 -999.0000 
 710.7936   17.5000   17.5095    1.2722   15.8766    0.5520    0.7262  106.1444 -999.0000 -999.0000 -999.0000 -999.0000 -999.0000 -999.0000 
 710.9460   17.5000   17.5274    1.1979   16.7835    0.4595    0.6408  102.8718 -999.0000 -999.0000 -999.0000 -999.0000 -999.0000 -999.0000 
 711.0984   17.5000   17.5267    1.1242   18.0593    0.4124    0.5686   99.5172 -999.0000 -999.0000 -999.0000 -999.0000 -999.0000 -999.0000 
 711.2508   17.5000   17.5134    1.0310   15.8177    0.3919    0.5650   98.1000 -999.0000 -999.0000 -999.0000 -999.0000 -999.0000 -999.0000 
 711.4032   17.5000   17.4985    0.9749   14.8892    0.3994    0.5476   99.9577 -999.0000 -999.0000 -999.0000 -999.0000 -999.0000 -999.0000 
 711.5556   17.5000   17.4895    1.0212   14.1374    0.4370    0.6062  104.1684 -999.0000 -999.0000 -999.0000 -999.0000 -999.0000 -999.0000 
 711.7080   17.5000   17.4623    1.1350   15.3462    0.4922    0.6484  106.1000 -999.0000 -999.0000 -999.0000 -999.0000 -999.0000 -999.0000 
 711.8604   17.5000   17.3463    1.2903   16.0619    0.5623    0.6917   99.8386 -999.0000 -999.0000 -999.0000 -999.0000 -999.0000 -999.0000 
 712.0128   17.5000   17.2072    1.4699   15.2723    0.6234    0.7624   94.5069 -999.0000 -999.0000 -999.0000 -999.0000 -999.0000 -999.0000 
 712.1652   17.5000   17.1614    1.6033   13.1151    0.6722    0.8058   94.7705 -999.0000 -999.0000 -999.0000 -999.0000 -999.0000 -999.0000 
