~VERSION INFORMATION
 VERS.                 2.0:   CWLS LOG ASCII STANDARD - VERSION 2.0
 WRAP.                  NO:   SINGLE LINE PER DEPTH STEP
 CREA.                 08/01/2018 13:33:07
#CREATED USING DSPetro VERSION 5000.10.1.3 BY H191660 ON 08/01/2018 13:33:07
~WELL INFORMATION
#MNEM.UNIT       DATA                          DESCRIPTION MNEMONIC
#---------      ---------------------------   --------------------------
 STRT    .M         0.0000                    : START DEPTH
 STOP    .M         3199.9428                 : STOP DEPTH
 STEP    .M         0.1524                    : STEP VALUE
 NULL    .      -999.0000                     : NULL VALUE
 DATE    .      08/01/2018                    : LAS file Creation Date
 WELL .      2400_Nebo-1                 : Well Name
 COMP .      Neftex Exploration Insights : Company
 FLD  .      NEBO                        : Field
 UWI  .      ZAUWL_005243                : Unique Well Identifier (UWI)
 LOC  .                                  : Location
 RWS  .      -999                        : Def_Rw
 WST  .      -999                        : Def_Rwt
 SRVC .                                  : Contractor
~CURVE INFORMATION
#MNEM              UNIT       API CODE   Curve Type Comments
#----------  --------------- ----------  ---------- -----------
 DEPTH      .M                         : Depth       
 BitSize    .in                        : bitSize     
 CAL_INCH   .inch                      : caliper     Caliper Log - A representation of the measured diameter of a borehole along its depth
 SP_MV1     .mv                        : SP          Spontaneous Potential - Records the electrical potential produced by the interaction of formation water, conductive drilling mud, and certain ion-sele
 GR_API     .API                       : gammaRay    Gamma Ray (API) - Measures the intensity of natural gamma-ray radiation emitted from formations containing radioactive elements, such as K, Th and U
 LLD_OHMM   .ohmm                      : deepRes     Laterlog Deep Resistivity - Measurement made several feet into the formation; generally considered a measurement of the undisturbed formation
 LLS_OHMM   .ohmm                      : shalRes     Laterlog Shallow Resistivity - one to two feet into the formation; generally considered to measure the formation
 DT_US_FT   .us/ft                     : density     Interval Transit Time: Compressional Wave - Evaluates the time it takes for a compressional wave to traverse a fixed distance
 RHOB_G_CC  .g/cc                      : density     Bulk Density - Measures the density of bulk material, including any void space or other materials contained in the subject volume
 DRHO_G_CC  .g/cc                      : drho        Density Correction - Investigates the correction to the Bulk Density log; used as an indication of hole condition to validate the Bulk Density measure
 NPHI_v_v   .PC                        : Neutron     Neutron Porosity - Measured with an neutron logging device calibrated to a given matrix (limestone, sandstone and dolomite)
 PEF_B_E    .b/e-                      : PEF         Photoelectric Factor - A log of photoelectric absorption properties. Often expressed in an approximation unit barns/electron (b/e-)
 LITH       .                          : LITH        Lithology Curve
 LITH_v2    .                          : LITH        Lithology Curve
~A  DEPTH  BitSize   CAL_INCH   SP_MV1    GR_API   LLD_OHMM  LLS_OHMM  DT_US_FT RHOB_G_C  DRHO_G_C  NPHI_v_v  PEF_B_E     LITH    LITH_v2  
# ...
1007.6688   17.5000   17.0659   -0.1014   12.8223    0.5026    0.5607   96.4417 -999.0000 -999.0000 -999.0000 -999.0000 -999.0000 -999.0000 
1007.8212   17.5000   17.0589    0.0535   12.9561    0.5558    0.6379   96.4800 -999.0000 -999.0000 -999.0000 -999.0000 -999.0000 -999.0000 
1007.9736   17.5000   17.0656    0.2194   13.5369    0.5931    0.7038   96.6111 -999.0000 -999.0000 -999.0000 -999.0000 -999.0000 -999.0000 
1008.1260   17.5000   17.0911    0.3874   14.8875    0.5833    0.7620   95.0111 -999.0000 -999.0000 -999.0000 -999.0000 -999.0000 -999.0000 
1008.2784   17.5000   17.1272    0.4605   15.3604    0.5457    0.7485   97.2704 -999.0000 -999.0000 -999.0000 -999.0000 -999.0000 -999.0000 
1008.4308   17.5000   17.1464    0.4007   15.1484    0.5007    0.6800   99.8752 -999.0000 -999.0000 -999.0000 -999.0000 -999.0000 -999.0000 
1008.5832   17.5000   17.1506    0.2146   17.5184    0.4710    0.5600   99.0181 -999.0000 -999.0000 -999.0000 -999.0000 -999.0000 -999.0000 
1008.7356   17.5000   17.1522   -0.1266   18.8933    0.4578    0.4698   96.6024 -999.0000 -999.0000 -999.0000 -999.0000 -999.0000 -999.0000 
1008.8880   17.5000   17.1495   -0.5486   19.1915    0.4596    0.4590   93.4365 -999.0000 -999.0000 -999.0000 -999.0000 -999.0000 -999.0000 
1009.0404   17.5000   17.1479   -0.8011   17.9235    0.4710    0.5308   89.0559 -999.0000 -999.0000 -999.0000 -999.0000 -999.0000 -999.0000 
1009.1928   17.5000   17.1535   -0.9038   17.5603    0.5002    0.6509   85.3351 -999.0000 -999.0000 -999.0000 -999.0000 -999.0000 -999.0000 
1009.3452   17.5000   17.1634   -0.7980   17.1291    0.5352    0.7347   81.6984 -999.0000 -999.0000 -999.0000 -999.0000 -999.0000 -999.0000 
1009.4976   17.5000   17.2061   -0.4552   18.4718    0.5575    0.7424   78.9889 -999.0000 -999.0000 -999.0000 -999.0000 -999.0000 -999.0000 
1009.6500   17.5000   17.3713   -0.0964   16.6952    0.5650    0.7138   81.2326 -999.0000 -999.0000 -999.0000 -999.0000 -999.0000 -999.0000 
1009.8024   17.5000   17.5413    0.2428   17.1980    0.5419    0.6894   86.5450 -999.0000 -999.0000 -999.0000 -999.0000 -999.0000 -999.0000 
1009.9548   17.5000   17.5833    0.4853   16.3234    0.5381    0.6524   89.9187 -999.0000 -999.0000 -999.0000 -999.0000 -999.0000 -999.0000 
1010.1072   17.5000   17.5519    0.5562   16.3724    0.5394    0.6442   88.6151 -999.0000 -999.0000 -999.0000 -999.0000 -999.0000 -999.0000 
1010.2596   17.5000   17.4482    0.3891   16.3187    0.5636    0.6288   85.3907 -999.0000 -999.0000 -999.0000 -999.0000 -999.0000 -999.0000 
1010.4120   17.5000   17.3806    0.1325   17.5634    0.5923    0.6420   84.6333 -999.0000 -999.0000 -999.0000 -999.0000 -999.0000 -999.0000 
1010.5644   17.5000   17.3910   -0.0928   18.9326    0.6116    0.6827   86.1153 -999.0000 -999.0000 -999.0000 -999.0000 -999.0000 -999.0000 
1010.7168   17.5000   17.3978   -0.2549   19.0945    0.6155    0.7118   89.3776 -999.0000 -999.0000 -999.0000 -999.0000 -999.0000 -999.0000 
1010.8692   17.5000   17.3895   -0.2813   18.4311    0.5892    0.7146   95.2302 -999.0000 -999.0000 -999.0000 -999.0000 -999.0000 -999.0000 
1011.0216   17.5000   17.3828   -0.1399   18.6833    0.5570    0.6621  100.2430 -999.0000 -999.0000 -999.0000 -999.0000 -999.0000 -999.0000 
1011.1740   17.5000   17.3666    0.0496   18.9922    0.5169    0.6113  102.1332 -999.0000 -999.0000 -999.0000 -999.0000 -999.0000 -999.0000 
1011.3264   17.5000   17.3077    0.2040   17.2041    0.4848    0.5714   99.8187 -999.0000 -999.0000 -999.0000 -999.0000 -999.0000 -999.0000 
1011.4788   17.5000   17.2043    0.3039   14.9984    0.4595    0.5624   96.3333 -999.0000 -999.0000 -999.0000 -999.0000 -999.0000 -999.0000 
1011.6312   17.5000   17.0944    0.3860   15.3257    0.4483    0.5768   96.6891 -999.0000 -999.0000 -999.0000 -999.0000 -999.0000 -999.0000 
1011.7836   17.5000   17.0344    0.3828   15.9990    0.4469    0.6094   97.0667 -999.0000 -999.0000 -999.0000 -999.0000 -999.0000 -999.0000 
1011.9360   17.5000   17.0268    0.2068   16.3002    0.4505    0.6265   97.3878 -999.0000 -999.0000 -999.0000 -999.0000 -999.0000 -999.0000 
1012.0884   17.5000   17.0244   -0.0606   14.1609    0.4508    0.6338   99.1932 -999.0000 -999.0000 -999.0000 -999.0000 -999.0000 -999.0000 
1012.2408   17.5000   17.0384   -0.2978   14.1404    0.4440    0.6132  100.4738 -999.0000 -999.0000 -999.0000 -999.0000 -999.0000 -999.0000 
1012.3932   17.5000   17.0992   -0.4809   14.9128    0.4360    0.5756  100.2667 -999.0000 -999.0000 -999.0000 -999.0000 -999.0000 -999.0000 
1012.5456   17.5000   17.2167   -0.4217   17.3316    0.4284    0.5797  100.8355 -999.0000 -999.0000 -999.0000 -999.0000 -999.0000 -999.0000 
1012.6980   17.5000   17.3013   -0.2218   18.6636    0.4250    0.5719  102.8222 -999.0000 -999.0000 -999.0000 -999.0000 -999.0000 -999.0000 
1012.8504   17.5000   17.3117    0.0798   19.7919    0.4133    0.5658  103.7889 -999.0000 -999.0000 -999.0000 -999.0000 -999.0000 -999.0000 
1013.0028   17.5000   17.3117    0.3221   18.4227    0.4033    0.5418  101.8761 -999.0000 -999.0000 -999.0000 -999.0000 -999.0000 -999.0000 
1013.1552   17.5000   17.3147    0.3951   17.0289    0.3946    0.5168   98.1339 -999.0000 -999.0000 -999.0000 -999.0000 -999.0000 -999.0000 
1013.3076   17.5000   17.3191    0.3052   15.5253    0.3870    0.5042   96.7000 -999.0000 -999.0000 -999.0000 -999.0000 -999.0000 -999.0000 
1013.4600   17.5000   17.3226    0.0764   16.2159    0.3790    0.4877   99.6376 -999.0000 -999.0000 -999.0000 -999.0000 -999.0000 -999.0000 
1013.6124   17.5000   17.3246   -0.2038   16.8244    0.3675    0.5278  103.1978 -999.0000 -999.0000 -999.0000 -999.0000 -999.0000 -999.0000 
1013.7648   17.5000   17.3246   -0.4586   17.2734    0.3658    0.5424  105.5707 -999.0000 -999.0000 -999.0000 -999.0000 -999.0000 -999.0000 
1013.9172   17.5000   17.3238   -0.6037   16.9052    0.3687    0.5673  105.5993 -999.0000 -999.0000 -999.0000 -999.0000 -999.0000 -999.0000 
1014.0696   17.5000   17.3162   -0.6314   16.3050    0.3762    0.5378  103.2431 -999.0000 -999.0000 -999.0000 -999.0000 -999.0000 -999.0000 
1014.2220   17.5000   17.3063   -0.4280   16.4185    0.3892    0.5528  101.6445 -999.0000 -999.0000 -999.0000 -999.0000 -999.0000 -999.0000 
1014.3744   17.5000   17.3009   -0.1985   16.7656    0.3985    0.5930  104.6404 -999.0000 -999.0000 -999.0000 -999.0000 -999.0000 -999.0000 
1014.5268   17.5000   17.2987    0.0427   17.1043    0.4141    0.5734  109.5794 -999.0000 -999.0000 -999.0000 -999.0000 -999.0000 -999.0000 
1014.6792   17.5000   17.3255    0.2069   15.8261    0.4206    0.5328  110.0893 -999.0000 -999.0000 -999.0000 -999.0000 -999.0000 -999.0000 
1014.8316   17.5000   17.4487    0.2369   15.1302    0.4243    0.4840  106.1041 -999.0000 -999.0000 -999.0000 -999.0000 -999.0000 -999.0000 
1014.9840   17.5000   17.6287    0.0714   14.0681    0.4095    0.4785  102.6806 -999.0000 -999.0000 -999.0000 -999.0000 -999.0000 -999.0000 
1015.1364   17.5000   17.8569   -0.1475   13.4970    0.3875    0.4833  101.8333 -999.0000 -999.0000 -999.0000 -999.0000 -999.0000 -999.0000 
1015.2888   17.5000   18.0731   -0.4426   13.7254    0.3612    0.4136  103.7363 -999.0000 -999.0000 -999.0000 -999.0000 -999.0000 -999.0000 
1015.4412   17.5000   18.1346   -0.6754   13.6127    0.3465    0.4128  106.8331 -999.0000 -999.0000 -999.0000 -999.0000 -999.0000 -999.0000 
1015.5936   17.5000   18.1274   -0.7685   13.6218    0.3440    0.4251  110.8697 -999.0000 -999.0000 -999.0000 -999.0000 -999.0000 -999.0000 
1015.7460   17.5000   18.1595   -0.6726   13.5830    0.3434    0.4483  113.6333 -999.0000 -999.0000 -999.0000 -999.0000 -999.0000 -999.0000 
1015.8984   17.5000   18.2469   -0.4626   14.9694    0.3493    0.4741  110.3449 -999.0000 -999.0000 -999.0000 -999.0000 -999.0000 -999.0000 
1016.0508   17.5000   18.3265   -0.2163   16.6345    0.3447    0.4925  104.6408 -999.0000 -999.0000 -999.0000 -999.0000 -999.0000 -999.0000 
1016.2032   17.5000   18.3561   -0.0137   16.6946    0.3403    0.5122  103.1978 -999.0000 -999.0000 -999.0000 -999.0000 -999.0000 -999.0000 
