~VERSION INFORMATION
 VERS.                 2.0:   CWLS LOG ASCII STANDARD - VERSION 2.0
 WRAP.                  NO:   SINGLE LINE PER DEPTH STEP
 CREA.                 08/01/2018 13:33:07
#CREATED USING DSPetro VERSION 5000.10.1.3 BY H191660 ON 08/01/2018 13:33:07
~WELL INFORMATION
#MNEM.UNIT       DATA                          DESCRIPTION MNEMONIC
#---------      ---------------------------   --------------------------
 STRT    .M         0.0000                    : START DEPTH
 STOP    .M         3199.9428                 : STOP DEPTH
 STEP    .M         0.1524                    : STEP VALUE
 NULL    .      -999.0000                     : NULL VALUE
 DATE    .      08/01/2018                    : LAS file Creation Date
 WELL .      2400_Nebo-1                 : Well Name
 COMP .      Neftex Exploration Insights : Company
 FLD  .      NEBO                        : Field
 UWI  .      ZAUWL_005243                : Unique Well Identifier (UWI)
 LOC  .                                  : Location
 RWS  .      -999                        : Def_Rw
 WST  .      -999                        : Def_Rwt
 SRVC .                                  : Contractor
~CURVE INFORMATION
#MNEM              UNIT       API CODE   Curve Type Comments
#----------  --------------- ----------  ---------- -----------
 DEPTH      .M                         : Depth       
 BitSize    .in                        : bitSize     
 CAL_INCH   .inch                      : caliper     Caliper Log - A representation of the measured diameter of a borehole along its depth
 SP_MV1     .mv                        : SP          Spontaneous Potential - Records the electrical potential produced by the interaction of formation water, conductive drilling mud, and certain ion-sele
 GR_API     .API                       : gammaRay    Gamma Ray (API) - Measures the intensity of natural gamma-ray radiation emitted from formations containing radioactive elements, such as K, Th and U
 LLD_OHMM   .ohmm                      : deepRes     Laterlog Deep Resistivity - Measurement made several feet into the formation; generally considered a measurement of the undisturbed formation
 LLS_OHMM   .ohmm                      : shalRes     Laterlog Shallow Resistivity - one to two feet into the formation; generally considered to measure the formation
 DT_US_FT   .us/ft                     : density     Interval Transit Time: Compressional Wave - Evaluates the time it takes for a compressional wave to traverse a fixed distance
 RHOB_G_CC  .g/cc                      : density     Bulk Density - Measures the density of bulk material, including any void space or other materials contained in the subject volume
 DRHO_G_CC  .g/cc                      : drho        Density Correction - Investigates the correction to the Bulk Density log; used as an indication of hole condition to validate the Bulk Density measure
 NPHI_v_v   .PC                        : Neutron     Neutron Porosity - Measured with an neutron logging device calibrated to a given matrix (limestone, sandstone and dolomite)
 PEF_B_E    .b/e-                      : PEF         Photoelectric Factor - A log of photoelectric absorption properties. Often expressed in an approximation unit barns/electron (b/e-)
 LITH       .                          : LITH        Lithology Curve
 LITH_v2    .                          : LITH        Lithology Curve
~A  DEPTH  BitSize   CAL_INCH   SP_MV1    GR_API   LLD_OHMM  LLS_OHMM  DT_US_FT RHOB_G_C  DRHO_G_C  NPHI_v_v  PEF_B_E     LITH    LITH_v2  
# ...
 608.0760   17.5000   17.6413    1.6471   17.9908    0.6564    0.7381  106.7760 -999.0000 -999.0000 -999.0000 -999.0000 -999.0000 -999.0000 
 608.2284   17.5000   17.6836    1.5662   18.7037    0.6624    0.7834  104.5823 -999.0000 -999.0000 -999.0000 -999.0000 -999.0000 -999.0000 
 608.3808   17.5000   17.7399    1.4907   18.7337    0.6804    0.8079  101.9556 -999.0000 -999.0000 -999.0000 -999.0000 -999.0000 -999.0000 
 608.5332   17.5000   17.7583    1.5017   17.0385    0.7124    0.8189  103.0940 -999.0000 -999.0000 -999.0000 -999.0000 -999.0000 -999.0000 
 608.6856   17.5000   17.7493    1.5914   16.2374    0.7449    0.8192  106.3211 -999.0000 -999.0000 -999.0000 -999.0000 -999.0000 -999.0000 
 608.8380   17.5000   17.6784    1.6961   13.5910    0.7575    0.8458  106.9111 -999.0000 -999.0000 -999.0000 -999.0000 -999.0000 -999.0000 
 608.9904   17.5000   17.5327    1.8423   13.4424    0.7411    0.8481  102.5876 -999.0000 -999.0000 -999.0000 -999.0000 -999.0000 -999.0000 
 609.1428   17.5000   17.4392    1.8892   13.4493    0.7031    0.8517  100.5985 -999.0000 -999.0000 -999.0000 -999.0000 -999.0000 -999.0000 
 609.2952   17.5000   17.4265    1.9436   13.7670    0.6584    0.7891  100.7813 -999.0000 -999.0000 -999.0000 -999.0000 -999.0000 -999.0000 
 609.4476   17.5000   17.4258    1.9541   12.9485    0.6088    0.6972  101.3974 -999.0000 -999.0000 -999.0000 -999.0000 -999.0000 -999.0000 
 609.6000   17.5000   17.4252    1.8355   12.5765    0.5654    0.6375  102.4778 -999.0000 -999.0000 -999.0000 -999.0000 -999.0000 -999.0000 
 609.7524   17.5000   17.4318    1.7714   14.3565    0.5302    0.6231  101.8284 -999.0000 -999.0000 -999.0000 -999.0000 -999.0000 -999.0000 
 609.9048   17.5000   17.4366    1.7341   16.8922    0.5139    0.6318  101.2778 -999.0000 -999.0000 -999.0000 -999.0000 -999.0000 -999.0000 
 610.0572   17.5000   17.4334    1.7005   18.5801    0.5031    0.6394  104.0372 -999.0000 -999.0000 -999.0000 -999.0000 -999.0000 -999.0000 
 610.2096   17.5000   17.4294    1.7399   19.1122    0.4947    0.6246  105.6444 -999.0000 -999.0000 -999.0000 -999.0000 -999.0000 -999.0000 
 610.3620   17.5000   17.4304    1.8410   17.4073    0.4917    0.6220  104.4887 -999.0000 -999.0000 -999.0000 -999.0000 -999.0000 -999.0000 
 610.5144   17.5000   17.4326    1.9800   16.7826    0.4795    0.6105  103.4544 -999.0000 -999.0000 -999.0000 -999.0000 -999.0000 -999.0000 
 610.6668   17.5000   17.4357    2.0853   16.4907    0.4670    0.6136  103.1423 -999.0000 -999.0000 -999.0000 -999.0000 -999.0000 -999.0000 
 610.8192   17.5000   17.4398    2.1995   18.0133    0.4594    0.6004  101.9764 -999.0000 -999.0000 -999.0000 -999.0000 -999.0000 -999.0000 
 610.9716   17.5000   17.4409    2.2672   19.5814    0.4648    0.5954   99.4085 -999.0000 -999.0000 -999.0000 -999.0000 -999.0000 -999.0000 
 611.1240   17.5000   17.4467    2.2835   20.4686    0.4814    0.6145   96.3051 -999.0000 -999.0000 -999.0000 -999.0000 -999.0000 -999.0000 
 611.2764   17.5000   17.4696    2.2298   19.2304    0.4979    0.6346   93.4428 -999.0000 -999.0000 -999.0000 -999.0000 -999.0000 -999.0000 
 611.4288   17.5000   17.4938    2.1032   16.3763    0.5104    0.6354   91.4792 -999.0000 -999.0000 -999.0000 -999.0000 -999.0000 -999.0000 
 611.5812   17.5000   17.5679    1.9574   14.8908    0.5199    0.6450   90.5556 -999.0000 -999.0000 -999.0000 -999.0000 -999.0000 -999.0000 
 611.7336   17.5000   17.7028    1.8210   13.8524    0.5234    0.6276   93.6994 -999.0000 -999.0000 -999.0000 -999.0000 -999.0000 -999.0000 
 611.8860   17.5000   17.7795    1.7243   15.1779    0.5197    0.6424   99.6815 -999.0000 -999.0000 -999.0000 -999.0000 -999.0000 -999.0000 
 612.0384   17.5000   17.7864    1.6812   15.8927    0.5184    0.6200  102.3938 -999.0000 -999.0000 -999.0000 -999.0000 -999.0000 -999.0000 
 612.1908   17.5000   17.7870    1.7949   17.0944    0.5142    0.6156  100.8533 -999.0000 -999.0000 -999.0000 -999.0000 -999.0000 -999.0000 
 612.3432   17.5000   17.7898    1.9615   15.8176    0.5086    0.5827   97.6717 -999.0000 -999.0000 -999.0000 -999.0000 -999.0000 -999.0000 
 612.4956   17.5000   17.7928    2.1586   14.8411    0.5068    0.5712   96.4690 -999.0000 -999.0000 -999.0000 -999.0000 -999.0000 -999.0000 
 612.6480   17.5000   17.7942    2.4006   14.1843    0.5036    0.5703   95.7878 -999.0000 -999.0000 -999.0000 -999.0000 -999.0000 -999.0000 
 612.8004   17.5000   17.7940    2.5523   14.7530    0.5071    0.6171   92.9843 -999.0000 -999.0000 -999.0000 -999.0000 -999.0000 -999.0000 
 612.9528   17.5000   17.7706    2.5953   16.0909    0.5167    0.6586   92.3556 -999.0000 -999.0000 -999.0000 -999.0000 -999.0000 -999.0000 
 613.1052   17.5000   17.6881    2.5456   15.6364    0.5253    0.6921   96.5719 -999.0000 -999.0000 -999.0000 -999.0000 -999.0000 -999.0000 
 613.2576   17.5000   17.6076    2.4073   15.9622    0.5347    0.6727   99.3804 -999.0000 -999.0000 -999.0000 -999.0000 -999.0000 -999.0000 
 613.4100   17.5000   17.5858    2.2530   14.7504    0.5463    0.6836  101.3299 -999.0000 -999.0000 -999.0000 -999.0000 -999.0000 -999.0000 
 613.5624   17.5000   17.5836    2.1193   16.8054    0.5525    0.6843  102.8073 -999.0000 -999.0000 -999.0000 -999.0000 -999.0000 -999.0000 
 613.7148   17.5000   17.5871    2.0244   18.4616    0.5625    0.7123  103.2222 -999.0000 -999.0000 -999.0000 -999.0000 -999.0000 -999.0000 
 613.8672   17.5000   17.6383    1.9049   19.5449    0.5737    0.7108  101.9300 -999.0000 -999.0000 -999.0000 -999.0000 -999.0000 -999.0000 
 614.0196   17.5000   17.7059    1.7793   19.1631    0.5918    0.7203   99.9151 -999.0000 -999.0000 -999.0000 -999.0000 -999.0000 -999.0000 
 614.1720   17.5000   17.7278    1.7175   16.4330    0.6201    0.7307   96.7918 -999.0000 -999.0000 -999.0000 -999.0000 -999.0000 -999.0000 
 614.3244   17.5000   17.7314    1.7464   16.1585    0.6495    0.7676   93.0442 -999.0000 -999.0000 -999.0000 -999.0000 -999.0000 -999.0000 
 614.4768   17.5000   17.7348    1.8373   14.9902    0.6743    0.7959   93.6984 -999.0000 -999.0000 -999.0000 -999.0000 -999.0000 -999.0000 
 614.6292   17.5000   17.7315    2.0125   14.9994    0.6906    0.8169  100.5704 -999.0000 -999.0000 -999.0000 -999.0000 -999.0000 -999.0000 
 614.7816   17.5000   17.6807    2.1794   14.6632    0.6983    0.8109  103.0778 -999.0000 -999.0000 -999.0000 -999.0000 -999.0000 -999.0000 
 614.9340   17.5000   17.5703    2.2399   14.9133    0.7103    0.7999   98.1511 -999.0000 -999.0000 -999.0000 -999.0000 -999.0000 -999.0000 
 615.0864   17.5000   17.4689    2.1944   13.6343    0.7123    0.8094   96.3222 -999.0000 -999.0000 -999.0000 -999.0000 -999.0000 -999.0000 
 615.2388   17.5000   17.4298    2.0904   13.8321    0.7088    0.7908   98.7494 -999.0000 -999.0000 -999.0000 -999.0000 -999.0000 -999.0000 
 615.3912   17.5000   17.4266    1.9798   12.4790    0.6927    0.8191   99.2257 -999.0000 -999.0000 -999.0000 -999.0000 -999.0000 -999.0000 
 615.5436   17.5000   17.4301    1.8431   12.3346    0.6856    0.8148   98.0358 -999.0000 -999.0000 -999.0000 -999.0000 -999.0000 -999.0000 
 615.6960   17.5000   17.4352    1.7427   13.7333    0.6750    0.8164   97.8453 -999.0000 -999.0000 -999.0000 -999.0000 -999.0000 -999.0000 
 615.8484   17.5000   17.4388    1.6810   14.9053    0.6716    0.7912   98.0719 -999.0000 -999.0000 -999.0000 -999.0000 -999.0000 -999.0000 
 616.0008   17.5000   17.4409    1.6532   16.9960    0.6655    0.7841   98.4128 -999.0000 -999.0000 -999.0000 -999.0000 -999.0000 -999.0000 
 616.1532   17.5000   17.4409    1.6457   17.6123    0.6562    0.7795   98.8445 -999.0000 -999.0000 -999.0000 -999.0000 -999.0000 -999.0000 
 616.3056   17.5000   17.4441    1.7367   17.1572    0.6474    0.7971   97.8722 -999.0000 -999.0000 -999.0000 -999.0000 -999.0000 -999.0000 
 616.4580   17.5000   17.4485    1.8146   16.2286    0.6415    0.7599   97.1333 -999.0000 -999.0000 -999.0000 -999.0000 -999.0000 -999.0000 
 616.6104   17.5000   17.4495    1.8941   15.1805    0.6368    0.7465   99.4226 -999.0000 -999.0000 -999.0000 -999.0000 -999.0000 -999.0000 
