~VERSION INFORMATION
 VERS.                 2.0:   CWLS LOG ASCII STANDARD - VERSION 2.0
 WRAP.                  NO:   SINGLE LINE PER DEPTH STEP
 CREA.                 08/01/2018 13:33:07
#CREATED USING DSPetro VERSION 5000.10.1.3 BY H191660 ON 08/01/2018 13:33:07
~WELL INFORMATION
#MNEM.UNIT       DATA                          DESCRIPTION MNEMONIC
#---------      ---------------------------   --------------------------
 STRT    .M         0.0000                    : START DEPTH
 STOP    .M         3199.9428                 : STOP DEPTH
 STEP    .M         0.1524                    : STEP VALUE
 NULL    .      -999.0000                     : NULL VALUE
 DATE    .      08/01/2018                    : LAS file Creation Date
 WELL .      2400_Nebo-1                 : Well Name
 COMP .      Neftex Exploration Insights : Company
 FLD  .      NEBO                        : Field
 UWI  .      ZAUWL_005243                : Unique Well Identifier (UWI)
 LOC  .                                  : Location
 RWS  .      -999                        : Def_Rw
 WST  .      -999                        : Def_Rwt
 SRVC .                                  : Contractor
~CURVE INFORMATION
#MNEM              UNIT       API CODE   Curve Type Comments
#----------  --------------- ----------  ---------- -----------
 DEPTH      .M                         : Depth       
 BitSize    .in                        : bitSize     
 CAL_INCH   .inch                      : caliper     Caliper Log - A representation of the measured diameter of a borehole along its depth
 SP_MV1     .mv                        : SP          Spontaneous Potential - Records the electrical potential produced by the interaction of formation water, conductive drilling mud, and certain ion-sele
 GR_API     .API                       : gammaRay    Gamma Ray (API) - Measures the intensity of natural gamma-ray radiation emitted from formations containing radioactive elements, such as K, Th and U
 LLD_OHMM   .ohmm                      : deepRes     Laterlog Deep Resistivity - Measurement made several feet into the formation; generally considered a measurement of the undisturbed formation
 LLS_OHMM   .ohmm                      : shalRes     Laterlog Shallow Resistivity - one to two feet into the formation; generally considered to measure the formation
 DT_US_FT   .us/ft                     : density     Interval Transit Time: Compressional Wave - Evaluates the time it takes for a compressional wave to traverse a fixed distance
 RHOB_G_CC  .g/cc                      : density     Bulk Density - Measures the density of bulk material, including any void space or other materials contained in the subject volume
 DRHO_G_CC  .g/cc                      : drho        Density Correction - Investigates the correction to the Bulk Density log; used as an indication of hole condition to validate the Bulk Density measure
 NPHI_v_v   .PC                        : Neutron     Neutron Porosity - Measured with an neutron logging device calibrated to a given matrix (limestone, sandstone and dolomite)
 PEF_B_E    .b/e-                      : PEF         Photoelectric Factor - A log of photoelectric absorption properties. Often expressed in an approximation unit barns/electron (b/e-)
 LITH       .                          : LITH        Lithology Curve
 LITH_v2    .                          : LITH        Lithology Curve
~A  DEPTH  BitSize   CAL_INCH   SP_MV1    GR_API   LLD_OHMM  LLS_OHMM  DT_US_FT RHOB_G_C  DRHO_G_C  NPHI_v_v  PEF_B_E     LITH    LITH_v2  
# ...
2831.8968    8.5000    8.6496    6.4678   47.6823    1.4033    1.5614   80.9731    2.2741    0.0054   15.8838    2.1233   27.0000   27.0000 
2832.0492    8.5000    8.6386    6.2865   47.2074    1.4495    1.6178   82.7765    2.3099    0.0165   15.3168    2.0962   27.0000   27.0000 
2832.2016    8.5000    8.6175    6.1607   39.5476    1.5125    1.6348   83.9091    2.3325    0.0226   14.6439    2.0400   27.0000   27.0000 
2832.3540    8.5000    8.5987    5.8874   36.6414    1.5860    1.6789   82.9659    2.3171    0.0178   14.0485    1.9751   27.0000   27.0000 
2832.5064    8.5000    8.5977    5.5697   32.6163    1.6577    1.7363   80.9137    2.3162    0.0179   13.5519    2.0412   27.0000   27.0000 
2832.6588    8.5000    8.6008    5.6188   38.2420    1.8476    1.8826   79.3933    2.3275    0.0141   13.3526    2.1800   27.0000   27.0000 
2832.8112    8.5000    8.6044    5.9721   38.9354    2.0556    2.0256   78.8052    2.3584    0.0155   13.2148    2.2808   27.0000   27.0000 
2832.9636    8.5000    8.6063    6.2235   39.8334    2.1384    2.0738   78.5948    2.3757    0.0096   12.8681    2.2790   27.0000   27.0000 
2833.1160    8.5000    8.6063    6.6004   36.7525    2.1040    2.0017   77.2720    2.3793    0.0064   13.0093    2.2002   27.0000   27.0000 
2833.2684    8.5000    8.6063    6.7962   40.9113    1.9031    1.8272   74.9764    2.3580   -0.0012   13.3201    2.1410   27.0000   27.0000 
2833.4208    8.5000    8.6063    6.4531   45.1257    1.6374    1.5989   74.1173    2.3250   -0.0020   14.1580    2.1619   27.0000   27.0000 
2833.5732    8.5000    8.6063    6.2368   50.4148    1.4442    1.4733   75.4644    2.2886    0.0052   15.1737    2.1636   27.0000   27.0000 
2833.7256    8.5000    8.6063    5.9991   51.1474    1.3680    1.3896   78.2217    2.2671    0.0193   15.7932    2.2211   27.0000   27.0000 
2833.8780    8.5000    8.6095    5.9022   54.2760    1.3523    1.3831   81.6607    2.2549    0.0239   16.4198    2.1261   27.0000   27.0000 
2834.0304    8.5000    8.6153    5.8578   53.2022    1.4302    1.4088   84.2570    2.2589    0.0162   16.3166    2.1234   27.0000   27.0000 
2834.1828    8.5000    8.6173    5.8752   50.1589    1.5422    1.4825   84.7070    2.2807    0.0027   15.6912    2.0462   27.0000   27.0000 
2834.3352    8.5000    8.6157    6.1483   42.0101    1.5113    1.5218   82.9519    2.2958    0.0051   15.0376    2.0191   27.0000   27.0000 
2834.4876    8.5000    8.6150    6.2621   38.2785    1.5142    1.5318   80.1066    2.2883    0.0087   14.8069    2.0453   27.0000   27.0000 
2834.6400    8.5000    8.6150    6.2751   44.1868    1.4108    1.4735   78.5720    2.2849    0.0226   14.8543    2.1075   27.0000   27.0000 
2834.7924    8.5000    8.6151    6.2637   51.3130    1.3662    1.4806   79.2618    2.2805    0.0247   15.1480    2.1250   27.0000   27.0000 
2834.9448    8.5000    8.6157    5.8835   57.0367    1.4655    1.5079   80.7355    2.2977    0.0015   15.1302    2.2902   27.0000   27.0000 
2835.0972    8.5000    8.6187    5.5883   50.5831    1.5112    1.5589   81.4463    2.3793    0.0130   14.6476    2.4000   27.0000   27.0000 
2835.2496    8.5000    8.6214    5.3164   37.9518    1.5848    1.5673   80.3772    2.3915    0.0082   13.7911    2.3494   27.0000   27.0000 
2835.4020    8.5000    8.6222    5.5654   30.4899    1.5270    1.5051   78.6340    2.3521    0.0032   13.0735    2.1736   27.0000   27.0000 
2835.5544    8.5000    8.6231    5.7938   23.0454    1.4739    1.4430   76.8949    2.3128   -0.0017   12.4546    2.0121   27.0000   27.0000 
2835.7068    8.5000    8.6237    6.1703   17.9021    1.3994    1.3950   75.6267    2.2874   -0.0033   11.9292    1.9110   27.0000   27.0000 
2835.8592    8.5000    8.6244    6.2341   17.8094    1.4057    1.3892   75.4536    2.2945    0.0024   11.7644    1.9584   27.0000   27.0000 
2836.0116    8.5000    8.6251    6.2980   17.7285    1.4113    1.3834   75.2802    2.3016    0.0082   11.7506    2.0059   27.0000   27.0000 
2836.1640    8.5000    8.6247    6.0567   18.4430    1.4034    1.4041   75.1279    2.3073    0.0106   11.8053    2.0425   27.0000   27.0000 
2836.3164    8.5000    8.6223    5.8414   19.0105    1.4204    1.4321   75.2226    2.3101    0.0098   11.9274    2.0838   27.0000   27.0000 
2836.4688    8.5000    8.6199    5.6265   19.5775    1.4374    1.4600   75.3172    2.3130    0.0089   12.0702    2.1251   27.0000   27.0000 
2836.6212    8.5000    8.6175    5.4116   20.1443    1.4544    1.4880   75.4118    2.3159    0.0081   12.2129    2.1663   27.0000   27.0000 
2836.7736    8.5000    8.6083    5.1974   21.5868    1.4207    1.4736   75.4036    2.3224    0.0125   12.5236    2.1545   27.0000   27.0000 
2836.9260    8.5000    8.5985    5.1926   25.7726    1.4739    1.4763   75.0919    2.3233    0.0177   12.5143    2.1102   27.0000   27.0000 
2837.0784    8.5000    8.5933    5.1814   28.3165    1.5182    1.5032   74.8178    2.3234    0.0214   12.4004    2.0650   27.0000   27.0000 
2837.2308    8.5000    8.5890    5.1211   29.7179    1.5836    1.5383   74.6553    2.3244    0.0236   12.2059    2.0263   27.0000   27.0000 
2837.3832    8.5000    8.5932    5.3398   26.6630    1.7137    1.6636   74.6433    2.3227    0.0151   11.7705    2.0460   27.0000   27.0000 
2837.5356    8.5000    8.6047    5.4975   24.7104    1.8355    1.7578   73.9837    2.3307    0.0114   11.2170    2.1164   27.0000   27.0000 
2837.6880    8.5000    8.6162    5.6553   22.7561    1.9574    1.8521   73.3235    2.3388    0.0077   10.6759    2.1867   27.0000   27.0000 
2837.8404    8.5000    8.6253    5.2404   20.1344    2.0048    1.9063   72.6370    2.3519    0.0092   10.1024    2.2111   27.0000   27.0000 
2837.9928    8.5000    8.6248    5.1020   20.0868    1.9644    1.8864   72.0936    2.3548    0.0124    9.8460    2.1992   27.0000   27.0000 
2838.1452    8.5000    8.6243    4.9639   20.0393    1.9240    1.8681   71.5513    2.3576    0.0156    9.8147    2.1883   27.0000   27.0000 
2838.2976    8.5000    8.6239    4.8257   19.9918    1.8836    1.8499   71.0084    2.3604    0.0188    9.7834    2.1774   27.0000   27.0000 
2838.4500    8.5000    8.6234    4.6875   19.9442    1.8432    1.8316   70.4655    2.3632    0.0221    9.7389    2.1665   27.0000   27.0000 
2838.6024    8.5000    8.6231    4.8094   20.2604    1.8193    1.7854   70.2716    2.3623    0.0209    9.7573    2.1789   27.0000   27.0000 
2838.7548    8.5000    8.6225    5.2893   20.1715    1.7769    1.7730   70.5074    2.3411    0.0009    9.8843    2.3686   27.0000   27.0000 
2838.9072    8.5000    8.6208    5.7186   17.9053    1.7648    1.7731   70.5390    2.3349   -0.0068    9.7301    2.5438   27.0000   27.0000 
2839.0596    8.5000    8.6066    5.8814   15.7957    1.7373    1.7899   70.6102    2.3387   -0.0036    9.5639    2.6251   27.0000   27.0000 
2839.2120    8.5000    8.5966    5.6222   15.0544    1.7233    1.8076   70.7691    2.3577    0.0061    9.4758    2.5302   27.0000   27.0000 
2839.3644    8.5000    8.5967    5.0888   15.1760    1.7012    1.7820   70.6853    2.3677    0.0118    9.4156    2.3834   27.0000   27.0000 
2839.5168    8.5000    8.5975    4.5113   15.4884    1.6951    1.7577   70.6018    2.3748    0.0157    9.3639    2.2525   27.0000   27.0000 
2839.6692    8.5000    8.5971    4.3153   16.5267    1.5862    1.6787   69.7373    2.3716    0.0168    9.5280    2.1932   27.0000   27.0000 
2839.8216    8.5000    8.5959    4.4216   16.8625    1.5188    1.5753   69.4000    2.3734    0.0274    9.8902    2.2761   27.0000   27.0000 
2839.9740    8.5000    8.5924    4.5310   17.2300    1.4337    1.5056   69.9703    2.3464    0.0165   10.2610    2.1896   27.0000   27.0000 
2840.1264    8.5000    8.5899    5.0616   17.4619    1.4802    1.4909   70.7180    2.3270    0.0045   10.4225    2.0892   27.0000   27.0000 
2840.2788    8.5000    8.5890    5.2032   18.3980    1.4894    1.5349   71.2282    2.3244   -0.0040   10.2843    2.0224   27.0000   27.0000 
2840.4312    8.5000    8.5864    5.4576   22.9005    1.6293    1.6242   71.3909    2.3424   -0.0028    9.9469    2.0425   27.0000   27.0000 
