~VERSION INFORMATION
 VERS.                 2.0:   CWLS LOG ASCII STANDARD - VERSION 2.0
 WRAP.                  NO:   SINGLE LINE PER DEPTH STEP
 CREA.                 08/01/2018 13:33:07
#CREATED USING DSPetro VERSION 5000.10.1.3 BY H191660 ON 08/01/2018 13:33:07
~WELL INFORMATION
#MNEM.UNIT       DATA                          DESCRIPTION MNEMONIC
#---------      ---------------------------   --------------------------
 STRT    .M         0.0000                    : START DEPTH
 STOP    .M         3199.9428                 : STOP DEPTH
 STEP    .M         0.1524                    : STEP VALUE
 NULL    .      -999.0000                     : NULL VALUE
 DATE    .      08/01/2018                    : LAS file Creation Date
 WELL .      2400_Nebo-1                 : Well Name
 COMP .      Neftex Exploration Insights : Company
 FLD  .      NEBO                        : Field
 UWI  .      ZAUWL_005243                : Unique Well Identifier (UWI)
 LOC  .                                  : Location
 RWS  .      -999                        : Def_Rw
 WST  .      -999                        : Def_Rwt
 SRVC .                                  : Contractor
~CURVE INFORMATION
#MNEM              UNIT       API CODE   Curve Type Comments
#----------  --------------- ----------  ---------- -----------
 DEPTH      .M                         : Depth       
 BitSize    .in                        : bitSize     
 CAL_INCH   .inch                      : caliper     Caliper Log - A representation of the measured diameter of a borehole along its depth
 SP_MV1     .mv                        : SP          Spontaneous Potential - Records the electrical potential produced by the interaction of formation water, conductive drilling mud, and certain ion-sele
 GR_API     .API                       : gammaRay    Gamma Ray (API) - Measures the intensity of natural gamma-ray radiation emitted from formations containing radioactive elements, such as K, Th and U
 LLD_OHMM   .ohmm                      : deepRes     Laterlog Deep Resistivity - Measurement made several feet into the formation; generally considered a measurement of the undisturbed formation
 LLS_OHMM   .ohmm                      : shalRes     Laterlog Shallow Resistivity - one to two feet into the formation; generally considered to measure the formation
 DT_US_FT   .us/ft                     : density     Interval Transit Time: Compressional Wave - Evaluates the time it takes for a compressional wave to traverse a fixed distance
 RHOB_G_CC  .g/cc                      : density     Bulk Density - Measures the density of bulk material, including any void space or other materials contained in the subject volume
 DRHO_G_CC  .g/cc                      : drho        Density Correction - Investigates the correction to the Bulk Density log; used as an indication of hole condition to validate the Bulk Density measure
 NPHI_v_v   .PC                        : Neutron     Neutron Porosity - Measured with an neutron logging device calibrated to a given matrix (limestone, sandstone and dolomite)
 PEF_B_E    .b/e-                      : PEF         Photoelectric Factor - A log of photoelectric absorption properties. Often expressed in an approximation unit barns/electron (b/e-)
 LITH       .                          : LITH        Lithology Curve
 LITH_v2    .                          : LITH        Lithology Curve
~A  DEPTH  BitSize   CAL_INCH   SP_MV1    GR_API   LLD_OHMM  LLS_OHMM  DT_US_FT RHOB_G_C  DRHO_G_C  NPHI_v_v  PEF_B_E     LITH    LITH_v2  
# ...
1103.2236   17.5000   17.7580   -0.1491   22.5886    0.6282    0.8800   96.0160 -999.0000 -999.0000 -999.0000 -999.0000 -999.0000 -999.0000 
1103.3760   17.5000   17.6291   -0.0810   23.7592    0.6792    0.9112   92.3720 -999.0000 -999.0000 -999.0000 -999.0000 -999.0000 -999.0000 
1103.5284   17.5000   17.6605    0.0807   22.8994    0.6857    0.8878   90.8556 -999.0000 -999.0000 -999.0000 -999.0000 -999.0000 -999.0000 
1103.6808   17.5000   17.7072    0.3071   24.7166    0.6216    0.8161   93.3327 -999.0000 -999.0000 -999.0000 -999.0000 -999.0000 -999.0000 
1103.8332   17.5000   17.7210    0.4898   24.6808    0.5512    0.7320   98.1563 -999.0000 -999.0000 -999.0000 -999.0000 -999.0000 -999.0000 
1103.9856   17.5000   17.6364    0.5326   25.0799    0.4981    0.6719  103.2480 -999.0000 -999.0000 -999.0000 -999.0000 -999.0000 -999.0000 
1104.1380   17.5000   17.5125    0.4518   24.0728    0.4719    0.6399  105.3778 -999.0000 -999.0000 -999.0000 -999.0000 -999.0000 -999.0000 
1104.2904   17.5000   17.3309    0.3032   22.6952    0.4672    0.6270  102.5472 -999.0000 -999.0000 -999.0000 -999.0000 -999.0000 -999.0000 
1104.4428   17.5000   17.1549    0.1262   24.3423    0.4875    0.6635   98.5827 -999.0000 -999.0000 -999.0000 -999.0000 -999.0000 -999.0000 
1104.5952   17.5000   17.0721   -0.0199   22.9959    0.5224    0.7312   97.0222 -999.0000 -999.0000 -999.0000 -999.0000 -999.0000 -999.0000 
1104.7476   17.5000   17.0454   -0.1079   21.4493    0.5517    0.8024   97.6804 -999.0000 -999.0000 -999.0000 -999.0000 -999.0000 -999.0000 
1104.9000   17.5000   17.0285   -0.1528   20.0314    0.5759    0.8220   97.7101 -999.0000 -999.0000 -999.0000 -999.0000 -999.0000 -999.0000 
1105.0524   17.5000   17.0088   -0.0650   20.3456    0.5809    0.8021   97.1936 -999.0000 -999.0000 -999.0000 -999.0000 -999.0000 -999.0000 
1105.2048   17.5000   16.9910    0.1374   20.3476    0.5642    0.7683   97.5229 -999.0000 -999.0000 -999.0000 -999.0000 -999.0000 -999.0000 
1105.3572   17.5000   16.9735    0.4189   20.3518    0.5456    0.7400   98.4336 -999.0000 -999.0000 -999.0000 -999.0000 -999.0000 -999.0000 
1105.5096   17.5000   16.9684    0.6512   19.2787    0.5276    0.7396   98.7333 -999.0000 -999.0000 -999.0000 -999.0000 -999.0000 -999.0000 
1105.6620   17.5000   16.9711    0.7061   19.1019    0.5180    0.7302   97.3531 -999.0000 -999.0000 -999.0000 -999.0000 -999.0000 -999.0000 
1105.8144   17.5000   16.9713    0.6385   19.9689    0.5124    0.7098   96.4265 -999.0000 -999.0000 -999.0000 -999.0000 -999.0000 -999.0000 
1105.9668   17.5000   16.9687    0.4558   20.5864    0.5046    0.6705   96.5463 -999.0000 -999.0000 -999.0000 -999.0000 -999.0000 -999.0000 
1106.1192   17.5000   16.9602    0.2134   22.1151    0.4945    0.6299   96.5778 -999.0000 -999.0000 -999.0000 -999.0000 -999.0000 -999.0000 
1106.2716   17.5000   16.9528    0.0452   21.3195    0.4860    0.6146   95.1200 -999.0000 -999.0000 -999.0000 -999.0000 -999.0000 -999.0000 
1106.4240   17.5000   16.9498    0.0287   20.9216    0.4840    0.6464   93.3596 -999.0000 -999.0000 -999.0000 -999.0000 -999.0000 -999.0000 
1106.5764   17.5000   16.9469    0.0980   21.0682    0.5003    0.6932   92.5999 -999.0000 -999.0000 -999.0000 -999.0000 -999.0000 -999.0000 
1106.7288   17.5000   16.9454    0.2348   21.7046    0.5180    0.7137   92.3769 -999.0000 -999.0000 -999.0000 -999.0000 -999.0000 -999.0000 
1106.8812   17.5000   16.9455    0.3948   23.0162    0.5364    0.6980   92.5155 -999.0000 -999.0000 -999.0000 -999.0000 -999.0000 -999.0000 
1107.0336   17.5000   16.9477    0.4803   23.0571    0.5411    0.6850   96.6261 -999.0000 -999.0000 -999.0000 -999.0000 -999.0000 -999.0000 
1107.1860   17.5000   16.9497    0.4734   23.3347    0.5356    0.7229  102.8334 -999.0000 -999.0000 -999.0000 -999.0000 -999.0000 -999.0000 
1107.3384   17.5000   16.9507    0.3610   22.5846    0.5254    0.7391  104.9444 -999.0000 -999.0000 -999.0000 -999.0000 -999.0000 -999.0000 
1107.4908   17.5000   16.9528    0.2229   21.1269    0.5083    0.7672  101.6258 -999.0000 -999.0000 -999.0000 -999.0000 -999.0000 -999.0000 
1107.6432   17.5000   16.9550    0.0904   20.7374    0.4971    0.7125   99.1245 -999.0000 -999.0000 -999.0000 -999.0000 -999.0000 -999.0000 
1107.7956   17.5000   16.9572   -0.0524   21.7572    0.4871    0.6710   99.3646 -999.0000 -999.0000 -999.0000 -999.0000 -999.0000 -999.0000 
1107.9480   17.5000   16.9584   -0.0977   22.6053    0.4860    0.7001   99.9009 -999.0000 -999.0000 -999.0000 -999.0000 -999.0000 -999.0000 
1108.1004   17.5000   16.9584   -0.0192   21.4200    0.5047    0.7369   99.2199 -999.0000 -999.0000 -999.0000 -999.0000 -999.0000 -999.0000 
1108.2528   17.5000   16.9561    0.1592   20.0522    0.5243    0.7722   98.5961 -999.0000 -999.0000 -999.0000 -999.0000 -999.0000 -999.0000 
1108.4052   17.5000   16.9389    0.3630   20.1143    0.5399    0.7890   98.3872 -999.0000 -999.0000 -999.0000 -999.0000 -999.0000 -999.0000 
1108.5576   17.5000   16.9126    0.5274   19.9516    0.5562    0.7436   97.8891 -999.0000 -999.0000 -999.0000 -999.0000 -999.0000 -999.0000 
1108.7100   17.5000   16.8951    0.5604   19.2517    0.5664    0.7458   97.4427 -999.0000 -999.0000 -999.0000 -999.0000 -999.0000 -999.0000 
1108.8624   17.5000   16.8832    0.4398   18.6307    0.5830    0.7227   97.1521 -999.0000 -999.0000 -999.0000 -999.0000 -999.0000 -999.0000 
1109.0148   17.5000   16.8774    0.2701   18.3566    0.5906    0.7375   96.2039 -999.0000 -999.0000 -999.0000 -999.0000 -999.0000 -999.0000 
1109.1672   17.5000   16.8739    0.1096   20.5553    0.5968    0.7683   94.8074 -999.0000 -999.0000 -999.0000 -999.0000 -999.0000 -999.0000 
1109.3196   17.5000   16.8572    0.0135   20.0745    0.6068    0.7632   93.5901 -999.0000 -999.0000 -999.0000 -999.0000 -999.0000 -999.0000 
1109.4720   17.5000   16.8367   -0.0562   20.0964    0.6214    0.7965   92.7041 -999.0000 -999.0000 -999.0000 -999.0000 -999.0000 -999.0000 
1109.6244   17.5000   16.8291   -0.0919   18.5915    0.6446    0.7925   92.5333 -999.0000 -999.0000 -999.0000 -999.0000 -999.0000 -999.0000 
1109.7768   17.5000   16.8262   -0.0670   18.6953    0.6681    0.8422   93.2737 -999.0000 -999.0000 -999.0000 -999.0000 -999.0000 -999.0000 
1109.9292   17.5000   16.8248    0.0209   21.1155    0.6922    0.8589   93.6778 -999.0000 -999.0000 -999.0000 -999.0000 -999.0000 -999.0000 
1110.0816   17.5000   16.8248    0.1605   23.2832    0.7214    0.8806   92.7209 -999.0000 -999.0000 -999.0000 -999.0000 -999.0000 -999.0000 
1110.2340   17.5000   16.8257    0.3108   22.8688    0.7552    0.8887   90.9828 -999.0000 -999.0000 -999.0000 -999.0000 -999.0000 -999.0000 
1110.3864   17.5000   16.8278    0.3908   21.4502    0.7938    0.9419   89.7370 -999.0000 -999.0000 -999.0000 -999.0000 -999.0000 -999.0000 
1110.5388   17.5000   16.8291    0.3996   20.1866    0.8199    0.9955   89.3156 -999.0000 -999.0000 -999.0000 -999.0000 -999.0000 -999.0000 
1110.6912   17.5000   16.8291    0.3476   19.9441    0.8319    1.0456   89.4901 -999.0000 -999.0000 -999.0000 -999.0000 -999.0000 -999.0000 
1110.8436   17.5000   16.8311    0.3031   20.3125    0.8333    1.0639   90.0263 -999.0000 -999.0000 -999.0000 -999.0000 -999.0000 -999.0000 
1110.9960   17.5000   16.8355    0.2256   20.7110    0.8150    1.0071   90.9501 -999.0000 -999.0000 -999.0000 -999.0000 -999.0000 -999.0000 
1111.1484   17.5000   16.8377    0.1556   20.8939    0.8000    0.9438   91.8593 -999.0000 -999.0000 -999.0000 -999.0000 -999.0000 -999.0000 
1111.3008   17.5000   16.8377    0.0613   20.4780    0.7840    0.9160   91.7041 -999.0000 -999.0000 -999.0000 -999.0000 -999.0000 -999.0000 
1111.4532   17.5000   16.8377   -0.0072   19.4226    0.7697    0.9039   90.7552 -999.0000 -999.0000 -999.0000 -999.0000 -999.0000 -999.0000 
1111.6056   17.5000   16.8396   -0.0476   18.7828    0.7635    0.9404   90.2444 -999.0000 -999.0000 -999.0000 -999.0000 -999.0000 -999.0000 
1111.7580   17.5000   16.8430   -0.0642   18.3408    0.7593    0.9337   90.4742 -999.0000 -999.0000 -999.0000 -999.0000 -999.0000 -999.0000 
