~VERSION INFORMATION
 VERS.                 2.0:   CWLS LOG ASCII STANDARD - VERSION 2.0
 WRAP.                  NO:   SINGLE LINE PER DEPTH STEP
 CREA.                 08/01/2018 13:33:07
#CREATED USING DSPetro VERSION 5000.10.1.3 BY H191660 ON 08/01/2018 13:33:07
~WELL INFORMATION
#MNEM.UNIT       DATA                          DESCRIPTION MNEMONIC
#---------      ---------------------------   --------------------------
 STRT    .M         0.0000                    : START DEPTH
 STOP    .M         3199.9428                 : STOP DEPTH
 STEP    .M         0.1524                    : STEP VALUE
 NULL    .      -999.0000                     : NULL VALUE
 DATE    .      08/01/2018                    : LAS file Creation Date
 WELL .      2400_Nebo-1                 : Well Name
 COMP .      Neftex Exploration Insights : Company
 FLD  .      NEBO                        : Field
 UWI  .      ZAUWL_005243                : Unique Well Identifier (UWI)
 LOC  .                                  : Location
 RWS  .      -999                        : Def_Rw
 WST  .      -999                        : Def_Rwt
 SRVC .                                  : Contractor
~CURVE INFORMATION
#MNEM              UNIT       API CODE   Curve Type Comments
#----------  --------------- ----------  ---------- -----------
 DEPTH      .M                         : Depth       
 BitSize    .in                        : bitSize     
 CAL_INCH   .inch                      : caliper     Caliper Log - A representation of the measured diameter of a borehole along its depth
 SP_MV1     .mv                        : SP          Spontaneous Potential - Records the electrical potential produced by the interaction of formation water, conductive drilling mud, and certain ion-sele
 GR_API     .API                       : gammaRay    Gamma Ray (API) - Measures the intensity of natural gamma-ray radiation emitted from formations containing radioactive elements, such as K, Th and U
 LLD_OHMM   .ohmm                      : deepRes     Laterlog Deep Resistivity - Measurement made several feet into the formation; generally considered a measurement of the undisturbed formation
 LLS_OHMM   .ohmm                      : shalRes     Laterlog Shallow Resistivity - one to two feet into the formation; generally considered to measure the formation
 DT_US_FT   .us/ft                     : density     Interval Transit Time: Compressional Wave - Evaluates the time it takes for a compressional wave to traverse a fixed distance
 RHOB_G_CC  .g/cc                      : density     Bulk Density - Measures the density of bulk material, including any void space or other materials contained in the subject volume
 DRHO_G_CC  .g/cc                      : drho        Density Correction - Investigates the correction to the Bulk Density log; used as an indication of hole condition to validate the Bulk Density measure
 NPHI_v_v   .PC                        : Neutron     Neutron Porosity - Measured with an neutron logging device calibrated to a given matrix (limestone, sandstone and dolomite)
 PEF_B_E    .b/e-                      : PEF         Photoelectric Factor - A log of photoelectric absorption properties. Often expressed in an approximation unit barns/electron (b/e-)
 LITH       .                          : LITH        Lithology Curve
 LITH_v2    .                          : LITH        Lithology Curve
~A  DEPTH  BitSize   CAL_INCH   SP_MV1    GR_API   LLD_OHMM  LLS_OHMM  DT_US_FT RHOB_G_C  DRHO_G_C  NPHI_v_v  PEF_B_E     LITH    LITH_v2  
# ...
 503.8344   17.5000   18.3114   -4.6788   21.8718    0.6925    0.5107  117.4667 -999.0000 -999.0000 -999.0000 -999.0000 -999.0000 -999.0000 
 503.9868   17.5000   18.1038   -5.0407   20.2356    0.6888    0.4698  112.7181 -999.0000 -999.0000 -999.0000 -999.0000 -999.0000 -999.0000 
 504.1392   17.5000   17.9989   -5.3467   20.6716    0.7003    0.4751  109.0335 -999.0000 -999.0000 -999.0000 -999.0000 -999.0000 -999.0000 
 504.2916   17.5000   17.9124   -5.5850   20.3457    0.7197    0.5011  107.0637 -999.0000 -999.0000 -999.0000 -999.0000 -999.0000 -999.0000 
 504.4440   17.5000   17.8542   -5.7130   21.5907    0.7380    0.4975  105.3523 -999.0000 -999.0000 -999.0000 -999.0000 -999.0000 -999.0000 
 504.5964   17.5000   17.8344   -5.7071   22.2317    0.7451    0.5339  104.1410 -999.0000 -999.0000 -999.0000 -999.0000 -999.0000 -999.0000 
 504.7488   17.5000   17.8638   -5.5069   23.4100    0.7503    0.5649  102.4129 -999.0000 -999.0000 -999.0000 -999.0000 -999.0000 -999.0000 
 504.9012   17.5000   17.9562   -5.1023   24.2395    0.7486    0.5914  102.3252 -999.0000 -999.0000 -999.0000 -999.0000 -999.0000 -999.0000 
 505.0536   17.5000   18.1003   -4.5265   23.5828    0.7461    0.5743  106.0303 -999.0000 -999.0000 -999.0000 -999.0000 -999.0000 -999.0000 
 505.2060   17.5000   18.2589   -3.6657   22.7104    0.7347    0.5263  110.4877 -999.0000 -999.0000 -999.0000 -999.0000 -999.0000 -999.0000 
 505.3584   17.5000   18.3980   -2.6147   21.0695    0.7212    0.5303  113.3856 -999.0000 -999.0000 -999.0000 -999.0000 -999.0000 -999.0000 
 505.5108   17.5000   18.5123   -1.5410   20.8668    0.6945    0.4957  112.4454 -999.0000 -999.0000 -999.0000 -999.0000 -999.0000 -999.0000 
 505.6632   17.5000   18.7371   -0.3555   18.1199    0.6542    0.5061  109.2650 -999.0000 -999.0000 -999.0000 -999.0000 -999.0000 -999.0000 
 505.8156   17.5000   19.1746    0.7137   17.3872    0.6134    0.4872  109.2219 -999.0000 -999.0000 -999.0000 -999.0000 -999.0000 -999.0000 
 505.9680   17.5000   19.6016    1.5187   17.7204    0.5896    0.4771  110.6968 -999.0000 -999.0000 -999.0000 -999.0000 -999.0000 -999.0000 
 506.1204   17.5000   19.8348    2.2485   18.0905    0.5878    0.4698  109.1811 -999.0000 -999.0000 -999.0000 -999.0000 -999.0000 -999.0000 
 506.2728   17.5000   19.9294    2.7724   20.0972    0.6054    0.4583  104.3033 -999.0000 -999.0000 -999.0000 -999.0000 -999.0000 -999.0000 
 506.4252   17.5000   19.9571    3.1346   21.2718    0.6230    0.4765   99.9212 -999.0000 -999.0000 -999.0000 -999.0000 -999.0000 -999.0000 
 506.5776   17.5000   19.8657    3.2917   22.2065    0.6421    0.4599   99.2111 -999.0000 -999.0000 -999.0000 -999.0000 -999.0000 -999.0000 
 506.7300   17.5000   19.7639    3.3419   21.3839    0.6513    0.4634  106.0500 -999.0000 -999.0000 -999.0000 -999.0000 -999.0000 -999.0000 
 506.8824   17.5000   19.7431    3.3529   21.3663    0.6446    0.4899  112.1104 -999.0000 -999.0000 -999.0000 -999.0000 -999.0000 -999.0000 
 507.0348   17.5000   19.7441    3.3767   22.4754    0.6593    0.4625  116.5199 -999.0000 -999.0000 -999.0000 -999.0000 -999.0000 -999.0000 
 507.1872   17.5000   19.7407    3.5239   22.5387    0.6859    0.4895  118.8987 -999.0000 -999.0000 -999.0000 -999.0000 -999.0000 -999.0000 
 507.3396   17.5000   19.7596    3.7444   21.4192    0.7263    0.4890  118.6427 -999.0000 -999.0000 -999.0000 -999.0000 -999.0000 -999.0000 
 507.4920   17.5000   19.8395    3.9724   18.4853    0.7503    0.5080  117.8033 -999.0000 -999.0000 -999.0000 -999.0000 -999.0000 -999.0000 
 507.6444   17.5000   19.9804    4.2204   18.4322    0.7242    0.5084  119.8543 -999.0000 -999.0000 -999.0000 -999.0000 -999.0000 -999.0000 
 507.7968   17.5000   20.3720    4.4447   19.0250    0.6766    0.4815  128.1994 -999.0000 -999.0000 -999.0000 -999.0000 -999.0000 -999.0000 
 507.9492   17.5000   20.9355    4.6431   19.9223    0.5950    0.4672  142.6234 -999.0000 -999.0000 -999.0000 -999.0000 -999.0000 -999.0000 
 508.1016   17.5000   21.2070    4.8234   18.9537    0.5217    0.4463  156.1896 -999.0000 -999.0000 -999.0000 -999.0000 -999.0000 -999.0000 
 508.2540   17.5000   21.2238    4.9393   18.2858    0.4618    0.4028  163.5032 -999.0000 -999.0000 -999.0000 -999.0000 -999.0000 -999.0000 
 508.4064   17.5000   21.2238    4.9759   18.8412    0.4347    0.3609  160.8963 -999.0000 -999.0000 -999.0000 -999.0000 -999.0000 -999.0000 
 508.5588   17.5000   21.2187    4.9170   22.3840    0.4440    0.3651  150.6421 -999.0000 -999.0000 -999.0000 -999.0000 -999.0000 -999.0000 
 508.7112   17.5000   21.2100    4.7730   25.4248    0.4758    0.3596  140.7731 -999.0000 -999.0000 -999.0000 -999.0000 -999.0000 -999.0000 
 508.8636   17.5000   21.1308    4.5789   28.6864    0.5297    0.4258  130.3121 -999.0000 -999.0000 -999.0000 -999.0000 -999.0000 -999.0000 
 509.0160   17.5000   20.8781    4.4121   29.0478    0.5902    0.4505  119.5660 -999.0000 -999.0000 -999.0000 -999.0000 -999.0000 -999.0000 
 509.1684   17.5000   20.2005    4.3217   26.7315    0.6362    0.5108  115.4068 -999.0000 -999.0000 -999.0000 -999.0000 -999.0000 -999.0000 
 509.3208   17.5000   19.5721    4.3502   26.2259    0.6495    0.5514  116.5116 -999.0000 -999.0000 -999.0000 -999.0000 -999.0000 -999.0000 
 509.4732   17.5000   19.4688    4.4895   25.8529    0.6306    0.5216  118.8711 -999.0000 -999.0000 -999.0000 -999.0000 -999.0000 -999.0000 
 509.6256   17.5000   19.4775    4.7334   28.1721    0.6018    0.5016  122.1049 -999.0000 -999.0000 -999.0000 -999.0000 -999.0000 -999.0000 
 509.7780   17.5000   19.4797    5.0220   28.8913    0.5731    0.4654  126.0632 -999.0000 -999.0000 -999.0000 -999.0000 -999.0000 -999.0000 
 509.9304   17.5000   19.4897    5.2816   27.8528    0.5537    0.4345  129.8184 -999.0000 -999.0000 -999.0000 -999.0000 -999.0000 -999.0000 
 510.0828   17.5000   19.5020    5.4658   25.8734    0.5435    0.4245  133.0530 -999.0000 -999.0000 -999.0000 -999.0000 -999.0000 -999.0000 
 510.2352   17.5000   19.5283    5.5403   26.1454    0.5489    0.4119  134.7778 -999.0000 -999.0000 -999.0000 -999.0000 -999.0000 -999.0000 
 510.3876   17.5000   19.5885    5.5240   25.2609    0.5571    0.4190  133.7768 -999.0000 -999.0000 -999.0000 -999.0000 -999.0000 -999.0000 
 510.5400   17.5000   19.6367    5.2684   26.0144    0.5618    0.3948  131.6626 -999.0000 -999.0000 -999.0000 -999.0000 -999.0000 -999.0000 
 510.6924   17.5000   19.6504    5.0150   25.3593    0.5659    0.3802  130.3231 -999.0000 -999.0000 -999.0000 -999.0000 -999.0000 -999.0000 
 510.8448   17.5000   19.6512    4.7733   25.5334    0.5676    0.4011  129.8947 -999.0000 -999.0000 -999.0000 -999.0000 -999.0000 -999.0000 
 510.9972   17.5000   19.6610    4.5469   24.8927    0.5780    0.4456  130.0643 -999.0000 -999.0000 -999.0000 -999.0000 -999.0000 -999.0000 
 511.1496   17.5000   19.6937    4.4330   22.9338    0.5849    0.4650  130.4959 -999.0000 -999.0000 -999.0000 -999.0000 -999.0000 -999.0000 
 511.3020   17.5000   19.7205    4.3751   23.1432    0.5931    0.4574  131.1238 -999.0000 -999.0000 -999.0000 -999.0000 -999.0000 -999.0000 
 511.4544   17.5000   19.7369    4.3656   22.2155    0.5967    0.4127  133.6260 -999.0000 -999.0000 -999.0000 -999.0000 -999.0000 -999.0000 
 511.6068   17.5000   19.7856    4.3777   25.9282    0.5934    0.4030  138.0753 -999.0000 -999.0000 -999.0000 -999.0000 -999.0000 -999.0000 
 511.7592   17.5000   19.8985    4.4242   26.1693    0.5873    0.4301  141.1478 -999.0000 -999.0000 -999.0000 -999.0000 -999.0000 -999.0000 
 511.9116   17.5000   19.9280    4.4809   25.8255    0.5877    0.4462  140.5775 -999.0000 -999.0000 -999.0000 -999.0000 -999.0000 -999.0000 
 512.0640   17.5000   19.6815    4.5650   25.3424    0.5829    0.4660  135.7777 -999.0000 -999.0000 -999.0000 -999.0000 -999.0000 -999.0000 
 512.2164   17.5000   19.3403    4.6665   24.9793    0.5817    0.4153  131.0444 -999.0000 -999.0000 -999.0000 -999.0000 -999.0000 -999.0000 
 512.3688   17.5000   19.2046    4.7044   25.8790    0.5797    0.4028  132.9194 -999.0000 -999.0000 -999.0000 -999.0000 -999.0000 -999.0000 
