~VERSION INFORMATION
 VERS.                 2.0:   CWLS LOG ASCII STANDARD - VERSION 2.0
 WRAP.                  NO:   SINGLE LINE PER DEPTH STEP
 CREA.                 11/01/2018 08:52:43
#CREATED USING DSPetro VERSION 5000.10.1.3 BY H191660 ON 11/01/2018 08:52:43
~WELL INFORMATION
#MNEM.UNIT       DATA                          DESCRIPTION MNEMONIC
#---------      ---------------------------   --------------------------
 STRT    .M         0.0000                    : START DEPTH
 STOP    .M         4500.0672                 : STOP DEPTH
 STEP    .M         0.1524                    : STEP VALUE
 NULL    .      -999.0000                     : NULL VALUE
 DATE    .      11/01/2018                    : LAS file Creation Date
 WELL .      2474_NorthTurtle-1          : Well Name
 COMP .      Neftex Exploration Insights : Company
 FLD  .                                  : Field
 UWI  .      ZAUWL_005355                : Unique Well Identifier (UWI)
 LOC  .                                  : Location
 RWS  .      -999                        : Def_Rw
 WST  .      -999                        : Def_Rwt
 SRVC .                                  : Contractor
~CURVE INFORMATION
#MNEM              UNIT       API CODE   Curve Type Comments
#----------  --------------- ----------  ---------- -----------
 DEPTH      .M                         : Depth       
 BitSize    .in                        : Caliper     
 CAL_CM     .inch                      : caliper     Caliper Log - A representation of the measured diameter of a borehole along its depth
 GR_API     .API                       : gammaRay    
 SP_MV      .mv                        : SP          Spontaneous Potential - Records the electrical potential produced by the interaction of formation water, conductive drilling mud, and certain ion-sele
 ILD_OHMM   .ohmm                      : deepRes     Deep Induction Resistivity - Measurement made an induction log, made several feet into the formation
 MSFL_OHMM  .ohmm                      : microRes    Micro-Spherically Focused Log - Measurement involves only the first few inches of the formation immediately adjacent to the borehole
 DT_US_FT   .us/ft                     : sonic       Interval Transit Time: Compressional Wave - Evaluates the time it takes for a compressional wave to traverse a fixed distance
 RHOB_G_CC  .g/cc                      : density     Bulk Density - Measures the density of bulk material, including any void space or other materials contained in the subject volume
 DRHO_G_CC  .g/cc                      : drho        Density Correction - Investigates the correction to the Bulk Density log; used as an indication of hole condition to validate the Bulk Density measure
 NPHI_%     .PC                        : Neutron     Neutron Porosity - Measured with an neutron logging device calibrated to a given matrix (limestone, sandstone and dolomite)
 PEF_B_E    .b/e-                      : PEF         Photoelectric Factor - A log of photoelectric absorption properties. Often expressed in an approximation unit barns/electron (b/e-)
 LITH       .                          : Flag        
 LITH_v2    .                          : Flag        
~A  DEPTH  BitSize    CAL_CM    GR_API    SP_MV    ILD_OHMM MSFL_OHM   DT_US_FT RHOB_G_C  DRHO_G_C    NPHI    PEF_B_E     LITH    LITH_v2  
# ...
4221.7848    3.3000    3.3380  101.8998   12.5248    6.9823   12.1445   72.2872    2.4549   -0.0064   14.6305    2.4058   18.0000   36.0000 
4221.9372    3.3000    3.3288   92.7631   12.3043    5.3609    2.9753   74.7930    2.4405   -0.0048   15.8879    2.4704   18.0000   36.0000 
4222.0896    3.3000    3.3199   91.7262   12.4867    4.7918    2.2260   76.8232    2.4292   -0.0029   17.0087    2.5699   18.0000   36.0000 
4222.2420    3.3000    3.3146   98.1513   13.0952    4.3688    2.1338   78.4689    2.4199   -0.0025   16.9682    2.5911   18.0000   36.0000 
4222.3944    3.3000    3.3183  112.2281   13.1711    4.0965    2.2166   78.5231    2.4156   -0.0029   16.3707    2.7308   18.0000   36.0000 
4222.5468    3.3000    3.3297  124.5479   12.6504    3.9873    2.1590   78.0704    2.4379   -0.0034   16.2332    2.9245   18.0000   36.0000 
4222.6992    3.3000    3.3485  137.0591   10.5513    4.1385    2.0940   77.6002    2.4795   -0.0029   17.9705    3.0243   37.0000   36.0000 
4222.8516    3.3000    3.3712  151.1745    8.7225    4.7025    2.2018   77.3464    2.5091   -0.0001   23.3511    3.0875   37.0000   37.0000 
4223.0040    3.3000    3.3903  155.8718    7.7425    5.8356    2.1639   77.5902    2.5211    0.0036   27.2710    3.0954   37.0000   37.0000 
4223.1564    3.3000    3.4085  169.9964    6.8558    6.8510    1.3718   79.8825    2.5276    0.0053   28.9876    3.0945   37.0000   37.0000 
4223.3088    3.3000    3.4253  174.9470    6.3469    9.1015    1.4986   82.0371    2.5313    0.0030   29.9190    3.1638   37.0000   37.0000 
4223.4612    3.3000    3.4363  168.9469    6.3457   11.6749    0.7871   83.2776    2.5321    0.0029   28.3414    3.1802   37.0000   37.0000 
4223.6136    3.3000    3.4415  163.1005    5.9317   14.9168    1.3687   83.2606    2.5342    0.0030   27.4226    3.1182   37.0000   37.0000 
4223.7660    3.3000    3.4410  157.0092    5.0145   17.1010    2.6212   81.9866    2.5384   -0.0007   27.7674    2.9978   37.0000   37.0000 
4223.9184    3.3000    3.4405  148.6774    4.1186   18.6790    3.3084   81.1939    2.5455   -0.0037   27.7714    2.8653   37.0000   37.0000 
4224.0708    3.3000    3.4411  145.8717    3.0700   19.4165    3.2362   80.4998    2.5544   -0.0036   26.0958    2.9353   37.0000   37.0000 
4224.2232    3.3000    3.4450  140.1765    2.2162   19.4374    2.0105   79.4039    2.5606   -0.0011   25.0437    3.1338   37.0000   37.0000 
4224.3756    3.3000    3.4516  135.1754    2.5626   19.1890    2.0042   78.7800    2.5637   -0.0024   25.3645    3.1928   37.0000   37.0000 
4224.5280    3.3000    3.4582  131.1741    3.1661   19.2943    1.8526   79.3560    2.5472   -0.0051   28.2138    3.1634   37.0000   37.0000 
4224.6804    3.3000    3.4632  128.5347    3.2393   20.1541    1.9371   80.2440    2.5306   -0.0078   30.1508    3.0799   37.0000   37.0000 
4224.8328    3.3000    3.4682  129.1343    2.6641   20.5555    1.2000   81.4809    2.5212   -0.0114   30.9148    3.0513   37.0000   37.0000 
4224.9852    3.3000    3.4713  131.3476    1.7784   20.4066    0.8553   82.6047    2.5269   -0.0143   29.9154    3.1440   37.0000   37.0000 
4225.1376    3.3000    3.4723  132.2045    0.6257   20.0713    1.6481   82.8692    2.5809   -0.0142   25.9293    3.2671   37.0000   37.0000 
4225.2900    3.3000    3.4724  131.4678   -0.4076   19.8373    3.1361   81.5292    2.6277   -0.0111   24.3086    3.3061   37.0000   37.0000 
4225.4424    3.3000    3.4715  134.2974   -0.7873   19.5242    3.4476   79.3198    2.6379   -0.0072   24.3196    3.4056   37.0000   37.0000 
4225.5948    3.3000    3.4686  138.0320   -0.6567   19.2601    4.1319   77.7243    2.6526   -0.0052   24.9974    3.5476   37.0000   37.0000 
4225.7472    3.3000    3.4645  136.7443   -0.1810   19.6279    2.4936   76.7313    2.6833   -0.0040   25.2364    3.5642   37.0000   37.0000 
4225.8996    3.3000    3.4612  135.0678    0.3841   21.0920    1.9180   75.9290    2.6983   -0.0074   24.8361    3.3818   37.0000   37.0000 
4226.0520    3.3000    3.4583  137.3949    0.6386   22.5728    2.6893   74.2271    2.6825   -0.0110   23.6577    3.0507   37.0000   37.0000 
4226.2044    3.3000    3.4549  141.8018    0.1338   23.7468    2.2716   73.0406    2.6380   -0.0128   23.2715    2.9206   37.0000   37.0000 
4226.3568    3.3000    3.4544  145.3275   -0.6864   24.3041    2.1034   72.8103    2.6133   -0.0120   23.2311    2.9226   37.0000   37.0000 
4226.5092    3.3000    3.4569  147.0342   -1.0654   24.4901    0.6059   73.2676    2.6157   -0.0094   22.4902    3.0113   37.0000   37.0000 
4226.6616    3.3000    3.4612  149.6965   -0.8611   25.3763    2.5475   73.3588    2.6212   -0.0074   21.7244    3.0325   37.0000   37.0000 
4226.8140    3.3000    3.4672  151.9908   -0.4167   26.5769    3.7688   72.8391    2.6074   -0.0069   21.7263    2.9851   37.0000   37.0000 
4226.9664    3.3000    3.4727  154.3525    0.1938   27.3084    1.0562   71.7322    2.5694   -0.0071   23.7831    2.9570   37.0000   37.0000 
4227.1188    3.3000    3.4764  156.2718    0.5924   27.4780    0.9033   71.4579    2.5381   -0.0065   26.6300    2.9467   37.0000   37.0000 
4227.2712    3.3000    3.4804  157.8326    0.6101   28.8672    0.9410   74.3706    2.5244   -0.0038   28.1619    2.8813   37.0000   37.0000 
4227.4236    3.3000    3.4806  156.8095    0.3391   30.7453    1.4528   77.0436    2.5249   -0.0007   28.5026    2.8993   37.0000   37.0000 
4227.5760    3.3000    3.4804  153.4163    0.1319   30.5234    1.7132   79.7247    2.5425    0.0008   26.8929    3.1247   37.0000   37.0000 
4227.7284    3.3000    3.4773  150.8142    0.3155   29.3194    0.9120   79.7699    2.5715    0.0018   24.8832    3.3943   37.0000   37.0000 
4227.8808    3.3000    3.4731  149.6210    0.7052   29.4952    1.4326   77.8977    2.5983    0.0027   23.3637    3.2663   37.0000   37.0000 
4228.0332    3.3000    3.4681  151.5550    0.7256   28.1114    1.0394   75.8984    2.6049    0.0019   22.2168    3.1440   37.0000   37.0000 
4228.1856    3.3000    3.4637  154.6916    0.2801   26.2253    1.5588   73.9900    2.5959   -0.0031   21.1525    3.1098   37.0000   37.0000 
4228.3380    3.3000    3.4604  155.9081    0.2395   24.9360    2.3063   73.0186    2.5765   -0.0085   20.5029    3.3343   37.0000   37.0000 
4228.4904    3.3000    3.4585  151.7730    0.7598   25.3483    1.0937   72.8077    2.5627   -0.0112   20.2714    3.3556   37.0000   37.0000 
4228.6428    3.3000    3.4584  148.5414    0.6733   25.1793    0.9725   73.1733    2.5668   -0.0127   20.2918    3.6947   37.0000   37.0000 
4228.7952    3.3000    3.4596  147.6869    1.0265   24.1586    0.9942   75.5059    2.5894   -0.0130   20.6319    4.0484   37.0000   37.0000 
4228.9476    3.3000    3.4592  151.8987    0.7582   23.4729    1.3014   77.1989    2.7110   -0.0115   21.4798    4.1551   37.0000   23.0000 
4229.1000    3.3000    3.4576  157.4667    0.0875   23.4903    0.5273   77.2558    2.7288   -0.0076   22.0971    4.0208   37.0000   23.0000 
4229.2524    3.3000    3.4562  161.6589   -0.9078   24.2583    3.1257   75.0017    2.7340   -0.0021   22.3644    3.5604   37.0000   37.0000 
4229.4048    3.3000    3.4553  162.3189   -1.4824   24.8550    2.1725   72.4873    2.6672    0.0018   20.2623    3.1054   37.0000   37.0000 
4229.5572    3.3000    3.4567  159.2587   -0.5948   25.3468    1.4167   70.0009    2.6073    0.0045   18.3596    3.1572   37.0000   37.0000 
4229.7096    3.3000    3.4567  156.0445    0.2903   25.8431    2.1192   69.7914    2.6056    0.0061   17.9008    3.3086   37.0000   37.0000 
4229.8620    3.3000    3.4588  154.7253    0.4278   25.9628    2.7803   71.0042    2.6187   -0.0002   18.2082    3.2515   37.0000   37.0000 
4230.0144    3.3000    3.4613  154.7703   -0.1559   25.0484    3.2195   70.6412    2.6216   -0.0023   18.9986    3.1029   37.0000   37.0000 
4230.1668    3.3000    3.4638  156.9539   -0.3366   23.3965    4.3755   69.7347    2.6050   -0.0010   19.3602    3.0650   37.0000   37.0000 
4230.3192    3.3000    3.4659  159.0415   -0.2545   22.5927    1.7916   69.7479    2.5875    0.0014   19.5336    3.1478   37.0000   37.0000 
