~VERSION INFORMATION
 VERS.                 2.0:   CWLS LOG ASCII STANDARD - VERSION 2.0
 WRAP.                  NO:   SINGLE LINE PER DEPTH STEP
 CREA.                 11/01/2018 08:52:43
#CREATED USING DSPetro VERSION 5000.10.1.3 BY H191660 ON 11/01/2018 08:52:43
~WELL INFORMATION
#MNEM.UNIT       DATA                          DESCRIPTION MNEMONIC
#---------      ---------------------------   --------------------------
 STRT    .M         0.0000                    : START DEPTH
 STOP    .M         4500.0672                 : STOP DEPTH
 STEP    .M         0.1524                    : STEP VALUE
 NULL    .      -999.0000                     : NULL VALUE
 DATE    .      11/01/2018                    : LAS file Creation Date
 WELL .      2474_NorthTurtle-1          : Well Name
 COMP .      Neftex Exploration Insights : Company
 FLD  .                                  : Field
 UWI  .      ZAUWL_005355                : Unique Well Identifier (UWI)
 LOC  .                                  : Location
 RWS  .      -999                        : Def_Rw
 WST  .      -999                        : Def_Rwt
 SRVC .                                  : Contractor
~CURVE INFORMATION
#MNEM              UNIT       API CODE   Curve Type Comments
#----------  --------------- ----------  ---------- -----------
 DEPTH      .M                         : Depth       
 BitSize    .in                        : Caliper     
 CAL_CM     .inch                      : caliper     Caliper Log - A representation of the measured diameter of a borehole along its depth
 GR_API     .API                       : gammaRay    
 SP_MV      .mv                        : SP          Spontaneous Potential - Records the electrical potential produced by the interaction of formation water, conductive drilling mud, and certain ion-sele
 ILD_OHMM   .ohmm                      : deepRes     Deep Induction Resistivity - Measurement made an induction log, made several feet into the formation
 MSFL_OHMM  .ohmm                      : microRes    Micro-Spherically Focused Log - Measurement involves only the first few inches of the formation immediately adjacent to the borehole
 DT_US_FT   .us/ft                     : sonic       Interval Transit Time: Compressional Wave - Evaluates the time it takes for a compressional wave to traverse a fixed distance
 RHOB_G_CC  .g/cc                      : density     Bulk Density - Measures the density of bulk material, including any void space or other materials contained in the subject volume
 DRHO_G_CC  .g/cc                      : drho        Density Correction - Investigates the correction to the Bulk Density log; used as an indication of hole condition to validate the Bulk Density measure
 NPHI_%     .PC                        : Neutron     Neutron Porosity - Measured with an neutron logging device calibrated to a given matrix (limestone, sandstone and dolomite)
 PEF_B_E    .b/e-                      : PEF         Photoelectric Factor - A log of photoelectric absorption properties. Often expressed in an approximation unit barns/electron (b/e-)
 LITH       .                          : Flag        
 LITH_v2    .                          : Flag        
~A  DEPTH  BitSize    CAL_CM    GR_API    SP_MV    ILD_OHMM MSFL_OHM   DT_US_FT RHOB_G_C  DRHO_G_C    NPHI    PEF_B_E     LITH    LITH_v2  
# ...
4065.4224    3.3000    3.2823   33.5321   16.8143   25.6045   13.6714   58.5317    2.6058   -0.0025    3.7951    2.3901   18.0000   27.0000 
4065.5748    3.3000    3.3063   32.3685   17.1057   32.3962   22.5625   57.6703    2.6358   -0.0035    3.4117    2.3688   18.0000   27.0000 
4065.7272    3.3000    3.3237   32.8234   16.5590   43.9850   19.4398   57.0912    2.6448    0.0007    3.2293    2.4373   18.0000   27.0000 
4065.8796    3.3000    3.3381   35.1759   16.0452   58.6799   19.5199   56.8155    2.6566    0.0054    2.9605    2.5675   18.0000   27.0000 
4066.0320    3.3000    3.3520   39.3273   16.0896   71.6785   14.0847   56.7076    2.6603    0.0066    2.7199    2.6435   18.0000   27.0000 
4066.1844    3.3000    3.3611   43.3270   17.0113   57.6186   10.3781   56.6576    2.6506    0.0043    2.7181    2.6705   18.0000   36.0000 
4066.3368    3.3000    3.3398   45.6177   17.8153   32.4866   14.1288   56.8208    2.6220    0.0019    4.2030    2.5382   18.0000   36.0000 
4066.4892    3.3000    3.3014   47.2392   17.1441   20.7626   21.5045   58.2321    2.5839    0.0000    6.4332    2.2448   18.0000   36.0000 
4066.6416    3.3000    3.2739   49.5458   15.9935   11.3288   14.3870   60.1155    2.5420   -0.0009    9.7050    2.0248   18.0000   36.0000 
4066.7940    3.3000    3.2545   52.4011   15.2256    6.9230    4.0143   63.1549    2.4778   -0.0006   11.6436    1.9592   37.0000   36.0000 
4066.9464    3.3000    3.2487   54.2657   14.9683    5.1323    1.8858   68.8474    2.4149    0.0033   12.2627    1.9596   27.0000   36.0000 
4067.0988    3.3000    3.2529   53.6436   15.3755    3.9636    1.4460   70.6715    2.3843    0.0077   12.4649    1.9306   27.0000   27.0000 
4067.2512    3.3000    3.2628   49.5778   16.3013    3.1902    1.3989   71.3333    2.3742    0.0099   12.3681    1.8575   27.0000   27.0000 
4067.4036    3.3000    3.2703   44.8395   17.2574    2.6854    1.3935   71.2834    2.3756    0.0138   11.8634    1.8201   27.0000   27.0000 
4067.5560    3.3000    3.2734   41.0015   17.3726    2.4059    1.3709   71.1082    2.3835    0.0176   11.3546    1.8212   27.0000   27.0000 
4067.7084    3.3000    3.2723   38.1066   16.6600    2.3121    1.4196   71.0006    2.3888    0.0174   11.1614    1.8313   27.0000   27.0000 
4067.8608    3.3000    3.2678   37.7105   16.0186    2.2953    1.6328   71.5926    2.3892    0.0086   11.9212    1.8017   27.0000   27.0000 
4068.0132    3.3000    3.2646   40.4024   15.7853    2.3332    1.7119   72.1318    2.3959    0.0026   12.7189    1.7642   27.0000   27.0000 
4068.1656    3.3000    3.2673   45.2555   15.8744    2.4827    1.7301   72.1260    2.4080   -0.0007   13.3859    1.7410   27.0000   27.0000 
4068.3180    3.3000    3.2783   49.7977   15.8428    2.6809    1.9847   71.6321    2.4149   -0.0002   13.4485    1.7461   27.0000   27.0000 
4068.4704    3.3000    3.2909   52.8415   15.7524    2.8933    2.1964   70.6794    2.4175   -0.0004   13.3429    1.8199   27.0000   27.0000 
4068.6228    3.3000    3.3006   53.5814   16.2481    3.0878    2.0181   69.9482    2.4193   -0.0024   13.4425    1.8875   27.0000   27.0000 
4068.7752    3.3000    3.3039   52.3435   16.8893    3.2388    2.3535   69.9404    2.4247   -0.0045   13.4742    1.9129   27.0000   27.0000 
4068.9276    3.3000    3.3032   51.4877   16.9787    3.3061    2.1360   70.4109    2.4350   -0.0042   13.0149    1.9067   36.0000   36.0000 
4069.0800    3.3000    3.3002   50.7853   16.6053    3.3780    3.0206   70.3193    2.4436   -0.0004   12.2014    1.8856   36.0000   36.0000 
4069.2324    3.3000    3.2970   49.9060   15.9581    3.5086    1.8573   69.6423    2.4495    0.0076   11.8518    1.8869   36.0000   36.0000 
4069.3848    3.3000    3.2934   53.7832   15.1602    3.6408    1.8277   69.5150    2.4534    0.0222   12.4763    1.9335   36.0000   36.0000 
4069.5372    3.3000    3.2905   61.1211   14.5256    3.7557    1.7203   70.3030    2.4634    0.0375   13.5349    2.0197   36.0000   36.0000 
4069.6896    3.3000    3.2862   67.8122   14.0185    3.9763    3.1839   71.0745    2.4753    0.0492   14.3184    2.0693   36.0000   36.0000 
4069.8420    3.3000    3.2813   71.9075   14.0607    4.2313    4.1510   71.4860    2.4826    0.0572   14.7023    2.1013   36.0000   36.0000 
4069.9944    3.3000    3.2811   71.2795   14.6905    4.5309    2.4898   71.8704    2.4818    0.0546   14.8649    2.1380   36.0000   36.0000 
4070.1468    3.3000    3.2835   69.3138   15.1873    5.0416    2.3897   72.3554    2.4667    0.0501   14.9091    2.2165   36.0000   36.0000 
4070.2992    3.3000    3.3024   70.4979   15.4545    5.6610    3.5970   71.9073    2.4191    0.0462   14.8698    2.3561   36.0000   11.0000 
4070.4516    3.3000    3.3382   74.6330   15.4632    6.0532    3.9510   71.0070    2.2114    0.0412   14.7967    2.5056   36.0000   11.0000 
4070.6040    3.3000    3.7652   79.5307   15.0887    6.6099    2.5739   70.8140    1.9237    0.0370   13.8554    2.6350   36.0000   11.0000 
4070.7564    3.3000    4.2184   81.2501   10.8799    7.7050    1.5819   71.3027    1.8074    0.0350   12.4262    2.7774   36.0000   11.0000 
4070.9088    3.3000    4.4425   82.3210   10.2982    8.8261    0.5301   71.8472    1.7676    0.0412   11.1937    2.9344   11.0000   11.0000 
4071.0612    3.3000    4.5551   82.8995   11.3959    9.9429    0.3892   72.3517    1.7975    0.0573   11.0582    3.0016   11.0000   11.0000 
4071.2136    3.3000    4.3285   83.5803   12.7753   11.0955    0.4865   72.7964    1.9956    0.1215   12.6222    3.0213   11.0000   11.0000 
4071.3660    3.3000    4.2327   84.4489   13.5125   11.6616    0.6433   72.9419    2.1563    0.1489   18.1687    3.0585   11.0000   11.0000 
4071.5184    3.3000    4.1778   86.2300   13.6843   11.6832    0.6817   72.6355    2.2470    0.2016   19.5074    3.1607   11.0000   11.0000 
4071.6708    3.3000    4.1650   88.6002   12.5081   11.2443    0.6129   71.7453    2.3016    0.2307   18.7444    3.2813   11.0000   11.0000 
4071.8232    3.3000    4.1459   95.5645   10.7394   10.5111    0.6945   70.8597    2.3045    0.2401   17.5294    3.3400   11.0000   11.0000 
4071.9756    3.3000    4.0786  103.1906   10.2585    9.4312    0.7536   70.3558    2.3118    0.2309   16.6012    3.2355   11.0000   11.0000 
4072.1280    3.3000    3.9845  110.3035   10.0668    8.4631    0.5600   70.2013    2.3331    0.1899   16.3119    2.7201   31.0000   31.0000 
4072.2804    3.3000    3.8188  116.7307   10.6471    7.9328    0.8077   69.4417    2.3724    0.1185   15.0113    2.2170   31.0000   31.0000 
4072.4328    3.3000    3.4815  122.0063   11.1624    7.6302    3.1899   68.2736    2.4110    0.0664   12.9836    2.1959   31.0000   31.0000 
4072.5852    3.3000    3.3382  124.3840   11.4721    7.5335    3.3873   68.1006    2.4272    0.0387   11.5630    2.5682   31.0000   31.0000 
4072.7376    3.3000    3.2938  125.0473   11.2174    7.5977    1.1912   68.6288    2.3898    0.0577   11.4669    2.8283   31.0000   31.0000 
4072.8900    3.3000    3.3432  120.6740   10.2879    7.8981    2.0091   69.0404    2.3269    0.0961   13.0355    2.9408   11.0000   11.0000 
4073.0424    3.3000    3.5121  115.3855    9.7147    9.0606    1.5934   68.3247    2.2033    0.1272   13.8205    2.8179   11.0000   11.0000 
4073.1948    3.3000    3.7401  108.5379    8.6890   12.1011    0.6538   67.2425    2.1502    0.1563   12.7427    2.6096   11.0000   11.0000 
4073.3472    3.3000    3.8646  100.6367    7.7994   15.2929    0.4155   66.5994    2.1407    0.1720   11.0934    2.4624   11.0000   11.0000 
4073.4996    3.3000    3.7410   91.1131    7.1090   17.7776    0.3514   66.4416    2.1361    0.1355    9.7153    2.4108   11.0000   11.0000 
4073.6520    3.3000    3.5864   82.7474    6.8666   20.1701    0.7842   67.3078    1.9389    0.0436   12.4305    2.4753   11.0000   11.0000 
4073.8044    3.3000    3.4981   75.0082    7.3106   20.5470    2.7759   70.3057    1.8409    0.0272   13.9723    2.5994   11.0000   11.0000 
4073.9568    3.3000    4.4315   65.8158    7.8345   17.4990    1.2826   72.3059    1.7455    0.0222   13.2776    2.6734   11.0000   11.0000 
