~VERSION INFORMATION
 VERS.                 2.0:   CWLS LOG ASCII STANDARD - VERSION 2.0
 WRAP.                  NO:   SINGLE LINE PER DEPTH STEP
 CREA.                 11/01/2018 08:52:43
#CREATED USING DSPetro VERSION 5000.10.1.3 BY H191660 ON 11/01/2018 08:52:43
~WELL INFORMATION
#MNEM.UNIT       DATA                          DESCRIPTION MNEMONIC
#---------      ---------------------------   --------------------------
 STRT    .M         0.0000                    : START DEPTH
 STOP    .M         4500.0672                 : STOP DEPTH
 STEP    .M         0.1524                    : STEP VALUE
 NULL    .      -999.0000                     : NULL VALUE
 DATE    .      11/01/2018                    : LAS file Creation Date
 WELL .      2474_NorthTurtle-1          : Well Name
 COMP .      Neftex Exploration Insights : Company
 FLD  .                                  : Field
 UWI  .      ZAUWL_005355                : Unique Well Identifier (UWI)
 LOC  .                                  : Location
 RWS  .      -999                        : Def_Rw
 WST  .      -999                        : Def_Rwt
 SRVC .                                  : Contractor
~CURVE INFORMATION
#MNEM              UNIT       API CODE   Curve Type Comments
#----------  --------------- ----------  ---------- -----------
 DEPTH      .M                         : Depth       
 BitSize    .in                        : Caliper     
 CAL_CM     .inch                      : caliper     Caliper Log - A representation of the measured diameter of a borehole along its depth
 GR_API     .API                       : gammaRay    
 SP_MV      .mv                        : SP          Spontaneous Potential - Records the electrical potential produced by the interaction of formation water, conductive drilling mud, and certain ion-sele
 ILD_OHMM   .ohmm                      : deepRes     Deep Induction Resistivity - Measurement made an induction log, made several feet into the formation
 MSFL_OHMM  .ohmm                      : microRes    Micro-Spherically Focused Log - Measurement involves only the first few inches of the formation immediately adjacent to the borehole
 DT_US_FT   .us/ft                     : sonic       Interval Transit Time: Compressional Wave - Evaluates the time it takes for a compressional wave to traverse a fixed distance
 RHOB_G_CC  .g/cc                      : density     Bulk Density - Measures the density of bulk material, including any void space or other materials contained in the subject volume
 DRHO_G_CC  .g/cc                      : drho        Density Correction - Investigates the correction to the Bulk Density log; used as an indication of hole condition to validate the Bulk Density measure
 NPHI_%     .PC                        : Neutron     Neutron Porosity - Measured with an neutron logging device calibrated to a given matrix (limestone, sandstone and dolomite)
 PEF_B_E    .b/e-                      : PEF         Photoelectric Factor - A log of photoelectric absorption properties. Often expressed in an approximation unit barns/electron (b/e-)
 LITH       .                          : Flag        
 LITH_v2    .                          : Flag        
~A  DEPTH  BitSize    CAL_CM    GR_API    SP_MV    ILD_OHMM MSFL_OHM   DT_US_FT RHOB_G_C  DRHO_G_C    NPHI    PEF_B_E     LITH    LITH_v2  
# ...
3952.4940    3.3000    3.3253   79.7802    5.7272    2.6410    3.8255   76.7106    2.4314    0.0251   17.6138    2.2790   37.0000   37.0000 
3952.6464    3.3000    3.3481   98.1438    4.8669    2.9843    8.4064   77.8832    2.4297    0.0305   19.3050    2.1901   37.0000   37.0000 
3952.7988    3.3000    3.3540  109.4932    4.2023    3.3155    2.9089   78.1205    2.4186    0.0352   21.1884    2.0604   36.0000   36.0000 
3952.9512    3.3000    3.3416   99.3213    3.6392    3.5661    1.6025   76.4932    2.4073    0.0328   22.0589    2.0338   36.0000   36.0000 
3953.1036    3.3000    3.3113   79.7638    3.1264    3.7144    1.5745   74.8680    2.3967    0.0230   17.4696    2.0613   36.0000   36.0000 
3953.2560    3.3000    3.2859   62.9686    2.5873    3.7682    1.8883   72.9586    2.4011    0.0128   14.3310    2.0629   36.0000   27.0000 
3953.4084    3.3000    3.2274   53.5694    2.1995    3.7934    1.9110   71.9022    2.4209    0.0080   13.7609    2.0379   36.0000   36.0000 
3953.5608    3.3000    3.2424   51.3328    2.2036    3.8169    1.9801   72.3067    2.4446    0.0120   13.6730    2.0484   36.0000   36.0000 
3953.7132    3.3000    3.2943   58.7592    1.7154    4.0106    2.7143   73.0694    2.4713    0.0161   14.3668    2.1262   37.0000   36.0000 
3953.8656    3.3000    3.3420   77.4382    1.1053    4.8464    4.6728   73.1180    2.5008    0.0199   16.1951    2.2122   37.0000   37.0000 
3954.0180    3.3000    3.3559  104.6023    0.3071    5.8538   18.9213   72.7123    2.5231    0.0212   18.3625    2.3107   37.0000   37.0000 
3954.1704    3.3000    3.3489  136.6479    0.0352    6.9507   12.1426   72.7053    2.5311    0.0156   21.1594    2.3934   37.0000   37.0000 
3954.3228    3.3000    3.3636  160.9539    0.1573    8.2381   12.0559   73.6765    2.5223    0.0009   26.5535    2.4296   37.0000   37.0000 
3954.4752    3.3000    3.3818  170.1290    0.2309   10.7055   15.1961   75.0942    2.4898   -0.0072   27.4668    2.3309   37.0000   37.0000 
3954.6276    3.3000    3.3766  171.6574    0.0971   12.0108   21.2344   76.3565    2.4600   -0.0052   26.6814    2.2033   37.0000   37.0000 
3954.7800    3.3000    3.3601  166.5484    0.0386   12.1567    4.3765   75.9443    2.4410    0.0019   22.3025    2.0925   37.0000   37.0000 
3954.9324    3.3000    3.3492  157.2329   -0.0303   11.2441    0.7979   75.7925    2.4389    0.0078   20.8664    2.0884   37.0000   37.0000 
3955.0848    3.3000    3.3437  143.8792   -0.1697   10.4191    0.6458   76.0422    2.4521    0.0097   20.0301    2.1552   37.0000   37.0000 
3955.2372    3.3000    3.3392  131.8615   -0.2894    9.0356    2.5903   75.5960    2.4643    0.0111   19.4745    2.2161   37.0000   37.0000 
3955.3896    3.3000    3.3241  128.2446   -0.2842    6.3830    9.7866   72.8928    2.4761    0.0140   18.7511    2.2189   37.0000   37.0000 
3955.5420    3.3000    3.3088  132.4705    0.0833    4.7172   17.6310   70.6509    2.4833    0.0181   16.6301    2.1656   37.0000   37.0000 
3955.6944    3.3000    3.2829  137.5512    0.9852    3.9621    4.4981   69.2393    2.4836    0.0204   14.5311    2.0890   37.0000   37.0000 
3955.8468    3.3000    3.2490  137.1355    2.0963    3.4543    2.1046   68.4924    2.4678    0.0179   12.8018    2.0593   27.0000   36.0000 
3955.9992    3.3000    3.2218  126.7979    2.8392    3.1357    1.9152   69.0379    2.4360    0.0080   12.3766    2.0771   27.0000   36.0000 
3956.1516    3.3000    3.2051  111.0630    2.7222    2.8084    2.0716   68.9382    2.4103    0.0053   12.2725    2.0650   27.0000   27.0000 
3956.3040    3.3000    3.2014   88.8475    1.9521    2.5525    1.9354   68.5986    2.3966    0.0054   11.4433    1.9615   27.0000   27.0000 
3956.4564    3.3000    3.2199   58.5736    0.9922    2.3443    1.8825   68.7683    2.3951    0.0037   10.3156    1.8383   27.0000   27.0000 
3956.6088    3.3000    3.2460   42.8795    0.9293    2.1912    1.9172   69.6140    2.3948    0.0000    9.5236    1.7824   27.0000   27.0000 
3956.7612    3.3000    3.2695   34.2197    1.1832    2.0772    1.6477   70.4224    2.3902   -0.0039    9.9240    1.8176   27.0000   27.0000 
3956.9136    3.3000    3.2838   32.3373    1.5881    1.9918    1.4830   71.3832    2.3789    0.0015   11.3395    1.9649   27.0000   27.0000 
3957.0660    3.3000    3.2845   32.5980    2.2582    1.9301    1.3333   72.5257    2.3642    0.0072   12.3820    2.0946   27.0000   27.0000 
3957.2184    3.3000    3.2734   33.2541    3.1051    1.9159    1.3833   72.9829    2.3524    0.0121   13.1008    2.0775   27.0000   27.0000 
3957.3708    3.3000    3.2501   34.3306    3.5350    1.9416    1.3875   72.4669    2.3581    0.0166   13.2017    1.9770   27.0000   27.0000 
3957.5232    3.3000    3.2341   36.5638    2.8772    1.9789    1.6727   71.9274    2.3798    0.0173   12.8866    1.9658   27.0000   27.0000 
3957.6756    3.3000    3.2342   42.3851    2.7770    2.0179    1.7391   71.7705    2.3861    0.0113   12.5127    1.9636   27.0000   27.0000 
3957.8280    3.3000    3.2457   48.3150    3.2785    2.0883    1.7694   72.7108    2.3852    0.0042   12.4087    1.9097   27.0000   27.0000 
3957.9804    3.3000    3.2648   53.1875    3.5138    2.1958    1.6386   72.6270    2.3872   -0.0014   12.1709    1.8525   27.0000   27.0000 
3958.1328    3.3000    3.2841   57.0711    3.3972    2.2769    2.0406   72.3955    2.3958   -0.0041   11.6430    1.8566   27.0000   27.0000 
3958.2852    3.3000    3.2985   56.3910    3.5647    2.3469    4.8928   72.7358    2.4106   -0.0006   11.3066    1.8700   27.0000   27.0000 
3958.4376    3.3000    3.3013   56.7315    4.1603    2.4102    4.9923   73.3250    2.4188    0.0039   12.4623    1.8640   27.0000   27.0000 
3958.5900    3.3000    3.3000   62.2646    4.2702    2.4794    1.3268   74.0980    2.4060    0.0068   14.0055    1.9250   27.0000   27.0000 
3958.7424    3.3000    3.2910   69.9585    4.1329    2.5205    1.3139   74.5546    2.4028    0.0081   14.7386    2.0540   36.0000   36.0000 
3958.8948    3.3000    3.2835   69.0728    4.0364    2.4873    1.3700   74.4426    2.4157    0.0084   14.4148    2.0863   36.0000   36.0000 
3959.0472    3.3000    3.2814   65.2447    3.9643    2.3801    3.3107   73.2262    2.4344    0.0080   13.8763    2.0022   36.0000   36.0000 
3959.1996    3.3000    3.2823   69.9224    3.4953    2.2931    2.6827   71.4630    2.4310    0.0047   13.8137    1.8753   36.0000   36.0000 
3959.3520    3.3000    3.2866   78.2314    2.3979    2.2407    1.8726   70.2748    2.4029    0.0013   13.6755    1.7958   27.0000   27.0000 
3959.5044    3.3000    3.2906   80.5239    1.8081    2.2173    1.3396   70.5544    2.3816   -0.0015   12.7285    1.7453   27.0000   27.0000 
3959.6568    3.3000    3.2887   70.6484    1.8250    2.2290    1.3314   71.8975    2.3684   -0.0030   11.5623    1.7583   27.0000   27.0000 
3959.8092    3.3000    3.2827   56.3481    2.3912    2.4301    1.3175   73.2973    2.3619   -0.0028   11.5161    1.8585   27.0000   27.0000 
3959.9616    3.3000    3.2814   45.3469    3.0112    2.7144    1.2511   73.3920    2.3844    0.0022   12.6834    1.9798   27.0000   27.0000 
3960.1140    3.3000    3.2959   37.6423    3.1367    3.0117    2.0412   73.3521    2.4197    0.0059   15.7099    2.0592   27.0000   36.0000 
3960.2664    3.3000    3.3298   40.7607    2.8369    3.6182    6.8661   73.9354    2.4561    0.0102   19.2620    2.1097   37.0000   37.0000 
3960.4188    3.3000    3.3560   66.1822    1.2792    5.1975   34.6016   75.1251    2.4782    0.0118   27.2473    2.0982   37.0000   37.0000 
3960.5712    3.3000    3.3833   92.4826   -0.3008    9.2842   34.1769   76.5789    2.4880    0.0080   30.5032    2.0994   37.0000   37.0000 
3960.7236    3.3000    3.3921  151.9806   -1.1976   21.5216   30.9720   77.8770    2.4775    0.0038   33.0620    2.1112   37.0000   37.0000 
3960.8760    3.3000    3.3953  169.0901   -1.7151   24.4546   30.4910   78.5195    2.4721   -0.0001   33.4703    2.1517   37.0000   37.0000 
3961.0284    3.3000    3.3983  171.3395   -2.2920   27.0513   32.3893   78.5534    2.4941   -0.0015   32.4457    2.2224   37.0000   37.0000 
