~VERSION INFORMATION
 VERS.                 2.0:   CWLS LOG ASCII STANDARD - VERSION 2.0
 WRAP.                  NO:   SINGLE LINE PER DEPTH STEP
 CREA.                 11/01/2018 08:52:43
#CREATED USING DSPetro VERSION 5000.10.1.3 BY H191660 ON 11/01/2018 08:52:43
~WELL INFORMATION
#MNEM.UNIT       DATA                          DESCRIPTION MNEMONIC
#---------      ---------------------------   --------------------------
 STRT    .M         0.0000                    : START DEPTH
 STOP    .M         4500.0672                 : STOP DEPTH
 STEP    .M         0.1524                    : STEP VALUE
 NULL    .      -999.0000                     : NULL VALUE
 DATE    .      11/01/2018                    : LAS file Creation Date
 WELL .      2474_NorthTurtle-1          : Well Name
 COMP .      Neftex Exploration Insights : Company
 FLD  .                                  : Field
 UWI  .      ZAUWL_005355                : Unique Well Identifier (UWI)
 LOC  .                                  : Location
 RWS  .      -999                        : Def_Rw
 WST  .      -999                        : Def_Rwt
 SRVC .                                  : Contractor
~CURVE INFORMATION
#MNEM              UNIT       API CODE   Curve Type Comments
#----------  --------------- ----------  ---------- -----------
 DEPTH      .M                         : Depth       
 BitSize    .in                        : Caliper     
 CAL_CM     .inch                      : caliper     Caliper Log - A representation of the measured diameter of a borehole along its depth
 GR_API     .API                       : gammaRay    
 SP_MV      .mv                        : SP          Spontaneous Potential - Records the electrical potential produced by the interaction of formation water, conductive drilling mud, and certain ion-sele
 ILD_OHMM   .ohmm                      : deepRes     Deep Induction Resistivity - Measurement made an induction log, made several feet into the formation
 MSFL_OHMM  .ohmm                      : microRes    Micro-Spherically Focused Log - Measurement involves only the first few inches of the formation immediately adjacent to the borehole
 DT_US_FT   .us/ft                     : sonic       Interval Transit Time: Compressional Wave - Evaluates the time it takes for a compressional wave to traverse a fixed distance
 RHOB_G_CC  .g/cc                      : density     Bulk Density - Measures the density of bulk material, including any void space or other materials contained in the subject volume
 DRHO_G_CC  .g/cc                      : drho        Density Correction - Investigates the correction to the Bulk Density log; used as an indication of hole condition to validate the Bulk Density measure
 NPHI_%     .PC                        : Neutron     Neutron Porosity - Measured with an neutron logging device calibrated to a given matrix (limestone, sandstone and dolomite)
 PEF_B_E    .b/e-                      : PEF         Photoelectric Factor - A log of photoelectric absorption properties. Often expressed in an approximation unit barns/electron (b/e-)
 LITH       .                          : Flag        
 LITH_v2    .                          : Flag        
~A  DEPTH  BitSize    CAL_CM    GR_API    SP_MV    ILD_OHMM MSFL_OHM   DT_US_FT RHOB_G_C  DRHO_G_C    NPHI    PEF_B_E     LITH    LITH_v2  
# ...
4412.8944    3.3000    3.3140   69.0014   19.8893    4.2970    2.7253   69.3710    2.4392    0.0048    8.1376    1.9576   27.0000   36.0000 
4413.0468    3.3000    3.3138   72.8444   18.9893    4.7937    2.5225   69.3893    2.4390    0.0116    8.2271    2.0263   27.0000   36.0000 
4413.1992    3.3000    3.3138   78.0798   17.9091    5.1430    2.3064   69.3943    2.4426    0.0179    8.6468    2.0851   27.0000   36.0000 
4413.3516    3.3000    3.3335   98.8390   17.1601    5.3025    3.0581   69.4011    2.4232    0.0188   12.2262    2.1182   27.0000   36.0000 
4413.5040    3.3000    3.4220  136.6560   16.4449    5.4057    3.6772   69.3937    1.9904    0.0178   25.3763    2.1476   10.0000   38.0000 
4413.6564    3.3000    3.6002  166.4872   15.2798    5.3931    2.9242   69.3561    1.8662    0.0444   33.1467    2.1772   10.0000   38.0000 
4413.8088    3.3000    4.1420  186.7210   14.1221    5.5075    0.2128   69.2946    1.9123    0.0652   40.2838    1.9982   10.0000   38.0000 
4413.9612    3.3000    4.1501  202.7111   13.2733    5.9374    0.2043   69.2651    1.9412    0.0718   44.1039    1.6903   10.0000   38.0000 
4414.1136    3.3000    4.0228  206.9862   12.4936    6.7318    0.2099   69.2371    1.8006    0.0595   45.0981    1.6854   10.0000   38.0000 
4414.2660    3.3000    3.8989  197.4188   11.9829    8.8922    0.2114   69.1757    1.6351    0.0334   43.7687    1.9051   10.0000   38.0000 
4414.4184    3.3000    4.0322  187.8980   12.0559    9.0097    0.2160   69.1412    1.5918    0.0156   39.8226    2.1273   10.0000   38.0000 
4414.5708    3.3000    4.2039  182.1725   12.2136    7.8233    0.2803   69.1079    1.6423    0.0073   35.1513    2.3407   10.0000   38.0000 
4414.7232    3.3000    4.2688  175.8369   11.5516    7.1222    0.3526   69.0490    1.9530    0.0049   31.4263    2.4897   10.0000   38.0000 
4414.8756    3.3000    3.9562  170.8770   10.3799    7.5539    0.2225   68.9574    2.1232   -0.0017   29.8493    2.7330   10.0000   38.0000 
4415.0280    3.3000    3.5905  169.6647    9.4862    8.9550    0.2067   68.8420    2.5086   -0.0070   31.1229    3.7782   37.0000   37.0000 
4415.1804    3.3000    3.4640  169.1082    9.6310   10.2608    6.0478   68.7095    2.4512   -0.0086   31.5741    3.8799   37.0000   37.0000 
4415.3328    3.3000    3.4056  167.3076   10.3511   12.6517   32.4598   68.5786    2.4519   -0.0065   29.0334    3.3887   37.0000   37.0000 
4415.4852    3.3000    3.3816  165.2173   10.7739   16.2674   32.2934   68.4945    2.4517   -0.0015   27.5627    2.6581   37.0000   37.0000 
4415.6376    3.3000    3.3712  165.3680   10.4940   17.8847   24.8380   68.4460    2.4507    0.0094   27.9357    2.4426   37.0000   37.0000 
4415.7900    3.3000    3.3695  170.8017    8.9409   17.0848   27.9489   68.4298    2.4504    0.0220   30.5598    2.1335   37.0000   37.0000 
4415.9424    3.3000    3.3702  174.9964    7.6864   21.1724   28.6727   68.4705    2.4503    0.0295   33.0602    2.0055   37.0000   37.0000 
4416.0948    3.3000    3.3679  174.1911    6.5249   30.9985   17.3904   68.4665    2.4507    0.0244   33.6009    2.0052   37.0000   37.0000 
4416.2472    3.3000    3.3650  170.9298    5.4311  242.5167   19.7545   68.4250    2.4504    0.0199   33.8316    2.0110   37.0000   37.0000 
4416.3996    3.3000    3.3612  169.1755    5.5767  855.3281   18.9765   68.3638    2.4502    0.0194   33.8474    2.0168   37.0000   37.0000 
4416.5520    3.3000    3.3602  170.4952    5.7597 1715.7030   19.5305   68.3137    2.4500    0.0183   32.7857    2.0181   37.0000   37.0000 
4416.7044    3.3000    3.3612  172.0436    5.3717 1116.3979   21.0426   68.2417    2.4500    0.0157   30.4679    2.0181   37.0000   37.0000 
4416.8568    3.3000    3.3608  171.9915    4.6213  708.3125   20.9149   68.1649    2.4495    0.0146   27.1784    2.0174   37.0000   37.0000 
4417.0092    3.3000    3.3621  170.4163    3.9771   56.5555   20.8308   68.1090    2.4493    0.0163   25.2508    2.0180   37.0000   37.0000 
4417.1616    3.3000    3.3647  169.0175    3.6038   31.2588   20.8697   68.0711    2.4493    0.0183   26.4277    2.0188   37.0000   37.0000 
4417.3140    3.3000    3.3656  169.2184    3.4497   29.1884   20.9242   67.9946    2.4497    0.0174   29.8000    2.0197   37.0000   37.0000 
4417.4664    3.3000    3.3665  170.3601    3.2453   31.6761   20.9907   67.9385    2.4497    0.0145   34.1221    2.0219   37.0000   37.0000 
4417.6188    3.3000    3.3610  171.4878    2.8000   33.5191   21.0714   67.9394    2.4498    0.0128   37.5553    2.0229   37.0000   37.0000 
4417.7712    3.3000    3.3465  172.2928    2.1638   34.1517   21.1629   67.9447    2.4496    0.0152   39.0736    2.0233   37.0000   37.0000 
4417.9236    3.3000    3.3278  172.3758    1.6271   33.2979   21.2049   68.0575    2.4497    0.0233   39.5313    2.0221   37.0000   37.0000 
4418.0760    3.3000    3.3221  171.5019    1.4430   32.7507   21.1947   68.1149    2.4497    0.0349   38.6482    2.0199   37.0000   37.0000 
4418.2284    3.3000    3.3323  170.5420    1.7049   26.6210   21.1384   68.1203    2.4500    0.0460   36.5893    2.0179   37.0000   37.0000 
4418.3808    3.3000    3.3403  169.6660    2.6355   21.2365   21.0709   68.1725    2.4505    0.0511   35.8318    2.0167   37.0000   37.0000 
4418.5332    3.3000    3.3479  169.9460    3.5982   18.8582   21.0649   68.2362    2.4507    0.0373   36.7376    2.0162 -999.0000   37.0000 
4418.6856    3.3000    3.3464  172.5044    2.7689   20.2731   20.9937   68.2993    2.4508    0.0156   37.6611    2.0180 -999.0000   37.0000 
4418.8380    3.3000    3.3357  175.4939    0.7900   22.3126   20.9559   68.3418    2.4509    0.0037   37.4120    2.0217 -999.0000   37.0000 
4418.9904    3.3000    3.3278  177.6370   -1.1151   23.9539   20.9115   68.3639    2.4508    0.0068   37.0794    2.0268 -999.0000   37.0000 
4419.1428    3.3000    3.3228  179.0807   -2.1703   24.7931   20.8497   68.3933    2.4508    0.0161   38.1079    2.0277 -999.0000   37.0000 
4419.2952    3.3000    3.3387  180.0641   -1.0106   23.2430   20.8124   68.3981    2.4509    0.0231   40.1898    2.0264 -999.0000   37.0000 
4419.4476    3.3000    3.3548  180.7113    0.5852   22.1026   20.8030   68.4189    2.4511    0.0257   42.6478    2.0168 -999.0000   37.0000 
4419.6000    3.3000    3.3659  180.9880    1.5230   22.7905   20.7976   68.4381    2.4515    0.0253   43.5378    2.0061 -999.0000   37.0000 
4419.7524    3.3000    3.3664  181.0592    1.5814   24.6974   20.7952   68.4150    2.4517    0.0206   42.3780    1.9967 -999.0000   37.0000 
4419.9048    3.3000    3.3585  181.1399    0.3344   26.8582   20.8555   68.4216    2.4520    0.0120   40.5858    1.9944 -999.0000   37.0000 
4420.0572    3.3000    3.3490  181.2367   -0.2407   25.4657   20.9076   68.3899    2.4522    0.0080   38.9658    1.9949 -999.0000   37.0000 
4420.2096    3.3000    3.3459  181.3134   -0.3815   20.9783   20.9923   68.3935    2.4525    0.0075   37.4935    1.9953 -999.0000   37.0000 
4420.3620    3.3000    3.3489  181.3798   -0.0565   19.8973   21.0730   68.3993    2.4528    0.0126   36.6448    1.9947 -999.0000   37.0000 
4420.5144    3.3000    3.3512  181.3833    0.4638   19.8721   21.1595   68.4001    2.4532    0.0326   36.1412    1.9525 -999.0000   37.0000 
4420.6668    3.3000    3.3536  181.3337    0.8700   19.9793   21.2410 -999.0000    2.4538    0.0459   37.8110    1.8437 -999.0000   37.0000 
4420.8192    3.3000    3.3531  181.2982    0.7327   20.3467   21.2871 -999.0000    2.4541    0.0248   39.8646    1.8643 -999.0000   37.0000 
4420.9716    3.3000    3.3516  181.2984    0.0566   21.0331   21.2458 -999.0000    2.3182   -0.0173   40.2863    1.9426 -999.0000   37.0000 
4421.1240    3.3000    3.3497  181.3112   -0.2885   21.7239   21.2591 -999.0000    2.3226   -0.0303   38.9053    1.9562 -999.0000   37.0000 
4421.2764    3.3000    3.3480  181.3016   -0.0284   21.9396   21.5462 -999.0000    2.3340   -0.0274   37.5973    1.9047 -999.0000   37.0000 
4421.4288    3.3000    3.3463  181.2797    0.4681   22.7731   21.5088 -999.0000    2.3405   -0.0210   36.8155    1.8026 -999.0000   37.0000 
