~VERSION INFORMATION
 VERS.                 2.0:   CWLS LOG ASCII STANDARD - VERSION 2.0
 WRAP.                  NO:   SINGLE LINE PER DEPTH STEP
 CREA.                 11/01/2018 08:52:43
#CREATED USING DSPetro VERSION 5000.10.1.3 BY H191660 ON 11/01/2018 08:52:43
~WELL INFORMATION
#MNEM.UNIT       DATA                          DESCRIPTION MNEMONIC
#---------      ---------------------------   --------------------------
 STRT    .M         0.0000                    : START DEPTH
 STOP    .M         4500.0672                 : STOP DEPTH
 STEP    .M         0.1524                    : STEP VALUE
 NULL    .      -999.0000                     : NULL VALUE
 DATE    .      11/01/2018                    : LAS file Creation Date
 WELL .      2474_NorthTurtle-1          : Well Name
 COMP .      Neftex Exploration Insights : Company
 FLD  .                                  : Field
 UWI  .      ZAUWL_005355                : Unique Well Identifier (UWI)
 LOC  .                                  : Location
 RWS  .      -999                        : Def_Rw
 WST  .      -999                        : Def_Rwt
 SRVC .                                  : Contractor
~CURVE INFORMATION
#MNEM              UNIT       API CODE   Curve Type Comments
#----------  --------------- ----------  ---------- -----------
 DEPTH      .M                         : Depth       
 BitSize    .in                        : Caliper     
 CAL_CM     .inch                      : caliper     Caliper Log - A representation of the measured diameter of a borehole along its depth
 GR_API     .API                       : gammaRay    
 SP_MV      .mv                        : SP          Spontaneous Potential - Records the electrical potential produced by the interaction of formation water, conductive drilling mud, and certain ion-sele
 ILD_OHMM   .ohmm                      : deepRes     Deep Induction Resistivity - Measurement made an induction log, made several feet into the formation
 MSFL_OHMM  .ohmm                      : microRes    Micro-Spherically Focused Log - Measurement involves only the first few inches of the formation immediately adjacent to the borehole
 DT_US_FT   .us/ft                     : sonic       Interval Transit Time: Compressional Wave - Evaluates the time it takes for a compressional wave to traverse a fixed distance
 RHOB_G_CC  .g/cc                      : density     Bulk Density - Measures the density of bulk material, including any void space or other materials contained in the subject volume
 DRHO_G_CC  .g/cc                      : drho        Density Correction - Investigates the correction to the Bulk Density log; used as an indication of hole condition to validate the Bulk Density measure
 NPHI_%     .PC                        : Neutron     Neutron Porosity - Measured with an neutron logging device calibrated to a given matrix (limestone, sandstone and dolomite)
 PEF_B_E    .b/e-                      : PEF         Photoelectric Factor - A log of photoelectric absorption properties. Often expressed in an approximation unit barns/electron (b/e-)
 LITH       .                          : Flag        
 LITH_v2    .                          : Flag        
~A  DEPTH  BitSize    CAL_CM    GR_API    SP_MV    ILD_OHMM MSFL_OHM   DT_US_FT RHOB_G_C  DRHO_G_C    NPHI    PEF_B_E     LITH    LITH_v2  
# ...
4299.9660    3.3000    3.2637   48.0308    8.4489    2.5528    2.1100   73.7688    2.4104    0.0169    9.7032    2.0306   27.0000   27.0000 
4300.1184    3.3000    3.2491   53.5239    8.5382    2.4919    1.7980   72.9276    2.4259    0.0265   10.2813    1.9872   27.0000   27.0000 
4300.2708    3.3000    3.2375   56.4508    9.6117    2.5233    1.6064   72.3574    2.4395    0.0340   10.3010    1.9295   27.0000   27.0000 
4300.4232    3.3000    3.2324   58.3442   11.4691    2.6067    1.6423   72.3776    2.4412    0.0359    9.9986    1.8974   27.0000   27.0000 
4300.5756    3.3000    3.2530   57.4218   12.6632    2.7135    1.8614   72.0418    2.4387    0.0174    9.8507    1.9012   27.0000   27.0000 
4300.7280    3.3000    3.2810   52.0994   12.4330    2.8295    2.0616   71.4124    2.4317    0.0036    9.5285    1.9869   27.0000   27.0000 
4300.8804    3.3000    3.2873   46.4890   11.5765    2.9626    2.0724   70.5252    2.4255    0.0000    8.8016    2.0449   27.0000   27.0000 
4301.0328    3.3000    3.2792   44.3409   11.0510    3.0960    2.1208   69.8690    2.4212    0.0041    8.2325    2.0704   27.0000   27.0000 
4301.1852    3.3000    3.2629   44.2390   10.9053    3.2049    2.1226   70.1498    2.4186    0.0069    8.2619    2.0722   27.0000   27.0000 
4301.3376    3.3000    3.2500   42.8814   11.0765    3.2350    2.0700   70.2830    2.4201    0.0060    8.6580    2.0376   27.0000   27.0000 
4301.4900    3.3000    3.2469   40.4392   11.4940    3.2077    1.9403   69.8568    2.4215    0.0033    9.0751    1.9911   27.0000   27.0000 
4301.6424    3.3000    3.2646   37.9155   12.1541    3.1406    1.8809   69.1823    2.4224    0.0007    9.3594    2.0728   27.0000   27.0000 
4301.7948    3.3000    3.2785   35.0573   12.1793    3.0277    1.8088   69.0956    2.4215    0.0000    9.5462    2.1841   27.0000   27.0000 
4301.9472    3.3000    3.2743   35.0931   11.8061    2.8688    1.7211   69.4276    2.4147    0.0017    9.6681    2.2523   27.0000   27.0000 
4302.0996    3.3000    3.2621   35.8421   11.2664    2.7274    1.8410   70.0147    2.4029    0.0054    9.7988    2.2731   27.0000   27.0000 
4302.2520    3.3000    3.2566   35.8604   11.3495    2.5981    1.9740   70.4621    2.4033    0.0077   10.0740    2.2116   27.0000   27.0000 
4302.4044    3.3000    3.2583   34.4052   12.2342    2.5070    1.6638   70.7526    2.4119    0.0095   10.6251    2.0583   27.0000   27.0000 
4302.5568    3.3000    3.2662   31.8355   13.3593    2.4915    1.5593   70.4183    2.4242    0.0094   11.2132    1.9480   27.0000   27.0000 
4302.7092    3.3000    3.2688   31.5797   13.1954    2.5104    1.4791   70.0615    2.4371    0.0060   11.5117    1.8631   27.0000   27.0000 
4302.8616    3.3000    3.2655   33.7257   12.3312    2.5440    1.6359   69.9506    2.4437    0.0024   10.7111    1.8575   27.0000   27.0000 
4303.0140    3.3000    3.2597   36.5071   11.4877    2.5834    1.9733   69.5303    2.4438   -0.0003    9.6482    1.9460   27.0000   27.0000 
4303.1664    3.3000    3.2503   39.2112   10.8226    2.6448    2.2049   68.8420    2.4387   -0.0010    9.1931    2.0383   27.0000   27.0000 
4303.3188    3.3000    3.2314   40.9029   11.0455    2.7636    2.0514   68.0674    2.4332   -0.0005    9.2955    2.0587   27.0000   27.0000 
4303.4712    3.3000    3.2169   42.4975   11.8682    2.9246    2.2411   67.4283    2.4275   -0.0004    9.5243    2.0560   27.0000   27.0000 
4303.6236    3.3000    3.2139   43.5382   12.8099    3.0686    2.4579   66.7808    2.4201   -0.0025    9.8939    2.0532   27.0000   27.0000 
4303.7760    3.3000    3.2237   43.6211   13.1698    3.1661    2.2868   67.0842    2.4135   -0.0026   10.4874    2.1098   27.0000   27.0000 
4303.9284    3.3000    3.2423   43.0157   12.9090    3.2173    1.7802   67.8100    2.4116   -0.0032   11.3518    2.2378   27.0000   27.0000 
4304.0808    3.3000    3.2673   42.4070   12.2608    3.2563    1.8636   68.2381    2.4167   -0.0051   11.5247    2.3994   27.0000   27.0000 
4304.2332    3.3000    3.2835   42.4378   11.2994    3.2267    1.8782   68.1762    2.4327    0.0024   11.1328    2.5376   27.0000   27.0000 
4304.3856    3.3000    3.2674   42.9987   10.6011    3.1131    1.7800   67.7432    2.4516    0.0212   10.5902    2.5659   27.0000   27.0000 
4304.5380    3.3000    3.2522   43.2309   10.4921    3.0035    1.9784   67.7152    2.4663    0.0363   10.1475    2.3495   27.0000   27.0000 
4304.6904    3.3000    3.2384   42.6428   11.3751    2.9354    2.4088   67.9650    2.4509    0.0427   10.5871    2.1983   27.0000   27.0000 
4304.8428    3.3000    3.2306   41.1321   12.5944    2.9193    1.9516   68.4188    2.4369    0.0480   11.7931    2.1015   27.0000   27.0000 
4304.9952    3.3000    3.2434   38.5635   13.4875    2.9587    1.9389   68.6383    2.4402    0.0552   12.5603    2.0347   27.0000   27.0000 
4305.1476    3.3000    3.2602   37.3062   13.4410    3.0044    1.5315   68.7203    2.4550    0.0621   12.6397    2.0408   27.0000   27.0000 
4305.3000    3.3000    3.2513   39.6468   12.0232    3.0111    1.8711   68.9235    2.4639    0.0656   11.5637    2.1082   27.0000   27.0000 
4305.4524    3.3000    3.2295   43.8559   10.2300    2.9694    2.0956   68.7767    2.4683    0.0682   10.6620    2.1292   27.0000   27.0000 
4305.6048    3.3000    3.2138   47.4551    9.9902    2.9204    1.9030   68.0889    2.4557    0.0668   10.2212    2.1061   27.0000   27.0000 
4305.7572    3.3000    3.2069   48.1846   10.8484    2.9106    2.2559   67.6845    2.4351    0.0598   10.5231    2.0074   27.0000   27.0000 
4305.9096    3.3000    3.2170   46.3438   11.6573    2.9424    2.4983   68.8071    2.4189    0.0400   11.0616    1.9326   27.0000   27.0000 
4306.0620    3.3000    3.2401   43.9134   12.3644    3.0007    2.2124   69.2290    2.4098    0.0147   11.5850    1.9054   27.0000   27.0000 
4306.2144    3.3000    3.2619   41.9196   12.1498    3.0638    2.0169   69.6312    2.4085    0.0062   11.8816    1.9006   27.0000   27.0000 
4306.3668    3.3000    3.2723   40.5682   11.0163    3.0629    1.7359   69.8625    2.4148    0.0052   11.3188    1.9270   27.0000   27.0000 
4306.5192    3.3000    3.2621   39.6124   10.5362    2.9939    1.6144   69.5981    2.4196    0.0075   10.2926    1.9966   27.0000   27.0000 
4306.6716    3.3000    3.2418   39.1763   10.8705    2.9222    1.7125   69.2192    2.4209    0.0092   10.0056    2.0513   27.0000   27.0000 
4306.8240    3.3000    3.2268   39.6728   11.7365    2.8616    2.2041   69.7160    2.4151    0.0109   10.1769    2.0616   27.0000   27.0000 
4306.9764    3.3000    3.2130   39.5330   12.4009    2.8349    2.5586   69.8796    2.4046    0.0110   11.8295    1.9764   27.0000   27.0000 
4307.1288    3.3000    3.2049   37.2065   12.7663    2.8361    1.9686   69.8742    2.4039    0.0098   12.6518    1.9214   27.0000   27.0000 
4307.2812    3.3000    3.2135   33.3802   12.3560    2.8467    1.7739   70.0450    2.4048    0.0077   12.9092    1.9343   27.0000   27.0000 
4307.4336    3.3000    3.2434   31.3614   11.4532    2.8376    1.8888   70.4288    2.3981    0.0033   12.2236    1.9788   27.0000   27.0000 
4307.5860    3.3000    3.2575   32.5308   10.8298    2.7831    1.7241   70.6132    2.3813   -0.0015   11.2249    1.9916   27.0000   27.0000 
4307.7384    3.3000    3.2578   34.9654   10.6738    2.7250    1.4558   71.1443    2.3772    0.0003   10.3706    1.9799   27.0000   27.0000 
4307.8908    3.3000    3.2520   37.0946   10.9518    2.6867    1.6049   71.0844    2.3887    0.0118   10.0253    1.9825   27.0000   27.0000 
4308.0432    3.3000    3.2386   38.8934   11.5675    2.6931    1.8203   70.4653    2.4080    0.0279   10.2058    2.0492   27.0000   27.0000 
4308.1956    3.3000    3.2249   39.5614   11.8296    2.7381    1.7954   69.5227    2.4142    0.0397   10.3055    2.0543   27.0000   27.0000 
4308.3480    3.3000    3.2296   39.5119   11.1351    2.8092    1.9700   68.5759    2.4057    0.0314   10.3449    1.9804   27.0000   27.0000 
4308.5004    3.3000    3.2523   40.1571   10.1938    2.8809    2.1419   68.3649    2.4018    0.0159   10.3036    1.9359   27.0000   27.0000 
