~VERSION INFORMATION
 VERS.                 2.0:   CWLS LOG ASCII STANDARD - VERSION 2.0
 WRAP.                  NO:   SINGLE LINE PER DEPTH STEP
 CREA.                 11/01/2018 08:52:43
#CREATED USING DSPetro VERSION 5000.10.1.3 BY H191660 ON 11/01/2018 08:52:43
~WELL INFORMATION
#MNEM.UNIT       DATA                          DESCRIPTION MNEMONIC
#---------      ---------------------------   --------------------------
 STRT    .M         0.0000                    : START DEPTH
 STOP    .M         4500.0672                 : STOP DEPTH
 STEP    .M         0.1524                    : STEP VALUE
 NULL    .      -999.0000                     : NULL VALUE
 DATE    .      11/01/2018                    : LAS file Creation Date
 WELL .      2474_NorthTurtle-1          : Well Name
 COMP .      Neftex Exploration Insights : Company
 FLD  .                                  : Field
 UWI  .      ZAUWL_005355                : Unique Well Identifier (UWI)
 LOC  .                                  : Location
 RWS  .      -999                        : Def_Rw
 WST  .      -999                        : Def_Rwt
 SRVC .                                  : Contractor
~CURVE INFORMATION
#MNEM              UNIT       API CODE   Curve Type Comments
#----------  --------------- ----------  ---------- -----------
 DEPTH      .M                         : Depth       
 BitSize    .in                        : Caliper     
 CAL_CM     .inch                      : caliper     Caliper Log - A representation of the measured diameter of a borehole along its depth
 GR_API     .API                       : gammaRay    
 SP_MV      .mv                        : SP          Spontaneous Potential - Records the electrical potential produced by the interaction of formation water, conductive drilling mud, and certain ion-sele
 ILD_OHMM   .ohmm                      : deepRes     Deep Induction Resistivity - Measurement made an induction log, made several feet into the formation
 MSFL_OHMM  .ohmm                      : microRes    Micro-Spherically Focused Log - Measurement involves only the first few inches of the formation immediately adjacent to the borehole
 DT_US_FT   .us/ft                     : sonic       Interval Transit Time: Compressional Wave - Evaluates the time it takes for a compressional wave to traverse a fixed distance
 RHOB_G_CC  .g/cc                      : density     Bulk Density - Measures the density of bulk material, including any void space or other materials contained in the subject volume
 DRHO_G_CC  .g/cc                      : drho        Density Correction - Investigates the correction to the Bulk Density log; used as an indication of hole condition to validate the Bulk Density measure
 NPHI_%     .PC                        : Neutron     Neutron Porosity - Measured with an neutron logging device calibrated to a given matrix (limestone, sandstone and dolomite)
 PEF_B_E    .b/e-                      : PEF         Photoelectric Factor - A log of photoelectric absorption properties. Often expressed in an approximation unit barns/electron (b/e-)
 LITH       .                          : Flag        
 LITH_v2    .                          : Flag        
~A  DEPTH  BitSize    CAL_CM    GR_API    SP_MV    ILD_OHMM MSFL_OHM   DT_US_FT RHOB_G_C  DRHO_G_C    NPHI    PEF_B_E     LITH    LITH_v2  
# ...
4030.6752    3.3000    3.2534   53.3633   10.9181    6.8254    2.3881   71.2862    2.4530    0.0097   10.0687    2.0318   27.0000   27.0000 
4030.8276    3.3000    3.2780   44.3853   10.1759    6.8205    5.0099   71.0797    2.4765    0.0166   11.3023    2.0836   37.0000   36.0000 
4030.9800    3.3000    3.3075   40.3952    9.6575    6.4676   16.0797   70.8313    2.4956    0.0219   16.9730    2.0812   37.0000   37.0000 
4031.1324    3.3000    3.3366   40.9057   10.0592    6.1041   19.2798   71.1442    2.5078    0.0216   21.5931    2.0103   37.0000   37.0000 
4031.2848    3.3000    3.3569   61.4075   11.2173    5.6543    6.0206   71.9217    2.4777    0.0135   21.5450    2.0033   37.0000   37.0000 
4031.4372    3.3000    3.3582   96.2190   11.6559    5.1524    3.9181   72.8597    2.4616    0.0100   17.7005    2.0281   37.0000   37.0000 
4031.5896    3.3000    3.3342  114.6665   11.0201    4.7138    7.4537   72.8090    2.4558    0.0454   14.7011    2.0412   27.0000   37.0000 
4031.7420    3.3000    3.3230  111.6823   10.4702    4.0664   10.9955   72.7093    2.4540    0.0608   14.2912    2.0389   27.0000   37.0000 
4031.8944    3.3000    3.3054   96.0714   10.7168    3.5328    4.9279   72.9893    2.4419    0.0595   13.5428    1.9894   27.0000   36.0000 
4032.0468    3.3000    3.2814   70.1833   11.7616    3.1391    1.6375   73.3088    2.4157    0.0427   12.2907    1.9499   27.0000   36.0000 
4032.1992    3.3000    3.2596   56.9496   12.5028    2.9190    1.5601   73.4712    2.3961    0.0285   11.6404    1.9191   27.0000   27.0000 
4032.3516    3.3000    3.2429   50.3299   12.7633    2.7472    1.7595   73.9845    2.3807    0.0160   12.1201    1.9064   27.0000   27.0000 
4032.5040    3.3000    3.2380   43.3078   12.4675    2.6012    1.6886   74.4186    2.3652    0.0082   13.0630    1.9378   36.0000   27.0000 
4032.6564    3.3000    3.2431   41.0527   11.7536    2.5270    1.6860   74.5431    2.3599    0.0105   14.2447    1.9924   36.0000   27.0000 
4032.8088    3.3000    3.2486   43.3911   11.3313    2.5369    1.7211   74.4929    2.3644    0.0162   14.9091    2.0507   36.0000   27.0000 
4032.9612    3.3000    3.2475   47.5475   11.6755    2.7558    2.0134   73.8906    2.4034    0.0190   14.8192    2.1061   36.0000   36.0000 
4033.1136    3.3000    3.2406   48.7900   11.9653    3.3549    2.0038   73.0067    2.4427    0.0212   14.6020    2.1477   36.0000   37.0000 
4033.2660    3.3000    3.2348   49.6059   12.3404    4.0952    6.5879   72.3090    2.4651    0.0312   14.5264    2.1698   37.0000   37.0000 
4033.4184    3.3000    3.2358   54.2574   12.5585    4.8427    4.4394   72.4641    2.4785    0.0336   14.5514    2.2017   37.0000   37.0000 
4033.5708    3.3000    3.2489   64.3536   12.4075    5.3410    3.3920   72.2992    2.4814    0.0297   15.0653    2.2674   37.0000   37.0000 
4033.7232    3.3000    3.2677   74.3441   10.6911    5.7315    5.7252   72.7309    2.4853    0.0256   16.2500    2.3274   37.0000   37.0000 
4033.8756    3.3000    3.2709   81.4479    9.7220    6.7553   11.0183   72.6351    2.4904    0.0271   17.4588    2.3368   37.0000   37.0000 
4034.0280    3.3000    3.2630   92.0645    8.8033    7.4766    5.4415   71.6748    2.4891    0.0321   17.2588    2.2156   37.0000   37.0000 
4034.1804    3.3000    3.2567  100.1643    8.0489    8.0793    4.4693   70.8769    2.4780    0.0287   15.2860    2.1116   37.0000   37.0000 
4034.3328    3.3000    3.2520  103.0674    7.8878    8.4694    4.5730   70.7395    2.4715    0.0278   14.0738    2.0503   37.0000   37.0000 
4034.4852    3.3000    3.2491   97.6688    8.3910    8.8094    3.8461   70.5619    2.4728    0.0301   14.9487    2.0366   37.0000   37.0000 
4034.6376    3.3000    3.2513   86.6544    8.7271    8.8648    8.4368   70.1470    2.4800    0.0304   16.1212    2.1692   37.0000   37.0000 
4034.7900    3.3000    3.2610   78.6237    8.5372    9.1756   11.1930   70.1615    2.4731    0.0227   15.9361    2.2726   37.0000   37.0000 
4034.9424    3.3000    3.2774   76.5805    7.4203    9.8747    3.8163   70.7123    2.4583    0.0122   15.4148    2.2255   37.0000   37.0000 
4035.0948    3.3000    3.2852   82.8968    6.5678   10.4770    5.2503   71.4260    2.4586    0.0065   15.8403    2.1918   37.0000   37.0000 
4035.2472    3.3000    3.2937   90.7801    6.5530   10.7999   10.1092   71.3670    2.4842    0.0185   17.8479    2.2315   37.0000   37.0000 
4035.3996    3.3000    3.3100   90.8960    7.0693   10.6572   22.8314   70.3451    2.5040    0.0294   20.3428    2.2786   37.0000   37.0000 
4035.5520    3.3000    3.3265   91.2379    7.0716    9.0396   13.4234   69.5335    2.5007    0.0312   22.0375    2.2663   37.0000   37.0000 
4035.7044    3.3000    3.3290  102.9372    6.5008    7.3924    4.5855   69.0365    2.4833    0.0198   20.6850    2.1753   37.0000   37.0000 
4035.8568    3.3000    3.3155  131.6311    5.4000    6.6938    4.8112   69.0732    2.4616    0.0092   15.2032    2.1209   36.0000   37.0000 
4036.0092    3.3000    3.2822  144.2480    4.9950    6.3657    3.2237   71.0339    2.4401    0.0022   13.2377    2.1975   36.0000   31.0000 
4036.1616    3.3000    3.2683  133.4467    5.6697    6.2890    1.8514   74.4637    2.4362   -0.0010   12.4371    2.5760   36.0000   31.0000 
4036.3140    3.3000    3.2741  120.5293    5.8050    6.3685    3.0522   77.6305    2.4540   -0.0016   14.9673    3.0132   36.0000   37.0000 
4036.4664    3.3000    3.2959   78.6261    5.6849    6.6992    4.4374   79.4496    2.4836   -0.0007   22.3332    3.2413   37.0000   37.0000 
4036.6188    3.3000    3.3306   59.5267    5.0619    7.1576    6.1730   79.8551    2.5321   -0.0009   33.4281    3.4782   37.0000   23.0000 
4036.7712    3.3000    3.3716   63.2595    3.5071    7.6315   30.9373   79.7015    2.5661   -0.0017   34.1877    3.6083   37.0000   23.0000 
4036.9236    3.3000    3.3916  103.1060    2.4717    8.5660   18.3878   80.4682    2.5781   -0.0021   35.0373    3.6829   37.0000   23.0000 
4037.0760    3.3000    3.3995  138.5578    1.6956   13.3532   10.0621   81.3173    2.5833   -0.0024   36.8367    3.6293   37.0000   23.0000 
4037.2284    3.3000    3.4063  153.7825    1.5946   16.9772   12.6937   81.1310    2.5878   -0.0036   39.0937    3.4518   37.0000   23.0000 
4037.3808    3.3000    3.4142  166.7020    2.0363   20.4043    5.5474   78.6860    2.5973   -0.0070   39.2754    3.4825   37.0000   23.0000 
4037.5332    3.3000    3.4228  169.1137    2.4403   20.7301    2.9058   76.0992    2.6105   -0.0119   34.9623    3.5347   37.0000   23.0000 
4037.6856    3.3000    3.4312  172.7509    2.5044   17.3854    4.6144   74.2827    2.6187   -0.0155   31.7976    3.3861   37.0000   23.0000 
4037.8380    3.3000    3.4409  177.1643    2.2644   15.5382    1.4273   72.9505    2.6164   -0.0178   31.2150    3.0274   37.0000   23.0000 
4037.9904    3.3000    3.4498  182.4509    0.4784   14.8857    0.9302   72.5287    2.5936   -0.0162   31.3216    2.7477   37.0000   37.0000 
4038.1428    3.3000    3.4610  185.3857   -1.1678   15.7759    0.9547   71.9659    2.5774   -0.0130   31.6863    2.4069   37.0000   37.0000 
4038.2952    3.3000    3.4630  178.3937   -1.3349   16.6086    2.2385   71.0929    2.5713   -0.0124   31.7554    2.2399   37.0000   37.0000 
4038.4476    3.3000    3.4590  167.6634   -0.4782   16.9558    2.5264   70.6242    2.5690   -0.0108   31.5561    2.1751   37.0000   37.0000 
4038.6000    3.3000    3.4500  160.3932    0.3087   16.9803    9.5077   69.9792    2.5583   -0.0065   31.0143    2.1218   37.0000   37.0000 
4038.7524    3.3000    3.4418  157.0471    0.9771   17.0006    8.0160   68.9492    2.5395   -0.0054   29.2085    2.0701   37.0000   37.0000 
4038.9048    3.3000    3.4345  157.5515    1.1903   17.2596    5.6284   68.1308    2.5228   -0.0090   26.9869    2.0276   37.0000   37.0000 
4039.0572    3.3000    3.4272  159.0179    0.6436   19.2740    0.9825   68.7488    2.5125   -0.0139   24.4323    2.0095   37.0000   37.0000 
4039.2096    3.3000    3.4201  158.5562   -0.0524   22.6826    0.9179   70.9522    2.5098   -0.0140   23.7098    2.0131   37.0000   37.0000 
