~VERSION INFORMATION
 VERS.                 2.0:   CWLS LOG ASCII STANDARD - VERSION 2.0
 WRAP.                  NO:   SINGLE LINE PER DEPTH STEP
 CREA.                 11/01/2018 08:52:43
#CREATED USING DSPetro VERSION 5000.10.1.3 BY H191660 ON 11/01/2018 08:52:43
~WELL INFORMATION
#MNEM.UNIT       DATA                          DESCRIPTION MNEMONIC
#---------      ---------------------------   --------------------------
 STRT    .M         0.0000                    : START DEPTH
 STOP    .M         4500.0672                 : STOP DEPTH
 STEP    .M         0.1524                    : STEP VALUE
 NULL    .      -999.0000                     : NULL VALUE
 DATE    .      11/01/2018                    : LAS file Creation Date
 WELL .      2474_NorthTurtle-1          : Well Name
 COMP .      Neftex Exploration Insights : Company
 FLD  .                                  : Field
 UWI  .      ZAUWL_005355                : Unique Well Identifier (UWI)
 LOC  .                                  : Location
 RWS  .      -999                        : Def_Rw
 WST  .      -999                        : Def_Rwt
 SRVC .                                  : Contractor
~CURVE INFORMATION
#MNEM              UNIT       API CODE   Curve Type Comments
#----------  --------------- ----------  ---------- -----------
 DEPTH      .M                         : Depth       
 BitSize    .in                        : Caliper     
 CAL_CM     .inch                      : caliper     Caliper Log - A representation of the measured diameter of a borehole along its depth
 GR_API     .API                       : gammaRay    
 SP_MV      .mv                        : SP          Spontaneous Potential - Records the electrical potential produced by the interaction of formation water, conductive drilling mud, and certain ion-sele
 ILD_OHMM   .ohmm                      : deepRes     Deep Induction Resistivity - Measurement made an induction log, made several feet into the formation
 MSFL_OHMM  .ohmm                      : microRes    Micro-Spherically Focused Log - Measurement involves only the first few inches of the formation immediately adjacent to the borehole
 DT_US_FT   .us/ft                     : sonic       Interval Transit Time: Compressional Wave - Evaluates the time it takes for a compressional wave to traverse a fixed distance
 RHOB_G_CC  .g/cc                      : density     Bulk Density - Measures the density of bulk material, including any void space or other materials contained in the subject volume
 DRHO_G_CC  .g/cc                      : drho        Density Correction - Investigates the correction to the Bulk Density log; used as an indication of hole condition to validate the Bulk Density measure
 NPHI_%     .PC                        : Neutron     Neutron Porosity - Measured with an neutron logging device calibrated to a given matrix (limestone, sandstone and dolomite)
 PEF_B_E    .b/e-                      : PEF         Photoelectric Factor - A log of photoelectric absorption properties. Often expressed in an approximation unit barns/electron (b/e-)
 LITH       .                          : Flag        
 LITH_v2    .                          : Flag        
~A  DEPTH  BitSize    CAL_CM    GR_API    SP_MV    ILD_OHMM MSFL_OHM   DT_US_FT RHOB_G_C  DRHO_G_C    NPHI    PEF_B_E     LITH    LITH_v2  
# ...
3839.5656    3.3000    4.2419  143.8560    0.6745 -999.0000    0.6246   63.5576    2.2935    0.1354   25.9594    3.1541   11.0000   11.0000 
3839.7180    3.3000    4.1335  140.8510    0.7569 -999.0000    0.9283   64.2501    2.2802    0.1657   26.4632    3.1138   11.0000   11.0000 
3839.8704    3.3000    4.1035  141.1960    0.8790 -999.0000    1.7529   65.1344    2.2765    0.1888   27.9087    3.0600   11.0000   11.0000 
3840.0228    3.3000    4.0524  148.5756    1.0655 -999.0000    2.5792   65.5422    2.3227    0.2001   29.4752    2.9890   11.0000   11.0000 
3840.1752    3.3000    3.9721  152.5366    1.1540 -999.0000    2.4431   65.4984    2.4064    0.1924   30.7087    2.8747   11.0000   11.0000 
3840.3276    3.3000    3.9950  157.9762    1.1570 -999.0000    0.4375   65.2989    2.4322    0.1568   31.4824    2.7077   11.0000   11.0000 
3840.4800    3.3000    3.9941  163.3788    1.0953 -999.0000    0.4032   65.2375    2.4490    0.1201   32.1477    2.4078   11.0000   11.0000 
3840.6324    3.3000    3.8117  165.9196    1.0116 -999.0000    0.6688   65.4760    2.4461    0.0922   32.0727    2.2916   11.0000   11.0000 
3840.7848    3.3000    3.5999  163.8574    0.8996 -999.0000    5.6444   66.6657    2.4027    0.0594   32.4304    2.1314   11.0000   11.0000 
3840.9372    3.3000    3.5939  157.0849    0.8827 -999.0000    3.3767   70.4921    2.3287    0.0672   34.9546    2.0600   37.0000   37.0000 
3841.0896    3.3000    3.5825  149.2025    0.9775 -999.0000    3.7480   76.5894    2.2546    0.0714   37.9917    2.0488   37.0000   37.0000 
3841.2420    3.3000    3.5456  112.7219    1.0878 -999.0000    4.7843   80.6856    2.2171    0.0560   34.6558    2.0279   37.0000   37.0000 
3841.3944    3.3000    3.4530   92.8717    1.2251    5.3790    2.8188   83.1468    2.2671    0.0282   23.9329    1.9970   37.0000   37.0000 
3841.5468    3.3000    3.4100   85.2314    1.4083    5.1939    1.8239   81.9319    2.3087    0.0105   23.2086    1.9684   37.0000   37.0000 
3841.6992    3.3000    3.4494   89.8024    1.5933    4.9488    1.7912   81.3088    2.3331    0.0020   26.1694    2.0311   37.0000   37.0000 
3841.8516    3.3000    3.4796  101.3870    1.6716    4.6921    2.0332   80.6317    2.3443    0.0101   32.9820    2.1376   37.0000   37.0000 
3842.0040    3.3000    3.4968  119.2687    1.7111    4.4788    1.6400   78.4743    2.3804    0.0410   38.6912    2.2247   37.0000   37.0000 
3842.1564    3.3000    3.5030  134.9329    1.6585    4.3134   22.7026   75.5519    2.4430    0.0685   39.3977    2.3055   37.0000   37.0000 
3842.3088    3.3000    3.4924  142.5983    1.6189    4.2327   16.3017   73.9057    2.4819    0.0806   28.5869    2.3713   37.0000   37.0000 
3842.4612    3.3000    3.4719  143.8435    1.5297    4.2705   10.1898   73.9426    2.4921    0.0393   24.0334    2.3800   37.0000   37.0000 
3842.6136    3.3000    3.4238  139.2729    1.4331    4.3489    2.9636   74.3742    2.4741    0.0182   20.1011    2.3591   37.0000   37.0000 
3842.7660    3.3000    3.3826  126.8299    1.3618    4.3502    1.9981   74.7838    2.4549    0.0055   16.9177    2.3141   37.0000   37.0000 
3842.9184    3.3000    3.3545  109.7528    1.3193    3.7860    1.6904   74.5507    2.4414    0.0013   13.6609    2.2401   27.0000   27.0000 
3843.0708    3.3000    3.3371   89.4333    1.3072    3.3801    2.5907   73.5657    2.4419   -0.0009   12.6393    2.1494   27.0000   27.0000 
3843.2232    3.3000    3.3395   70.9040    1.3804    3.1281    2.5219   71.7333    2.4461    0.0013   11.7534    2.0656   27.0000   27.0000 
3843.3756    3.3000    3.3548   57.9775    1.9261    2.9716    2.0128   70.7783    2.4387    0.0028   10.4404    1.9919   27.0000   27.0000 
3843.5280    3.3000    3.3687   49.5401    2.4927    2.9054    1.8948   71.0160    2.4304    0.0006    9.7720    1.9189   27.0000   27.0000 
3843.6804    3.3000    3.3799   43.4730    2.9994    2.9356    1.6849   71.0174    2.4201   -0.0032    9.4212    1.8460   27.0000   27.0000 
3843.8328    3.3000    3.3932   41.1994    3.5312    3.0253    1.6215   70.7402    2.4171   -0.0034    8.9457    1.8338   27.0000   27.0000 
3843.9852    3.3000    3.4059   42.8532    3.6421    3.0856    1.7629   70.5923    2.4355   -0.0010    9.0620    1.9294   27.0000   27.0000 
3844.1376    3.3000    3.4160   51.5244    3.1313    3.0735    2.2862   70.3453    2.4585    0.0083    9.7245    2.1216   27.0000   27.0000 
3844.2900    3.3000    3.4213   62.2907    2.3299    3.0613    2.5074   69.6721    2.4791    0.0215   10.8375    2.2225   27.0000   27.0000 
3844.4424    3.3000    3.4199   72.3590    1.9779    3.1138    3.5621   69.0247    2.4706    0.0261   12.1288    2.1756   11.0000   11.0000 
3844.5948    3.3000    3.4159   68.8812    2.1310    3.2754    3.7872   69.8842    2.4501    0.0258   12.7811    2.1370   11.0000   11.0000 
3844.7472    3.3000    3.4438   65.6311    2.4379    3.6733    2.6964   71.1920    2.4361    0.0599   13.0112    2.1580   11.0000   11.0000 
3844.8996    3.3000    3.5505   71.0217    2.6450    4.4022    3.0436   72.2622    2.4587    0.1208   13.4525    2.2925   11.0000   11.0000 
3845.0520    3.3000    3.6583   93.1683    2.7687    5.5452    3.8957   72.5858    2.5212    0.1388   14.3016    2.5925   11.0000   11.0000 
3845.2044    3.3000    3.7328  126.3386    2.1651    6.1182   10.8975   71.3625    2.5460    0.1492   22.8049    2.7384   11.0000   11.0000 
3845.3568    3.3000    3.7363  149.8129    0.9617    6.6792   18.3632   68.8450    2.5214    0.1422   26.5322    2.7974   11.0000   11.0000 
3845.5092    3.3000    3.8261  152.6402   -0.3257    7.3113   15.8149   66.8612    2.4662    0.1342   29.2259    2.8287   11.0000   11.0000 
3845.6616    3.3000    3.9970  154.1964   -1.6039    9.2290    0.5490   67.6049    2.4447    0.1367   29.6898    2.8517   11.0000   11.0000 
3845.8140    3.3000    4.0298  155.2876   -1.9878   13.4740    1.0277   68.4800    2.4453    0.1647   30.7356    2.8762   11.0000   11.0000 
3845.9664    3.3000    3.8861  157.5046   -2.0381   17.5948    0.7332   68.7503    2.5489    0.2447   31.8941    2.9050   11.0000   11.0000 
3846.1188    3.3000    3.9077  155.9088   -1.5509   17.0580    0.6520   68.2028    2.5395    0.2575   32.7855    2.8458   11.0000   11.0000 
3846.2712    3.3000    3.9261  144.7452   -0.4539    8.6622    0.8600   67.9677    2.4978    0.2439   30.9032    2.5481   11.0000   11.0000 
3846.4236    3.3000    3.8507  120.3658    1.0455    6.2723    2.8206   68.1069    2.4436    0.2066   21.6002    2.3895   11.0000   11.0000 
3846.5760    3.3000    3.6644  103.4123    2.3171    5.0016    9.2905   69.1179    2.4130    0.1148   19.1186    2.2777   11.0000   11.0000 
3846.7284    3.3000    3.4969   82.3136    2.6648    4.3908    2.9102   71.9507    2.3946    0.0574   16.3047    2.2323   11.0000   11.0000 
3846.8808    3.3000    3.4008   72.3860    2.7144    3.9669    2.1935   73.9968    2.3950    0.0096   15.4798    2.2173   11.0000   11.0000 
3847.0332    3.3000    3.3601   70.2852    2.7880    3.6956    2.0031   75.7360    2.3887   -0.0106   16.9018    2.2010   11.0000   11.0000 
3847.1856    3.3000    3.3732   67.4206    3.0455    3.5125    1.7087   76.7050    2.3751   -0.0115   17.9227    2.2725   11.0000   11.0000 
3847.3380    3.3000    3.3733   64.6904    3.4770    3.4266    1.9151   74.6263    2.3642   -0.0111   17.5009    2.3767   11.0000   11.0000 
3847.4904    3.3000    3.3583   66.0302    3.8636    3.4440    2.2541   72.5797    2.3758   -0.0081   18.1628    2.5083   11.0000   11.0000 
3847.6428    3.3000    3.3835   77.3827    3.8644    3.5536    3.4233   71.5726    2.4334    0.0107   19.7441    2.7182   11.0000   11.0000 
3847.7952    3.3000    3.4936   95.3906    3.2777    3.8032    2.0136   70.7378    2.5027    0.0989   23.0087    2.8130   11.0000   11.0000 
3847.9476    3.3000    3.6091  123.1345    2.2785    4.3573    3.5073   67.3800    2.5714    0.1972   33.0587    2.8701   11.0000   11.0000 
3848.1000    3.3000    3.6913  135.3569    1.0376    5.3383    5.6588   65.3666    2.6049    0.2409   35.1335    2.8256   11.0000   11.0000 
