~VERSION INFORMATION
 VERS.                 2.0:   CWLS LOG ASCII STANDARD - VERSION 2.0
 WRAP.                  NO:   SINGLE LINE PER DEPTH STEP
 CREA.                 11/01/2018 08:52:43
#CREATED USING DSPetro VERSION 5000.10.1.3 BY H191660 ON 11/01/2018 08:52:43
~WELL INFORMATION
#MNEM.UNIT       DATA                          DESCRIPTION MNEMONIC
#---------      ---------------------------   --------------------------
 STRT    .M         0.0000                    : START DEPTH
 STOP    .M         4500.0672                 : STOP DEPTH
 STEP    .M         0.1524                    : STEP VALUE
 NULL    .      -999.0000                     : NULL VALUE
 DATE    .      11/01/2018                    : LAS file Creation Date
 WELL .      2474_NorthTurtle-1          : Well Name
 COMP .      Neftex Exploration Insights : Company
 FLD  .                                  : Field
 UWI  .      ZAUWL_005355                : Unique Well Identifier (UWI)
 LOC  .                                  : Location
 RWS  .      -999                        : Def_Rw
 WST  .      -999                        : Def_Rwt
 SRVC .                                  : Contractor
~CURVE INFORMATION
#MNEM              UNIT       API CODE   Curve Type Comments
#----------  --------------- ----------  ---------- -----------
 DEPTH      .M                         : Depth       
 BitSize    .in                        : Caliper     
 CAL_CM     .inch                      : caliper     Caliper Log - A representation of the measured diameter of a borehole along its depth
 GR_API     .API                       : gammaRay    
 SP_MV      .mv                        : SP          Spontaneous Potential - Records the electrical potential produced by the interaction of formation water, conductive drilling mud, and certain ion-sele
 ILD_OHMM   .ohmm                      : deepRes     Deep Induction Resistivity - Measurement made an induction log, made several feet into the formation
 MSFL_OHMM  .ohmm                      : microRes    Micro-Spherically Focused Log - Measurement involves only the first few inches of the formation immediately adjacent to the borehole
 DT_US_FT   .us/ft                     : sonic       Interval Transit Time: Compressional Wave - Evaluates the time it takes for a compressional wave to traverse a fixed distance
 RHOB_G_CC  .g/cc                      : density     Bulk Density - Measures the density of bulk material, including any void space or other materials contained in the subject volume
 DRHO_G_CC  .g/cc                      : drho        Density Correction - Investigates the correction to the Bulk Density log; used as an indication of hole condition to validate the Bulk Density measure
 NPHI_%     .PC                        : Neutron     Neutron Porosity - Measured with an neutron logging device calibrated to a given matrix (limestone, sandstone and dolomite)
 PEF_B_E    .b/e-                      : PEF         Photoelectric Factor - A log of photoelectric absorption properties. Often expressed in an approximation unit barns/electron (b/e-)
 LITH       .                          : Flag        
 LITH_v2    .                          : Flag        
~A  DEPTH  BitSize    CAL_CM    GR_API    SP_MV    ILD_OHMM MSFL_OHM   DT_US_FT RHOB_G_C  DRHO_G_C    NPHI    PEF_B_E     LITH    LITH_v2  
# ...
4187.0376    3.3000    4.7301  130.6640    1.4027   15.4376    1.0531   72.4613    2.2678    0.2377   14.6471    3.9386   11.0000   11.0000 
4187.1900    3.3000    4.7408  127.5078    1.4051   15.3110    0.6196   72.1161    2.1542    0.2147   14.4333    3.9408   11.0000   11.0000 
4187.3424    3.3000    4.6512  124.6500    1.2043   15.0137    0.4763   72.1778    2.1409    0.1974   13.3579    3.8392   11.0000   11.0000 
4187.4948    3.3000    4.4863  123.9832    1.2456   14.8541    0.3734   71.9869    2.1741    0.2284   12.3179    3.6178   11.0000   11.0000 
4187.6472    3.3000    4.3612  121.5072    0.4070   15.5026    0.3484   71.6026    2.2850    0.2480   11.3441    3.4342   11.0000   11.0000 
4187.7996    3.3000    4.2538  116.9726   -0.1342   18.1880    0.6290   70.5374    2.3593    0.2475   10.1846    3.3460   11.0000   11.0000 
4187.9520    3.3000    4.2814  115.5804   -0.0639   20.8552    1.2450   68.9891    2.3739    0.2479    8.6540    3.2092   11.0000   11.0000 
4188.1044    3.3000    4.3570  123.5811    0.1901   22.9124    1.2887   66.4503    2.3824    0.2488    8.4307    3.0656   11.0000   11.0000 
4188.2568    3.3000    4.4266  132.9019    0.4829   24.9762    0.7618   64.3604    2.3824    0.2495    8.8046    2.9395   11.0000   11.0000 
4188.4092    3.3000    4.4585  139.3066    0.2909   27.1884    0.8740   63.6298    2.3178    0.2473    9.8340    2.8431   11.0000   11.0000 
4188.5616    3.3000    4.4975  143.4376   -0.3243   29.3931    1.1976   65.6782    2.2542    0.2203   11.7597    2.8299   11.0000   11.0000 
4188.7140    3.3000    4.4531  146.1202   -1.0260   31.5806    0.7341   69.1430    2.0989    0.1922   13.7369    2.8739   11.0000   11.0000 
4188.8664    3.3000    4.3803  147.8144   -1.5605   31.2288    0.5213   70.8992    2.0723    0.1800   14.7310    2.9317   11.0000   11.0000 
4189.0188    3.3000    4.3270  148.5408   -1.4282   29.3505    0.4549   72.2699    2.1307    0.2026   15.2157    2.9896   11.0000   11.0000 
4189.1712    3.3000    4.3733  148.8110   -0.8623   27.8993    0.5128   73.1119    2.2080    0.2454   15.5781    3.0380   11.0000   11.0000 
4189.3236    3.3000    4.4320  149.2178   -0.3842   28.1454    0.5627   73.0362    2.2789    0.2479   16.1052    3.0810   11.0000   11.0000 
4189.4760    3.3000    4.4457  150.7930   -0.4887   29.9249    0.7358   72.8468    2.3178    0.2482   16.5204    3.1188   11.0000   11.0000 
4189.6284    3.3000    4.3900  152.6264   -1.2774   32.5940    1.0762   72.7095    2.2860    0.2471   16.8004    3.1392   11.0000   11.0000 
4189.7808    3.3000    4.3744  153.3889   -1.9662   34.4878    1.1875   72.6834    2.2349    0.2312   16.8071    3.1186   11.0000   11.0000 
4189.9332    3.3000    4.4457  145.9964   -1.9500   34.4638    0.7756   72.7303    2.1367    0.1716   16.1417    2.9615   11.0000   11.0000 
4190.0856    3.3000    4.4544  134.5061   -1.6688   34.7277    0.5665   72.7308    2.0370    0.1147   14.3089    2.7900   11.0000   11.0000 
4190.2380    3.3000    4.4039  127.3106   -1.2968   35.5456    0.4877   72.1714    2.0131    0.1164   13.1418    2.7206   11.0000   11.0000 
4190.3904    3.3000    4.1805  126.6817   -1.1121   36.5576    0.4934   70.9385    2.0659    0.1533   12.8586    2.7121   11.0000   11.0000 
4190.5428    3.3000    3.9399  132.0912   -1.1169   37.3760    0.6053   69.6079    2.1908    0.1950   13.5743    2.6685   11.0000   11.0000 
4190.6952    3.3000    3.8378  138.8952   -1.3214   36.8789    0.6461   68.5822    2.3334    0.1990   16.0125    2.5847   11.0000   11.0000 
4190.8476    3.3000    3.7357  144.4237   -1.1571   35.6760    0.6296   68.3103    2.4249    0.1505   17.5951    2.4790   11.0000   11.0000 
4191.0000    3.3000    3.6192  149.0147   -1.0733   36.3295    0.8498   70.0102    2.4820    0.0944   20.3053    2.4920   11.0000   11.0000 
4191.1524    3.3000    3.5244  149.8709   -1.6656   36.4346    0.7868   71.8067    2.5205    0.0464   21.0486    2.4889   11.0000   11.0000 
4191.3048    3.3000    3.4724  144.3250   -2.1576   35.6722    0.7087   72.2195    2.5339    0.0158   19.6082    2.4330   37.0000   37.0000 
4191.4572    3.3000    3.4556  136.1479   -1.8281   33.8209    0.5629   70.8416    2.5347    0.0121   17.8929    2.4325   37.0000   37.0000 
4191.6096    3.3000    3.4528  131.6761   -1.2108   33.4034    0.5344   69.7584    2.5398    0.0203   16.0397    2.4602   37.0000   37.0000 
4191.7620    3.3000    3.4585  134.3322   -1.3012   34.3239    0.4900   69.0527    2.5487    0.0283   16.0445    2.4792   37.0000   37.0000 
4191.9144    3.3000    3.4635  138.9613   -2.2518   37.9030    0.4379   69.2988    2.5545    0.0352   16.7989    2.4656   37.0000   37.0000 
4192.0668    3.3000    3.4632  143.3177   -2.3261   45.2010    0.3038   70.5889    2.5557    0.0323   19.1807    2.4224   37.0000   37.0000 
4192.2192    3.3000    3.4589  147.4218   -1.7807   53.1729    0.2773   71.8442    2.5537    0.0241   20.4299    2.4159   37.0000   37.0000 
4192.3716    3.3000    3.4518  150.3225   -1.6783   57.1477    4.5101   72.5688    2.5519    0.0148   21.4172    2.5289   37.0000   37.0000 
4192.5240    3.3000    3.4508  151.7910   -1.7228   59.2447   14.5161   73.0674    2.5549    0.0061   21.8252    2.7281   37.0000   37.0000 
4192.6764    3.3000    3.4614  149.3939   -1.4803   72.0553   22.9297   73.7207    2.5663    0.0055   21.8598    2.8350   37.0000   37.0000 
4192.8288    3.3000    3.4750  143.5262   -1.0868   93.5387   26.8150   73.7130    2.5783    0.0068   21.1485    2.8606   37.0000   37.0000 
4192.9812    3.3000    3.4857  140.4985   -1.4908  122.4195   29.2282   73.2488    2.5885    0.0055   20.2925    2.8436   37.0000   37.0000 
4193.1336    3.3000    3.4940  140.6451   -2.4211  155.2316   38.8916   72.3771    2.5973    0.0021   19.2052    2.8283   37.0000   37.0000 
4193.2860    3.3000    3.5026  140.6404   -3.0021  173.6989   49.4037   70.4274    2.6042   -0.0021   17.9626    2.8763   37.0000   37.0000 
4193.4384    3.3000    3.5135  140.4466   -3.1045  187.3265   50.7965   68.3736    2.5999   -0.0054   17.2632    2.9358   37.0000   37.0000 
4193.5908    3.3000    3.5264  142.7005   -2.8973  200.8148   47.3706   68.5173    2.5851   -0.0077   17.2596    2.9404   37.0000   37.0000 
4193.7432    3.3000    3.5381  148.9528   -2.4963  214.7828   62.6100   69.4970    2.5760   -0.0104   18.2902    2.8793   37.0000   37.0000 
4193.8956    3.3000    3.5467  151.9424   -2.1668  222.6119   41.0277   69.3494    2.5691   -0.0110   18.9918    2.8014   37.0000   37.0000 
4194.0480    3.3000    3.5520  149.0848   -2.4539  189.7258   41.1300   69.7902    2.5615   -0.0044   19.3653    2.7666   37.0000   37.0000 
4194.2004    3.3000    3.5522  145.7618   -2.6479  115.6866   41.6743   70.7700    2.5553   -0.0010   20.6323    2.7920   37.0000   37.0000 
4194.3528    3.3000    3.5528  144.5647   -2.2247   99.0714   35.9268   71.6058    2.5543   -0.0025   21.8775    2.8378   37.0000   37.0000 
4194.5052    3.3000    3.5552  144.4121   -2.0331   98.8054   37.0786   72.3757    2.5709   -0.0054   22.5258    2.9184   37.0000   37.0000 
4194.6576    3.3000    3.5602  148.5089   -2.2258  101.8029   39.0002   72.1547    2.5828   -0.0081   22.2832    3.0735   37.0000   37.0000 
4194.8100    3.3000    3.5657  151.0593   -2.7310  101.1850   40.8598   71.1298    2.5959   -0.0094   21.5975    3.1933   37.0000   37.0000 
4194.9624    3.3000    3.5699  154.6535   -3.4095   95.0714   77.6827   70.2300    2.5950   -0.0085   20.8549    3.2364   37.0000   37.0000 
4195.1148    3.3000    3.5730  157.0794   -3.4934   74.8693   59.4871   69.7820    2.5840   -0.0076   20.5586    3.2263   37.0000   37.0000 
4195.2672    3.3000    3.5765  156.2373   -2.8995   68.8044   43.7122   69.4190    2.5796   -0.0078   20.4938    3.1818   37.0000   37.0000 
4195.4196    3.3000    3.5797  153.4663   -2.4811   72.9566   42.7251   70.0264    2.5808   -0.0070   20.5238    3.0451   37.0000   37.0000 
4195.5720    3.3000    3.5819  152.6296   -2.4928   81.7183   40.0146   70.7932    2.5875   -0.0050   21.4184    3.0253   37.0000   37.0000 
