~VERSION INFORMATION
 VERS.                 2.0:   CWLS LOG ASCII STANDARD - VERSION 2.0
 WRAP.                  NO:   SINGLE LINE PER DEPTH STEP
 CREA.                 11/01/2018 08:52:43
#CREATED USING DSPetro VERSION 5000.10.1.3 BY H191660 ON 11/01/2018 08:52:43
~WELL INFORMATION
#MNEM.UNIT       DATA                          DESCRIPTION MNEMONIC
#---------      ---------------------------   --------------------------
 STRT    .M         0.0000                    : START DEPTH
 STOP    .M         4500.0672                 : STOP DEPTH
 STEP    .M         0.1524                    : STEP VALUE
 NULL    .      -999.0000                     : NULL VALUE
 DATE    .      11/01/2018                    : LAS file Creation Date
 WELL .      2474_NorthTurtle-1          : Well Name
 COMP .      Neftex Exploration Insights : Company
 FLD  .                                  : Field
 UWI  .      ZAUWL_005355                : Unique Well Identifier (UWI)
 LOC  .                                  : Location
 RWS  .      -999                        : Def_Rw
 WST  .      -999                        : Def_Rwt
 SRVC .                                  : Contractor
~CURVE INFORMATION
#MNEM              UNIT       API CODE   Curve Type Comments
#----------  --------------- ----------  ---------- -----------
 DEPTH      .M                         : Depth       
 BitSize    .in                        : Caliper     
 CAL_CM     .inch                      : caliper     Caliper Log - A representation of the measured diameter of a borehole along its depth
 GR_API     .API                       : gammaRay    
 SP_MV      .mv                        : SP          Spontaneous Potential - Records the electrical potential produced by the interaction of formation water, conductive drilling mud, and certain ion-sele
 ILD_OHMM   .ohmm                      : deepRes     Deep Induction Resistivity - Measurement made an induction log, made several feet into the formation
 MSFL_OHMM  .ohmm                      : microRes    Micro-Spherically Focused Log - Measurement involves only the first few inches of the formation immediately adjacent to the borehole
 DT_US_FT   .us/ft                     : sonic       Interval Transit Time: Compressional Wave - Evaluates the time it takes for a compressional wave to traverse a fixed distance
 RHOB_G_CC  .g/cc                      : density     Bulk Density - Measures the density of bulk material, including any void space or other materials contained in the subject volume
 DRHO_G_CC  .g/cc                      : drho        Density Correction - Investigates the correction to the Bulk Density log; used as an indication of hole condition to validate the Bulk Density measure
 NPHI_%     .PC                        : Neutron     Neutron Porosity - Measured with an neutron logging device calibrated to a given matrix (limestone, sandstone and dolomite)
 PEF_B_E    .b/e-                      : PEF         Photoelectric Factor - A log of photoelectric absorption properties. Often expressed in an approximation unit barns/electron (b/e-)
 LITH       .                          : Flag        
 LITH_v2    .                          : Flag        
~A  DEPTH  BitSize    CAL_CM    GR_API    SP_MV    ILD_OHMM MSFL_OHM   DT_US_FT RHOB_G_C  DRHO_G_C    NPHI    PEF_B_E     LITH    LITH_v2  
# ...
4334.7132    3.3000    3.1996   45.1183    8.1155    2.5269    1.4573   70.2003    2.3666    0.0396   12.9365    2.1084   27.0000   27.0000 
4334.8656    3.3000    3.2000   45.9781    7.5973    2.3732    1.2272   70.7930    2.3684    0.0473   13.3306    2.0831   27.0000   27.0000 
4335.0180    3.3000    3.2110   45.1338    7.0815    2.2413    1.1574   71.6419    2.3717    0.0518   13.6782    2.0427   27.0000   27.0000 
4335.1704    3.3000    3.2208   42.6917    6.7336    2.1232    1.2226   71.8164    2.3727    0.0526   13.9817    2.0170   27.0000   27.0000 
4335.3228    3.3000    3.2270   39.6416    6.7471    2.0246    1.1562   71.2593    2.3702    0.0543   14.1025    2.0360   27.0000   27.0000 
4335.4752    3.3000    3.2297   38.2312    7.5126    1.9590    1.1585   71.4036    2.3711    0.0583   13.8502    2.0868   27.0000   27.0000 
4335.6276    3.3000    3.2304   38.8086    8.5146    1.9280    1.1642   71.6586    2.3795    0.0649   13.6401    2.1052   27.0000   27.0000 
4335.7800    3.3000    3.2304   39.5268    9.1777    1.9507    1.1695   71.6646    2.3872    0.0742   13.5771    2.0962   27.0000   27.0000 
4335.9324    3.3000    3.2283   39.6074    9.1568    2.0171    1.2308   71.0710    2.3893    0.0820   13.5058    2.0844   27.0000   27.0000 
4336.0848    3.3000    3.2243   39.4188    7.4729    2.0852    1.1788   70.4452    2.3892    0.0802   13.3801    2.1077   27.0000   27.0000 
4336.2372    3.3000    3.2200   39.2295    6.2437    2.1326    1.2620   70.0888    2.3956    0.0739   13.2272    2.1716   27.0000   27.0000 
4336.3896    3.3000    3.2172   39.1553    6.6730    2.1996    1.5586   69.7467    2.4032    0.0689   13.0582    2.2193   27.0000   27.0000 
4336.5420    3.3000    3.2160   39.7277    7.5741    2.3550    1.7017   69.3739    2.4062    0.0627   12.1079    2.2273   27.0000   27.0000 
4336.6944    3.3000    3.2159   41.0767    8.2919    2.5097    1.8931   69.0118    2.4058    0.0559   11.1013    2.2151   27.0000   27.0000 
4336.8468    3.3000    3.2164   42.4535    8.8463    2.6317    2.0307   68.5588    2.4115    0.0536   10.5057    2.2267   27.0000   27.0000 
4336.9992    3.3000    3.2174   43.4622    8.7367    2.7068    1.8687   68.2134    2.4197    0.0631   10.1224    2.2495   27.0000   27.0000 
4337.1516    3.3000    3.2167   43.6259    7.8801    2.7327    1.8230   68.0352    2.4258    0.0744    9.7971    2.2522   27.0000   27.0000 
4337.3040    3.3000    3.2153   41.6666    7.0864    2.7497    1.7594   68.0592    2.4260    0.0765    9.8617    2.2200   27.0000   27.0000 
4337.4564    3.3000    3.2134   37.6802    6.9648    2.7679    1.4504   68.2193    2.4208    0.0790   10.5458    2.1782   27.0000   27.0000 
4337.6088    3.3000    3.2110   35.4038    7.3211    2.7507    1.4372   68.3779    2.4228    0.0792   11.4186    2.2047   27.0000   27.0000 
4337.7612    3.3000    3.2081   36.0936    7.8495    2.7077    1.5493   68.7136    2.4233    0.0702   12.1312    2.2804   27.0000   27.0000 
4337.9136    3.3000    3.2060   36.6941    8.3562    2.6169    1.6663   69.0372    2.4106    0.0620   12.4908    2.3449   27.0000   27.0000 
4338.0660    3.3000    3.2045   36.3540    8.5687    2.5965    1.8070   69.2693    2.4000    0.0549   12.2573    2.3598   27.0000   27.0000 
4338.2184    3.3000    3.2033   35.2582    7.8710    2.6306    1.8152   69.3326    2.4000    0.0559   11.9992    2.3468   27.0000   27.0000 
4338.3708    3.3000    3.2030   34.3141    7.4076    2.7086    1.7907   69.1591    2.4039    0.0672   11.9891    2.2862   27.0000   27.0000 
4338.5232    3.3000    3.2041   34.3295    7.4486    2.7770    1.4969   69.0504    2.4100    0.0737   12.1437    2.2175   27.0000   27.0000 
4338.6756    3.3000    3.2054   35.6296    8.0730    2.7869    1.6722   69.3591    2.4142    0.0751   12.2338    2.2325   27.0000   27.0000 
4338.8280    3.3000    3.2059   37.1431    8.7295    2.7535    1.6341   69.6205    2.4150    0.0706   12.0953    2.3278   27.0000   27.0000 
4338.9804    3.3000    3.2058   37.8857    9.3218    2.6964    2.0256   69.3645    2.4147    0.0589   12.0249    2.4082   27.0000   27.0000 
4339.1328    3.3000    3.2058   38.6320    9.4193    2.6366    1.6224   69.3058    2.4059    0.0513   12.1787    2.3785   27.0000   27.0000 
4339.2852    3.3000    3.2049   39.8649    8.5257    2.5750    1.4617   69.6255    2.3930    0.0459   12.2479    2.2667   27.0000   27.0000 
4339.4376    3.3000    3.2043   41.7265    7.4151    2.5220    1.3241   69.9586    2.3836    0.0432   12.1623    2.1796   27.0000   27.0000 
4339.5900    3.3000    3.2054   44.4847    6.3700    2.5362    1.2950   70.4040    2.3803    0.0442   12.1176    2.1806   27.0000   27.0000 
4339.7424    3.3000    3.2065   47.8445    5.8716    2.5332    1.7200   70.9253    2.3805    0.0457   12.2583    2.2393   27.0000   27.0000 
4339.8948    3.3000    3.2071   49.5061    5.9847    2.4778    1.7921   71.3648    2.3777    0.0452   12.5817    2.2755   27.0000   27.0000 
4340.0472    3.3000 -999.0000   50.4536 -999.0000 -999.0000 -999.0000 -999.0000 -999.0000 -999.0000 -999.0000 -999.0000   27.0000   27.0000 
4340.1996    3.3000    3.2070   50.3246    6.9309    2.4422    1.4900   71.1343    2.3700    0.0383   13.0530    2.2633   27.0000   27.0000 
4340.3520    3.3000    3.2074   49.7752    7.9442    2.4127    1.5611   71.0092    2.3633    0.0266   13.4818    2.2410   27.0000   27.0000 
4340.5044    3.3000    3.2086   48.9552    8.1083    2.4364    1.5615   70.9160    2.3606    0.0165   13.2620    2.2226   27.0000   27.0000 
4340.6568    3.3000    3.2096   47.8467    7.6779    2.5099    1.5327   70.8954    2.3595    0.0147   13.0636    2.2111   27.0000   27.0000 
4340.8092    3.3000    3.2106   45.5914    7.1697    2.5528    1.5012   71.0768    2.3588    0.0193   13.0181    2.1994   27.0000   27.0000 
4340.9616    3.3000    3.2115   42.5361    6.7413    2.5436    1.4077   71.1365    2.3637    0.0270   13.1545    2.1748   27.0000   27.0000 
4341.1140    3.3000    3.2127   40.4284    6.4027    2.5129    1.8294   70.9350    2.3764    0.0395   13.4706    2.1483   27.0000   27.0000 
4341.2664    3.3000    3.2130   40.7588    6.4320    2.4835    2.1218   70.4932    2.4181    0.0515   13.0047    2.1254   27.0000   27.0000 
4341.4188    3.3000    3.2130   42.4223    7.0714    2.4269    1.6793   69.7539    2.4212    0.0562   12.1505    2.1159   27.0000   27.0000 
4341.5712    3.3000    3.2129   42.8271    7.6242    2.3800    1.2880   69.2091    2.4110    0.0566   11.2902    2.1450   27.0000   27.0000 
4341.7236    3.3000    3.2128   42.4591    8.1605    2.3988    1.7286   69.2268    2.3983    0.0550   11.3641    2.1892   27.0000   27.0000 
4341.8760    3.3000    3.2128   40.9859    8.5807    2.4596    1.6970   70.1831    2.3885    0.0563   11.6997    2.2189   27.0000   27.0000 
4342.0284    3.3000    3.2122   38.7165    8.6835    2.5081    1.5542   70.6247    2.3866    0.0579   12.0922    2.2135   27.0000   27.0000 
4342.1808    3.3000    3.2112   36.9605    8.5145    2.5203    1.5976   69.6643    2.4004    0.0580   12.3267    2.2041   27.0000   27.0000 
4342.3332    3.3000    3.2121   35.9020    7.5545    2.5218    1.9448   68.4263    2.4049    0.0558   12.3406    2.1942   27.0000   27.0000 
4342.4856    3.3000    3.2131   34.3678    6.5905    2.5491    1.8289   67.8293    2.4168    0.0496   12.1462    2.0878   27.0000   27.0000 
4342.6380    3.3000    3.2141   32.3941    6.1019    2.6390    2.0770   67.5461    2.4285    0.0536   12.0357    2.1238   27.0000   27.0000 
4342.7904    3.3000    3.2165   30.9775    6.3231    2.7334    1.8461   67.3678    2.4329    0.0590   12.0182    2.2010   27.0000   27.0000 
4342.9428    3.3000    3.2195   30.0374    7.4014    2.8090    1.7537   67.2809    2.4249    0.0587   11.8810    2.2279   27.0000   27.0000 
4343.0952    3.3000    3.2222   30.3208    7.4753    2.8762    2.0520   67.6602    2.4130    0.0484   11.6065    2.2094   27.0000   27.0000 
4343.2476    3.3000    3.2255   34.1488    6.7265    2.9034    1.7240   68.0293    2.4050    0.0396   11.3717    2.1230   27.0000   27.0000 
