~VERSION INFORMATION
 VERS.                 2.0:   CWLS LOG ASCII STANDARD - VERSION 2.0
 WRAP.                  NO:   SINGLE LINE PER DEPTH STEP
 CREA.                 11/01/2018 08:52:43
#CREATED USING DSPetro VERSION 5000.10.1.3 BY H191660 ON 11/01/2018 08:52:43
~WELL INFORMATION
#MNEM.UNIT       DATA                          DESCRIPTION MNEMONIC
#---------      ---------------------------   --------------------------
 STRT    .M         0.0000                    : START DEPTH
 STOP    .M         4500.0672                 : STOP DEPTH
 STEP    .M         0.1524                    : STEP VALUE
 NULL    .      -999.0000                     : NULL VALUE
 DATE    .      11/01/2018                    : LAS file Creation Date
 WELL .      2474_NorthTurtle-1          : Well Name
 COMP .      Neftex Exploration Insights : Company
 FLD  .                                  : Field
 UWI  .      ZAUWL_005355                : Unique Well Identifier (UWI)
 LOC  .                                  : Location
 RWS  .      -999                        : Def_Rw
 WST  .      -999                        : Def_Rwt
 SRVC .                                  : Contractor
~CURVE INFORMATION
#MNEM              UNIT       API CODE   Curve Type Comments
#----------  --------------- ----------  ---------- -----------
 DEPTH      .M                         : Depth       
 BitSize    .in                        : Caliper     
 CAL_CM     .inch                      : caliper     Caliper Log - A representation of the measured diameter of a borehole along its depth
 GR_API     .API                       : gammaRay    
 SP_MV      .mv                        : SP          Spontaneous Potential - Records the electrical potential produced by the interaction of formation water, conductive drilling mud, and certain ion-sele
 ILD_OHMM   .ohmm                      : deepRes     Deep Induction Resistivity - Measurement made an induction log, made several feet into the formation
 MSFL_OHMM  .ohmm                      : microRes    Micro-Spherically Focused Log - Measurement involves only the first few inches of the formation immediately adjacent to the borehole
 DT_US_FT   .us/ft                     : sonic       Interval Transit Time: Compressional Wave - Evaluates the time it takes for a compressional wave to traverse a fixed distance
 RHOB_G_CC  .g/cc                      : density     Bulk Density - Measures the density of bulk material, including any void space or other materials contained in the subject volume
 DRHO_G_CC  .g/cc                      : drho        Density Correction - Investigates the correction to the Bulk Density log; used as an indication of hole condition to validate the Bulk Density measure
 NPHI_%     .PC                        : Neutron     Neutron Porosity - Measured with an neutron logging device calibrated to a given matrix (limestone, sandstone and dolomite)
 PEF_B_E    .b/e-                      : PEF         Photoelectric Factor - A log of photoelectric absorption properties. Often expressed in an approximation unit barns/electron (b/e-)
 LITH       .                          : Flag        
 LITH_v2    .                          : Flag        
~A  DEPTH  BitSize    CAL_CM    GR_API    SP_MV    ILD_OHMM MSFL_OHM   DT_US_FT RHOB_G_C  DRHO_G_C    NPHI    PEF_B_E     LITH    LITH_v2  
# ...
4108.8564    3.3000    3.4034  120.1499   -0.6163   18.2312    1.0732   69.9799    2.6706    0.0151   19.7871    2.8129   37.0000   37.0000 
4109.0088    3.3000    3.3933  106.3299   -0.2930   18.2360    1.4045   67.5331    2.6378    0.0122   18.8547    3.0884   37.0000   37.0000 
4109.1612    3.3000    3.3760   94.7911   -0.5921   17.4256    1.6028   66.4044    2.6309    0.0083   18.4035    3.2673   37.0000   37.0000 
4109.3136    3.3000    3.3489   83.6348   -1.0251   16.3578    2.4050   65.8489    2.6402    0.0066   16.8339    2.9609   37.0000   37.0000 
4109.4660    3.3000    3.3212   74.8563   -0.9210   14.6749    3.8580   65.5243    2.6351    0.0084   14.5850    2.3924   37.0000   36.0000 
4109.6184    3.3000    3.2965   69.0706   -0.0470   13.1185    4.5973   65.4147    2.6104    0.0092   11.9748    2.2245   37.0000   36.0000 
4109.7708    3.3000    3.2801   68.3118    1.0177   12.0149    4.2843   65.5002    2.5404    0.0044    9.5568    2.1038   37.0000   36.0000 
4109.9232    3.3000    3.2748   76.4151    1.1439   11.6145    4.2705   67.3219    2.5045    0.0016    9.0004    2.0466   37.0000   36.0000 
4110.0756    3.3000    3.2920   90.3201    0.5661   11.7221    3.2940   69.0401    2.4812    0.0028   11.3426    2.1978   37.0000   36.0000 
4110.2280    3.3000    3.3207  104.3180   -0.0395   13.3607    4.0386   70.2107    2.4737    0.0051   13.7022    2.4110   37.0000   36.0000 
4110.3804    3.3000    3.3375  121.5900   -0.2540   14.6100    4.1719   71.0102    2.4858    0.0055   17.0146    2.5943   37.0000   36.0000 
4110.5328    3.3000    3.3415  133.0810   -0.0423   14.9331    8.0303   71.8514    2.5028    0.0031   19.6754    2.6603   37.0000   36.0000 
4110.6852    3.3000    3.3523  139.5737    0.6111   14.7238   22.3968   72.3720    2.5163    0.0018   20.9055    2.5549   37.0000   37.0000 
4110.8376    3.3000    3.3567  125.5453    1.3603   13.8765    8.8370   71.6543    2.5248    0.0048   20.0733    2.2633   37.0000   37.0000 
4110.9900    3.3000    3.3412  111.4299    1.9566   12.7808    4.6109   70.3364    2.5270    0.0097   17.9998    2.0884   37.0000   36.0000 
4111.1424    3.3000    3.3200  104.3316    1.4083   11.7707    8.0436   69.1539    2.5162    0.0120   16.0796    2.0784   37.0000   36.0000 
4111.2948    3.3000    3.3000  100.8623    0.5310   10.9607   11.6515   68.2500    2.5037    0.0138   14.8615    2.1657   36.0000   36.0000 
4111.4472    3.3000    3.3020   97.0066    0.1793    9.4040    9.5227   68.0371    2.4993    0.0137   14.5585    2.1650   36.0000   36.0000 
4111.5996    3.3000    3.3053   87.3657    0.8792    7.4600    4.1647   67.9587    2.4885    0.0117   14.1794    2.0354   36.0000   36.0000 
4111.7520    3.3000    3.3010   63.7868    2.5288    5.8526    2.4011   67.6605    2.4501    0.0035   12.6151    1.8854   36.0000   36.0000 
4111.9044    3.3000    3.2890   49.6410    4.1148    4.6188    1.9194   67.6662    2.4260   -0.0013   11.4013    1.7631   27.0000   36.0000 
4112.0568    3.3000    3.2717   44.9789    4.1577    3.9196    1.9502   67.9459    2.4309   -0.0027   10.0319    1.7658   27.0000   27.0000 
4112.2092    3.3000    3.2560   42.2429    3.4040    3.4327    2.3122   67.9676    2.4370   -0.0018    9.1926    1.8582   27.0000   27.0000 
4112.3616    3.3000    3.2498   40.1123    2.6255    3.1667    2.2457   67.6549    2.4340   -0.0007    8.7948    1.9134   27.0000   27.0000 
4112.5140    3.3000    3.2464   40.5487    2.0614    2.9752    1.9342   67.9432    2.4177    0.0007    8.8574    1.9408   27.0000   27.0000 
4112.6664    3.3000    3.2460   42.7607    1.9769    2.8445    1.7499   68.2037    2.4057    0.0007    9.7572    1.9570   27.0000   27.0000 
4112.8188    3.3000    3.2450   44.7415    2.4011    2.7854    1.6879   68.1445    2.4036    0.0012   11.5131    1.9456   27.0000   27.0000 
4112.9712    3.3000    3.2454   43.2362    2.8734    2.7824    2.0305   67.9382    2.4092    0.0047   11.5979    1.9006   27.0000   27.0000 
4113.1236    3.3000    3.2474   41.0099    2.9276    2.7689    2.0430   67.9195    2.4195    0.0074   10.9383    1.8861   27.0000   27.0000 
4113.2760    3.3000    3.2504   40.4067    2.7946    2.7465    2.4205   68.2138    2.4260    0.0074   10.2733    1.8990   27.0000   27.0000 
4113.4284    3.3000    3.2520   40.2255    2.9197    2.7047    2.6134   68.3957    2.4250    0.0044   10.0147    1.9373   27.0000   27.0000 
4113.5808    3.3000    3.2535   38.6023    2.9005    2.6828    1.9246   68.4284    2.4198    0.0026   10.5973    1.9798   27.0000   27.0000 
4113.7332    3.3000    3.2549   36.2101    2.5792    2.7023    1.8578   69.1213    2.4145    0.0018   11.0409    2.0412   27.0000   27.0000 
4113.8856    3.3000    3.2550   36.2192    2.1006    2.8817    1.9241   70.0566    2.4102    0.0017   10.6550    2.1538   27.0000   27.0000 
4114.0380    3.3000    3.2582   42.0671    1.6908    3.2902    1.8139   70.9016    2.4085    0.0027   10.5767    2.2819   27.0000   27.0000 
4114.1904    3.3000    3.2659   51.4078    1.3971    3.7169    2.0559   71.8947    2.4179    0.0034   11.5978    2.3384   27.0000   36.0000 
4114.3428    3.3000    3.2996   59.8505    1.4885    4.4766    2.2384   72.8420    2.4486    0.0033   11.7831    2.3393   37.0000   36.0000 
4114.4952    3.3000    3.3852   75.3157    1.7458    5.4300    3.5213   72.2629    2.4751   -0.0011   11.2334    2.3917   37.0000   36.0000 
4114.6476    3.3000    3.4485   98.4063    1.4376    6.9389    9.9858   71.6143    2.4984   -0.0056   11.0799    2.4843   37.0000   31.0000 
4114.8000    3.3000    3.4715  130.9610    0.4722    8.5478   20.3619   71.1673    2.5233   -0.0095   11.6606    2.5405   37.0000   36.0000 
4114.9524    3.3000    3.4885  144.4559   -0.2492   10.7996   33.7536   71.0464    2.5389   -0.0125   15.8685    2.5456   37.0000   36.0000 
4115.1048    3.3000    3.4938  139.4096   -0.3806   13.2159   49.5655   70.6426    2.5462   -0.0116   17.8915    2.5037   37.0000   36.0000 
4115.2572    3.3000    3.4919  122.8891    0.2972   15.1511   54.7092   69.5190    2.5499   -0.0068   19.7686    2.3416   37.0000   37.0000 
4115.4096    3.3000    3.4969  109.0538    0.7246   15.8998   11.8634   69.4000    2.5379   -0.0020   19.8758    2.2017   37.0000   37.0000 
4115.5620    3.3000    3.4811  101.6752    0.6868   15.8943    9.6007   69.9490    2.5225    0.0009   18.1640    2.0705   37.0000   36.0000 
4115.7144    3.3000    3.4418  101.6327   -0.0519   15.3792    8.8608   70.9330    2.5105    0.0024   16.2683    2.0021   37.0000   36.0000 
4115.8668    3.3000    3.4115  111.6101   -0.2858   14.4588    9.2792   72.2027    2.5102    0.0032   15.0201    2.0514   37.0000   36.0000 
4116.0192    3.3000    3.3915  122.7158    0.2200   13.3662    7.0448   73.2681    2.5100    0.0044   15.5811    2.1903   37.0000   36.0000 
4116.1716    3.3000    3.3782  126.4867    1.2265   11.2729    7.3368   74.1270    2.5054    0.0058   17.8547    2.3043   37.0000   36.0000 
4116.3240    3.3000    3.3590  121.7202    1.9542    7.2295   13.7893   74.6366    2.4983    0.0092   19.5070    2.3816   37.0000   36.0000 
4116.4764    3.3000    3.3357   99.6525    2.2143    6.0805   22.6949   74.5323    2.4919    0.0143   20.9438    2.4370   37.0000   36.0000 
4116.6288    3.3000    3.3231   87.7946    2.0613    5.4284    3.7490   72.8724    2.5008    0.0199   20.8262    2.4363   37.0000   36.0000 
4116.7812    3.3000    3.3167   82.7296    1.7334    4.6201    3.4318   71.1415    2.5030    0.0268   18.3234    2.3302   37.0000   36.0000 
4116.9336    3.3000    3.3062   78.0483    1.9386    4.0465    6.5438   69.8928    2.4782    0.0340   15.6943    2.1598   37.0000   36.0000 
4117.0860    3.3000    3.2968   64.5842    2.6107    3.1084    4.5368   69.7414    2.4399    0.0277   14.6494    1.9926   27.0000   36.0000 
4117.2384    3.3000    3.2866   50.0781    3.4766    2.5346    1.6491   70.0523    2.4046    0.0123   15.0041    1.8313   27.0000   36.0000 
4117.3908    3.3000    3.2683   39.6812    4.2495    2.2537    1.3240   70.8752    2.3866    0.0046   14.4009    1.7393   27.0000   27.0000 
