~VERSION INFORMATION
 VERS.                 2.0:   CWLS LOG ASCII STANDARD - VERSION 2.0
 WRAP.                  NO:   SINGLE LINE PER DEPTH STEP
 CREA.                 11/01/2018 08:52:43
#CREATED USING DSPetro VERSION 5000.10.1.3 BY H191660 ON 11/01/2018 08:52:43
~WELL INFORMATION
#MNEM.UNIT       DATA                          DESCRIPTION MNEMONIC
#---------      ---------------------------   --------------------------
 STRT    .M         0.0000                    : START DEPTH
 STOP    .M         4500.0672                 : STOP DEPTH
 STEP    .M         0.1524                    : STEP VALUE
 NULL    .      -999.0000                     : NULL VALUE
 DATE    .      11/01/2018                    : LAS file Creation Date
 WELL .      2474_NorthTurtle-1          : Well Name
 COMP .      Neftex Exploration Insights : Company
 FLD  .                                  : Field
 UWI  .      ZAUWL_005355                : Unique Well Identifier (UWI)
 LOC  .                                  : Location
 RWS  .      -999                        : Def_Rw
 WST  .      -999                        : Def_Rwt
 SRVC .                                  : Contractor
~CURVE INFORMATION
#MNEM              UNIT       API CODE   Curve Type Comments
#----------  --------------- ----------  ---------- -----------
 DEPTH      .M                         : Depth       
 BitSize    .in                        : Caliper     
 CAL_CM     .inch                      : caliper     Caliper Log - A representation of the measured diameter of a borehole along its depth
 GR_API     .API                       : gammaRay    
 SP_MV      .mv                        : SP          Spontaneous Potential - Records the electrical potential produced by the interaction of formation water, conductive drilling mud, and certain ion-sele
 ILD_OHMM   .ohmm                      : deepRes     Deep Induction Resistivity - Measurement made an induction log, made several feet into the formation
 MSFL_OHMM  .ohmm                      : microRes    Micro-Spherically Focused Log - Measurement involves only the first few inches of the formation immediately adjacent to the borehole
 DT_US_FT   .us/ft                     : sonic       Interval Transit Time: Compressional Wave - Evaluates the time it takes for a compressional wave to traverse a fixed distance
 RHOB_G_CC  .g/cc                      : density     Bulk Density - Measures the density of bulk material, including any void space or other materials contained in the subject volume
 DRHO_G_CC  .g/cc                      : drho        Density Correction - Investigates the correction to the Bulk Density log; used as an indication of hole condition to validate the Bulk Density measure
 NPHI_%     .PC                        : Neutron     Neutron Porosity - Measured with an neutron logging device calibrated to a given matrix (limestone, sandstone and dolomite)
 PEF_B_E    .b/e-                      : PEF         Photoelectric Factor - A log of photoelectric absorption properties. Often expressed in an approximation unit barns/electron (b/e-)
 LITH       .                          : Flag        
 LITH_v2    .                          : Flag        
~A  DEPTH  BitSize    CAL_CM    GR_API    SP_MV    ILD_OHMM MSFL_OHM   DT_US_FT RHOB_G_C  DRHO_G_C    NPHI    PEF_B_E     LITH    LITH_v2  
# ...
3995.9280    3.3000    3.4206  162.3693    2.6788   23.6590   28.4048   77.3496    2.5688   -0.0019   31.1779    2.9184   37.0000   37.0000 
3996.0804    3.3000    3.4301  158.1914    2.0422   22.1508   28.6167   77.2548    2.5721    0.0003   31.6432    2.9193   37.0000   37.0000 
3996.2328    3.3000    3.4397  151.6745    1.5008   21.2775   27.6568   77.9323    2.5726    0.0004   31.7097    3.0436   37.0000   37.0000 
3996.3852    3.3000    3.4416  149.5675    1.1565   20.9195   25.6636   78.7160    2.5698   -0.0010   31.2129    3.0966   37.0000   37.0000 
3996.5376    3.3000    3.4396  150.5998    0.7266   20.5571   23.8180   79.4655    2.5593   -0.0025   30.9302    3.0176   37.0000   37.0000 
3996.6900    3.3000    3.4419  155.2091    1.0527   20.1755   24.5939   80.4746    2.5478   -0.0020   31.6658    2.8751   37.0000   37.0000 
3996.8424    3.3000    3.4519  158.2248    1.7561   19.7000   24.6054   80.7542    2.5611   -0.0051   32.0432    2.7979   37.0000   37.0000 
3996.9948    3.3000    3.4474  159.6516    2.2766   19.3106   26.2180   80.7754    2.5838   -0.0081   32.8645    2.8501   37.0000   37.0000 
3997.1472    3.3000    3.4574  158.5126    2.3825   19.1309   24.4097   81.2540    2.6022   -0.0173   34.8513    3.0772   37.0000   37.0000 
3997.2996    3.3000    3.4649  152.4673    2.3137   19.7274   26.9538   80.5627    2.6208   -0.0127   35.9178    3.0081   37.0000   37.0000 
3997.4520    3.3000    3.4591  145.8053    2.3809   20.6711   34.5878   79.0172    2.6280   -0.0115   36.5198    3.0198   37.0000   37.0000 
3997.6044    3.3000    3.4476  146.2998    2.5524   22.1393   36.9957   78.6899    2.6914   -0.0116   37.0805    4.1493   23.0000   23.0000 
3997.7568    3.3000    3.4386  147.2764    2.7974   25.3242   23.2986   78.2905    2.7881   -0.0123   36.3657    5.1860   23.0000   23.0000 
3997.9092    3.3000    3.4373  148.3699    3.0047   25.3245   23.0049   76.3486    2.8632   -0.0111   33.5769    5.1502   23.0000   23.0000 
3998.0616    3.3000    3.4277  146.9805    3.2358   22.5901   29.7796   73.0213    2.8554   -0.0087   26.5833    4.5582   23.0000   23.0000 
3998.2140    3.3000    3.4038  145.7258    3.4991   17.2636   24.5370   70.2759    2.7600   -0.0060   25.2058    3.2886   37.0000   37.0000 
3998.3664    3.3000    3.3915  151.5588    4.4566   13.7067   28.2204   68.4125    2.5900   -0.0030   24.5424    2.5902   37.0000   37.0000 
3998.5188    3.3000    3.3783  154.4379    5.9816   10.2961   19.6193   68.5273    2.5121   -0.0001   22.2623    2.4890   37.0000   37.0000 
3998.6712    3.3000    3.3494  157.4163    6.4839    7.5832   11.3832   70.7846    2.4695   -0.0004   20.7183    2.4792   37.0000   37.0000 
3998.8236    3.3000    3.3115  157.0141    7.0767    6.0153    1.8415   72.6414    2.4471   -0.0028   18.0105    2.6741   37.0000   37.0000 
3998.9760    3.3000    3.2822  141.5808    7.4065    4.9508    2.1549   74.0806    2.4496   -0.0032   15.5418    2.8230   37.0000   37.0000 
3999.1284    3.3000    3.2572  108.2260    6.7825    4.2401    2.5763   74.5375    2.4611   -0.0009   14.6503    2.8968   37.0000   37.0000 
3999.2808    3.3000    3.2373  103.0209    6.0632    3.6380    2.6232   74.7443    2.4669    0.0025   14.6938    2.7907   37.0000   37.0000 
3999.4332    3.3000    3.2325  101.9225    5.9261    3.2007    2.4327   75.1935    2.4607    0.0067   15.2887    2.7151   37.0000   37.0000 
3999.5856    3.3000    3.2386   99.6634    6.3717    3.0095    2.0589   75.5750    2.4567    0.0082   15.7785    2.8125   37.0000   37.0000 
3999.7380    3.3000    3.2450   96.2670    7.2228    2.9219    1.6077   76.2802    2.4573    0.0071   16.2578    3.0685   37.0000   37.0000 
3999.8904    3.3000    3.2466   97.5149    7.8126    2.9042    1.5575   76.9454    2.4698    0.0059   16.6664    3.3244   37.0000   37.0000 
4000.0428    3.3000    3.2431  104.1610    7.9104    2.9346    1.6715   77.5030    2.4965    0.0078   16.6161    3.5468   37.0000   37.0000 
4000.1952    3.3000    3.2318  109.9254    7.5653    2.9762    1.5483   77.1397    2.5129    0.0127   16.2133    3.5714   37.0000   37.0000 
4000.3476    3.3000    3.2207  113.9670    6.9478    3.0141    1.8669   74.5566    2.5214    0.0175   15.8963    3.3248   37.0000   37.0000 
4000.5000    3.3000    3.2185  116.0938    6.4443    3.0218    2.4634   72.7683    2.5068    0.0205   16.1557    2.9957   37.0000   37.0000 
4000.6524    3.3000    3.2280  117.1892    6.2725    2.9509    2.4103   72.1214    2.4435    0.0188   17.2619    2.4894   37.0000   37.0000 
4000.8048    3.3000    3.2469  115.4720    6.4482    2.8310    2.2033   73.6492    2.4066    0.0130   18.2908    2.1752   37.0000   37.0000 
4000.9572    3.3000    3.2663  104.8890    6.9990    2.6859    3.4528   75.0586    2.3888    0.0094   17.0980    1.9771   37.0000   37.0000 
4001.1096    3.3000    3.2729   85.1981    7.6011    2.5245    5.1257   75.8171    2.3753    0.0087   14.5492    1.9029   27.0000   27.0000 
4001.2620    3.3000    3.2680   70.4924    8.1219    2.1862    1.7686   75.7034    2.3696    0.0100   14.0769    1.8455   27.0000   27.0000 
4001.4144    3.3000    3.2544   54.9548    8.3701    2.0331    1.2562   74.4510    2.3688    0.0115   14.9392    1.8303   27.0000   27.0000 
4001.5668    3.3000    3.2470   47.8802    8.0272    1.9626    1.2602   74.6836    2.3688    0.0088   16.3178    1.8705   27.0000   27.0000 
4001.7192    3.3000    3.2554   47.8854    7.3880    1.9304    1.2836   75.5442    2.3707    0.0006   17.1604    1.9715   36.0000   36.0000 
4001.8716    3.3000    3.2761   58.2959    6.8981    1.9319    1.3392   76.4827    2.3737   -0.0040   17.2340    2.0838   36.0000   36.0000 
4002.0240    3.3000    3.2940   76.0777    6.8049    1.9887    1.5776   76.9538    2.3818   -0.0016   16.9710    2.1932   36.0000   36.0000 
4002.1764    3.3000    3.3013   93.5009    7.0804    2.2016    1.5985   76.3798    2.4038    0.0014   16.7443    2.2950   37.0000   37.0000 
4002.3288    3.3000    3.3024  104.2219    7.0815    2.7115    1.9375   75.5813    2.4389    0.0048   16.7159    2.3813   37.0000   37.0000 
4002.4812    3.3000    3.3025  114.0764    6.2970    2.9830    2.5176   75.5074    2.4582    0.0117   16.9517    2.4589   37.0000   37.0000 
4002.6336    3.3000    3.3149  120.6389    5.4122    3.5899    2.7148   75.4719    2.4676    0.0194   21.2890    2.5069   37.0000   37.0000 
4002.7860    3.3000    3.3384  134.3616    5.0466    4.1693    2.8362   76.2950    2.4758    0.0294   23.0015    2.5114   37.0000   37.0000 
4002.9384    3.3000    3.3590  150.7037    5.3992    4.6127    5.9230   77.4884    2.4766    0.0364   27.7712    2.4192   37.0000   37.0000 
4003.0908    3.3000    3.3631  154.4970    5.6762    4.9146   12.2507   78.1233    2.4547    0.0340   30.2108    2.2327   37.0000   37.0000 
4003.2432    3.3000    3.3644  152.2807    5.4541    5.0191    3.0959   78.0492    2.4435    0.0153   29.6094    2.2293   37.0000   37.0000 
4003.3956    3.3000    3.3622  140.6479    4.8285    5.0560    7.4769   77.2405    2.4369    0.0030   23.8081    2.2376   37.0000   37.0000 
4003.5480    3.3000    3.3270  121.7407    4.6859    4.8366    3.0179   75.9780    2.4296    0.0025   19.8673    2.2232   37.0000   37.0000 
4003.7004    3.3000    3.2511  105.8168    4.9547    4.2745    2.5065   74.5409    2.4191    0.0018   16.7590    2.1719   36.0000   36.0000 
4003.8528    3.3000    3.2272   91.8144    5.4233    3.8122    2.4140   74.1063    2.4137   -0.0016   16.2293    2.1037   36.0000   36.0000 
4004.0052    3.3000    3.2393   81.5163    5.7738    3.5475    2.4139   74.4908    2.4159   -0.0057   16.7362    2.0519   36.0000   36.0000 
4004.1576    3.3000    3.2567   74.1354    5.7027    3.3323    2.2809   74.7850    2.4107   -0.0074   16.8881    2.0184   36.0000   36.0000 
4004.3100    3.3000    3.2719   69.9260    5.2139    3.1846    2.2416   74.8501    2.4085   -0.0071   16.3308    2.0459   36.0000   36.0000 
4004.4624    3.3000    3.2768   71.1895    4.7514    3.1312    2.1633   74.6506    2.4128   -0.0068   15.5354    2.0993   36.0000   36.0000 
