~VERSION INFORMATION
 VERS.                 2.0:   CWLS LOG ASCII STANDARD - VERSION 2.0
 WRAP.                  NO:   SINGLE LINE PER DEPTH STEP
 CREA.                 11/01/2018 08:52:43
#CREATED USING DSPetro VERSION 5000.10.1.3 BY H191660 ON 11/01/2018 08:52:43
~WELL INFORMATION
#MNEM.UNIT       DATA                          DESCRIPTION MNEMONIC
#---------      ---------------------------   --------------------------
 STRT    .M         0.0000                    : START DEPTH
 STOP    .M         4500.0672                 : STOP DEPTH
 STEP    .M         0.1524                    : STEP VALUE
 NULL    .      -999.0000                     : NULL VALUE
 DATE    .      11/01/2018                    : LAS file Creation Date
 WELL .      2474_NorthTurtle-1          : Well Name
 COMP .      Neftex Exploration Insights : Company
 FLD  .                                  : Field
 UWI  .      ZAUWL_005355                : Unique Well Identifier (UWI)
 LOC  .                                  : Location
 RWS  .      -999                        : Def_Rw
 WST  .      -999                        : Def_Rwt
 SRVC .                                  : Contractor
~CURVE INFORMATION
#MNEM              UNIT       API CODE   Curve Type Comments
#----------  --------------- ----------  ---------- -----------
 DEPTH      .M                         : Depth       
 BitSize    .in                        : Caliper     
 CAL_CM     .inch                      : caliper     Caliper Log - A representation of the measured diameter of a borehole along its depth
 GR_API     .API                       : gammaRay    
 SP_MV      .mv                        : SP          Spontaneous Potential - Records the electrical potential produced by the interaction of formation water, conductive drilling mud, and certain ion-sele
 ILD_OHMM   .ohmm                      : deepRes     Deep Induction Resistivity - Measurement made an induction log, made several feet into the formation
 MSFL_OHMM  .ohmm                      : microRes    Micro-Spherically Focused Log - Measurement involves only the first few inches of the formation immediately adjacent to the borehole
 DT_US_FT   .us/ft                     : sonic       Interval Transit Time: Compressional Wave - Evaluates the time it takes for a compressional wave to traverse a fixed distance
 RHOB_G_CC  .g/cc                      : density     Bulk Density - Measures the density of bulk material, including any void space or other materials contained in the subject volume
 DRHO_G_CC  .g/cc                      : drho        Density Correction - Investigates the correction to the Bulk Density log; used as an indication of hole condition to validate the Bulk Density measure
 NPHI_%     .PC                        : Neutron     Neutron Porosity - Measured with an neutron logging device calibrated to a given matrix (limestone, sandstone and dolomite)
 PEF_B_E    .b/e-                      : PEF         Photoelectric Factor - A log of photoelectric absorption properties. Often expressed in an approximation unit barns/electron (b/e-)
 LITH       .                          : Flag        
 LITH_v2    .                          : Flag        
~A  DEPTH  BitSize    CAL_CM    GR_API    SP_MV    ILD_OHMM MSFL_OHM   DT_US_FT RHOB_G_C  DRHO_G_C    NPHI    PEF_B_E     LITH    LITH_v2  
# ...
3917.7468    3.3000    3.2795   94.5725    5.6570    3.9180    2.0229   72.9576    2.4240    0.0185   14.3591    2.1199   36.0000   36.0000 
3917.8992    3.3000    3.2556   78.1733    5.5427    3.6958    2.3133   72.3801    2.4281    0.0179   13.8897    2.1821   36.0000   36.0000 
3918.0516    3.3000    3.2496   74.9150    5.2457    3.5319    2.6390   72.0031    2.4441    0.0146   13.8904    2.3065   36.0000   36.0000 
3918.2040    3.3000    3.2558   75.6564    4.5458    3.4224    2.5383   72.4664    2.4555    0.0085   14.5730    2.3506   36.0000   36.0000 
3918.3564    3.3000    3.2695   75.5645    4.1584    3.4238    3.0107   72.9392    2.4527    0.0016   15.0260    2.3927   36.0000   36.0000 
3918.5088    3.3000    3.2802   73.9055    4.3017    3.5146    2.5403   73.3519    2.4510   -0.0036   14.9798    2.5828   36.0000   36.0000 
3918.6612    3.3000    3.2811   71.6796    4.8842    3.6608    2.5361   73.3654    2.4878   -0.0070   14.6197    2.9490   36.0000   36.0000 
3918.8136    3.3000    3.2804   70.8613    5.4411    3.8147    2.2926   72.4508    2.5469   -0.0096   14.4045    3.2714   36.0000   36.0000 
3918.9660    3.3000    3.2857   70.6700    5.8114    3.9082    3.3689   70.5527    2.5641   -0.0134   14.4265    3.0204   36.0000   36.0000 
3919.1184    3.3000    3.2977   70.5377    6.0710    3.8828    3.9883   69.8970    2.5669   -0.0195   14.2451    2.6393   36.0000   36.0000 
3919.2708    3.3000    3.3109   72.1825    6.1596    3.8771    3.3361   69.7264    2.5356   -0.0178   14.0678    2.3303   36.0000   36.0000 
3919.4232    3.3000    3.3165   74.4513    5.9841    3.8932    3.6036   70.6975    2.4997   -0.0110   13.9862    2.2020   36.0000   36.0000 
3919.5756    3.3000    3.3055   75.4972    5.3414    3.9879    2.4682   71.7692    2.4743   -0.0057   14.0552    2.1527   36.0000   36.0000 
3919.7280    3.3000    3.2924   78.9689    4.4399    4.1815    2.0634   72.4810    2.4593   -0.0016   15.2017    2.1510   36.0000   36.0000 
3919.8804    3.3000    3.2894   89.9678    3.0583    4.4646    2.7769   72.3754    2.4629   -0.0016   21.1496    2.1638   37.0000   37.0000 
3920.0328    3.3000    3.2947  134.3386    0.9715    5.1024    4.6845   71.8876    2.5684   -0.0002   27.2927    2.1724   37.0000   37.0000 
3920.1852    3.3000    3.3313  159.1393    0.0038    6.3740    6.7459   71.4632    2.5994    0.0056   35.8721    2.1372   37.0000   37.0000 
3920.3376    3.3000    3.3906  188.2523    0.6518    7.6156    6.1253   71.7645    2.6097    0.0105   39.1728    2.0981   37.0000   37.0000 
3920.4900    3.3000    3.4433  203.2204    0.2075    8.8738    5.1180   72.0103    2.6158    0.0092   40.5161    2.2176   37.0000   23.0000 
3920.6424    3.3000    3.4687  195.4103   -0.9969   10.5139    0.7040   71.3875    2.6286   -0.0014   40.5292    2.5160   37.0000   23.0000 
3920.7948    3.3000    3.4781  183.8116   -2.0792   13.2193    0.5800   70.3473    2.6465   -0.0139   38.3941    2.6748   37.0000   23.0000 
3920.9472    3.3000    3.4756  171.1678   -2.6278   16.2347   16.9172   69.1156    2.6581   -0.0150   36.8148    2.7691   37.0000   23.0000 
3921.0996    3.3000    3.4775  160.3020   -2.8580   20.0158   27.3809   67.4194    2.6602   -0.0067   36.1626    2.7650   37.0000   23.0000 
3921.2520    3.3000    3.4848  156.3042   -2.8505   22.2114   18.9329   67.2667    2.6534    0.0030   35.3035    2.6167   37.0000   23.0000 
3921.4044    3.3000    3.4978  163.5375   -2.6926   24.2894   11.2183   67.3547    2.6372    0.0076   34.2909    2.4472   37.0000   37.0000 
3921.5568    3.3000    3.5057  182.3284   -2.9196   26.2949    9.2538   67.4291    2.6201    0.0098   33.2741    2.3453   37.0000   37.0000 
3921.7092    3.3000    3.5097  203.3789   -3.2000   25.9592   20.4837   67.5544    2.6014    0.0038   33.1605    2.3286   37.0000   37.0000 
3921.8616    3.3000    3.5203  206.5922   -3.4282   24.8375   30.5188   68.5790    2.6002   -0.0003   34.2672    2.4038   37.0000   37.0000 
3922.0140    3.3000    3.5320  190.8231   -3.6441   24.3504   21.1718   69.5800    2.6067    0.0016   35.8958    2.4926   37.0000   37.0000 
3922.1664    3.3000    3.5604  161.4925   -4.0713   21.0654   24.2510   70.4598    2.6103    0.0006   37.4317    2.4969   37.0000   37.0000 
3922.3188    3.3000    3.6100  139.2208   -4.7682   17.7668   26.9022   70.4056    2.6007   -0.0038   37.8236    2.3511   37.0000   37.0000 
3922.4712    3.3000    3.6707  135.2857   -5.0625   17.6204   20.3023   69.9778    2.5873    0.0002   38.1393    2.1890   37.0000   37.0000 
3922.6236    3.3000    3.7154  134.2743   -4.9354   18.6756    9.1595   70.0093    2.5813    0.0060   38.7459    2.0563   37.0000   37.0000 
3922.7760    3.3000    3.6256  133.2836   -4.2182   19.1985   15.1762   70.2839    2.5842    0.0062   41.2095    2.1260   37.0000   37.0000 
3922.9284    3.3000    3.5673  133.6620   -3.8591   18.8148   21.2853   70.5916    2.5927    0.0016   44.8568    2.2463   37.0000   23.0000 
3923.0808    3.3000    3.5383  136.2826   -4.1002   17.5594   23.0942   70.8539    2.6000   -0.0013   44.8579    2.2938   37.0000   23.0000 
3923.2332    3.3000    3.5433  139.7385   -4.0507   16.6184   20.9385   71.0114    2.6047   -0.0018   44.2268    2.1740   37.0000   23.0000 
3923.3856    3.3000    3.5436  141.5544   -3.6370   17.4682   24.1162   70.8077    2.6083   -0.0014   39.8540    2.0870   37.0000   37.0000 
3923.5380    3.3000    3.5303  142.6497   -3.0269   25.7034   25.2943   69.9583    2.6106   -0.0031   38.5470    2.0355   37.0000   37.0000 
3923.6904    3.3000    3.5148  144.0009   -2.6628   31.6169   26.1356   69.6498    2.6113   -0.0033   38.2223    2.0521   37.0000   37.0000 
3923.8428    3.3000    3.4989  145.4107   -2.5838   37.4208   27.2937   69.6062    2.6132    0.0001   38.5737    2.1794   37.0000   37.0000 
3923.9952    3.3000    3.4843  146.4914   -2.4197   41.2685   27.1238   69.7681    2.6228    0.0044   38.7615    2.3073   37.0000   23.0000 
3924.1476    3.3000    3.4753  146.2838   -1.9597   41.0314   31.9140   69.4953    2.6385    0.0072   37.3965    2.3013   37.0000   23.0000 
3924.3000    3.3000    3.4731  143.3209   -1.3902   36.3597   37.6441   68.7917    2.6529    0.0093   34.9740    2.1540   37.0000   37.0000 
3924.4524    3.3000    3.4769  138.5894   -0.8824   30.2915   36.8637   68.4537    2.6524    0.0117   33.6369    2.0438   37.0000   37.0000 
3924.6048    3.3000    3.4730  134.6942   -0.7300   28.5403   27.9894   69.0206    2.6418    0.0148   33.9384    2.0181   37.0000   37.0000 
3924.7572    3.3000    3.4525  134.5831   -0.8180   27.0265   30.1612   69.2619    2.6166    0.0179   35.2383    2.1375   37.0000   37.0000 
3924.9096    3.3000    3.4247  146.9593   -0.7100   23.9132   32.7178   68.1171    2.5871    0.0209   35.6340    2.1922   37.0000   37.0000 
3925.0620    3.3000    3.3910  155.3991   -0.3465   16.7356   32.2686   66.6404    2.5588    0.0179   33.7906    2.1487   37.0000   37.0000 
3925.2144    3.3000    3.3570  151.0789    0.0559   10.0311   37.7646   66.0145    2.4982    0.0086   27.8101    2.0278   37.0000   37.0000 
3925.3668    3.3000    3.3267  140.6773    0.2876    7.9427    8.0477   67.0524    2.4330    0.0018   19.9336    1.9336   36.0000   36.0000 
3925.5192    3.3000    3.2965  109.5638    0.3877    6.9719    2.6303   69.6732    2.4244   -0.0019   15.2275    1.9409   36.0000   36.0000 
3925.6716    3.3000    3.2806   88.6760    0.4358    6.4470    2.8151   71.9741    2.4286   -0.0018   14.1652    2.0280   36.0000   36.0000 
3925.8240    3.3000    3.2894   78.4317    0.3768    6.3136    2.4787   73.0962    2.4585    0.0036   13.8565    2.1192   36.0000   36.0000 
3925.9764    3.3000    3.3127   79.5711   -0.1314    6.4876    3.3894   73.0965    2.5038    0.0032   14.9492    2.1851   36.0000   36.0000 
3926.1288    3.3000    3.3425   92.7991   -0.6400    7.3153    6.7524   71.3270    2.5392   -0.0011   16.6539    2.2015   37.0000   37.0000 
3926.2812    3.3000 -999.0000  111.0595 -999.0000 -999.0000 -999.0000 -999.0000 -999.0000 -999.0000 -999.0000 -999.0000   37.0000   37.0000 
