~VERSION INFORMATION
 VERS.                 2.0:   CWLS LOG ASCII STANDARD - VERSION 2.0
 WRAP.                  NO:   SINGLE LINE PER DEPTH STEP
 CREA.                 11/01/2018 08:52:43
#CREATED USING DSPetro VERSION 5000.10.1.3 BY H191660 ON 11/01/2018 08:52:43
~WELL INFORMATION
#MNEM.UNIT       DATA                          DESCRIPTION MNEMONIC
#---------      ---------------------------   --------------------------
 STRT    .M         0.0000                    : START DEPTH
 STOP    .M         4500.0672                 : STOP DEPTH
 STEP    .M         0.1524                    : STEP VALUE
 NULL    .      -999.0000                     : NULL VALUE
 DATE    .      11/01/2018                    : LAS file Creation Date
 WELL .      2474_NorthTurtle-1          : Well Name
 COMP .      Neftex Exploration Insights : Company
 FLD  .                                  : Field
 UWI  .      ZAUWL_005355                : Unique Well Identifier (UWI)
 LOC  .                                  : Location
 RWS  .      -999                        : Def_Rw
 WST  .      -999                        : Def_Rwt
 SRVC .                                  : Contractor
~CURVE INFORMATION
#MNEM              UNIT       API CODE   Curve Type Comments
#----------  --------------- ----------  ---------- -----------
 DEPTH      .M                         : Depth       
 BitSize    .in                        : Caliper     
 CAL_CM     .inch                      : caliper     Caliper Log - A representation of the measured diameter of a borehole along its depth
 GR_API     .API                       : gammaRay    
 SP_MV      .mv                        : SP          Spontaneous Potential - Records the electrical potential produced by the interaction of formation water, conductive drilling mud, and certain ion-sele
 ILD_OHMM   .ohmm                      : deepRes     Deep Induction Resistivity - Measurement made an induction log, made several feet into the formation
 MSFL_OHMM  .ohmm                      : microRes    Micro-Spherically Focused Log - Measurement involves only the first few inches of the formation immediately adjacent to the borehole
 DT_US_FT   .us/ft                     : sonic       Interval Transit Time: Compressional Wave - Evaluates the time it takes for a compressional wave to traverse a fixed distance
 RHOB_G_CC  .g/cc                      : density     Bulk Density - Measures the density of bulk material, including any void space or other materials contained in the subject volume
 DRHO_G_CC  .g/cc                      : drho        Density Correction - Investigates the correction to the Bulk Density log; used as an indication of hole condition to validate the Bulk Density measure
 NPHI_%     .PC                        : Neutron     Neutron Porosity - Measured with an neutron logging device calibrated to a given matrix (limestone, sandstone and dolomite)
 PEF_B_E    .b/e-                      : PEF         Photoelectric Factor - A log of photoelectric absorption properties. Often expressed in an approximation unit barns/electron (b/e-)
 LITH       .                          : Flag        
 LITH_v2    .                          : Flag        
~A  DEPTH  BitSize    CAL_CM    GR_API    SP_MV    ILD_OHMM MSFL_OHM   DT_US_FT RHOB_G_C  DRHO_G_C    NPHI    PEF_B_E     LITH    LITH_v2  
# ...
4378.1472    3.3000    3.2555   46.2433   12.7275    2.8794    2.0997   66.6928    2.4057   -0.0047   10.5129    1.8244   27.0000   27.0000 
4378.2996    3.3000    3.2666   46.2885   13.8319    2.8888    1.8522   67.9943    2.3988   -0.0090   10.0156    1.7739   27.0000   27.0000 
4378.4520    3.3000    3.2769   42.2474   14.2933    2.9499    1.7400   67.3250    2.3970   -0.0139    9.5554    1.7512   27.0000   27.0000 
4378.6044    3.3000    3.2851   39.1163   13.3653    3.0614    1.9966   66.5530    2.4103   -0.0110    9.1606    1.7581   27.0000   27.0000 
4378.7568    3.3000    3.2912   38.0191   12.5409    3.1909    2.3204   66.3887    2.4228   -0.0035    8.8276    1.7864   27.0000   27.0000 
4378.9092    3.3000    3.2980   38.4406   12.4474    3.3145    2.6861   66.4924    2.4301   -0.0023    8.6076    1.8147   27.0000   27.0000 
4379.0616    3.3000    3.3003   39.6203   12.5704    3.4188    2.6280   66.6881    2.4310   -0.0053    8.6524    1.8200   27.0000   27.0000 
4379.2140    3.3000    3.2930   40.2369   12.9471    3.4740    2.2885   66.8972    2.4249   -0.0089    8.9708    1.8136   27.0000   27.0000 
4379.3664    3.3000    3.2866   40.4635   14.2258    3.4498    2.0662   67.1661    2.4242   -0.0120    9.2572    1.7924   27.0000   27.0000 
4379.5188    3.3000    3.2928   40.8022   14.8640    3.4372    2.3703   67.3076    2.4255   -0.0125    9.3101    1.7882   27.0000   27.0000 
4379.6712    3.3000    3.2997   42.2594   14.3076    3.4849    2.4571   67.5651    2.4237   -0.0073    9.1897    1.7965   27.0000   27.0000 
4379.8236    3.3000    3.3022   43.7933   13.7455    3.5330    2.0567   67.8774    2.4190   -0.0037    8.9458    1.8189   27.0000   27.0000 
4379.9760    3.3000    3.2985   43.7344   13.8560    3.5180    2.3558   67.8495    2.4162   -0.0022    8.6684    1.8596   27.0000   27.0000 
4380.1284    3.3000    3.2922   44.3822   14.6424    3.5135    2.1834   67.7069    2.4193   -0.0021    8.4892    1.8602   27.0000   27.0000 
4380.2808    3.3000    3.2862   45.1977   14.7236    3.5856    2.3715   67.7875    2.4246   -0.0031    8.4148    1.7942   27.0000   27.0000 
4380.4332    3.3000    3.2829   44.2076   14.1180    3.6071    2.7214   67.9655    2.4277   -0.0037    8.4093    1.8223   27.0000   27.0000 
4380.5856    3.3000    3.2838   42.1002   13.1701    3.5816    2.2102   68.0894    2.4297   -0.0069    8.8450    1.8724   27.0000   27.0000 
4380.7380    3.3000    3.2892   42.7080   12.5325    3.5269    2.8704   68.3112    2.4301   -0.0081    9.2461    1.8874   27.0000   27.0000 
4380.8904    3.3000    3.2906   44.8948   12.7090    3.4870    3.2312   68.7647    2.4236   -0.0071    9.4338    1.8315   27.0000   27.0000 
4381.0428    3.3000    3.2885   45.4991   13.5705    3.4891    2.0336   69.1477    2.4130   -0.0063    9.1062    1.7327   27.0000   27.0000 
4381.1952    3.3000    3.2833   45.2854   14.3468    3.5675    1.9647   69.0922    2.4036   -0.0079    8.2942    1.6776   27.0000   27.0000 
4381.3476    3.3000    3.2784   43.5672   14.8599    3.7248    1.8441   68.3817    2.3988   -0.0058    7.7960    1.7130   27.0000   27.0000 
4381.5000    3.3000    3.2756   40.7105   15.1546    3.7746    1.8306   67.5255    2.4179    0.0024    8.2504    1.7760   27.0000   27.0000 
4381.6524    3.3000    3.2739   39.8561   14.1294    3.7579    2.0844   66.7325    2.4465    0.0090    8.7821    1.8114   27.0000   27.0000 
4381.8048    3.3000    3.2779   41.1076   13.1647    3.7350    2.8565   66.1915    2.4679    0.0122    9.1626    1.8110   27.0000   27.0000 
4381.9572    3.3000    3.2805   42.3579   12.6176    3.7490    3.9543   66.8115    2.4727    0.0126    8.9414    1.7704   27.0000   27.0000 
4382.1096    3.3000    3.2802   42.8111   12.7172    3.8555    2.1581   67.3646    2.4596    0.0099    8.3029    1.7181   27.0000   27.0000 
4382.2620    3.3000    3.2795   42.4844   13.6417    4.0377    2.2081   67.7211    2.4437    0.0060    7.8699    1.6975   27.0000   27.0000 
4382.4144    3.3000    3.2801   41.7754   15.2508    4.1815    2.7205   67.7198    2.4367    0.0070    7.5375    1.7186   27.0000   27.0000 
4382.5668    3.3000    3.2831   41.4232   16.1976    4.1157    2.7407   67.4740    2.4455    0.0096    7.6176    1.7403   27.0000   27.0000 
4382.7192    3.3000    3.2872   39.8628   16.4947    3.9871    2.5464   67.3070    2.4517    0.0092    8.2789    1.7610   27.0000   27.0000 
4382.8716    3.3000    3.2919   37.8977   15.2302    3.8672    2.7162   67.2195    2.4513    0.0077    8.8578    1.7573   27.0000   27.0000 
4383.0240    3.3000    3.2962   37.1303   13.6204    3.7709    2.8958   67.1851    2.4441    0.0056    9.1794    1.7249   27.0000   27.0000 
4383.1764    3.3000    3.2996   37.8050   12.7159    3.7128    2.8777   67.3837    2.4392    0.0043    8.7890    1.7078   27.0000   27.0000 
4383.3288    3.3000    3.3022   39.5461   13.1199    3.6884    2.3961   68.1112    2.4372    0.0046    8.3436    1.7310   27.0000   27.0000 
4383.4812    3.3000    3.3036   40.4166   13.8584    3.7225    2.2911   68.8519    2.4361    0.0050    7.9843    1.7367   27.0000   27.0000 
4383.6336    3.3000    3.3015   40.7991   14.4844    3.7542    2.1822   69.1013    2.4345    0.0053    8.1708    1.7230   27.0000   27.0000 
4383.7860    3.3000    3.3019   41.8146   14.2749    3.7533    2.1533   68.8695    2.4367    0.0049    8.8553    1.7151   27.0000   27.0000 
4383.9384    3.3000    3.3033   44.3025   13.3799    3.7571    2.4494   68.6202    2.4364    0.0043    8.9640    1.7161   27.0000   27.0000 
4384.0908    3.3000    3.3076   48.7138   12.5090    3.7711    2.4630   68.7050    2.4356    0.0043    8.5736    1.7173   27.0000   27.0000 
4384.2432    3.3000    3.3188   58.2570   11.7758    3.8290    2.2272   68.9930    2.4383    0.0056    8.6588    1.7507   27.0000   27.0000 
4384.3956    3.3000    3.3290   83.6143   11.7607    4.0245    2.4123   68.6179    2.4593    0.0232   15.2082    1.8393   27.0000   36.0000 
4384.5480    3.3000    3.3456  153.1768   11.7243    4.5682    7.5499   65.8732    2.5067    0.0613   22.8056    2.0307   27.0000   37.0000 
4384.7004    3.3000    3.4459  157.7690   10.9606    5.3230    3.3281   64.0883    2.6204    0.1114   31.7966    2.2029   37.0000   23.0000 
4384.8528    3.3000    3.6279  170.1461   10.1842    6.8640    0.7259   63.0463    2.6478    0.1144   30.9274    2.2924   37.0000   23.0000 
4385.0052    3.3000    3.6894  178.8945    9.4151    8.9746    1.1637   62.6397    2.6465    0.0826   28.9203    2.3545   37.0000   23.0000 
4385.1576    3.3000    3.6569  180.2927    8.4167   11.2951    1.1199   63.1691    2.6024    0.0217   29.0929    2.3989   37.0000   37.0000 
4385.3100    3.3000    3.6109  173.4580    7.0149   15.1391    0.7552   63.6851    2.5583    0.0247   37.0671    2.4570   37.0000   23.0000 
4385.4624    3.3000    3.5760  170.0121    5.7980   17.8521    0.7469   64.0540    2.5403    0.0922   46.5252    2.5408   11.0000   11.0000 
4385.6148    3.3000    3.6121  172.7970    5.2137   17.2738    0.5243   64.3611    2.5397    0.1967   48.0338    2.6792   11.0000   11.0000 
4385.7672    3.3000    3.6648  186.7608    5.9913   16.0027    0.3038   65.0472    2.5825    0.2028   44.5810    2.8799   11.0000   11.0000 
4385.9196    3.3000    3.7011  189.0852    6.7424   16.2445    0.2884   65.8677    2.6434    0.1637   42.5560    3.6303   11.0000   23.0000 
4386.0720    3.3000    3.6956  180.8079    7.2045   20.9961    0.2734   65.4830    2.7451    0.0882   40.0524    3.7635   37.0000   23.0000 
4386.2244    3.3000    3.6863  170.7189    7.1662   24.9847    0.2577   64.9644    2.7893    0.0391   37.8818    3.6454   37.0000   23.0000 
4386.3768    3.3000    3.6891  161.5807    6.0094   26.7894    0.6448   64.9222    2.7863    0.0197   34.4919    3.3379   37.0000   23.0000 
4386.5292    3.3000    3.6856  156.8893    3.9443   25.0027    2.3360   64.7123    2.7602    0.0095   29.1328    2.9909   37.0000   23.0000 
4386.6816    3.3000    3.6675  157.9978    2.7530   22.4966   19.5137   64.0172    2.7242    0.0023   26.1558    2.6304   37.0000   23.0000 
