~VERSION INFORMATION
 VERS.                 2.0:   CWLS LOG ASCII STANDARD - VERSION 2.0
 WRAP.                  NO:   SINGLE LINE PER DEPTH STEP
 CREA.                 11/01/2018 08:52:43
#CREATED USING DSPetro VERSION 5000.10.1.3 BY H191660 ON 11/01/2018 08:52:43
~WELL INFORMATION
#MNEM.UNIT       DATA                          DESCRIPTION MNEMONIC
#---------      ---------------------------   --------------------------
 STRT    .M         0.0000                    : START DEPTH
 STOP    .M         4500.0672                 : STOP DEPTH
 STEP    .M         0.1524                    : STEP VALUE
 NULL    .      -999.0000                     : NULL VALUE
 DATE    .      11/01/2018                    : LAS file Creation Date
 WELL .      2474_NorthTurtle-1          : Well Name
 COMP .      Neftex Exploration Insights : Company
 FLD  .                                  : Field
 UWI  .      ZAUWL_005355                : Unique Well Identifier (UWI)
 LOC  .                                  : Location
 RWS  .      -999                        : Def_Rw
 WST  .      -999                        : Def_Rwt
 SRVC .                                  : Contractor
~CURVE INFORMATION
#MNEM              UNIT       API CODE   Curve Type Comments
#----------  --------------- ----------  ---------- -----------
 DEPTH      .M                         : Depth       
 BitSize    .in                        : Caliper     
 CAL_CM     .inch                      : caliper     Caliper Log - A representation of the measured diameter of a borehole along its depth
 GR_API     .API                       : gammaRay    
 SP_MV      .mv                        : SP          Spontaneous Potential - Records the electrical potential produced by the interaction of formation water, conductive drilling mud, and certain ion-sele
 ILD_OHMM   .ohmm                      : deepRes     Deep Induction Resistivity - Measurement made an induction log, made several feet into the formation
 MSFL_OHMM  .ohmm                      : microRes    Micro-Spherically Focused Log - Measurement involves only the first few inches of the formation immediately adjacent to the borehole
 DT_US_FT   .us/ft                     : sonic       Interval Transit Time: Compressional Wave - Evaluates the time it takes for a compressional wave to traverse a fixed distance
 RHOB_G_CC  .g/cc                      : density     Bulk Density - Measures the density of bulk material, including any void space or other materials contained in the subject volume
 DRHO_G_CC  .g/cc                      : drho        Density Correction - Investigates the correction to the Bulk Density log; used as an indication of hole condition to validate the Bulk Density measure
 NPHI_%     .PC                        : Neutron     Neutron Porosity - Measured with an neutron logging device calibrated to a given matrix (limestone, sandstone and dolomite)
 PEF_B_E    .b/e-                      : PEF         Photoelectric Factor - A log of photoelectric absorption properties. Often expressed in an approximation unit barns/electron (b/e-)
 LITH       .                          : Flag        
 LITH_v2    .                          : Flag        
~A  DEPTH  BitSize    CAL_CM    GR_API    SP_MV    ILD_OHMM MSFL_OHM   DT_US_FT RHOB_G_C  DRHO_G_C    NPHI    PEF_B_E     LITH    LITH_v2  
# ...
3874.3128    3.3000    3.7006  159.7638   -3.0865  118.4151    1.1554   68.5734    2.6909    0.0572   32.3258    2.5036   37.0000   37.0000 
3874.4652    3.3000    3.6933  163.0102   -3.3778   79.5778    0.9009   67.7777    2.6782    0.0406   32.7104    2.3124   37.0000   37.0000 
3874.6176    3.3000    3.6813  168.8956   -3.5598   52.0825    0.4100   68.1269    2.6287    0.0159   33.7105    2.1755   37.0000   37.0000 
3874.7700    3.3000    3.6696  174.4777   -1.7256   32.9529    0.5247   68.6191    2.5838    0.0000   34.2590    2.0922   37.0000   37.0000 
3874.9224    3.3000    3.6638  177.5900   -0.4081   22.6797    0.4779   69.7191    2.4936   -0.0036   35.4397    2.2347   37.0000   37.0000 
3875.0748    3.3000    3.6657  171.5508   -0.3124   20.1020    0.5511   70.5014    2.3527    0.0225   41.9424    2.3943   37.0000   37.0000 
3875.2272    3.3000    3.6892  160.9225   -1.0878   21.9915    0.6155   70.4980    2.3190    0.1397   43.4454    2.4397   37.0000   37.0000 
3875.3796    3.3000    3.8089  150.6613   -1.8865   24.5396    0.4817   70.4824    2.3785    0.1511   44.1940    2.1852   37.0000   37.0000 
3875.5320    3.3000    3.8001  138.4068   -2.2223   25.1733    0.3676   70.3019    2.4365    0.1284   44.8382    1.9571   37.0000   37.0000 
3875.6844    3.3000    3.6762  130.6601   -1.2389   22.4178    0.3650   68.3384    2.5258    0.0768   44.7548    1.8062   37.0000   37.0000 
3875.8368    3.3000    3.6015  131.9268    0.0638   18.8920    0.3472   64.7174    2.5696    0.0016   44.5577    1.8877   37.0000   37.0000 
3875.9892    3.3000    3.5826  141.3171    1.1315   15.3300    0.4939   62.6813    2.6023   -0.0062   40.5573    2.4058   37.0000   37.0000 
3876.1416    3.3000    3.5833  149.8770    2.0541   13.0611    1.5173   62.0733    2.6552   -0.0041   37.8486    2.7294   37.0000   37.0000 
3876.2940    3.3000    3.5595  150.3243    2.5740   12.1069    1.4316   62.7642    2.7104   -0.0046   33.5904    2.8626   37.0000   37.0000 
3876.4464    3.3000    3.5163  144.0206    2.3237   11.9518    1.1572   63.2384    2.7273    0.0010   25.2038    2.7296   37.0000   37.0000 
3876.5988    3.3000    3.4739  125.7661    1.9893   11.3988    2.4168   64.1267    2.6107    0.0073   21.1021    2.4338   23.0000   23.0000 
3876.7512    3.3000    3.3878   99.4408    2.2158   10.7481    4.0521   66.7014    2.5654    0.0290   17.7751    2.2487   23.0000   23.0000 
3876.9036    3.3000    3.3539   87.2405    2.5894    9.5521    4.5578   68.3088    2.5474    0.0618   17.7092    2.1681   23.0000   23.0000 
3877.0560    3.3000    3.3991   95.3854    2.8516   10.0951    6.3861   67.8850    2.5729    0.0876   22.1334    2.1834   23.0000   23.0000 
3877.2084    3.3000    3.5276  125.9384    2.7152   12.1554    3.4229   67.0466    2.5842    0.1036   29.5342    2.4397   37.0000   37.0000 
3877.3608    3.3000    3.6519  164.6818    2.1385   14.5166    0.7067   67.7156    2.5764    0.0944   33.5824    2.5893   37.0000   37.0000 
3877.5132    3.3000    3.7256  178.1483    1.0161   16.8035    0.4683   69.0444    2.5694    0.0473   36.9234    2.4386   37.0000   37.0000 
3877.6656    3.3000    3.7291  183.9449   -0.3721   18.5633    0.3830   70.1731    2.5734    0.0078   38.0019    2.2736   37.0000   37.0000 
3877.8180    3.3000    3.7020  183.4090   -1.7886   20.5580    0.7625   71.2368    2.5843   -0.0001   38.3782    2.2563   37.0000   37.0000 
3877.9704    3.3000    3.6700  179.4405   -1.6066   21.5473    0.8482   71.8247    2.6011    0.0077   38.3181    2.4712   37.0000   37.0000 
3878.1228    3.3000    3.6752  177.3151   -0.9920   21.9305    1.1293   70.9727    2.6405    0.0123   37.3028    2.9682   37.0000   37.0000 
3878.2752    3.3000    3.6842  180.5333   -0.7482   22.5181    0.9823   69.5888    2.6815    0.0102   35.9281    3.6278   37.0000   37.0000 
3878.4276    3.3000    3.6719  180.6721   -0.8659   23.2245    0.9006   66.4298    2.7504   -0.0038   34.9641    5.7092   23.0000   23.0000 
3878.5800    3.3000    3.6485  174.2562   -1.2575   22.9982    1.0370   63.5146    2.8733   -0.0150   33.4391    6.8896   23.0000   23.0000 
3878.7324    3.3000    3.6295  160.8325   -1.6686   23.6736    0.8872   61.7738    2.9555   -0.0131   31.9821    6.5509   23.0000   23.0000 
3878.8848    3.3000    3.6205  139.6271   -1.7862   25.6527    0.5303   60.8619    2.9424   -0.0041   30.9681    3.8044   23.0000   23.0000 
3879.0372    3.3000    3.6283  133.4599   -1.6945   25.3185    0.6841   60.5198    2.8400    0.0014   29.8352    2.7220   37.0000   37.0000 
3879.1896    3.3000    3.6544  139.9584   -1.2361   23.0687    1.1817   63.0500    2.7157    0.0044   29.3506    2.6355   37.0000   37.0000 
3879.3420    3.3000    3.6894  148.4294   -0.5691   21.1266    0.5884   66.2528    2.6668    0.0049   30.7359    3.0043   37.0000   37.0000 
3879.4944    3.3000    3.7312  155.1147    0.0370   19.2056    0.5280   68.1492    2.6605    0.0036   32.3007    3.3809   37.0000   37.0000 
3879.6468    3.3000    3.7633  164.7876    0.5034   17.6385    0.6212   69.5001    2.6928    0.0015   33.3558    3.7813   37.0000   37.0000 
3879.7992    3.3000    3.7748  170.9332    0.8178   17.5886    2.8796   69.4753    2.7253    0.0014   33.8946    3.4059   37.0000   37.0000 
3879.9516    3.3000    3.7753  168.5791    1.1516   19.5656    9.2165   69.3245    2.7171    0.0029   33.9380    3.0821   37.0000   37.0000 
3880.1040    3.3000    3.7626  165.2893    1.3854   22.2964   15.3933   69.5812    2.6961    0.0041   33.9137    3.0005   37.0000   37.0000 
3880.2564    3.3000    3.7493  166.7345    1.5012   24.7743   16.9643   69.9896    2.6722    0.0031   34.0129    3.2037   37.0000   37.0000 
3880.4088    3.3000    3.7458  168.4634    1.4737   26.4565   24.2737   70.4520    2.6677   -0.0003   34.0329    3.5345   37.0000   37.0000 
3880.5612    3.3000    3.7457  166.0774    1.2961   25.1411   26.4394   69.7485    2.6690   -0.0013   33.7992    3.6551   37.0000   37.0000 
3880.7136    3.3000    3.7439  161.5551    1.0699   21.5480   18.6634   69.0728    2.6744    0.0002   33.3434    3.4136   37.0000   37.0000 
3880.8660    3.3000    3.7319  157.6193    0.9292   19.0902   11.5524   69.3660    2.6802    0.0034   32.4865    3.0829   37.0000   37.0000 
3881.0184    3.3000    3.7253  155.9856    1.4818   17.3563    4.8204   69.7542    2.6782    0.0056   31.5749    2.6710   37.0000   37.0000 
3881.1708    3.3000    3.7306  158.7577    3.1852   17.2002    4.3624   70.0458    2.6555    0.0060   30.6685    2.4844   37.0000   37.0000 
3881.3232    3.3000    3.7209  165.1010    4.6109   18.5024    4.0168   70.1868    2.6322    0.0044   30.5838    2.3977   37.0000   37.0000 
3881.4756    3.3000    3.6935  173.7035    5.3663   19.9248    2.1714   70.1111    2.6199    0.0024   30.7122    2.4858   37.0000   37.0000 
3881.6280    3.3000    3.6578  182.1807    5.6668   20.8714    1.1893   69.5738    2.6260    0.0035   30.6960    2.5183   37.0000   37.0000 
3881.7804    3.3000    3.6213  186.6571    5.8713   20.8692    1.1118   69.0508    2.6437    0.0047   30.1774    2.4859   37.0000   37.0000 
3881.9328    3.3000    3.5993  190.7217    6.1148   20.1696    0.9973   68.7472    2.6542    0.0038   29.3669    2.4455   37.0000   37.0000 
3882.0852    3.3000    3.5969  191.5310    6.7582   19.7277    0.7468   68.3389    2.6565    0.0008   27.8479    2.5191   37.0000   37.0000 
3882.2376    3.3000    3.6032  187.0232    7.7594   20.2785    0.6593   67.9069    2.6587   -0.0044   25.9209    2.6239   37.0000   37.0000 
3882.3900    3.3000    3.6028  179.3008    8.9027   22.6898    0.8600   67.5369    2.6590   -0.0088   24.8688    2.5284   37.0000   37.0000 
3882.5424    3.3000    3.5908  170.3757   10.1056   25.1707    0.8697   67.8135    2.6444   -0.0071   24.4892    2.3828   37.0000   37.0000 
3882.6948    3.3000    3.5705  168.7489   11.0566   27.1662    1.1462   68.2863    2.6187   -0.0052   26.1599    2.2599   37.0000   37.0000 
3882.8472    3.3000    3.5610  167.5771   11.8402   27.9717    1.3333   68.4038    2.6021   -0.0049   27.0223    2.2879   37.0000   37.0000 
