~VERSION INFORMATION
 VERS.                 2.0:   CWLS LOG ASCII STANDARD - VERSION 2.0
 WRAP.                  NO:   SINGLE LINE PER DEPTH STEP
 CREA.                 11/01/2018 08:52:43
#CREATED USING DSPetro VERSION 5000.10.1.3 BY H191660 ON 11/01/2018 08:52:43
~WELL INFORMATION
#MNEM.UNIT       DATA                          DESCRIPTION MNEMONIC
#---------      ---------------------------   --------------------------
 STRT    .M         0.0000                    : START DEPTH
 STOP    .M         4500.0672                 : STOP DEPTH
 STEP    .M         0.1524                    : STEP VALUE
 NULL    .      -999.0000                     : NULL VALUE
 DATE    .      11/01/2018                    : LAS file Creation Date
 WELL .      2474_NorthTurtle-1          : Well Name
 COMP .      Neftex Exploration Insights : Company
 FLD  .                                  : Field
 UWI  .      ZAUWL_005355                : Unique Well Identifier (UWI)
 LOC  .                                  : Location
 RWS  .      -999                        : Def_Rw
 WST  .      -999                        : Def_Rwt
 SRVC .                                  : Contractor
~CURVE INFORMATION
#MNEM              UNIT       API CODE   Curve Type Comments
#----------  --------------- ----------  ---------- -----------
 DEPTH      .M                         : Depth       
 BitSize    .in                        : Caliper     
 CAL_CM     .inch                      : caliper     Caliper Log - A representation of the measured diameter of a borehole along its depth
 GR_API     .API                       : gammaRay    
 SP_MV      .mv                        : SP          Spontaneous Potential - Records the electrical potential produced by the interaction of formation water, conductive drilling mud, and certain ion-sele
 ILD_OHMM   .ohmm                      : deepRes     Deep Induction Resistivity - Measurement made an induction log, made several feet into the formation
 MSFL_OHMM  .ohmm                      : microRes    Micro-Spherically Focused Log - Measurement involves only the first few inches of the formation immediately adjacent to the borehole
 DT_US_FT   .us/ft                     : sonic       Interval Transit Time: Compressional Wave - Evaluates the time it takes for a compressional wave to traverse a fixed distance
 RHOB_G_CC  .g/cc                      : density     Bulk Density - Measures the density of bulk material, including any void space or other materials contained in the subject volume
 DRHO_G_CC  .g/cc                      : drho        Density Correction - Investigates the correction to the Bulk Density log; used as an indication of hole condition to validate the Bulk Density measure
 NPHI_%     .PC                        : Neutron     Neutron Porosity - Measured with an neutron logging device calibrated to a given matrix (limestone, sandstone and dolomite)
 PEF_B_E    .b/e-                      : PEF         Photoelectric Factor - A log of photoelectric absorption properties. Often expressed in an approximation unit barns/electron (b/e-)
 LITH       .                          : Flag        
 LITH_v2    .                          : Flag        
~A  DEPTH  BitSize    CAL_CM    GR_API    SP_MV    ILD_OHMM MSFL_OHM   DT_US_FT RHOB_G_C  DRHO_G_C    NPHI    PEF_B_E     LITH    LITH_v2  
# ...
4143.6036    3.3000    3.2896   50.1936   13.4483    3.3286    2.1726   69.5420    2.4258   -0.0006   12.4608    2.0202   27.0000   27.0000 
4143.7560    3.3000    3.2900   50.5965   13.7567    3.3948    1.9567   69.5678    2.4264    0.0005   12.8115    2.0532   27.0000   27.0000 
4143.9084    3.3000    3.2899   50.9054   14.2522    3.4422    2.7948   69.8294    2.4219   -0.0019   12.7987    2.0511   27.0000   27.0000 
4144.0608    3.3000    3.2899   50.7079   14.5418    3.4841    2.7958   70.0296    2.4140   -0.0061   12.7851    1.9876   27.0000   27.0000 
4144.2132    3.3000    3.2914   50.4605   14.1247    3.5281    2.4809   70.0865    2.4107   -0.0075   12.8834    1.9380   27.0000   27.0000 
4144.3656    3.3000    3.2983   51.2518   13.7194    3.5886    2.1502   69.9042    2.4148   -0.0076   13.0469    1.9106   27.0000   27.0000 
4144.5180    3.3000    3.3053   55.3412   13.6786    3.6766    2.4767   69.5656    2.4171   -0.0085   13.0375    1.9754   27.0000   31.0000 
4144.6704    3.3000    3.3135   59.9777   13.6675    3.8240    2.8475   69.2222    2.4175   -0.0086   12.7812    2.0852   27.0000   31.0000 
4144.8228    3.3000    3.3207   62.8096   13.2647    4.0427    3.1053   68.8706    2.4185   -0.0075   12.7374    2.1749   27.0000   31.0000 
4144.9752    3.3000    3.3220   61.7265   12.7613    4.2759    3.1711   68.4961    2.4257   -0.0062   12.8780    2.1778   27.0000   31.0000 
4145.1276    3.3000    3.3182   58.8158   12.1116    4.4602    3.8766   68.4074    2.4373   -0.0068   12.7515    2.1862   27.0000   31.0000 
4145.2800    3.3000    3.3148   57.8779   11.7204    4.5780    4.5072   68.5435    2.4459   -0.0083   12.4681    2.2775   27.0000   31.0000 
4145.4324    3.3000    3.3146   59.4429   12.0963    4.6754    3.5118   69.0828    2.4500   -0.0074   12.2406    2.4345   27.0000   31.0000 
4145.5848    3.3000    3.3175   61.8486   12.6234    4.7723    3.2337   69.4506    2.4548   -0.0030   12.1507    2.5635   36.0000   31.0000 
4145.7372    3.3000    3.3206   64.0090   12.9893    4.8939    3.0599   69.5194    2.4622    0.0013   12.7183    2.5360   36.0000   36.0000 
4145.8896    3.3000    3.3222   64.9259   12.8799    5.0895    5.2204   69.2054    2.4627    0.0015   14.6749    2.4945   36.0000   36.0000 
4146.0420    3.3000    3.3192   63.1823   12.3771    5.5692    5.9268   69.5824    2.4558   -0.0054   15.8723    2.5411   36.0000   36.0000 
4146.1944    3.3000    3.3175   60.1255   12.0530    6.3451    3.9869   70.3859    2.4502   -0.0134   16.7253    2.6889   36.0000   36.0000 
4146.3468    3.3000    3.3189   55.3915   11.8732    7.0781    3.4011   68.3746    2.4794   -0.0220   15.2192    2.7379   36.0000   36.0000 
4146.4992    3.3000    3.3221   49.7298   11.9090    7.3921    5.0633   64.5070    2.5662   -0.0256   10.1797    2.7410   36.0000   36.0000 
4146.6516    3.3000    3.3212   47.2072   12.6615    7.2345    7.1919   60.9507    2.5869   -0.0258    7.2082    2.8231   18.0000   36.0000 
4146.8040    3.3000    3.3179   47.6955   13.8501    6.9365   14.7177   59.7407    2.5625   -0.0244    8.2291    2.9211   18.0000   36.0000 
4146.9564    3.3000    3.3098   52.8378   14.4495    6.6451   19.5063   61.9191    2.5021   -0.0218   10.2193    2.6273   18.0000   36.0000 
4147.1088    3.3000    3.2959   58.1638   14.2705    6.3998   10.5065   64.9130    2.4723   -0.0133   12.4373    2.3775   36.0000   36.0000 
4147.2612    3.3000    3.2834   60.8034   13.4085    6.1642    2.9655   67.0157    2.4471   -0.0012   13.9899    2.2672   36.0000   36.0000 
4147.4136    3.3000    3.2710   61.3052   12.4776    5.7998    2.4520   68.7085    2.4420    0.0144   13.7238    2.2200   36.0000   36.0000 
4147.5660    3.3000    3.2618   61.3753   11.7502    5.4291    2.6302   68.4791    2.4500    0.0344   12.5935    2.2082   36.0000   36.0000 
4147.7184    3.3000    3.2568   62.9940   11.7221    5.1800    4.4460   67.3387    2.4683    0.0501   11.7994    2.2295   36.0000   36.0000 
4147.8708    3.3000    3.2536   66.4345   12.0840    4.9704    5.5381   66.5207    2.4830    0.0567   11.6475    2.2513   36.0000   36.0000 
4148.0232    3.3000    3.2514   70.5317   12.6884    5.1858    3.9108   66.2561    2.4851    0.0559   12.3598    2.2377   36.0000   36.0000 
4148.1756    3.3000    3.2702   68.7996   13.2322    5.5830    5.7339   66.4537    2.4626    0.0429   13.6509    2.1883   36.0000   36.0000 
4148.3280    3.3000    3.2745   64.7636   12.9787    6.1010    6.2763   67.1540    2.4397    0.0158   14.0104    2.1405   36.0000   36.0000 
4148.4804    3.3000    3.2708   62.2912   12.0851    6.4203    4.2620   67.5991    2.4252    0.0029   14.1289    2.1105   36.0000   36.0000 
4148.6328    3.3000    3.2387   62.0079   11.8997    6.6226    3.8444   67.5472    2.4201    0.0025   13.7834    2.0856   36.0000   36.0000 
4148.7852    3.3000    3.2581   63.6567   12.1228    6.8173    3.4540   67.4082    2.4388    0.0132   13.5000    2.0661   36.0000   36.0000 
4148.9376    3.3000    3.2901   66.4713   12.5186    6.9430    3.2888   67.5043    2.5231    0.0257   13.8997    2.1601   36.0000   36.0000 
4149.0900    3.3000    3.3244   68.2719   12.9326    6.8174    3.6126   67.9548    2.5496    0.0293   14.9116    3.0425   36.0000   36.0000 
4149.2424    3.3000    3.3293   68.7712   13.0502    6.5243    6.8816   68.3645    2.5688    0.0142   16.3711    3.1742   36.0000   36.0000 
4149.3948    3.3000    3.3118   69.1378   12.8742    6.2202    6.6817   68.5508    2.5614   -0.0009   17.1600    2.5441   36.0000   36.0000 
4149.5472    3.3000    3.2963   70.1771   12.5004    6.0616    8.3179   69.1426    2.5202   -0.0039   16.6318    2.2723   36.0000   36.0000 
4149.6996    3.3000    3.2794   72.4363   12.0825    6.2012   11.3731   69.9945    2.4904   -0.0013   15.4492    2.1057   36.0000   36.0000 
4149.8520    3.3000    3.2730   73.9379   11.7373    6.4069    2.8895   71.0512    2.4507    0.0003   14.8741    1.9929   36.0000   36.0000 
4150.0044    3.3000    3.2701   73.2889   11.2584    6.0257    2.6621   71.8595    2.4337    0.0009   14.6142    2.1034   36.0000   36.0000 
4150.1568    3.3000    3.2653   69.4118   10.8095    5.4798    3.8886   71.6258    2.4356    0.0029   14.4524    2.1999   36.0000   36.0000 
4150.3092    3.3000    3.2547   65.1683   11.2506    4.9509    4.5367   71.0028    2.4422    0.0075   14.8601    2.2090   36.0000   36.0000 
4150.4616    3.3000    3.2454   63.5086   11.5798    4.6638    3.3200   71.1350    2.4229    0.0112   15.0218    2.1558   36.0000   36.0000 
4150.6140    3.3000    3.2394   64.7431   11.6231    4.3602    3.1976   71.9182    2.3989    0.0098   15.0320    2.0541   36.0000   36.0000 
4150.7664    3.3000    3.2459   71.8323   11.4244    4.0789    2.5073   72.8060    2.3879    0.0098   15.0689    2.0125   36.0000   36.0000 
4150.9188    3.3000    3.2572   81.6196   11.1532    3.9929    1.9702   73.4219    2.3901    0.0145   15.3069    2.1081   36.0000   36.0000 
4151.0712    3.3000    3.2707   87.0492   11.3248    4.0556    1.8885   72.8309    2.4203    0.0228   16.5402    2.3472   36.0000   36.0000 
4151.2236    3.3000    3.2912   86.9927   11.3364    4.1140    2.2699   72.5128    2.4625    0.0354   17.8242    2.4726   36.0000   36.0000 
4151.3760    3.3000    3.3104   79.6745   10.8683    4.1334    3.0777   72.6851    2.4849    0.0510   18.6157    2.5516   36.0000   36.0000 
4151.5284    3.3000    3.3169   72.9403   10.4907    4.1607    2.1756   72.5652    2.4982    0.0551   18.3435    2.5150   36.0000   36.0000 
4151.6808    3.3000    3.3111   69.7507   10.3198    4.2584    3.4192   72.3785    2.5040    0.0405   17.0951    2.2249   36.0000   36.0000 
4151.8332    3.3000    3.3003   68.5261   10.3519    4.4427    2.9680   72.5297    2.4847    0.0232   16.2014    2.1545   36.0000   36.0000 
4151.9856    3.3000    3.2864   71.5398   10.2314    4.6479    2.7185   72.6528    2.4498    0.0100   15.6564    2.1535   36.0000   36.0000 
4152.1380    3.3000    3.2797   75.7228    9.9456    4.8094    3.4192   72.6277    2.4276    0.0039   15.7322    2.1235   36.0000   36.0000 
