~VERSION INFORMATION
 VERS.                 2.0:   CWLS LOG ASCII STANDARD - VERSION 2.0
 WRAP.                  NO:   SINGLE LINE PER DEPTH STEP
 CREA.                 11/01/2018 08:52:43
#CREATED USING DSPetro VERSION 5000.10.1.3 BY H191660 ON 11/01/2018 08:52:43
~WELL INFORMATION
#MNEM.UNIT       DATA                          DESCRIPTION MNEMONIC
#---------      ---------------------------   --------------------------
 STRT    .M         0.0000                    : START DEPTH
 STOP    .M         4500.0672                 : STOP DEPTH
 STEP    .M         0.1524                    : STEP VALUE
 NULL    .      -999.0000                     : NULL VALUE
 DATE    .      11/01/2018                    : LAS file Creation Date
 WELL .      2474_NorthTurtle-1          : Well Name
 COMP .      Neftex Exploration Insights : Company
 FLD  .                                  : Field
 UWI  .      ZAUWL_005355                : Unique Well Identifier (UWI)
 LOC  .                                  : Location
 RWS  .      -999                        : Def_Rw
 WST  .      -999                        : Def_Rwt
 SRVC .                                  : Contractor
~CURVE INFORMATION
#MNEM              UNIT       API CODE   Curve Type Comments
#----------  --------------- ----------  ---------- -----------
 DEPTH      .M                         : Depth       
 BitSize    .in                        : Caliper     
 CAL_CM     .inch                      : caliper     Caliper Log - A representation of the measured diameter of a borehole along its depth
 GR_API     .API                       : gammaRay    
 SP_MV      .mv                        : SP          Spontaneous Potential - Records the electrical potential produced by the interaction of formation water, conductive drilling mud, and certain ion-sele
 ILD_OHMM   .ohmm                      : deepRes     Deep Induction Resistivity - Measurement made an induction log, made several feet into the formation
 MSFL_OHMM  .ohmm                      : microRes    Micro-Spherically Focused Log - Measurement involves only the first few inches of the formation immediately adjacent to the borehole
 DT_US_FT   .us/ft                     : sonic       Interval Transit Time: Compressional Wave - Evaluates the time it takes for a compressional wave to traverse a fixed distance
 RHOB_G_CC  .g/cc                      : density     Bulk Density - Measures the density of bulk material, including any void space or other materials contained in the subject volume
 DRHO_G_CC  .g/cc                      : drho        Density Correction - Investigates the correction to the Bulk Density log; used as an indication of hole condition to validate the Bulk Density measure
 NPHI_%     .PC                        : Neutron     Neutron Porosity - Measured with an neutron logging device calibrated to a given matrix (limestone, sandstone and dolomite)
 PEF_B_E    .b/e-                      : PEF         Photoelectric Factor - A log of photoelectric absorption properties. Often expressed in an approximation unit barns/electron (b/e-)
 LITH       .                          : Flag        
 LITH_v2    .                          : Flag        
~A  DEPTH  BitSize    CAL_CM    GR_API    SP_MV    ILD_OHMM MSFL_OHM   DT_US_FT RHOB_G_C  DRHO_G_C    NPHI    PEF_B_E     LITH    LITH_v2  
# ...
4256.5320    3.3000    3.4676  183.3754    7.5454   14.6420    8.7123   72.7036    2.5074    0.0069   23.3895    2.3774   37.0000   37.0000 
4256.6844    3.3000    3.4738  182.4005    6.8099   20.6473   13.9444   72.6804    2.5059    0.0070   24.4973    2.3498   37.0000   37.0000 
4256.8368    3.3000    3.4756  181.3889    6.6240   28.7269   27.0109   73.2034    2.5106    0.0094   25.5625    2.2919   37.0000   37.0000 
4256.9892    3.3000    3.4806  176.7795    6.3988   49.9974   18.1887   73.6199    2.5220    0.0149   26.4537    2.2065   37.0000   37.0000 
4257.1416    3.3000    3.4894  159.3266    5.6383   87.0081    2.9706   72.9663    2.5311    0.0188   23.7187    2.0627   37.0000   37.0000 
4257.2940    3.3000    3.5007  134.4430    4.7281   92.7116    2.5956   70.9001    2.5331    0.0203   18.5329    1.9143   37.0000   37.0000 
4257.4464    3.3000    3.5107  130.4167    4.0329   65.4940    4.5866   69.4331    2.5025    0.0145   17.0657    1.8402   37.0000   37.0000 
4257.5988    3.3000    3.5206  146.9886    3.3751   35.1918    5.3660   69.5596    2.4835    0.0132   17.1694    1.8433   37.0000   37.0000 
4257.7512    3.3000    3.5246  171.7275    2.6536   30.1947    0.9518   71.0211    2.4976    0.0132   30.4292    2.0995   37.0000   37.0000 
4257.9036    3.3000    3.5250  185.0837    1.9375   28.5396    0.7803   71.9998    2.5496    0.0120   34.9327    2.3155   37.0000   37.0000 
4258.0560    3.3000    3.5228  188.1808    1.1901   32.5335    0.9267   71.6559    2.5992    0.0068   36.0775    2.4523   37.0000   37.0000 
4258.2084    3.3000    3.5175  182.5023    0.4897   36.7735    0.9759   70.3723    2.6167    0.0019   35.8063    2.4892   37.0000   37.0000 
4258.3608    3.3000    3.5151  174.6183   -0.0656   38.6907    0.6201   69.2737    2.6328   -0.0021   34.6308    2.7980   37.0000   37.0000 
4258.5132    3.3000    3.5141  168.1203   -0.1286   40.5794    0.7657   69.2380    2.6543   -0.0055   33.5156    3.0040   37.0000   37.0000 
4258.6656    3.3000    3.5169  162.8828    0.2665   52.9761    1.5660   69.0999    2.6568   -0.0063   33.2416    3.1318   37.0000   37.0000 
4258.8180    3.3000    3.4958  158.2646    0.4885   81.7315    1.9927   68.5020    2.6292   -0.0025   32.7800    2.9197   37.0000   37.0000 
4258.9704    3.3000    3.5063  154.8705    0.2917   89.6390    0.9931   66.4092    2.5738    0.0216   32.1357    2.4084   37.0000   11.0000 
4259.1228    3.3000    3.5456  152.5051   -0.1624   58.8892    1.3244   64.1426    2.3368    0.1555   31.5444    2.1899   37.0000   11.0000 
4259.2752    3.3000    3.5962  152.6408   -0.6169   24.0559    1.2144   63.4386    2.0419    0.1836   31.4650    1.9944   11.0000   11.0000 
4259.4276    3.3000    3.6459  156.2250   -0.7716   19.5997    1.3881   67.0559    1.9187    0.1324   33.0434    2.0488   11.0000   11.0000 
4259.5800    3.3000    3.6477  158.2346   -0.1164   16.0119    1.0797   67.6347    1.8722    0.0453   34.1347    2.1510   11.0000   11.0000 
4259.7324    3.3000    3.5661  158.1899    0.4677   12.4292    1.2662   68.4973    1.9531    0.0046   37.9079    2.1615   11.0000   11.0000 
4259.8848    3.3000    3.5066  159.4087    0.4476   12.1190    0.6420   71.5585    2.2851   -0.0103   40.3819    2.0024   37.0000   37.0000 
4260.0372    3.3000    3.4781  164.3037    0.1714   13.2026    0.2082   74.8258    2.4861   -0.0059   41.5375    2.0034   37.0000   37.0000 
4260.1896    3.3000    3.4771  169.8837   -0.2956   13.1383    0.2501   76.7632    2.5715   -0.0035   41.0298    2.0127   37.0000   37.0000 
4260.3420    3.3000    3.4843  174.6210   -0.7573   12.7394    0.3771   77.5205    2.5850   -0.0068   37.4175    2.0070   37.0000   37.0000 
4260.4944    3.3000    3.4863  176.9925   -0.7797   12.5745    0.3270   76.2951    2.5836   -0.0121   35.7177    1.9918   37.0000   37.0000 
4260.6468    3.3000    3.4876  177.3670   -0.3036   19.9958    0.2980   73.1986    2.5831   -0.0129   34.4728    1.9854   37.0000   37.0000 
4260.7992    3.3000    3.4891  171.3200   -0.1329   29.3159    0.7095   70.7865    2.5822   -0.0098   31.1488    1.9881   37.0000   37.0000 
4260.9516    3.3000    3.4896  166.1935   -0.2724   49.5747    2.7704   69.3653    2.5777   -0.0034   29.1839    2.0287   37.0000   37.0000 
4261.1040    3.3000    3.4850  164.4815   -0.6356   92.2750    3.6569   68.2529    2.5682    0.0017   28.8184    2.1564   37.0000   37.0000 
4261.2564    3.3000    3.4755  172.1163   -0.8334  149.1829    3.5166   67.6257    2.5543    0.0041   32.9294    2.2496   37.0000   37.0000 
4261.4088    3.3000    3.4652  178.1555   -0.6851  499.2400   13.6937   71.1502    2.5601    0.0027   35.0854    2.3151   37.0000   37.0000 
4261.5612    3.3000    3.4539  183.4674   -0.2725 1121.5870    4.9597   72.8193    2.5749    0.0017   33.4530    2.4193   37.0000   37.0000 
4261.7136    3.3000    3.4404  186.9220   -0.3757  364.4626    3.1772   71.6579    2.5864    0.0025   28.8565    2.4745   37.0000   37.0000 
4261.8660    3.3000    3.4261  188.3915   -0.8971  122.6537    6.4452   69.6479    2.5915    0.0033   24.0359    2.5015   37.0000   37.0000 
4262.0184    3.3000    3.4211  187.8708   -0.5587   58.5837    8.4942   67.8021    2.5890    0.0057   22.2330    2.4679   37.0000   37.0000 
4262.1708    3.3000    3.4220  184.2511    0.7745   57.5964   12.0036   66.1710    2.5477    0.0097   21.0296    2.2787   37.0000   37.0000 
4262.3232    3.3000    3.4213  176.5551    1.8613   44.8888    5.1277   65.5386    2.5055    0.0112   20.1666    2.1493   37.0000   37.0000 
4262.4756    3.3000    3.4180  151.0311    2.0522   34.4142    8.0609   67.8417    2.4890    0.0230   20.1769    2.1595   37.0000   37.0000 
4262.6280    3.3000    3.4102  143.2265    1.7169   26.1201    9.0065   71.5012    2.4798    0.0485   23.1342    2.2293   37.0000   37.0000 
4262.7804    3.3000    3.3986  138.0551    1.4828   21.1688   11.9165   73.9796    2.4742    0.0588   24.6892    2.2674   37.0000   37.0000 
4262.9328    3.3000    3.3925  131.0774    2.3023   19.4651    1.0026   75.0858    2.4744    0.0658   22.5986    2.2676   37.0000   37.0000 
4263.0852    3.3000    3.3952  121.1170    3.5563   16.8596    2.0464   75.3489    2.4861    0.0685   20.6991    2.2107   37.0000   37.0000 
4263.2376    3.3000    3.4035  114.8410    4.3870   14.7477    3.9423   75.3661    2.4896    0.0710   17.6241    2.1343   37.0000   37.0000 
4263.3900    3.3000    3.4194  119.1780    4.7306   12.5477    4.8895   74.7191    2.4555    0.0755   17.5279    2.0762   37.0000   37.0000 
4263.5424    3.3000    3.4395  124.5138    5.2414   10.8572    9.1135   73.6976    2.3961    0.0767   20.4259    2.0587   37.0000   37.0000 
4263.6948    3.3000    3.4503  120.2169    5.1884    8.7566   15.4441   73.8682    2.3184    0.0706   21.9963    2.1172   37.0000   37.0000 
4263.8472    3.3000    3.4337  108.6093    5.3136    7.8360    4.0931   76.6892    2.2916    0.0467   21.3616    2.1598   31.0000   36.0000 
4263.9996    3.3000    3.3982   93.3801    6.3006    7.6206    2.6124   79.0147    2.3182    0.0098   18.6668    2.1630   31.0000   36.0000 
4264.1520    3.3000    3.3656   86.8761    6.6367    7.9072    2.6853   78.4851    2.3745   -0.0015   14.3366    2.1155   31.0000   36.0000 
4264.3044    3.3000    3.3483   87.3781    6.2934    7.9717    2.5386   76.1989    2.4183    0.0042   13.0457    2.0580   31.0000   36.0000 
4264.4568    3.3000    3.3650   96.1301    5.8440    7.5892    5.2616   73.9357    2.4502    0.0161   12.7511    2.0753   31.0000   36.0000 
4264.6092    3.3000    3.3889  105.8634    5.5900    8.1097    6.4884   72.0171    2.4745    0.0340   12.6233    2.0762   31.0000   36.0000 
4264.7616    3.3000    3.4093  113.9689    5.9167    9.5943    5.2992   71.0504    2.4944    0.0446   13.8788    2.0476   31.0000   37.0000 
4264.9140    3.3000    3.4124  126.7314    6.3918   10.9249   11.2005   71.2156    2.5082    0.0512   16.4913    2.0461   37.0000   37.0000 
4265.0664    3.3000    3.3977  137.4942    6.5215   12.1486    7.4843   71.6221    2.4884    0.0283   18.3958    2.0589   37.0000   37.0000 
