~VERSION INFORMATION
 VERS.                 2.0:   CWLS LOG ASCII STANDARD - VERSION 2.0
 WRAP.                  NO:   SINGLE LINE PER DEPTH STEP
 CREA.                 12/01/2018 09:22:08
#CREATED USING DSPetro VERSION 5000.10.1.3 BY H191660 ON 12/01/2018 09:22:08
~WELL INFORMATION
#MNEM.UNIT       DATA                          DESCRIPTION MNEMONIC
#---------      ---------------------------   --------------------------
 STRT    .M         0.0000                    : START DEPTH
 STOP    .M         1999.9452                 : STOP DEPTH
 STEP    .M         0.1524                    : STEP VALUE
 NULL    .      -999.0000                     : NULL VALUE
 DATE    .      12/01/2018                    : LAS file Creation Date
 WELL .      2575-Perindi-1              : Well Name
 COMP .      Neftex Exploration Insights : Company
 FLD  .                                  : Field
 UWI  .      ZAUWL_005981                : Unique Well Identifier (UWI)
 LOC  .                                  : Location
 RWS  .      -999                        : Def_Rw
 WST  .      -999                        : Def_Rwt
 SRVC .                                  : Contractor
~CURVE INFORMATION
#MNEM              UNIT       API CODE   Curve Type Comments
#----------  --------------- ----------  ---------- -----------
 DEPTH      .M                         : Depth       
 BitSize    .in                        : bitSize     
 CAL_CM     .inch                      : caliper     Caliper Log - A representation of the measured diameter of a borehole along its depth
 SP_MV      .mv                        : SP          Spontaneous Potential - Records the electrical potential produced by the interaction of formation water, conductive drilling mud, and certain ion-sele
 GR_API     .API                       : gammaRay    Gamma Ray (API) - Measures the intensity of natural gamma-ray radiation emitted from formations containing radioactive elements, such as K, Th and U
 LLS_OHMM   .ohmm                      : shalRes     Laterlog Shallow Resistivity - one to two feet into the formation; generally considered to measure the formation
 LLD_OHMM   .ohmm                      : deepRes     Laterlog Deep Resistivity - Measurement made several feet into the formation; generally considered a measurement of the undisturbed formation
 ILD_OHMM   .ohmm                      : deepRes     Deep Induction Resistivity - Measurement made an induction log, made several feet into the formation
 DT_US_FT   .us/ft                     : sonic       Interval Transit Time: Compressional Wave - Evaluates the time it takes for a compressional wave to traverse a fixed distance
 RHOB_G_CC  .g/cc                      : density     Bulk Density - Measures the density of bulk material, including any void space or other materials contained in the subject volume
 DRHO_G_CC  .g/cc                      : drho        Density Correction - Investigates the correction to the Bulk Density log; used as an indication of hole condition to validate the Bulk Density measure
 NPHI_V/V   .dec                       : Neutron     
 PEF_B_E    .b/e-                      : PEF         Photoelectric Factor - A log of photoelectric absorption properties. Often expressed in an approximation unit barns/electron (b/e-)
 LITH       .                          : LITH        Lithology Curve
 LITH_v2    .                          : LITH        Lithology Curve
~A  DEPTH  BitSize    CAL_CM    SP_MV     GR_API   LLS_OHMM  LLD_OHMM  ILD_OHMM  DT_US_FT RHOB_G_C  DRHO_G_C   NPHI_V/V  PEF_B_E     LITH    LITH_v2  
# ...
 621.9444   17.5000    7.2204    4.0292   20.4258 -999.0000 -999.0000    3.2695  116.8647    2.0996    0.1615    0.3895    1.9402   11.0000   11.0000 
 622.0968   17.5000    7.2189    3.4002   21.7578 -999.0000 -999.0000    3.3535  119.8535    2.1357    0.2056    0.3782    1.8347   11.0000   11.0000 
 622.2492   17.5000    7.2389    2.7359   24.1484 -999.0000 -999.0000    3.4302  120.0395    2.1294    0.2184    0.3793    1.8062   11.0000   11.0000 
 622.4016   17.5000    7.2696    2.4467   24.0195 -999.0000 -999.0000    3.4707  120.1860    2.0688    0.1825    0.3831    1.8396   11.0000   11.0000 
 622.5540   17.5000    7.2835    2.5286   22.1641 -999.0000 -999.0000    3.4453  117.9561    2.0205    0.1417    0.3877    1.9001   11.0000   11.0000 
 622.7064   17.5000    7.2942    2.9191   20.9961 -999.0000 -999.0000    3.3535  115.0146    2.0220    0.1260    0.3945    1.9919   11.0000   11.0000 
 622.8588   17.5000    7.3035    3.1572   21.6680 -999.0000 -999.0000    3.2393  114.6377    2.0420    0.1279    0.4014    2.0112   11.0000   11.0000 
 623.0112   17.5000    7.3096    2.9305   23.0859 -999.0000 -999.0000    3.1392  114.1248    2.0479    0.1384    0.4052    1.9353   11.0000   11.0000 
 623.1636   17.5000    7.3404    2.7702   23.6484 -999.0000 -999.0000    3.0635  113.5627    2.0586    0.1644    0.4065    1.8914   11.0000   11.0000 
 623.3160   17.5000    7.4019    3.1333   23.3477 -999.0000 -999.0000    3.0176  113.8943    2.0635    0.1835    0.4152    1.9651   11.0000   11.0000 
 623.4684   17.5000    7.5095    4.0199   23.3008 -999.0000 -999.0000    3.0000  116.2197    2.0415    0.1870    0.4287    2.1423   11.0000   11.0000 
 623.6208   17.5000    7.6280    4.8401   24.0586 -999.0000 -999.0000    3.0068  116.9238    2.0125    0.1940    0.4331    2.1909   11.0000   11.0000 
 623.7732   17.5000    7.6310    5.1877   24.7969 -999.0000 -999.0000    3.0493  116.5344    2.0176    0.2200    0.4283    2.0364   11.0000   11.0000 
 623.9256   17.5000    7.4834    5.4179   24.8789 -999.0000 -999.0000    3.1431  117.2370    2.0837    0.2644    0.4222    1.8584   11.0000   11.0000 
 624.0780   17.5000    7.2743    5.9685   24.5664 -999.0000 -999.0000    3.2803  115.6318    2.1372    0.2651    0.4143    1.7810   11.0000   11.0000 
 624.2304   17.5000    7.1358    6.6364   24.3438 -999.0000 -999.0000    3.4233  114.4111    2.1260    0.2120    0.3992    1.7874   11.0000   11.0000 
 624.3828   17.5000    7.0974    6.9214   23.7773 -999.0000 -999.0000    3.5293  113.6060    2.0898    0.1652    0.3829    1.7688   11.0000   11.0000 
 624.5352   17.5000    7.0743    6.8665   23.3477 -999.0000 -999.0000    3.6060  113.4618    2.0718    0.1558    0.3840    1.7515   11.0000   11.0000 
 624.6876   17.5000    7.0513    6.5657   23.5664 -999.0000 -999.0000    3.7026  112.8437    2.0747    0.1637    0.4005    1.8064   11.0000   11.0000 
 624.8400   17.5000    7.0559    6.1124   23.6328 -999.0000 -999.0000    3.7905  112.0818    2.0669    0.1508    0.4141    1.8838   11.0000   11.0000 
 624.9924   17.5000    7.0820    5.5770   22.5664 -999.0000 -999.0000    3.7871  112.1849    2.0571    0.1353    0.4246    1.8445   11.0000   11.0000 
 625.1448   17.5000    7.1328    4.7879   20.7578 -999.0000 -999.0000    3.6763  110.5742    2.0537    0.1499    0.4319    1.6782   11.0000   11.0000 
 625.2972   17.5000    7.2404    3.7916   20.0000 -999.0000 -999.0000    3.4619  110.4325    1.9998    0.1736    0.4323    1.5649   11.0000   11.0000 
 625.4496   17.5000    7.4572    3.0453   20.3203 -999.0000 -999.0000    3.1782  111.0464    1.8745    0.1642    0.4294    1.6040   11.0000   11.0000 
 625.6020   17.5000    7.8202    2.7210   21.0977 -999.0000 -999.0000    2.9751  113.2148    1.7642    0.1241    0.4387    1.7673   11.0000   11.0000 
 625.7544   17.5000    7.9417    2.3341   22.0820 -999.0000 -999.0000    2.9336  115.1113    1.7651    0.0968    0.4606    1.9646   11.0000   11.0000 
 625.9068   17.5000    7.5587    1.5294   23.3750 -999.0000 -999.0000    2.9321  116.8647    1.8723    0.1121    0.4705    2.1377   11.0000   11.0000 
 626.0592   17.5000    7.2250    0.6581   24.6680 -999.0000 -999.0000    2.8936  118.2466    1.9736    0.1504    0.4574    2.2891   11.0000   11.0000 
 626.2116   17.5000    7.2035    0.1853   24.9727 -999.0000 -999.0000    2.8638  117.8730    2.0012    0.1753    0.4338    2.3428   11.0000   11.0000 
 626.3640   17.5000    7.2619    0.0563   24.5313 -999.0000 -999.0000    2.8521  116.1225    2.0103    0.1864    0.4188    2.1834   11.0000   11.0000 
 626.5164   17.5000    7.2327    0.4037   24.0039 -999.0000 -999.0000    2.9150  115.5006    2.0632    0.2029    0.4091    1.9041   11.0000   11.0000 
 626.6688   17.5000    7.1189    1.3254   23.6289 -999.0000 -999.0000    3.1377  115.6902    2.1396    0.2174    0.3877    1.6934   11.0000   11.0000 
 626.8212   17.5000    7.0743    2.1457   23.1914 -999.0000 -999.0000    3.4194  116.9223    2.1641    0.1936    0.3514    1.6523   11.0000   11.0000 
 626.9736   17.5000    7.1404    2.3877   22.7344 -999.0000 -999.0000    3.6313  113.5488    2.1255    0.1377    0.3156    1.7817   11.0000   11.0000 
 627.1260   17.5000    7.2819    2.1883   22.3359 -999.0000 -999.0000    3.8203  112.3288    2.0657    0.0842    0.3025    1.9978   11.0000   11.0000 
 627.2784   17.5000    7.2773    1.8718   22.0078 -999.0000 -999.0000    4.0093  112.7988    2.0229    0.0554    0.3103    2.2151   11.0000   11.0000 
 627.4308   17.5000    7.0605    1.5708   21.5195 -999.0000 -999.0000    4.1416  111.5068    2.0178    0.0570    0.3217    2.2749   11.0000   11.0000 
 627.5832   17.5000    6.9190    1.2075   20.5664 -999.0000 -999.0000    4.1934  112.4116    2.0444    0.0806    0.3270    2.1489   11.0000   11.0000 
 627.7356   17.5000    6.9251    0.8792   20.1914 -999.0000 -999.0000    4.1387  113.1323    2.1030    0.1254    0.3214    1.9341   11.0000   11.0000 
 627.8880   17.5000    6.9974    0.3985   21.1055 -999.0000 -999.0000    3.9761  112.6150    2.1538    0.1637    0.3054    1.7278   11.0000   11.0000 
 628.0404   17.5000    7.1927   -0.1758   22.4844 -999.0000 -999.0000    3.7456  112.6565    2.1455    0.1826    0.2892    1.6550   11.0000   11.0000 
 628.1928   17.5000    7.4788   -0.2111   23.1875 -999.0000 -999.0000    3.5161  111.2788    2.0532    0.1772    0.2882    1.7009   11.0000   11.0000 
 628.3452   17.5000    7.7294    0.6637   22.6641 -999.0000 -999.0000    3.3618  110.1438    1.9270    0.1517    0.3138    1.7952   11.0000   11.0000 
 628.4976   17.5000    7.9417    2.1284   21.8320 -999.0000 -999.0000    3.3330  109.9566    1.8679    0.1366    0.3672    1.8687   11.0000   11.0000 
 628.6500   17.5000    7.9940    3.4408   21.4336 -999.0000 -999.0000    3.4155  109.7712    1.9133    0.1431    0.4344    1.8889   11.0000   11.0000 
 628.8024   17.5000    7.7387    4.2140   21.0469 -999.0000 -999.0000    3.5195  110.7168    2.0256    0.1653    0.4785    1.9443   11.0000   11.0000 
 628.9548   17.5000    7.3680    4.2491   20.9609 -999.0000 -999.0000    3.5625  111.5652    2.1143    0.1761    0.4742    2.1038   11.0000   11.0000 
 629.1072   17.5000    7.1297    3.8388   21.2656 -999.0000 -999.0000    3.5015  112.9453    2.1450    0.1873    0.4397    2.3384   11.0000   11.0000 
 629.2596   17.5000    7.0543    3.8387   21.4336 -999.0000 -999.0000    3.3784  111.5644    2.1572    0.2295    0.4100    2.5713   11.0000   11.0000 
 629.4120   17.5000    7.1251    4.1627   21.2344 -999.0000 -999.0000    3.3320  111.4230    2.1699    0.2832    0.3973    2.6245   11.0000   11.0000 
 629.5644   17.5000    7.2081    4.1000   20.7109 -999.0000 -999.0000    3.4473  110.8625    2.1792    0.3224    0.3937    2.3860   11.0000   11.0000 
 629.7168   17.5000    7.1435    3.8851   20.0469 -999.0000 -999.0000    3.6792  111.7080    2.1948    0.3494    0.3944    1.9937   11.0000   11.0000 
 629.8692   17.5000    7.0359    3.9006   19.5938 -999.0000 -999.0000    3.9482  112.1849    2.2148    0.3524    0.3916    1.6516   11.0000   11.0000 
