~VERSION INFORMATION
 VERS.                 2.0:   CWLS LOG ASCII STANDARD - VERSION 2.0
 WRAP.                  NO:   SINGLE LINE PER DEPTH STEP
 CREA.                 12/01/2018 09:22:08
#CREATED USING DSPetro VERSION 5000.10.1.3 BY H191660 ON 12/01/2018 09:22:08
~WELL INFORMATION
#MNEM.UNIT       DATA                          DESCRIPTION MNEMONIC
#---------      ---------------------------   --------------------------
 STRT    .M         0.0000                    : START DEPTH
 STOP    .M         1999.9452                 : STOP DEPTH
 STEP    .M         0.1524                    : STEP VALUE
 NULL    .      -999.0000                     : NULL VALUE
 DATE    .      12/01/2018                    : LAS file Creation Date
 WELL .      2575-Perindi-1              : Well Name
 COMP .      Neftex Exploration Insights : Company
 FLD  .                                  : Field
 UWI  .      ZAUWL_005981                : Unique Well Identifier (UWI)
 LOC  .                                  : Location
 RWS  .      -999                        : Def_Rw
 WST  .      -999                        : Def_Rwt
 SRVC .                                  : Contractor
~CURVE INFORMATION
#MNEM              UNIT       API CODE   Curve Type Comments
#----------  --------------- ----------  ---------- -----------
 DEPTH      .M                         : Depth       
 BitSize    .in                        : bitSize     
 CAL_CM     .inch                      : caliper     Caliper Log - A representation of the measured diameter of a borehole along its depth
 SP_MV      .mv                        : SP          Spontaneous Potential - Records the electrical potential produced by the interaction of formation water, conductive drilling mud, and certain ion-sele
 GR_API     .API                       : gammaRay    Gamma Ray (API) - Measures the intensity of natural gamma-ray radiation emitted from formations containing radioactive elements, such as K, Th and U
 LLS_OHMM   .ohmm                      : shalRes     Laterlog Shallow Resistivity - one to two feet into the formation; generally considered to measure the formation
 LLD_OHMM   .ohmm                      : deepRes     Laterlog Deep Resistivity - Measurement made several feet into the formation; generally considered a measurement of the undisturbed formation
 ILD_OHMM   .ohmm                      : deepRes     Deep Induction Resistivity - Measurement made an induction log, made several feet into the formation
 DT_US_FT   .us/ft                     : sonic       Interval Transit Time: Compressional Wave - Evaluates the time it takes for a compressional wave to traverse a fixed distance
 RHOB_G_CC  .g/cc                      : density     Bulk Density - Measures the density of bulk material, including any void space or other materials contained in the subject volume
 DRHO_G_CC  .g/cc                      : drho        Density Correction - Investigates the correction to the Bulk Density log; used as an indication of hole condition to validate the Bulk Density measure
 NPHI_V/V   .dec                       : Neutron     
 PEF_B_E    .b/e-                      : PEF         Photoelectric Factor - A log of photoelectric absorption properties. Often expressed in an approximation unit barns/electron (b/e-)
 LITH       .                          : LITH        Lithology Curve
 LITH_v2    .                          : LITH        Lithology Curve
~A  DEPTH  BitSize    CAL_CM    SP_MV     GR_API   LLS_OHMM  LLD_OHMM  ILD_OHMM  DT_US_FT RHOB_G_C  DRHO_G_C   NPHI_V/V  PEF_B_E     LITH    LITH_v2  
# ...
1235.8116   12.2500    7.4067    7.4442   66.6250    7.2350   10.7355 -999.0000   89.7656    2.4023    0.0136    0.2446    1.8494   37.0000   37.0000 
1235.9640   12.2500    7.2916    7.6602   62.2500    7.5546   11.2318 -999.0000   88.7695    2.4086    0.0048    0.2507    1.8798   37.0000   37.0000 
1236.1164   12.2500    7.1509    7.7676   60.6250    7.5845   11.3089 -999.0000   89.0181    2.3930    0.0013    0.2601    1.9269   37.0000   37.0000 
1236.2688   12.2500    7.1395    7.7577   57.4375    7.3373   10.9454 -999.0000   91.5566    2.3667    0.0099    0.2699    1.9204   37.0000   37.0000 
1236.4212   12.2500    7.1452    7.8258   56.8125    6.9809   10.3988 -999.0000   93.5156    2.3476    0.0323    0.2730    1.8527   37.0000   37.0000 
1236.5736   12.2500    7.1233    7.9630   55.2500    6.6019    9.7374 -999.0000   92.2481    2.3409    0.0503    0.2652    1.7800   37.0000   37.0000 
1236.7260   12.2500    7.1123    8.0364   50.0938    6.1932    8.9933 -999.0000   90.1816    2.3398    0.0482    0.2525    1.7456   37.0000   37.0000 
1236.8784   12.2500    7.1122    7.9149   45.6250    5.7691    8.2613 -999.0000   87.3633    2.3354    0.0302    0.2457    1.7400   37.0000   37.0000 
1237.0308   12.2500    7.1158    7.6780   40.1563    5.4047    7.6418 -999.0000   85.7554    2.3292    0.0159    0.2467    1.7287   27.0000   27.0000 
1237.1832   12.2500    7.1214    7.4742   39.0000    5.2380    7.3405 -999.0000   85.0425    2.3246    0.0128    0.2452    1.7039   27.0000   27.0000 
1237.3356   12.2500    7.1245    7.3262   39.2813    5.2865    7.4308 -999.0000   87.3398    2.3229    0.0120    0.2315    1.6859   27.0000   27.0000 
1237.4880   12.2500    7.1261    7.2177   40.5938    5.4908    7.8460 -999.0000   88.4355    2.3304    0.0106    0.2100    1.6800   27.0000   27.0000 
1237.6404   12.2500    7.1367    7.2436   43.3750    5.7211    8.3499 -999.0000   86.3633    2.3422    0.0095    0.1957    1.6805   27.0000   27.0000 
1237.7928   12.2500    7.1591    7.4428   42.1563    5.8283    8.6479 -999.0000   86.6191    2.3452    0.0072    0.1969    1.6818   27.0000   27.0000 
1237.9452   12.2500    7.1863    7.5724   39.3438    5.8729    8.7546 -999.0000   87.7007    2.3361    0.0023    0.2067    1.6869   27.0000   27.0000 
1238.0976   12.2500    7.2099    7.5946   35.6250    5.9626    8.9137 -999.0000   87.5093    2.3239   -0.0034    0.2142    1.7071   27.0000   27.0000 
1238.2500   12.2500    7.2234    7.6514   39.7188    6.1078    9.2187 -999.0000   88.2510    2.3102   -0.0071    0.2177    1.7168   27.0000   27.0000 
1238.4024   12.2500    7.2367    7.7030   44.8125    6.2160    9.4604 -999.0000   88.4893    2.2693   -0.0048    0.2223    1.6698   27.0000   27.0000 
1238.5548   12.2500    7.2541    7.6697   51.2813    6.1913    9.4827 -999.0000   92.1406    2.1896    0.0078    0.2374    1.5862   27.0000   27.0000 
1238.7072   12.2500    7.2574    7.6920   50.0625    6.0724    9.3454 -999.0000   99.8828    2.1132    0.0238    0.2695    1.5522   27.0000   27.0000 
1238.8596   12.2500    7.2497    7.9430   54.8125    5.9593    9.1647 -999.0000  104.2656    2.0914    0.0275    0.3076    1.6201   27.0000   27.0000 
1239.0120   12.2500    7.2445    8.2801   52.7813    5.9019    9.0153 -999.0000  107.6875    2.1368    0.0175    0.3301    1.7063   27.0000   27.0000 
1239.1644   12.2500    7.2859    8.5762   51.1250    5.8314    8.7679 -999.0000   99.2949    2.2146    0.0097    0.3257    1.6816   27.0000   27.0000 
1239.3168   12.2500    7.3444    8.7620   44.4688    5.6848    8.3296 -999.0000   96.0332    2.2758    0.0097    0.3016    1.5792   27.0000   27.0000 
1239.4692   12.2500    7.3009    8.7282   39.3750    5.5114    7.8538 -999.0000   92.3242    2.3064    0.0089    0.2716    1.5194   27.0000   27.0000 
1239.6216   12.2500    7.2126    8.5044   38.5625    5.3651    7.4925 -999.0000   89.0146    2.3221    0.0041    0.2468    1.5397   27.0000   27.0000 
1239.7740   12.2500    7.1794    8.1995   38.8750    5.2711    7.3101 -999.0000   87.3008    2.3308    0.0002    0.2368    1.6210   27.0000   27.0000 
1239.9264   12.2500    7.1723    7.8443   42.4063    5.2169    7.2491 -999.0000   85.9336    2.3263    0.0004    0.2432    1.7323   27.0000   27.0000 
1240.0788   12.2500    7.1787    7.4096   45.3438    5.2012    7.2167 -999.0000   91.1894    2.3090    0.0066    0.2565    1.8389   27.0000   27.0000 
1240.2312   12.2500    7.2844    6.8895   41.2813    5.2736    7.2417 -999.0000   83.2812    2.2893    0.0162    0.2664    1.9167   27.0000   27.0000 
1240.3836   12.2500    7.4079    6.2515   37.7188    5.4312    7.3975 -999.0000   85.9316    2.2757    0.0190    0.2674    1.9084   27.0000   27.0000 
1240.5360   12.2500    7.3278    5.6666   35.0000    5.5758    7.6338 -999.0000   77.5078    2.2576    0.0115    0.2577    1.7462   27.0000   27.0000 
1240.6884   12.2500    7.1666    5.1826   42.5313    5.5654    7.6401 -999.0000   90.8203    2.1668   -0.0004    0.2426    1.4960   11.0000   11.0000 
1240.8408   12.2500    7.1133    4.5972   48.2188    5.3854    7.2692 -999.0000  111.1563    1.9590   -0.0070    0.2462    1.2929   11.0000   11.0000 
1240.9932   12.2500    7.2339    4.0424   56.8125    5.2011    6.8689 -999.0000  117.7305    1.7227   -0.0018    0.2900    1.1829   11.0000   11.0000 
1241.1456   12.2500    7.5950    3.7366   60.3125    5.2041    6.8478 -999.0000  121.4004    1.5880    0.0142    0.3608    1.1786   11.0000   11.0000 
1241.2980   12.2500    7.8206    3.6271   66.0625    5.5732    7.4538 -999.0000  117.1836    1.6048    0.0300    0.4168    1.2904   11.0000   11.0000 
1241.4504   12.2500    7.6582    3.4888   66.4375    6.3159    8.5611 -999.0000  106.2500    1.7571    0.0449    0.4226    1.4723   11.0000   11.0000 
1241.6028   12.2500    7.4451    3.1971   65.0000    7.0712    9.5513 -999.0000   94.9531    1.9852    0.0728    0.3834    1.6314   37.0000   37.0000 
1241.7552   12.2500    7.2730    2.9704   66.0000    7.5069    9.9526 -999.0000   91.2295    2.1905    0.1034    0.3336    1.7229   37.0000   37.0000 
1241.9076   12.2500    7.1269    3.0425   65.7500    7.6216    9.8460 -999.0000   91.2419    2.3158    0.1075    0.3023    1.8013   37.0000   37.0000 
1242.0600   12.2500    7.2324    3.2006   65.7500    7.5718    9.6136 -999.0000   89.6211    2.3687    0.0753    0.2932    1.8957   37.0000   37.0000 
1242.2124   12.2500    7.6482    3.1927   64.0625    7.5394    9.5290 -999.0000   89.6240    2.3800    0.0335    0.2923    1.9697   37.0000   37.0000 
1242.3648   12.2500    8.1326    3.0568   68.6250    7.5805    9.6133 -999.0000   91.5703    2.3820    0.0122    0.2857    2.0068   37.0000   37.0000 
1242.5172   12.2500    8.4301    2.8916   70.0625    7.6950    9.8567 -999.0000   92.7517    2.3870    0.0095    0.2678    2.0258   37.0000   37.0000 
1242.6696   12.2500    8.2633    2.8065   78.0625    7.9174   10.2310 -999.0000   92.8191    2.3917    0.0107    0.2509    2.0559   37.0000   37.0000 
1242.8220   12.2500    7.6118    2.7654   75.0000    8.2089   10.5884 -999.0000   92.4863    2.3927    0.0103    0.2492    2.0855   37.0000   37.0000 
1242.9744   12.2500    7.0603    2.5973   77.5000    8.5175   10.8526 -999.0000   92.0142    2.3919    0.0090    0.2586    2.0718   37.0000   37.0000 
1243.1268   12.2500    6.8987    2.2856   72.6875    8.7977   11.0306 -999.0000   90.9102    2.3833    0.0076    0.2641    1.9780   37.0000   37.0000 
1243.2792   12.2500    6.8837    1.9476   71.7500    8.9197   10.9951 -999.0000   89.0742    2.3196    0.0068    0.2542    1.7799   37.0000   37.0000 
1243.4316   12.2500    6.8917    1.6329   68.1250    8.8099   10.6977 -999.0000   89.2070    2.1509    0.0073    0.2360    1.5258   11.0000   11.0000 
1243.5840   12.2500    7.0347    1.3896   61.5313    8.6394   10.3881 -999.0000   92.9473    1.9436    0.0171    0.2318    1.2971   11.0000   11.0000 
1243.7364   12.2500    7.3559    1.1922   60.9063    8.5645   10.2358 -999.0000   95.8081    1.8348    0.0389    0.2547    1.1787   11.0000   11.0000 
