~VERSION INFORMATION
 VERS.                 2.0:   CWLS LOG ASCII STANDARD - VERSION 2.0
 WRAP.                  NO:   SINGLE LINE PER DEPTH STEP
 CREA.                 12/01/2018 09:22:08
#CREATED USING DSPetro VERSION 5000.10.1.3 BY H191660 ON 12/01/2018 09:22:08
~WELL INFORMATION
#MNEM.UNIT       DATA                          DESCRIPTION MNEMONIC
#---------      ---------------------------   --------------------------
 STRT    .M         0.0000                    : START DEPTH
 STOP    .M         1999.9452                 : STOP DEPTH
 STEP    .M         0.1524                    : STEP VALUE
 NULL    .      -999.0000                     : NULL VALUE
 DATE    .      12/01/2018                    : LAS file Creation Date
 WELL .      2575-Perindi-1              : Well Name
 COMP .      Neftex Exploration Insights : Company
 FLD  .                                  : Field
 UWI  .      ZAUWL_005981                : Unique Well Identifier (UWI)
 LOC  .                                  : Location
 RWS  .      -999                        : Def_Rw
 WST  .      -999                        : Def_Rwt
 SRVC .                                  : Contractor
~CURVE INFORMATION
#MNEM              UNIT       API CODE   Curve Type Comments
#----------  --------------- ----------  ---------- -----------
 DEPTH      .M                         : Depth       
 BitSize    .in                        : bitSize     
 CAL_CM     .inch                      : caliper     Caliper Log - A representation of the measured diameter of a borehole along its depth
 SP_MV      .mv                        : SP          Spontaneous Potential - Records the electrical potential produced by the interaction of formation water, conductive drilling mud, and certain ion-sele
 GR_API     .API                       : gammaRay    Gamma Ray (API) - Measures the intensity of natural gamma-ray radiation emitted from formations containing radioactive elements, such as K, Th and U
 LLS_OHMM   .ohmm                      : shalRes     Laterlog Shallow Resistivity - one to two feet into the formation; generally considered to measure the formation
 LLD_OHMM   .ohmm                      : deepRes     Laterlog Deep Resistivity - Measurement made several feet into the formation; generally considered a measurement of the undisturbed formation
 ILD_OHMM   .ohmm                      : deepRes     Deep Induction Resistivity - Measurement made an induction log, made several feet into the formation
 DT_US_FT   .us/ft                     : sonic       Interval Transit Time: Compressional Wave - Evaluates the time it takes for a compressional wave to traverse a fixed distance
 RHOB_G_CC  .g/cc                      : density     Bulk Density - Measures the density of bulk material, including any void space or other materials contained in the subject volume
 DRHO_G_CC  .g/cc                      : drho        Density Correction - Investigates the correction to the Bulk Density log; used as an indication of hole condition to validate the Bulk Density measure
 NPHI_V/V   .dec                       : Neutron     
 PEF_B_E    .b/e-                      : PEF         Photoelectric Factor - A log of photoelectric absorption properties. Often expressed in an approximation unit barns/electron (b/e-)
 LITH       .                          : LITH        Lithology Curve
 LITH_v2    .                          : LITH        Lithology Curve
~A  DEPTH  BitSize    CAL_CM    SP_MV     GR_API   LLS_OHMM  LLD_OHMM  ILD_OHMM  DT_US_FT RHOB_G_C  DRHO_G_C   NPHI_V/V  PEF_B_E     LITH    LITH_v2  
# ...
 533.0952   17.5000 -999.0000   -7.5971   90.8750 -999.0000 -999.0000    6.9873  121.6089 -999.0000 -999.0000 -999.0000 -999.0000   11.0000   11.0000 
 533.2476   17.5000 -999.0000   -6.7027   85.0781 -999.0000 -999.0000    6.4102  119.5654 -999.0000 -999.0000 -999.0000 -999.0000   11.0000   11.0000 
 533.4000   17.5000 -999.0000   -5.3708   78.6719 -999.0000 -999.0000    6.2168  117.1992 -999.0000 -999.0000 -999.0000 -999.0000   11.0000   11.0000 
 533.5524   17.5000 -999.0000   -3.8593   76.0000 -999.0000 -999.0000    6.0762  117.5417 -999.0000 -999.0000 -999.0000 -999.0000   11.0000   11.0000 
 533.7048   17.5000 -999.0000   -2.6054   75.9375 -999.0000 -999.0000    5.8779  119.1504 -999.0000 -999.0000 -999.0000 -999.0000   11.0000   11.0000 
 533.8572   17.5000    7.1297   -1.7501   75.8750 -999.0000 -999.0000    5.6035  118.2451    2.1987    0.0233    0.4254    2.4316   11.0000   11.0000 
 534.0096   17.5000    7.1389   -1.5433   76.8438 -999.0000 -999.0000    5.2520  118.7610    2.2412    0.0444    0.4016    2.5176   11.0000   11.0000 
 534.1620   17.5000    7.1481   -1.8910   81.1719 -999.0000 -999.0000    5.0566  117.3413    2.2412    0.0505    0.3876    2.7148   11.0000   11.0000 
 534.3144   17.5000    7.1466   -2.4811   89.6875 -999.0000 -999.0000    5.1396  115.7309    2.2065    0.0527    0.3855    2.8828   11.0000   11.0000 
 534.4668   17.5000    7.1497   -3.1726  101.5938 -999.0000 -999.0000    5.3545  115.6902    2.1914    0.0822    0.3799    2.7109   11.0000   11.0000 
 534.6192   17.5000    7.1589   -3.8719  113.9375 -999.0000 -999.0000    5.6563  116.1185    2.2271    0.1409    0.3832    2.3025   11.0000   11.0000 
 534.7716   17.5000    7.1574   -4.5167  123.2031 -999.0000 -999.0000    6.0186  116.8230    2.2700    0.1769    0.4172    1.9741   11.0000   11.0000 
 534.9240   17.5000    7.1389   -4.6692  126.4375 -999.0000 -999.0000    6.2217  117.7703    2.2476    0.1366    0.4561    1.8633   11.0000   11.0000 
 535.0764   17.5000    7.1312   -4.1341  122.4063 -999.0000 -999.0000    6.1650  118.9463    2.1831    0.0618    0.4545    1.9512   11.0000   11.0000 
 535.2288   17.5000    7.1343   -3.5991  115.6406 -999.0000 -999.0000    6.0098  118.8060    2.1382    0.0160    0.4178    2.0950   11.0000   11.0000 
 535.3812   17.5000    7.1358   -3.6734  112.3906 -999.0000 -999.0000    5.8496  119.5229    2.1318    0.0156    0.3877    2.1733   11.0000   11.0000 
 535.5336   17.5000    7.1512   -4.1697  112.4688 -999.0000 -999.0000    5.6963  120.3281    2.1592    0.0570    0.3835    2.1572   11.0000   11.0000 
 535.6860   17.5000    7.1374   -4.4863  111.7500 -999.0000 -999.0000    5.5840  120.6576    2.1758    0.1046    0.3881    2.1597   11.0000   11.0000 
 535.8384   17.5000    7.0743   -4.3418  109.0781 -999.0000 -999.0000    5.5029  117.0547    2.1479    0.1216    0.3879    2.3262   11.0000   11.0000 
 535.9908   17.5000    7.0143   -3.7912  104.6563 -999.0000 -999.0000    5.5146  118.8623    2.0884    0.1003    0.3936    2.6021   11.0000   11.0000 
 536.1432   17.5000    6.9713   -2.8031   99.2656 -999.0000 -999.0000    5.6660  118.8638    2.0601    0.0792    0.4017    2.9385   11.0000   11.0000 
 536.2956   17.5000    6.9328   -1.8853   97.8594 -999.0000 -999.0000    5.8193  119.0904    2.1191    0.1002    0.4041    3.1030   11.0000   11.0000 
 536.4480   17.5000    6.9128   -1.6550  108.2344 -999.0000 -999.0000    5.7695  117.1992    2.1885    0.1210    0.3992    2.9150   11.0000   11.0000 
 536.6004   17.5000    6.9620   -1.6981  127.4063 -999.0000 -999.0000    5.4521  116.4912    2.1792    0.1128    0.3954    2.5913   11.0000   11.0000 
 536.7528   17.5000    7.0513   -1.6787  138.0000 -999.0000 -999.0000    5.0547  117.6694    2.1064    0.0970    0.3944    2.3311   11.0000   11.0000 
 536.9052   17.5000    7.2143   -1.6203  130.3594 -999.0000 -999.0000    4.8711  118.9463    2.0532    0.0890    0.3938    2.1719   11.0000   11.0000 
 537.0576   17.5000    7.3804   -1.3664  112.8281 -999.0000 -999.0000    5.0684  122.2666    2.0737    0.0856    0.4026    2.0723   11.0000   11.0000 
 537.2100   17.5000    7.3296   -0.9330   98.4844 -999.0000 -999.0000    5.5381  126.3857    2.1411    0.0697    0.4182    2.0337   11.0000   11.0000 
 537.3624   17.5000    7.2343   -0.5074   92.6250 -999.0000 -999.0000    6.0840  128.2285    2.1992    0.0431    0.4261    2.1113   11.0000   11.0000 
 537.5148   17.5000    7.2389   -0.3630   92.5313 -999.0000 -999.0000    6.6934  128.4732    2.2148    0.0183    0.4189    2.3560   11.0000   11.0000 
 537.6672   17.5000    7.2543   -0.5936   93.8750 -999.0000 -999.0000    7.4297  129.8945    2.2080    0.0095    0.4158    2.5781   11.0000   11.0000 
 537.8196   17.5000    7.2619   -1.2227   94.2500 -999.0000 -999.0000    8.4385  132.6357    2.1987    0.0243    0.4298    2.5469   11.0000   11.0000 
 537.9720   17.5000    7.2604   -2.1329   93.1094 -999.0000 -999.0000    9.2813  135.2363    2.1597    0.0621    0.4486    2.3999   11.0000   11.0000 
 538.1244   17.5000    7.2850   -2.9495   90.0938 -999.0000 -999.0000    8.8643  136.5156    2.0796    0.1138    0.4624    2.3984   11.0000   11.0000 
 538.2768   17.5000    7.4157   -3.5786   83.6719 -999.0000 -999.0000    7.3613  140.1631    2.0054    0.1620    0.4640    2.6187   11.0000   11.0000 
 538.4292   17.5000    7.5280   -3.9264   71.9844 -999.0000 -999.0000    5.9385  143.6279    1.9602    0.1973    0.4518    2.7139   11.0000   11.0000 
 538.5816   17.5000    7.6295   -3.8836   57.1328 -999.0000 -999.0000    4.9092  146.8427    1.9207    0.2251    0.4408    2.3547   11.0000   11.0000 
 538.7340   17.5000    8.1093   -3.5986   44.6563 -999.0000 -999.0000    4.1763  151.8984    1.8894    0.2693    0.4408    1.8169   11.0000   11.0000 
 538.8864   17.5000    8.5599   -3.1104   37.7891 -999.0000 -999.0000    3.7949  157.9375    1.8660    0.3030    0.4655    1.5063   11.0000   11.0000 
 539.0388   17.5000    8.4615   -2.4114   35.1133 -999.0000 -999.0000    3.6104  157.3755    1.8098    0.2495    0.5104    1.5747   11.0000   11.0000 
 539.1912   17.5000    8.2800   -1.5325   33.1055 -999.0000 -999.0000    3.4980  152.2773    1.7454    0.1305    0.5421    1.8933   11.0000   11.0000 
 539.3436   17.5000    8.2477   -0.6772   31.1328 -999.0000 -999.0000    3.4785  153.2695    1.7356    0.0499    0.5470    2.1060   11.0000   11.0000 
 539.4960   17.5000    8.2416   -0.2204   30.0391 -999.0000 -999.0000    3.4600  154.2617    1.8044    0.0774    0.5369    2.0388   11.0000   11.0000 
 539.6484   17.5000    8.0663    0.1428   30.8320 -999.0000 -999.0000    3.4082  153.1357    1.9094    0.1691    0.5339    1.8555   11.0000   11.0000 
 539.8008   17.5000    7.6987    1.0528   33.1055 -999.0000 -999.0000    3.3525  141.4766    1.9597    0.2089    0.5276    1.7527   11.0000   11.0000 
 539.9532   17.5000    7.8263    2.2831   34.0156 -999.0000 -999.0000    3.2544  140.2285    1.8884    0.1533    0.5045    1.7715   11.0000   11.0000 
 540.1056   17.5000    8.6614    3.0760   32.0000 -999.0000 -999.0000    3.1816  142.9375    1.7307    0.0707    0.4773    1.8765   11.0000   11.0000 
 540.2580   17.5000    9.0936    3.3219   29.4219 -999.0000 -999.0000    3.2515  148.2422    1.6514    0.0603    0.4629    2.0498   11.0000   11.0000 
 540.4104   17.5000    8.6630    3.5053   30.7969 -999.0000 -999.0000    3.4600  155.0371    1.7485    0.1228    0.4711    2.1567   11.0000   11.0000 
 540.5628   17.5000    8.1324    3.7982   37.7578 -999.0000 -999.0000    3.7080  156.9804    1.9399    0.1676    0.4917    2.0264   11.0000   11.0000 
 540.7152   17.5000    7.7125    4.3410   49.9844 -999.0000 -999.0000    3.8115  147.8554    2.0791    0.1421    0.5020    1.8159   11.0000   11.0000 
 540.8676   17.5000    7.4634    5.0401   64.4609 -999.0000 -999.0000    3.7476  136.9765    2.1050    0.0770    0.4729    1.7922   11.0000   11.0000 
 541.0200   17.5000    7.4450    5.2391   74.8281 -999.0000 -999.0000    3.8408  129.2637    2.0801    0.0233    0.4121    2.0747   11.0000   11.0000 
