~VERSION INFORMATION
 VERS.                 2.0:   CWLS LOG ASCII STANDARD - VERSION 2.0
 WRAP.                  NO:   SINGLE LINE PER DEPTH STEP
 CREA.                 12/01/2018 09:22:08
#CREATED USING DSPetro VERSION 5000.10.1.3 BY H191660 ON 12/01/2018 09:22:08
~WELL INFORMATION
#MNEM.UNIT       DATA                          DESCRIPTION MNEMONIC
#---------      ---------------------------   --------------------------
 STRT    .M         0.0000                    : START DEPTH
 STOP    .M         1999.9452                 : STOP DEPTH
 STEP    .M         0.1524                    : STEP VALUE
 NULL    .      -999.0000                     : NULL VALUE
 DATE    .      12/01/2018                    : LAS file Creation Date
 WELL .      2575-Perindi-1              : Well Name
 COMP .      Neftex Exploration Insights : Company
 FLD  .                                  : Field
 UWI  .      ZAUWL_005981                : Unique Well Identifier (UWI)
 LOC  .                                  : Location
 RWS  .      -999                        : Def_Rw
 WST  .      -999                        : Def_Rwt
 SRVC .                                  : Contractor
~CURVE INFORMATION
#MNEM              UNIT       API CODE   Curve Type Comments
#----------  --------------- ----------  ---------- -----------
 DEPTH      .M                         : Depth       
 BitSize    .in                        : bitSize     
 CAL_CM     .inch                      : caliper     Caliper Log - A representation of the measured diameter of a borehole along its depth
 SP_MV      .mv                        : SP          Spontaneous Potential - Records the electrical potential produced by the interaction of formation water, conductive drilling mud, and certain ion-sele
 GR_API     .API                       : gammaRay    Gamma Ray (API) - Measures the intensity of natural gamma-ray radiation emitted from formations containing radioactive elements, such as K, Th and U
 LLS_OHMM   .ohmm                      : shalRes     Laterlog Shallow Resistivity - one to two feet into the formation; generally considered to measure the formation
 LLD_OHMM   .ohmm                      : deepRes     Laterlog Deep Resistivity - Measurement made several feet into the formation; generally considered a measurement of the undisturbed formation
 ILD_OHMM   .ohmm                      : deepRes     Deep Induction Resistivity - Measurement made an induction log, made several feet into the formation
 DT_US_FT   .us/ft                     : sonic       Interval Transit Time: Compressional Wave - Evaluates the time it takes for a compressional wave to traverse a fixed distance
 RHOB_G_CC  .g/cc                      : density     Bulk Density - Measures the density of bulk material, including any void space or other materials contained in the subject volume
 DRHO_G_CC  .g/cc                      : drho        Density Correction - Investigates the correction to the Bulk Density log; used as an indication of hole condition to validate the Bulk Density measure
 NPHI_V/V   .dec                       : Neutron     
 PEF_B_E    .b/e-                      : PEF         Photoelectric Factor - A log of photoelectric absorption properties. Often expressed in an approximation unit barns/electron (b/e-)
 LITH       .                          : LITH        Lithology Curve
 LITH_v2    .                          : LITH        Lithology Curve
~A  DEPTH  BitSize    CAL_CM    SP_MV     GR_API   LLS_OHMM  LLD_OHMM  ILD_OHMM  DT_US_FT RHOB_G_C  DRHO_G_C   NPHI_V/V  PEF_B_E     LITH    LITH_v2  
# ...
 710.7936   17.5000    8.0863   -1.0591   35.5391 -999.0000 -999.0000    2.0923  101.5602    2.1240    0.1342    0.3264    1.8982   11.0000   11.0000 
 710.9460   17.5000    8.2600   -1.0161   39.5781 -999.0000 -999.0000    2.0471  100.7710    2.0942    0.1282    0.3186    1.9348   11.0000   11.0000 
 711.0984   17.5000    8.3354   -0.8091   41.7266 -999.0000 -999.0000    2.0122  101.5112    2.0864    0.1267    0.3390    1.8091   11.0000   11.0000 
 711.2508   17.5000    8.2108   -0.3404   40.1797 -999.0000 -999.0000    1.9868  104.6309    2.1353    0.1526    0.3688    1.5693   11.0000   11.0000 
 711.4032   17.5000    7.9663    0.1674   37.8672 -999.0000 -999.0000    1.9092  106.8535    2.1870    0.1780    0.3840    1.4211   11.0000   11.0000 
 711.5556   17.5000    7.9448    0.4878   36.1484 -999.0000 -999.0000    1.7983  109.5615    2.1875    0.1831    0.3796    1.5115   11.0000   11.0000 
 711.7080   17.5000    8.3108    0.6479   33.3047 -999.0000 -999.0000    1.7249  111.9014    2.1221    0.1602    0.3669    1.7813   11.0000   11.0000 
 711.8604   17.5000    8.9552    0.6128   29.3750 -999.0000 -999.0000    1.7178  107.5605    2.0347    0.1342    0.3718    2.0769   11.0000   11.0000 
 712.0128   17.5000    9.6780    0.3628   26.6406 -999.0000 -999.0000    1.7808  106.4514    1.9956    0.1412    0.4022    2.2290   11.0000   11.0000 
 712.1652   17.5000   10.0624    0.5620   26.0625 -999.0000 -999.0000    1.8767  104.2256    2.0308    0.1840    0.4406    2.2090   11.0000   11.0000 
 712.3176   17.5000    9.8564    1.4839   26.4219 -999.0000 -999.0000    1.9023  100.1875    2.1143    0.2415    0.4696    2.1040   11.0000   11.0000 
 712.4700   17.5000    9.5119    2.2690   26.8477 -999.0000 -999.0000    1.7971  100.0447    2.1777    0.2753    0.4711    2.0073   11.0000   11.0000 
 712.6224   17.5000    9.4965    2.3549   27.1797 -999.0000 -999.0000    1.6274  100.2030    2.1885    0.2836    0.4514    1.9578   11.0000   11.0000 
 712.7748   17.5000    9.6795    1.9839   27.0664 -999.0000 -999.0000    1.4836  101.1299    2.1675    0.2906    0.4417    1.9038   11.0000   11.0000 
 712.9272   17.5000    9.8179    1.7729   26.1953 -999.0000 -999.0000    1.3955  103.4473    2.1284    0.2990    0.4542    1.7864   11.0000   11.0000 
 713.0796   17.5000    9.8179    1.9839   24.8359 -999.0000 -999.0000    1.3591  102.9482    2.0913    0.3102    0.4850    1.6755   11.0000   11.0000 
 713.2320   17.5000    9.6887    2.0698   23.3984 -999.0000 -999.0000    1.3547  102.7176    2.0771    0.3179    0.5016    1.6797   11.0000   11.0000 
 713.3844   17.5000    9.3765    1.7339   21.8672 -999.0000 -999.0000    1.3564  103.6450    2.0635    0.2878    0.4813    1.7747   11.0000   11.0000 
 713.5368   17.5000    8.9106    1.1870   20.8828 -999.0000 -999.0000    1.3481  104.1695    2.0425    0.2229    0.4462    1.8411   11.0000   11.0000 
 713.6892   17.5000    8.5292    0.6635   20.8828 -999.0000 -999.0000    1.3291  104.7978    2.0425    0.1694    0.4137    1.8459   11.0000   11.0000 
 713.8416   17.5000    8.2093    0.2885   21.6602 -999.0000 -999.0000    1.3098  105.1747    2.0654    0.1400    0.3975    1.8657   11.0000   11.0000 
 713.9940   17.5000    7.9402    0.0385   22.0117 -999.0000 -999.0000    1.3025  104.7996    2.0928    0.1221    0.3953    1.8420   11.0000   11.0000 
 714.1464   17.5000    7.8402    0.2495   21.3672 -999.0000 -999.0000    1.3140  104.8224    2.1108    0.1099    0.3899    1.6978   11.0000   11.0000 
 714.2988   17.5000    7.8263    0.9526   21.2031 -999.0000 -999.0000    1.3418  104.7276    2.1245    0.1064    0.3754    1.5337   11.0000   11.0000 
 714.4512   17.5000    7.8094    1.4096   22.5859 -999.0000 -999.0000    1.3784  103.7099    2.1309    0.0981    0.3461    1.4973   11.0000   11.0000 
 714.6036   17.5000    7.7802    1.2221   24.8242 -999.0000 -999.0000    1.4185  102.7383    2.1191    0.0686    0.3206    1.5842   11.0000   11.0000 
 714.7560   17.5000    7.7402    0.7026   26.0273 -999.0000 -999.0000    1.4600  101.7002    2.1079    0.0414    0.3134    1.6877   11.0000   11.0000 
 714.9084   17.5000    7.6833    0.4917   25.0742 -999.0000 -999.0000    1.4995  101.0659    2.1245    0.0470    0.3090    1.7678   11.0000   11.0000 
 715.0608   17.5000    7.6310    0.7729   22.7734 -999.0000 -999.0000    1.5334  100.3472    2.1646    0.0786    0.2932    1.8130   11.0000   11.0000 
 715.2132   17.5000    7.5987    1.1284   21.0859 -999.0000 -999.0000    1.5635   99.7087    2.2041    0.1123    0.2689    1.8740   11.0000   11.0000 
 715.3656   17.5000    7.5757    1.2065   21.5195 -999.0000 -999.0000    1.5918   98.6660    2.2383    0.1405    0.2473    2.0242   11.0000   11.0000 
 715.5180   17.5000    7.5757    0.8979   23.3594 -999.0000 -999.0000    1.6228   97.4614    2.2627    0.1593    0.2329    2.1841   11.0000   11.0000 
 715.6704   17.5000    7.5895    0.4057   24.3828 -999.0000 -999.0000    1.6646   96.7368    2.2764    0.1771    0.2251    2.1287   11.0000   11.0000 
 715.8228   17.5000    7.5941    0.1948   24.5195 -999.0000 -999.0000    1.7144   96.4980    2.2935    0.2095    0.2214    1.8245   11.0000   11.0000 
 715.9752   17.5000    7.5926    0.5659   25.4375 -999.0000 -999.0000    1.7622   96.5928    2.3105    0.2354    0.2230    1.5720   11.0000   11.0000 
 716.1276   17.5000    7.5941    1.1831   26.8320 -999.0000 -999.0000    1.7974   98.5371    2.2925    0.2064    0.2269    1.6482   11.0000   11.0000 
 716.2800   17.5000    7.6080    1.5776   27.0117 -999.0000 -999.0000    1.8079   99.9727    2.2241    0.1235    0.2278    1.9404   11.0000   11.0000 
 716.4324   17.5000    7.6310    1.6948   26.5703 -999.0000 -999.0000    1.7908  100.0794    2.1543    0.0642    0.2275    2.0986   11.0000   11.0000 
 716.5848   17.5000    7.6387    2.0151   28.0781 -999.0000 -999.0000    1.7607  100.2977    2.1543    0.0940    0.2318    2.0242   11.0000   11.0000 
 716.7372   17.5000    7.6080    2.9292   31.9570 -999.0000 -999.0000    1.7354   98.4394    2.2119    0.1672    0.2496    1.8774   11.0000   11.0000 
 716.8896   17.5000    7.5649    3.8081   36.1094 -999.0000 -999.0000    1.7136   97.5603    2.2490    0.1942    0.2767    1.8311   11.0000   11.0000 
 717.0420   17.5000    7.5357    4.0971   38.7813 -999.0000 -999.0000    1.6904   97.5834    2.2393    0.1614    0.2991    1.8774   11.0000   11.0000 
 717.1944   17.5000    7.5234    4.1557   39.1875 -999.0000 -999.0000    1.6677   96.9941    2.2021    0.1072    0.3075    1.9446   11.0000   11.0000 
 717.3468   17.5000    7.5311    4.2729   36.4766 -999.0000 -999.0000    1.6443   96.1089    2.1777    0.0758    0.3053    1.9773   11.0000   11.0000 
 717.4992   17.5000    7.5387    4.3354   31.1016 -999.0000 -999.0000    1.6201   95.6268    2.1763    0.0743    0.3101    1.8518   11.0000   11.0000 
 717.6516   17.5000    7.5511    4.4214   26.4688 -999.0000 -999.0000    1.6025   95.9875    2.1870    0.0905    0.3225    1.6760   11.0000   11.0000 
 717.8040   17.5000    7.5818    4.4057   25.2383 -999.0000 -999.0000    1.5930   95.4702    2.1973    0.1044    0.3340    1.6592   11.0000   11.0000 
 717.9564   17.5000    7.6033    3.8042   26.0078 -999.0000 -999.0000    1.5835   96.0683    2.1680    0.0852    0.3350    1.7634   11.0000   11.0000 
 718.1088   17.5000    7.6064    2.8042   26.2344 -999.0000 -999.0000    1.5698   96.7969    2.1211    0.0680    0.3241    1.8635   11.0000   11.0000 
 718.2612   17.5000    7.6280    1.8901   25.7930 -999.0000 -999.0000    1.5500   97.0500    2.1182    0.1038    0.3119    1.9363   11.0000   11.0000 
 718.4136   17.5000    7.6618    1.1323   26.1250 -999.0000 -999.0000    1.5264   95.7812    2.1504    0.1611    0.3076    2.0303   11.0000   11.0000 
 718.5660   17.5000    7.6649    0.6714   27.3984 -999.0000 -999.0000    1.5098   94.7368    2.1636    0.1746    0.3190    2.0359   11.0000   11.0000 
 718.7184   17.5000    7.6233    0.4565   28.0156 -999.0000 -999.0000    1.5103   93.3897    2.1484    0.1399    0.3350    1.8494   11.0000   11.0000 
