~VERSION INFORMATION
 VERS.                 2.0:   CWLS LOG ASCII STANDARD - VERSION 2.0
 WRAP.                  NO:   SINGLE LINE PER DEPTH STEP
 CREA.                 12/01/2018 09:22:08
#CREATED USING DSPetro VERSION 5000.10.1.3 BY H191660 ON 12/01/2018 09:22:08
~WELL INFORMATION
#MNEM.UNIT       DATA                          DESCRIPTION MNEMONIC
#---------      ---------------------------   --------------------------
 STRT    .M         0.0000                    : START DEPTH
 STOP    .M         1999.9452                 : STOP DEPTH
 STEP    .M         0.1524                    : STEP VALUE
 NULL    .      -999.0000                     : NULL VALUE
 DATE    .      12/01/2018                    : LAS file Creation Date
 WELL .      2575-Perindi-1              : Well Name
 COMP .      Neftex Exploration Insights : Company
 FLD  .                                  : Field
 UWI  .      ZAUWL_005981                : Unique Well Identifier (UWI)
 LOC  .                                  : Location
 RWS  .      -999                        : Def_Rw
 WST  .      -999                        : Def_Rwt
 SRVC .                                  : Contractor
~CURVE INFORMATION
#MNEM              UNIT       API CODE   Curve Type Comments
#----------  --------------- ----------  ---------- -----------
 DEPTH      .M                         : Depth       
 BitSize    .in                        : bitSize     
 CAL_CM     .inch                      : caliper     Caliper Log - A representation of the measured diameter of a borehole along its depth
 SP_MV      .mv                        : SP          Spontaneous Potential - Records the electrical potential produced by the interaction of formation water, conductive drilling mud, and certain ion-sele
 GR_API     .API                       : gammaRay    Gamma Ray (API) - Measures the intensity of natural gamma-ray radiation emitted from formations containing radioactive elements, such as K, Th and U
 LLS_OHMM   .ohmm                      : shalRes     Laterlog Shallow Resistivity - one to two feet into the formation; generally considered to measure the formation
 LLD_OHMM   .ohmm                      : deepRes     Laterlog Deep Resistivity - Measurement made several feet into the formation; generally considered a measurement of the undisturbed formation
 ILD_OHMM   .ohmm                      : deepRes     Deep Induction Resistivity - Measurement made an induction log, made several feet into the formation
 DT_US_FT   .us/ft                     : sonic       Interval Transit Time: Compressional Wave - Evaluates the time it takes for a compressional wave to traverse a fixed distance
 RHOB_G_CC  .g/cc                      : density     Bulk Density - Measures the density of bulk material, including any void space or other materials contained in the subject volume
 DRHO_G_CC  .g/cc                      : drho        Density Correction - Investigates the correction to the Bulk Density log; used as an indication of hole condition to validate the Bulk Density measure
 NPHI_V/V   .dec                       : Neutron     
 PEF_B_E    .b/e-                      : PEF         Photoelectric Factor - A log of photoelectric absorption properties. Often expressed in an approximation unit barns/electron (b/e-)
 LITH       .                          : LITH        Lithology Curve
 LITH_v2    .                          : LITH        Lithology Curve
~A  DEPTH  BitSize    CAL_CM    SP_MV     GR_API   LLS_OHMM  LLD_OHMM  ILD_OHMM  DT_US_FT RHOB_G_C  DRHO_G_C   NPHI_V/V  PEF_B_E     LITH    LITH_v2  
# ...
 799.6428   17.5000    6.9467    4.3214   21.6680 -999.0000 -999.0000    1.6670   84.1823    2.2520    0.0624    0.2280    2.3501   27.0000   27.0000 
 799.7952   17.5000    6.9451    4.2151   20.3398 -999.0000 -999.0000    1.7075   84.1866    2.2710    0.0757    0.2284    2.2231   27.0000   27.0000 
 799.9476   17.5000    6.9420    3.8509   20.2930 -999.0000 -999.0000    1.7434   84.8188    2.2700    0.0558    0.2233    2.1641   27.0000   27.0000 
 800.1000   17.5000    6.9497    3.9400   20.8906 -999.0000 -999.0000    1.7681   84.5305    2.2705    0.0315    0.2133    2.2485   27.0000   27.0000 
 800.2524   17.5000    6.9528    4.5290   21.2617 -999.0000 -999.0000    1.7883   84.1823    2.2808    0.0210    0.2050    2.3535   27.0000   27.0000 
 800.4048   17.5000    6.9590    4.8133   21.5547 -999.0000 -999.0000    1.8130   82.7031    2.2930    0.0281    0.2025    2.2490   27.0000   27.0000 
 800.5572   17.5000    6.9667    4.5567   21.5703 -999.0000 -999.0000    1.8455   82.1250    2.3071    0.0513    0.2043    1.9355   27.0000   27.0000 
 800.7096   17.5000    6.9528    4.3000   21.1602 -999.0000 -999.0000    1.8970   81.6965    2.3223    0.0752    0.2021    1.7031   27.0000   27.0000 
 800.8620   17.5000    6.9328    4.0844   21.9141 -999.0000 -999.0000    1.9778   81.3629    2.3247    0.0720    0.1908    1.7505   27.0000   27.0000 
 801.0144   17.5000    6.9298    3.6500   24.3164 -999.0000 -999.0000    2.0896   82.3554    2.3101    0.0408    0.1782    2.0698   27.0000   27.0000 
 801.1668   17.5000    6.9390    3.3425   26.3789 -999.0000 -999.0000    2.2290   81.7973    2.3042    0.0227    0.1742    2.4404   27.0000   27.0000 
 801.3192   17.5000    6.9559    3.1289   26.5039 -999.0000 -999.0000    2.3667   81.3011    2.3188    0.0424    0.1769    2.4858   27.0000   27.0000 
 801.4716   17.5000    6.9759    2.6632   26.2344 -999.0000 -999.0000    2.4629   79.9926    2.3462    0.0948    0.1760    2.1990   11.0000   11.0000 
 801.6240   17.5000    6.9851    2.3479   27.8906 -999.0000 -999.0000    2.5112   79.0254    2.3857    0.1593    0.1726    1.9373   11.0000   11.0000 
 801.7764   17.5000    6.9636    2.6498   30.1992 -999.0000 -999.0000    2.5264   78.6199    2.4048    0.1858    0.1746    1.9246   11.0000   11.0000 
 801.9288   17.5000    6.9251    3.3541   30.9609 -999.0000 -999.0000    2.5210   79.4892    2.3682    0.1528    0.1831    2.0110   11.0000   11.0000 
 802.0812   17.5000    6.9036    3.8688   30.1484 -999.0000 -999.0000    2.4932   81.3115    2.3096    0.1123    0.1951    1.9456   11.0000   11.0000 
 802.2336   17.5000    6.8867    4.0068   28.8242 -999.0000 -999.0000    2.4292   82.3044    2.2910    0.1163    0.2070    1.7939   11.0000   11.0000 
 802.3860   17.5000    6.8575    3.8692   27.2695 -999.0000 -999.0000    2.3325   82.8809    2.3101    0.1418    0.2189    1.8381   11.0000   11.0000 
 802.5384   17.5000    6.8390    3.4993   25.5508 -999.0000 -999.0000    2.2256   83.9086    2.3081    0.1345    0.2302    2.1523   11.0000   11.0000 
 802.6908   17.5000    6.8544    3.2953   25.0898 -999.0000 -999.0000    2.1323   84.1866    2.2832    0.1122    0.2395    2.4170   11.0000   11.0000 
 802.8432   17.5000    6.8990    3.4351   26.3320 -999.0000 -999.0000    2.0703   84.3246    2.3037    0.1439    0.2443    2.3135   11.0000   11.0000 
 802.9956   17.5000    6.9359    3.5672   27.7305 -999.0000 -999.0000    2.0415   83.5498    2.3784    0.2200    0.2460    2.0781   11.0000   11.0000 
 803.1480   17.5000    6.9220    3.4023   27.7891 -999.0000 -999.0000    2.0376   83.2392    2.4238    0.2483    0.2504    2.0815   11.0000   11.0000 
 803.3004   17.5000    6.8821    2.8955   27.1367 -999.0000 -999.0000    2.0532   83.0867    2.3750    0.1826    0.2574    2.2959   11.0000   11.0000 
 803.4528   17.5000    6.8775    2.5237   26.4922 -999.0000 -999.0000    2.0781   83.3051    2.3003    0.1080    0.2590    2.3940   11.0000   11.0000 
 803.6052   17.5000    6.8990    2.7025   25.2422 -999.0000 -999.0000    2.0972   83.6718    2.2876    0.1052    0.2532    2.2261   11.0000   11.0000 
 803.7576   17.5000    6.9082    2.9400   23.6719 -999.0000 -999.0000    2.1069   83.7438    2.3213    0.1434    0.2483    2.0986   11.0000   11.0000 
 803.9100   17.5000    6.9052    2.6658   23.4570 -999.0000 -999.0000    2.1133   83.1877    2.3364    0.1547    0.2535    2.1069   11.0000   11.0000 
 804.0624   17.5000    6.9052    1.9267   24.7656 -999.0000 -999.0000    2.1187   82.8726    2.3071    0.1251    0.2688    2.0662   11.0000   11.0000 
 804.2148   17.5000    6.9113    1.0215   24.8242 -999.0000 -999.0000    2.1265   82.5203    2.2988    0.1165    0.2880    1.9175   11.0000   11.0000 
 804.3672   17.5000    6.9082    0.1126   23.2227 -999.0000 -999.0000    2.1382   82.5719    2.3311    0.1345    0.3026    1.8186   11.0000   11.0000 
 804.5196   17.5000    6.8959   -0.4528   22.3281 -999.0000 -999.0000    2.1460   82.2919    2.3472    0.1282    0.3057    1.9209   11.0000   11.0000 
 804.6720   17.5000    6.8852   -0.5043   23.7969 -999.0000 -999.0000    2.1396   82.4052    2.3125    0.0861    0.2998    2.0796   11.0000   11.0000 
 804.8244   17.5000    6.8821   -0.6165   26.2734 -999.0000 -999.0000    2.1226   82.6337    2.2715    0.0635    0.2878    2.2168   11.0000   11.0000 
 804.9768   17.5000    6.8775   -0.8732   27.0625 -999.0000 -999.0000    2.1040   83.4184    2.2925    0.1127    0.2748    2.3467   11.0000   11.0000 
 805.1292   17.5000    6.8482   -0.9208   26.4492 -999.0000 -999.0000    2.0781   83.4678    2.3452    0.1940    0.2684    2.4238   11.0000   11.0000 
 805.2816   17.5000    6.8129   -0.8748   25.6445 -999.0000 -999.0000    2.0430   83.3772    2.3813    0.2576    0.2729    2.3550   11.0000   11.0000 
 805.4340   17.5000    6.8021   -1.0397   25.3438 -999.0000 -999.0000    2.0078   83.5482    2.3848    0.2798    0.2906    2.1228   11.0000   11.0000 
 805.5864   17.5000    6.7975   -1.4467   25.5898 -999.0000 -999.0000    1.9697   84.2094    2.3633    0.2593    0.3124    1.9531   11.0000   11.0000 
 805.7388   17.5000    6.7944   -1.4788   25.5898 -999.0000 -999.0000    1.9241   84.4152    2.3276    0.2087    0.3265    1.9319   11.0000   11.0000 
 805.8912   17.5000    6.8021   -0.9191   25.3984 -999.0000 -999.0000    1.8789   84.6767    2.2754    0.1436    0.3265    1.9961   11.0000   11.0000 
 806.0436   17.5000    6.8113   -0.3925   25.2461 -999.0000 -999.0000    1.8357   84.9198    2.2451    0.1086    0.3174    2.1006   11.0000   11.0000 
 806.1960   17.5000    6.8206   -0.1140   24.9023 -999.0000 -999.0000    1.7957   84.7775    2.2456    0.1085    0.3140    2.1855   11.0000   11.0000 
 806.3484   17.5000    6.8298   -0.2417   24.3242 -999.0000 -999.0000    1.7700   85.2289    2.2568    0.1196    0.3175    2.2075   11.0000   11.0000 
 806.5008   17.5000    6.8421   -0.7153   23.7617 -999.0000 -999.0000    1.7617   84.7258    2.2725    0.1329    0.3230    2.1460   11.0000   11.0000 
 806.6532   17.5000    6.8544   -1.0032   23.8867 -999.0000 -999.0000    1.7678   85.2000    2.2817    0.1410    0.3286    2.1270   11.0000   11.0000 
 806.8056   17.5000    6.8682   -1.1915   24.4219 -999.0000 -999.0000    1.7861   85.2204    2.2793    0.1410    0.3352    2.2964   11.0000   11.0000 
 806.9580   17.5000    6.8898   -1.4697   24.3438 -999.0000 -999.0000    1.8174   85.5006    2.2607    0.1302    0.3356    2.5356   11.0000   11.0000 
 807.1104   17.5000    6.9282   -1.7283   23.7383 -999.0000 -999.0000    1.8667   84.8925    2.2563    0.1378    0.3242    2.5894   11.0000   11.0000 
 807.2628   17.5000    6.9682   -1.9283   23.8633 -999.0000 -999.0000    1.9268   84.6108    2.3247    0.2135    0.3113    2.4658   11.0000   11.0000 
 807.4152   17.5000    6.9774   -2.1479   25.6836 -999.0000 -999.0000    1.9807   83.9638    2.4399    0.3284    0.3064    2.3867   11.0000   11.0000 
 807.5676   17.5000    6.9713   -2.3870   27.9570 -999.0000 -999.0000    2.0286   82.8930    2.5029    0.3904    0.3051    2.3286   11.0000   11.0000 
