~VERSION INFORMATION
 VERS.                 2.0:   CWLS LOG ASCII STANDARD - VERSION 2.0
 WRAP.                  NO:   SINGLE LINE PER DEPTH STEP
 CREA.                 12/01/2018 09:22:08
#CREATED USING DSPetro VERSION 5000.10.1.3 BY H191660 ON 12/01/2018 09:22:08
~WELL INFORMATION
#MNEM.UNIT       DATA                          DESCRIPTION MNEMONIC
#---------      ---------------------------   --------------------------
 STRT    .M         0.0000                    : START DEPTH
 STOP    .M         1999.9452                 : STOP DEPTH
 STEP    .M         0.1524                    : STEP VALUE
 NULL    .      -999.0000                     : NULL VALUE
 DATE    .      12/01/2018                    : LAS file Creation Date
 WELL .      2575-Perindi-1              : Well Name
 COMP .      Neftex Exploration Insights : Company
 FLD  .                                  : Field
 UWI  .      ZAUWL_005981                : Unique Well Identifier (UWI)
 LOC  .                                  : Location
 RWS  .      -999                        : Def_Rw
 WST  .      -999                        : Def_Rwt
 SRVC .                                  : Contractor
~CURVE INFORMATION
#MNEM              UNIT       API CODE   Curve Type Comments
#----------  --------------- ----------  ---------- -----------
 DEPTH      .M                         : Depth       
 BitSize    .in                        : bitSize     
 CAL_CM     .inch                      : caliper     Caliper Log - A representation of the measured diameter of a borehole along its depth
 SP_MV      .mv                        : SP          Spontaneous Potential - Records the electrical potential produced by the interaction of formation water, conductive drilling mud, and certain ion-sele
 GR_API     .API                       : gammaRay    Gamma Ray (API) - Measures the intensity of natural gamma-ray radiation emitted from formations containing radioactive elements, such as K, Th and U
 LLS_OHMM   .ohmm                      : shalRes     Laterlog Shallow Resistivity - one to two feet into the formation; generally considered to measure the formation
 LLD_OHMM   .ohmm                      : deepRes     Laterlog Deep Resistivity - Measurement made several feet into the formation; generally considered a measurement of the undisturbed formation
 ILD_OHMM   .ohmm                      : deepRes     Deep Induction Resistivity - Measurement made an induction log, made several feet into the formation
 DT_US_FT   .us/ft                     : sonic       Interval Transit Time: Compressional Wave - Evaluates the time it takes for a compressional wave to traverse a fixed distance
 RHOB_G_CC  .g/cc                      : density     Bulk Density - Measures the density of bulk material, including any void space or other materials contained in the subject volume
 DRHO_G_CC  .g/cc                      : drho        Density Correction - Investigates the correction to the Bulk Density log; used as an indication of hole condition to validate the Bulk Density measure
 NPHI_V/V   .dec                       : Neutron     
 PEF_B_E    .b/e-                      : PEF         Photoelectric Factor - A log of photoelectric absorption properties. Often expressed in an approximation unit barns/electron (b/e-)
 LITH       .                          : LITH        Lithology Curve
 LITH_v2    .                          : LITH        Lithology Curve
~A  DEPTH  BitSize    CAL_CM    SP_MV     GR_API   LLS_OHMM  LLD_OHMM  ILD_OHMM  DT_US_FT RHOB_G_C  DRHO_G_C   NPHI_V/V  PEF_B_E     LITH    LITH_v2  
# ...
1413.5100   12.2500    4.9391   -3.9629   65.1250  207.6808  309.1482 -999.0000   62.6933    2.5941    0.0022    0.2241    4.4460   39.0000   39.0000 
1413.6624   12.2500    4.9303   -3.9499   71.2500  223.0251  348.0908 -999.0000   61.5801    2.6135    0.0061    0.2158    4.5275   39.0000   39.0000 
1413.8148   12.2500    4.9307   -3.9369   72.1875  245.5215  398.9702 -999.0000   60.1787    2.6336    0.0058    0.2007    4.5968   39.0000   39.0000 
1413.9672   12.2500    4.9361   -3.9629   71.3750  265.2876  437.4712 -999.0000   58.8604    2.6427    0.0015    0.1855    4.5363   39.0000   39.0000 
1414.1196   12.2500    4.9407   -4.1218   69.2500  274.5991  448.4688 -999.0000   58.2606    2.6376   -0.0033    0.1769    4.3974   39.0000   39.0000 
1414.2720   12.2500    4.9425   -4.3275   73.3125  272.7261  437.5569 -999.0000   58.2822    2.6272   -0.0052    0.1767    4.2835   39.0000   39.0000 
1414.4244   12.2500    4.9428   -4.5176   71.4375  262.8293  414.1240 -999.0000   58.2704    2.6207   -0.0035    0.1813    4.2305   39.0000   39.0000 
1414.5768   12.2500    4.9453   -4.5749   69.1250  251.1124  391.1323 -999.0000   58.6660    2.6211    0.0006    0.1858    4.2569   39.0000   39.0000 
1414.7292   12.2500    4.9572   -4.4057   64.5625  242.9390  378.0737 -999.0000   59.2582    2.6250    0.0025    0.1887    4.3155   39.0000   39.0000 
1414.8816   12.2500    4.9784   -4.2207   66.0000  239.1726  376.7229 -999.0000   59.5444    2.6268    0.0000    0.1891    4.3398   39.0000   39.0000 
1415.0340   12.2500    4.9942   -4.2312   68.4375  240.1326  391.4985 -999.0000   59.7789    2.6254   -0.0049    0.1868    4.3706   39.0000   39.0000 
1415.1864   12.2500    4.9961   -4.3198   69.6250  244.1854  418.8835 -999.0000   59.5420    2.6261   -0.0089    0.1829    4.5107   39.0000   39.0000 
1415.3388   12.2500    4.9920   -4.3693   69.1875  247.9211  447.0845 -999.0000   58.4334    2.6330   -0.0105    0.1771    4.7788   39.0000   39.0000 
1415.4912   12.2500    4.9849   -4.3328   65.4375  249.9675  465.8999 -999.0000   58.6190    2.6417   -0.0106    0.1689    5.0111   39.0000   39.0000 
1415.6436   12.2500    4.9704   -4.2182   64.6250  246.6204  462.3472 -999.0000   58.7502    2.6445   -0.0090    0.1624    5.0022   39.0000   39.0000 
1415.7960   12.2500    4.9492   -4.0099   63.7813  235.2452  433.4050 -999.0000   58.9087    2.6407   -0.0055    0.1641    4.7629   39.0000   39.0000 
1415.9484   12.2500    4.9291   -3.7312   63.9375  220.1245  390.2803 -999.0000   59.7793    2.6364   -0.0011    0.1748    4.4999   39.0000   39.0000 
1416.1008   12.2500    4.9193   -3.5776   64.2500  206.1135  344.9548 -999.0000   61.1900    2.6327    0.0011    0.1892    4.4305   39.0000   39.0000 
1416.2532   12.2500    4.9220   -3.6427   65.0000  199.4868  315.7388 -999.0000   61.3410    2.6253   -0.0007    0.2015    4.5491   39.0000   39.0000 
1416.4056   12.2500    4.9319   -3.8250   65.1875  204.6671  312.6155 -999.0000   61.2873    2.6150   -0.0046    0.2099    4.6248   39.0000   39.0000 
1416.5580   12.2500    4.9389   -3.8901   65.5625  221.3027  332.8411 -999.0000   60.8643    2.6088   -0.0069    0.2141    4.5191   39.0000   39.0000 
1416.7104   12.2500    4.9400   -3.7287   67.4375  245.1886  371.5610 -999.0000   59.9694    2.6100   -0.0058    0.2145    4.3077   39.0000   39.0000 
1416.8628   12.2500    4.9407   -3.5594   67.9375  266.0554  413.7197 -999.0000   59.9063    2.6149   -0.0026    0.2126    4.1805   39.0000   39.0000 
1417.0152   12.2500    4.9468   -3.4604   68.3125  274.7651  439.7705 -999.0000   59.1914    2.6212   -0.0007    0.2085    4.2700   39.0000   39.0000 
1417.1676   12.2500    4.9623   -3.2990   68.5000  271.7375  444.6123 -999.0000   59.5769    2.6299    0.0003    0.2022    4.4980   39.0000   39.0000 
1417.3200   12.2500    4.9866   -3.1688   68.5000  262.9268  437.5918 -999.0000   59.1694    2.6378    0.0020    0.1936    4.6456   39.0000   39.0000 
1417.4724   12.2500    5.0140   -3.1402   68.0000  249.0157  418.4731 -999.0000   59.3551    2.6379    0.0034    0.1845    4.6268   39.0000   39.0000 
1417.6248   12.2500    5.0356   -3.0802   67.8125  232.4930  392.3542 -999.0000   59.5769    2.6293    0.0023    0.1779    4.5532   39.0000   39.0000 
1417.7772   12.2500    5.0420   -2.8641   71.0625  219.9666  377.4824 -999.0000   59.3774    2.6191   -0.0008    0.1780    4.5482   39.0000   39.0000 
1417.9296   12.2500    5.0283   -2.5386   69.1250  210.6234  370.9087 -999.0000   59.9067    2.6122   -0.0026    0.1858    4.5964   39.0000   39.0000 
1418.0820   12.2500    4.9970   -2.3147   67.6250  204.9600  365.4810 -999.0000   60.1356    2.6065   -0.0014    0.1968    4.5752   39.0000   39.0000 
1418.2344   12.2500    4.9626   -2.3563   63.4688  205.4849  363.5476 -999.0000   60.6753    2.6000    0.0008    0.2066    4.4525   39.0000   39.0000 
1418.3868   12.2500    4.9442   -2.5777   65.0000  209.9662  362.2786 -999.0000   60.6131    2.5957    0.0021    0.2136    4.3232   39.0000   39.0000 
1418.5392   12.2500    4.9450   -2.7209   63.0938  216.7629  358.5793 -999.0000   61.0332    2.5941    0.0012    0.2162    4.3005   39.0000   39.0000 
1418.6916   12.2500    4.9590   -2.8172   64.1250  222.2493  348.6519 -999.0000   62.0879    2.5912   -0.0011    0.2153    4.3717   39.0000   39.0000 
1418.8440   12.2500    4.9767   -2.9761   65.7500  225.6517  336.9043 -999.0000   62.5112    2.5863   -0.0014    0.2157    4.3864   39.0000   39.0000 
1418.9964   12.2500    4.9873   -3.1038   65.9375  232.3328  335.5000 -999.0000   62.1504    2.5838    0.0011    0.2216    4.2795   39.0000   39.0000 
1419.1488   12.2500    4.9892   -3.2158   67.6250  246.8163  353.2466 -999.0000   61.4097    2.5867    0.0026    0.2319    4.1087   39.0000   39.0000 
1419.3012   12.2500    4.9834   -3.3277   63.4063  271.9424  399.2273 -999.0000   60.4922    2.5945    0.0004    0.2389    3.9440   39.0000   39.0000 
1419.4536   12.2500    4.9734   -3.3303   65.3750  302.2209  467.1548 -999.0000   60.0382    2.6044   -0.0030    0.2382    3.8564   39.0000   39.0000 
1419.6060   12.2500    4.9682   -3.1376   61.2188  315.5789  509.0020 -999.0000   60.4599    2.6102   -0.0042    0.2328    3.8701   39.0000   39.0000 
1419.7584   12.2500    4.9714   -2.7808   60.8125  298.2363  489.4019 -999.0000   61.1055    2.6072   -0.0036    0.2282    3.9409   39.0000   39.0000 
1419.9108   12.2500    4.9791   -2.4475   60.6563  268.6704  446.3286 -999.0000   61.7046    2.5983   -0.0036    0.2275    3.9961   39.0000   39.0000 
1420.0632   12.2500    4.9845   -2.2392   63.6250  247.9877  423.8967 -999.0000   61.8659    2.5915   -0.0055    0.2283    3.9926   39.0000   39.0000 
1420.2156   12.2500    4.9854   -2.0543   63.3125  237.2102  422.7903 -999.0000   61.3716    2.5918   -0.0081    0.2251    3.9696   39.0000   39.0000 
1420.3680   12.2500    4.9820   -1.8928   69.2500  233.5577  432.1814 -999.0000   60.6845    2.5982   -0.0079    0.2169    3.9711   39.0000   39.0000 
1420.5204   12.2500    4.9714   -1.7626   67.1250  233.7169  434.7898 -999.0000   60.2632    2.6094   -0.0031    0.2077    4.0185   39.0000   39.0000 
1420.6728   12.2500    4.9560   -1.5856   67.7500  231.9874  417.2056 -999.0000   60.1599    2.6221    0.0031    0.2002    4.1096   39.0000   39.0000 
1420.8252   12.2500    4.9510   -1.3773   61.5625  232.2212  394.9600 -999.0000   60.2373    2.6300    0.0047    0.1941    4.1711   39.0000   39.0000 
1420.9776   12.2500    4.9608   -1.2470   61.5938  240.3938  383.9294 -999.0000   60.1328    2.6293    0.0017    0.1880    4.1583   39.0000   39.0000 
1421.1300   12.2500    4.9734   -1.4059   64.0000  254.2747  382.2280 -999.0000   59.5630    2.6238   -0.0010    0.1851    4.1497   39.0000   39.0000 
1421.2824   12.2500    4.9830   -1.7523   64.5000  262.7883  375.4094 -999.0000   59.3701    2.6213   -0.0013    0.1893    4.1902   39.0000   39.0000 
1421.4348   12.2500    4.9904   -2.0126   62.3750  249.4545  338.9651 -999.0000   59.8940    2.6214   -0.0009    0.1975    4.1997   39.0000   39.0000 
