~VERSION INFORMATION
 VERS.                 2.0:   CWLS LOG ASCII STANDARD - VERSION 2.0
 WRAP.                  NO:   SINGLE LINE PER DEPTH STEP
 CREA.                 12/01/2018 09:22:08
#CREATED USING DSPetro VERSION 5000.10.1.3 BY H191660 ON 12/01/2018 09:22:08
~WELL INFORMATION
#MNEM.UNIT       DATA                          DESCRIPTION MNEMONIC
#---------      ---------------------------   --------------------------
 STRT    .M         0.0000                    : START DEPTH
 STOP    .M         1999.9452                 : STOP DEPTH
 STEP    .M         0.1524                    : STEP VALUE
 NULL    .      -999.0000                     : NULL VALUE
 DATE    .      12/01/2018                    : LAS file Creation Date
 WELL .      2575-Perindi-1              : Well Name
 COMP .      Neftex Exploration Insights : Company
 FLD  .                                  : Field
 UWI  .      ZAUWL_005981                : Unique Well Identifier (UWI)
 LOC  .                                  : Location
 RWS  .      -999                        : Def_Rw
 WST  .      -999                        : Def_Rwt
 SRVC .                                  : Contractor
~CURVE INFORMATION
#MNEM              UNIT       API CODE   Curve Type Comments
#----------  --------------- ----------  ---------- -----------
 DEPTH      .M                         : Depth       
 BitSize    .in                        : bitSize     
 CAL_CM     .inch                      : caliper     Caliper Log - A representation of the measured diameter of a borehole along its depth
 SP_MV      .mv                        : SP          Spontaneous Potential - Records the electrical potential produced by the interaction of formation water, conductive drilling mud, and certain ion-sele
 GR_API     .API                       : gammaRay    Gamma Ray (API) - Measures the intensity of natural gamma-ray radiation emitted from formations containing radioactive elements, such as K, Th and U
 LLS_OHMM   .ohmm                      : shalRes     Laterlog Shallow Resistivity - one to two feet into the formation; generally considered to measure the formation
 LLD_OHMM   .ohmm                      : deepRes     Laterlog Deep Resistivity - Measurement made several feet into the formation; generally considered a measurement of the undisturbed formation
 ILD_OHMM   .ohmm                      : deepRes     Deep Induction Resistivity - Measurement made an induction log, made several feet into the formation
 DT_US_FT   .us/ft                     : sonic       Interval Transit Time: Compressional Wave - Evaluates the time it takes for a compressional wave to traverse a fixed distance
 RHOB_G_CC  .g/cc                      : density     Bulk Density - Measures the density of bulk material, including any void space or other materials contained in the subject volume
 DRHO_G_CC  .g/cc                      : drho        Density Correction - Investigates the correction to the Bulk Density log; used as an indication of hole condition to validate the Bulk Density measure
 NPHI_V/V   .dec                       : Neutron     
 PEF_B_E    .b/e-                      : PEF         Photoelectric Factor - A log of photoelectric absorption properties. Often expressed in an approximation unit barns/electron (b/e-)
 LITH       .                          : LITH        Lithology Curve
 LITH_v2    .                          : LITH        Lithology Curve
~A  DEPTH  BitSize    CAL_CM    SP_MV     GR_API   LLS_OHMM  LLD_OHMM  ILD_OHMM  DT_US_FT RHOB_G_C  DRHO_G_C   NPHI_V/V  PEF_B_E     LITH    LITH_v2  
# ...
1591.2084   12.2500    5.6330   -2.2122   23.9844    2.7456    2.8240 -999.0000   89.9265    2.2637   -0.0016    0.2257    1.7195   27.0000   27.0000 
1591.3608   12.2500    5.6602    0.3862   20.5000    2.8508    2.8967 -999.0000   88.8018    2.2769   -0.0051    0.2171    1.6930   27.0000   27.0000 
1591.5132   12.2500    5.6712    0.7659   21.7969    2.9617    2.9925 -999.0000   88.0376    2.2872   -0.0094    0.2107    1.6581   27.0000   27.0000 
1591.6656   12.2500    5.6554   -0.3174   20.5313    3.0544    3.0870 -999.0000   86.9404    2.2929   -0.0131    0.2054    1.6119   27.0000   27.0000 
1591.8180   12.2500    5.6146   -1.1054   22.7969    3.1701    3.2041 -999.0000   85.6904    2.2983   -0.0142    0.1979    1.5750   27.0000   27.0000 
1591.9704   12.2500    5.5697   -1.7114   21.9063    3.4204    3.4637 -999.0000   85.2339    2.3057   -0.0136    0.1887    1.5697   27.0000   27.0000 
1592.1228   12.2500    5.5413   -1.8311   21.6250    3.7893    3.8668 -999.0000   84.6455    2.3172   -0.0136    0.1845    1.5933   27.0000   27.0000 
1592.2752   12.2500    5.5316   -0.0610   21.6406    4.2080    4.3225 -999.0000   82.7363    2.3372   -0.0152    0.1854    1.6457   27.0000   27.0000 
1592.4276   12.2500    5.5303    2.6550   24.1094    5.0821    5.2724 -999.0000   78.7695    2.3683   -0.0168    0.1829    1.7340   27.0000   27.0000 
1592.5800   12.2500    5.5308    4.1626   25.4219    6.9989    7.4088 -999.0000   73.6563    2.4044   -0.0179    0.1727    1.8664   27.0000   27.0000 
1592.7324   12.2500    5.5341    4.5391   25.9531    9.3740   10.0823 -999.0000   68.4609    2.4378   -0.0165    0.1576    2.0481   27.0000   27.0000 
1592.8848   12.2500    5.5402    4.6419   26.9688   11.0526   11.9498 -999.0000   64.8164    2.4676   -0.0083    0.1471    2.3196   39.0000   39.0000 
1593.0372   12.2500    5.5446    4.6260   32.0313   11.8514   12.7596 -999.0000   65.5586    2.4923    0.0048    0.1574    2.7527   39.0000   39.0000 
1593.1896   12.2500    5.5461    4.5303   37.2813   11.7925   12.5402 -999.0000   69.2461    2.5074    0.0120    0.2038    3.2985   39.0000   39.0000 
1593.3420   12.2500    5.5474    4.3466   39.1875   11.1488   11.6867 -999.0000   73.1406    2.5138    0.0069    0.2781    3.7122   39.0000   39.0000 
1593.4944   12.2500    5.5494    4.0746   39.1875   10.9557   11.3610 -999.0000   76.7070    2.5196   -0.0035    0.3442    3.7922   39.0000   39.0000 
1593.6468   12.2500    5.5563    3.6450   40.5313   11.5316   11.8247 -999.0000   78.0889    2.5258   -0.0090    0.3762    3.6638   39.0000   39.0000 
1593.7992   12.2500    5.5726    3.3721   42.5313   12.1199   12.2529 -999.0000   77.0517    2.5266   -0.0094    0.3811    3.5893   39.0000   39.0000 
1593.9516   12.2500    5.5916    3.7014   40.8125   12.2218   12.2082 -999.0000   76.4556    2.5246   -0.0095    0.3747    3.6912   39.0000   39.0000 
1594.1040   12.2500    5.6000    4.0381   35.4688   12.1772   12.0766 -999.0000   76.7156    2.5287   -0.0098    0.3674    3.9372   39.0000   39.0000 
1594.2564   12.2500    5.5869    4.0541   35.0938   12.5489   12.4036 -999.0000   76.9520    2.5421   -0.0093    0.3654    4.2116   39.0000   39.0000 
1594.4088   12.2500    5.5462    4.0608   37.4688   13.4234   13.2617 -999.0000   76.7534    2.5575   -0.0090    0.3706    4.3460   39.0000   39.0000 
1594.5612   12.2500    5.4954    4.1281   41.0625   14.0341   13.8069 -999.0000   75.8945    2.5625   -0.0091    0.3787    4.0806   39.0000   39.0000 
1594.7136   12.2500    5.4628    4.2187   43.4375   13.5108   13.1934 -999.0000   74.6096    2.5519   -0.0087    0.3807    3.4044   39.0000   39.0000 
1594.8660   12.2500    5.4478    4.1767   39.4688   12.2721   12.0097 -999.0000   74.6973    2.5297   -0.0077    0.3670    2.6871   39.0000   39.0000 
1595.0184   12.2500    5.4335    3.9231   34.3750   10.7914   10.7341 -999.0000   75.8662    2.5005   -0.0059    0.3277    2.2000   39.0000   39.0000 
1595.1708   12.2500    5.4144    3.6227   26.2813    8.6723    8.8127 -999.0000   75.1113    2.4628   -0.0026    0.2675    1.9384   39.0000   39.0000 
1595.3232   12.2500    5.3956    3.4560   25.4844    6.4212    6.6236 -999.0000   75.9243    2.4138   -0.0001    0.2140    1.7967   27.0000   27.0000 
1595.4756   12.2500    5.3820    3.3911   24.5469    4.8681    5.0049 -999.0000   76.5459    2.3599   -0.0012    0.1915    1.6926   27.0000   27.0000 
1595.6280   12.2500    5.3745    3.3489   24.4531    3.8893    3.9481 -999.0000   77.6797    2.3154   -0.0057    0.1940    1.6111   27.0000   27.0000 
1595.7804   12.2500    5.3868    3.2754   23.4531    3.2760    3.2937 -999.0000   81.0058    2.2893   -0.0088    0.2018    1.5687   27.0000   27.0000 
1595.9328   12.2500    5.4250    3.2498   23.7344    3.0017    3.0056 -999.0000   86.6387    2.2789   -0.0080    0.2059    1.5677   27.0000   27.0000 
1596.0852   12.2500    5.4658    3.4277   25.6563    2.9432    2.9621 -999.0000   88.7969    2.2772   -0.0060    0.2065    1.5836   27.0000   27.0000 
1596.2376   12.2500    5.5015    3.6829   26.2344    3.0016    3.0636 -999.0000   89.0332    2.2822   -0.0037    0.2045    1.5822   27.0000   27.0000 
1596.3900   12.2500    5.5275    3.8525   27.2500    3.1035    3.2276 -999.0000   88.5049    2.2908   -0.0011    0.2013    1.5646   27.0000   27.0000 
1596.5424   12.2500    5.5026    3.9608   25.6719    3.1402    3.3078 -999.0000   87.4043    2.2943    0.0011    0.2024    1.5614   27.0000   27.0000 
1596.6948   12.2500    5.4185    3.9612   25.7188    3.0847    3.2671 -999.0000   86.7981    2.2864    0.0025    0.2097    1.5901   27.0000   27.0000 
1596.8472   12.2500    5.3385    3.7436   25.7031    2.9915    3.1908 -999.0000   87.2295    2.2749    0.0073    0.2157    1.6394   27.0000   27.0000 
1596.9996   12.2500    5.3049    3.4072   26.0469    2.9060    3.1384 -999.0000   87.0625    2.2748    0.0211    0.2120    1.6849   27.0000   27.0000 
1597.1520   12.2500    5.3031    3.1864   24.4375    2.8724    3.1424 -999.0000   86.7156    2.2858    0.0380    0.2027    1.7134   27.0000   27.0000 
1597.3044   12.2500    5.3130    3.0752   24.4219    2.8795    3.1678 -999.0000   86.3071    2.2896    0.0426    0.1973    1.7245   27.0000   27.0000 
1597.4568   12.2500    5.3208    2.9263   26.3281    2.8750    3.1776 -999.0000   85.7207    2.2782    0.0314    0.1988    1.7194   27.0000   27.0000 
1597.6092   12.2500    5.3181    2.6685   24.7031    2.8867    3.2134 -999.0000   86.0879    2.2641    0.0163    0.2041    1.7027   27.0000   27.0000 
1597.7616   12.2500    5.3132    2.3399   23.4531    2.9542    3.3082 -999.0000   86.7156    2.2617    0.0069    0.2110    1.6899   27.0000   27.0000 
1597.9140   12.2500    5.3189    2.1512   20.5469    3.0427    3.4193 -999.0000   86.5508    2.2717    0.0030    0.2174    1.6847   27.0000   27.0000 
1598.0664   12.2500    5.3348    2.1247   20.5469    3.0994    3.4763 -999.0000   86.4175    2.2841    0.0014    0.2161    1.6751   27.0000   27.0000 
1598.2188   12.2500    5.3567    2.1898   20.9219    3.0989    3.4682 -999.0000   86.8740    2.2906    0.0029    0.2059    1.6652   27.0000   27.0000 
1598.3712   12.2500    5.3867    2.3954   21.9531    3.0610    3.4210 -999.0000   86.9874    2.2917    0.0085    0.1974    1.6697   27.0000   27.0000 
1598.5236   12.2500    5.4187    2.6723   22.9375    3.0112    3.3352 -999.0000   88.4170    2.2905    0.0141    0.1985    1.6856   27.0000   27.0000 
1598.6760   12.2500    5.4376    2.8409   26.7969    2.9882    3.2683 -999.0000   88.0864    2.2878    0.0142    0.2042    1.6917   27.0000   27.0000 
1598.8284   12.2500    5.4328    2.6590   26.3906    3.0102    3.2751 -999.0000   86.4746    2.2860    0.0104    0.2067    1.6827   27.0000   27.0000 
1598.9808   12.2500    5.4124    1.6647   28.6250    2.9912    3.2524 -999.0000   86.1499    2.2895    0.0091    0.2051    1.6791   27.0000   27.0000 
1599.1332   12.2500    5.3840   -0.0963   22.7969    2.9225    3.1697 -999.0000   85.1670    2.2963    0.0112    0.2047    1.7071   27.0000   27.0000 
