~VERSION INFORMATION
 VERS.                 2.0:   CWLS LOG ASCII STANDARD - VERSION 2.0
 WRAP.                  NO:   SINGLE LINE PER DEPTH STEP
 CREA.                 12/01/2018 09:22:08
#CREATED USING DSPetro VERSION 5000.10.1.3 BY H191660 ON 12/01/2018 09:22:08
~WELL INFORMATION
#MNEM.UNIT       DATA                          DESCRIPTION MNEMONIC
#---------      ---------------------------   --------------------------
 STRT    .M         0.0000                    : START DEPTH
 STOP    .M         1999.9452                 : STOP DEPTH
 STEP    .M         0.1524                    : STEP VALUE
 NULL    .      -999.0000                     : NULL VALUE
 DATE    .      12/01/2018                    : LAS file Creation Date
 WELL .      2575-Perindi-1              : Well Name
 COMP .      Neftex Exploration Insights : Company
 FLD  .                                  : Field
 UWI  .      ZAUWL_005981                : Unique Well Identifier (UWI)
 LOC  .                                  : Location
 RWS  .      -999                        : Def_Rw
 WST  .      -999                        : Def_Rwt
 SRVC .                                  : Contractor
~CURVE INFORMATION
#MNEM              UNIT       API CODE   Curve Type Comments
#----------  --------------- ----------  ---------- -----------
 DEPTH      .M                         : Depth       
 BitSize    .in                        : bitSize     
 CAL_CM     .inch                      : caliper     Caliper Log - A representation of the measured diameter of a borehole along its depth
 SP_MV      .mv                        : SP          Spontaneous Potential - Records the electrical potential produced by the interaction of formation water, conductive drilling mud, and certain ion-sele
 GR_API     .API                       : gammaRay    Gamma Ray (API) - Measures the intensity of natural gamma-ray radiation emitted from formations containing radioactive elements, such as K, Th and U
 LLS_OHMM   .ohmm                      : shalRes     Laterlog Shallow Resistivity - one to two feet into the formation; generally considered to measure the formation
 LLD_OHMM   .ohmm                      : deepRes     Laterlog Deep Resistivity - Measurement made several feet into the formation; generally considered a measurement of the undisturbed formation
 ILD_OHMM   .ohmm                      : deepRes     Deep Induction Resistivity - Measurement made an induction log, made several feet into the formation
 DT_US_FT   .us/ft                     : sonic       Interval Transit Time: Compressional Wave - Evaluates the time it takes for a compressional wave to traverse a fixed distance
 RHOB_G_CC  .g/cc                      : density     Bulk Density - Measures the density of bulk material, including any void space or other materials contained in the subject volume
 DRHO_G_CC  .g/cc                      : drho        Density Correction - Investigates the correction to the Bulk Density log; used as an indication of hole condition to validate the Bulk Density measure
 NPHI_V/V   .dec                       : Neutron     
 PEF_B_E    .b/e-                      : PEF         Photoelectric Factor - A log of photoelectric absorption properties. Often expressed in an approximation unit barns/electron (b/e-)
 LITH       .                          : LITH        Lithology Curve
 LITH_v2    .                          : LITH        Lithology Curve
~A  DEPTH  BitSize    CAL_CM    SP_MV     GR_API   LLS_OHMM  LLD_OHMM  ILD_OHMM  DT_US_FT RHOB_G_C  DRHO_G_C   NPHI_V/V  PEF_B_E     LITH    LITH_v2  
# ...
1066.1904   12.2500    5.9576    9.8087   39.7500    2.6351    4.1189 -999.0000   93.4277    2.2122    0.0805    0.2944    1.7092   27.0000   27.0000 
1066.3428   12.2500    6.0243    9.7452   37.8125    2.4323    3.7433 -999.0000   96.1445    2.2025    0.0772    0.3044    1.7198   27.0000   27.0000 
1066.4952   12.2500    6.0581    9.6661   36.0938    2.3492    3.6200 -999.0000   97.9922    2.1801    0.0483    0.3152    1.7557   27.0000   27.0000 
1066.6476   12.2500    6.0457    9.5079   35.9375    2.3303    3.6161 -999.0000   97.6699    2.1624    0.0219    0.3254    1.7795   27.0000   27.0000 
1066.8000   12.2500    6.0201    9.4122   34.0625    2.3176    3.6060 -999.0000   96.8098    2.1561    0.0106    0.3325    1.7678   27.0000   27.0000 
1066.9524   12.2500    6.0010    9.4102   33.7500    2.2717    3.5518 -999.0000   96.1450    2.1578    0.0082    0.3364    1.7297   27.0000   27.0000 
1067.1048   12.2500    5.9849    9.4571   35.0625    2.1991    3.4428 -999.0000   95.7293    2.1653    0.0098    0.3335    1.6895   27.0000   27.0000 
1067.2572   12.2500    5.9738    9.6397   36.3438    2.1539    3.3535 -999.0000   95.7710    2.1755    0.0154    0.3219    1.6629   27.0000   27.0000 
1067.4096   12.2500    5.9603    9.9161   34.8125    2.1722    3.3725 -999.0000   95.0596    2.1846    0.0249    0.3109    1.6511   27.0000   27.0000 
1067.5620   12.2500    5.8826   10.1602   32.2813    2.2487    3.5017 -999.0000   94.7988    2.1875    0.0310    0.3104    1.6492   27.0000   27.0000 
1067.7144   12.2500    5.7090   10.2950   28.7500    2.3652    3.7022 -999.0000   94.4199    2.1830    0.0262    0.3130    1.6499   27.0000   27.0000 
1067.8668   12.2500    5.5359   10.3419   28.7656    2.4541    3.8414 -999.0000   95.2930    2.1765    0.0133    0.3011    1.6425   27.0000   27.0000 
1068.0192   12.2500    5.4473   10.3155   30.9844    2.4272    3.7681 -999.0000   96.6357    2.1718    0.0016    0.2740    1.6227   27.0000   27.0000 
1068.1716   12.2500    5.4187   10.2559   33.7813    2.2909    3.5091 -999.0000   98.2139    2.1691   -0.0036    0.2472    1.6063   27.0000   27.0000 
1068.3240   12.2500    5.4073   10.3116   36.8438    2.1321    3.2304 -999.0000   98.9912    2.1688   -0.0038    0.2327    1.6168   27.0000   27.0000 
1068.4764   12.2500    5.3991   10.4991   37.7188    2.0557    3.1281 -999.0000   98.1558    2.1718   -0.0024    0.2334    1.6566   27.0000   27.0000 
1068.6288   12.2500    5.3934   10.7637   41.8438    2.1151    3.2935 -999.0000   95.4433    2.1797   -0.0014    0.2445    1.6959   27.0000   27.0000 
1068.7812   12.2500    5.3913   11.0577   38.8125    2.2476    3.5825 -999.0000   92.8555    2.1934   -0.0008    0.2530    1.7028   27.0000   27.0000 
1068.9336   12.2500    5.3911   11.2100   37.0938    2.3649    3.7874 -999.0000   91.8032    2.2077   -0.0007    0.2497    1.6773   27.0000   27.0000 
1069.0860   12.2500    5.3906   11.0958   33.9688    2.4088    3.8237 -999.0000   91.5222    2.2130   -0.0017    0.2407    1.6413   27.0000   27.0000 
1069.2384   12.2500    5.3913   10.8467   37.6563    2.3684    3.7107 -999.0000   92.6709    2.2079   -0.0028    0.2394    1.6239   27.0000   27.0000 
1069.3908   12.2500    5.3888   10.6212   41.1250    2.3050    3.5566 -999.0000   94.4316    2.2016   -0.0033    0.2455    1.6398   27.0000   27.0000 
1069.5432   12.2500    5.3776   10.3965   44.2813    2.2886    3.4985 -999.0000   95.0979    2.2020   -0.0030    0.2466    1.6743   27.0000   27.0000 
1069.6956   12.2500    5.3661   10.1729   47.2500    2.3625    3.6135 -999.0000   95.2960    2.2076   -0.0021    0.2406    1.7025   27.0000   27.0000 
1069.8480   12.2500    5.3616   10.0381   47.1250    2.4884    3.8192 -999.0000   94.6855    2.2132   -0.0020    0.2355    1.7095   27.0000   27.0000 
1070.0004   12.2500    5.3621    9.9913   45.8438    2.6104    4.0108 -999.0000   93.4951    2.2193   -0.0028    0.2370    1.7148   27.0000   27.0000 
1070.1528   12.2500    5.3646    9.9376   47.0938    2.7344    4.2059 -999.0000   92.1836    2.2287   -0.0027    0.2427    1.7461   27.0000   27.0000 
1070.3052   12.2500    5.3672    9.8467   49.0000    2.8385    4.3750 -999.0000   92.2788    2.2372   -0.0012    0.2462    1.7930   27.0000   27.0000 
1070.4576   12.2500    5.3695    9.7891   51.8750    2.8907    4.4653 -999.0000   93.2510    2.2388   -0.0001    0.2482    1.8238   27.0000   27.0000 
1070.6100   12.2500    5.3719    9.8106   49.7188    2.9369    4.5593 -999.0000   94.4062    2.2354   -0.0013    0.2563    1.8290   27.0000   27.0000 
1070.7624   12.2500    5.3737    9.8555   49.2500    3.0243    4.7097 -999.0000   94.3242    2.2345   -0.0039    0.2703    1.8271   27.0000   27.0000 
1070.9148   12.2500    5.3767    9.9161   51.2813    3.0823    4.7958 -999.0000   92.4219    2.2387   -0.0063    0.2793    1.8319   27.0000   27.0000 
1071.0672   12.2500    5.3831   10.1016   55.1250    3.0625    4.7680 -999.0000   90.7695    2.2436   -0.0079    0.2743    1.8299   27.0000   27.0000 
1071.2196   12.2500    5.3918   10.4219   55.5625    3.0479    4.7474 -999.0000   90.2146    2.2458   -0.0082    0.2613    1.8271   27.0000   27.0000 
1071.3720   12.2500    5.4025   10.8233   54.0625    3.0850    4.8150 -999.0000   89.9387    2.2483   -0.0075    0.2520    1.8493   27.0000   27.0000 
1071.5244   12.2500    5.4150   11.2667   51.6563    3.1234    4.9381 -999.0000   89.0928    2.2540   -0.0061    0.2483    1.8827   27.0000   27.0000 
1071.6768   12.2500    5.4266   11.7696   52.3125    3.0905    4.9832 -999.0000   88.8092    2.2567   -0.0043    0.2454    1.8804   27.0000   27.0000 
1071.8292   12.2500    5.4374   12.3546   45.7813    2.9206    4.7499 -999.0000   90.3359    2.2463   -0.0017    0.2435    1.8194   27.0000   27.0000 
1071.9816   12.2500    5.4491   12.9092   38.7500    2.6265    4.2415 -999.0000   92.9297    2.2209    0.0013    0.2486    1.7451   27.0000   27.0000 
1072.1340   12.2500    5.4630   13.3526   32.3125    2.3255    3.7145 -999.0000   95.5234    2.1903    0.0039    0.2616    1.7149   27.0000   27.0000 
1072.2864   12.2500    5.4791   13.6378   30.4063    2.1277    3.3874 -999.0000   97.6416    2.1643    0.0047    0.2761    1.7280   27.0000   27.0000 
1072.4388   12.2500    5.4930   13.7686   30.6250    2.0583    3.2751 -999.0000   98.7034    2.1457    0.0023    0.2865    1.7471   27.0000   27.0000 
1072.5912   12.2500    5.5007   13.6964   32.2188    2.0523    3.2444 -999.0000   98.6470    2.1344   -0.0022    0.2927    1.7458   27.0000   27.0000 
1072.7436   12.2500    5.5081   13.4190   34.7188    2.0397    3.2230 -999.0000   98.2792    2.1313   -0.0065    0.2963    1.7271   27.0000   27.0000 
1072.8960   12.2500    5.5196   13.1885   34.6875    2.0218    3.2026 -999.0000   98.1126    2.1355   -0.0093    0.2977    1.7018   27.0000   27.0000 
1073.0484   12.2500    5.5312   13.0674   34.1563    2.0132    3.1614 -999.0000   97.6304    2.1425   -0.0101    0.2961    1.6819   27.0000   27.0000 
1073.2008   12.2500    5.5430   12.9464   33.5000    2.0045    3.1265 -999.0000   96.4482    2.1508   -0.0089    0.2920    1.6806   27.0000   27.0000 
1073.3532   12.2500    5.5588   12.8799   34.6563    1.9867    3.1181 -999.0000   95.8396    2.1612   -0.0067    0.2894    1.6869   27.0000   27.0000 
1073.5056   12.2500    5.5790   12.9483   34.3125    1.9665    3.1240 -999.0000   96.9170    2.1686   -0.0064    0.2903    1.6832   27.0000   27.0000 
1073.6580   12.2500    5.6066   13.0635   35.2500    1.9578    3.1484 -999.0000   98.4619    2.1646   -0.0105    0.2920    1.6680   27.0000   27.0000 
1073.8104   12.2500    5.6429   13.1065   34.3438    1.9570    3.1733 -999.0000   99.6924    2.1510   -0.0176    0.2922    1.6526   27.0000   27.0000 
1073.9628   12.2500    5.6730   13.0499   34.4375    1.9702    3.2105 -999.0000  101.0019    2.1401   -0.0244    0.2950    1.6544   27.0000   27.0000 
1074.1152   12.2500    5.6888   12.9796   35.7188    2.0025    3.2958 -999.0000  100.9912    2.1398   -0.0286    0.2990    1.6808   27.0000   27.0000 
