~VERSION INFORMATION
 VERS.                 2.0:   CWLS LOG ASCII STANDARD - VERSION 2.0
 WRAP.                  NO:   SINGLE LINE PER DEPTH STEP
 CREA.                 12/01/2018 09:22:08
#CREATED USING DSPetro VERSION 5000.10.1.3 BY H191660 ON 12/01/2018 09:22:08
~WELL INFORMATION
#MNEM.UNIT       DATA                          DESCRIPTION MNEMONIC
#---------      ---------------------------   --------------------------
 STRT    .M         0.0000                    : START DEPTH
 STOP    .M         1999.9452                 : STOP DEPTH
 STEP    .M         0.1524                    : STEP VALUE
 NULL    .      -999.0000                     : NULL VALUE
 DATE    .      12/01/2018                    : LAS file Creation Date
 WELL .      2575-Perindi-1              : Well Name
 COMP .      Neftex Exploration Insights : Company
 FLD  .                                  : Field
 UWI  .      ZAUWL_005981                : Unique Well Identifier (UWI)
 LOC  .                                  : Location
 RWS  .      -999                        : Def_Rw
 WST  .      -999                        : Def_Rwt
 SRVC .                                  : Contractor
~CURVE INFORMATION
#MNEM              UNIT       API CODE   Curve Type Comments
#----------  --------------- ----------  ---------- -----------
 DEPTH      .M                         : Depth       
 BitSize    .in                        : bitSize     
 CAL_CM     .inch                      : caliper     Caliper Log - A representation of the measured diameter of a borehole along its depth
 SP_MV      .mv                        : SP          Spontaneous Potential - Records the electrical potential produced by the interaction of formation water, conductive drilling mud, and certain ion-sele
 GR_API     .API                       : gammaRay    Gamma Ray (API) - Measures the intensity of natural gamma-ray radiation emitted from formations containing radioactive elements, such as K, Th and U
 LLS_OHMM   .ohmm                      : shalRes     Laterlog Shallow Resistivity - one to two feet into the formation; generally considered to measure the formation
 LLD_OHMM   .ohmm                      : deepRes     Laterlog Deep Resistivity - Measurement made several feet into the formation; generally considered a measurement of the undisturbed formation
 ILD_OHMM   .ohmm                      : deepRes     Deep Induction Resistivity - Measurement made an induction log, made several feet into the formation
 DT_US_FT   .us/ft                     : sonic       Interval Transit Time: Compressional Wave - Evaluates the time it takes for a compressional wave to traverse a fixed distance
 RHOB_G_CC  .g/cc                      : density     Bulk Density - Measures the density of bulk material, including any void space or other materials contained in the subject volume
 DRHO_G_CC  .g/cc                      : drho        Density Correction - Investigates the correction to the Bulk Density log; used as an indication of hole condition to validate the Bulk Density measure
 NPHI_V/V   .dec                       : Neutron     
 PEF_B_E    .b/e-                      : PEF         Photoelectric Factor - A log of photoelectric absorption properties. Often expressed in an approximation unit barns/electron (b/e-)
 LITH       .                          : LITH        Lithology Curve
 LITH_v2    .                          : LITH        Lithology Curve
~A  DEPTH  BitSize    CAL_CM    SP_MV     GR_API   LLS_OHMM  LLD_OHMM  ILD_OHMM  DT_US_FT RHOB_G_C  DRHO_G_C   NPHI_V/V  PEF_B_E     LITH    LITH_v2  
# ...
1768.9068   12.2500    5.6369    8.2336   18.1406    4.1236    4.5196 -999.0000   73.2012    2.3714    0.0057    0.1777    1.9901   27.0000   27.0000 
1769.0592   12.2500    5.6441    8.2386   17.5625    4.2212    4.6200 -999.0000   72.4365    2.3924    0.0058    0.1610    1.9551   27.0000   27.0000 
1769.2116   12.2500    5.6414    8.1420   20.3281    4.3195    4.6961 -999.0000   71.8047    2.3954    0.0055    0.1560    1.8395   27.0000   27.0000 
1769.3640   12.2500    5.6076    8.1997   18.9688    4.4798    4.8397 -999.0000   72.2578    2.3826    0.0030    0.1643    1.7508   27.0000   27.0000 
1769.5164   12.2500    5.5363    8.3961   18.3750    4.7822    5.1553 -999.0000   73.5454    2.3717    0.0003    0.1752    1.7519   27.0000   27.0000 
1769.6688   12.2500    5.4574    8.4304   16.1563    5.1219    5.5395 -999.0000   72.9673    2.3724   -0.0015    0.1782    1.8098   27.0000   27.0000 
1769.8212   12.2500    5.4200    8.3182   16.3750    5.3573    5.8100 -999.0000   72.7715    2.3769   -0.0032    0.1719    1.8583   27.0000   27.0000 
1769.9736   12.2500    5.4432    8.3251   16.0781    5.5848    6.0478 -999.0000   73.5774    2.3715   -0.0048    0.1618    1.8809   27.0000   27.0000 
1770.1260   12.2500    5.5068    8.5137   18.8125    5.9411    6.4913 -999.0000   73.5654    2.3581   -0.0010    0.1513    1.8865   27.0000   27.0000 
1770.2784   12.2500    5.5839    8.8819   20.7188    6.4061    7.0940 -999.0000   72.9615    2.3606    0.0207    0.1409    1.8692   27.0000   27.0000 
1770.4308   12.2500    5.6681    9.2345   22.3906    6.8674    7.6032 -999.0000   72.9915    2.3912    0.0621    0.1362    1.8225   27.0000   27.0000 
1770.5832   12.2500    5.8013    9.3157   22.9375    7.0998    7.7521 -999.0000   73.1270    2.4205    0.0937    0.1442    1.7761   27.0000   27.0000 
1770.7356   12.2500    5.9794    9.2054   24.8594    7.0252    7.4897 -999.0000   73.2109    2.4172    0.0853    0.1675    1.7683   27.0000   27.0000 
1770.8880   12.2500    6.1186    9.2299   26.4375    6.9048    7.2013 -999.0000   75.4101    2.3910    0.0480    0.1979    1.8036   22.0000   18.0000 
1771.0404   12.2500    6.1971    9.4459   27.5000    6.9283    7.1469 -999.0000   75.9594    2.3719    0.0156    0.2201    1.8400   22.0000   18.0000 
1771.1928   12.2500    6.2478    9.7047   26.1406    7.0808    7.2344 -999.0000   75.7427    2.3688    0.0041    0.2303    1.8262   22.0000   18.0000 
1771.3452   12.2500    6.2859    9.9773   26.4375    7.3109    7.3925 -999.0000   75.7432    2.3657    0.0043    0.2346    1.7726   22.0000   18.0000 
1771.4976   12.2500    6.3091   10.1658   29.1875    7.6821    7.7475 -999.0000   76.7090    2.3591    0.0083    0.2407    1.7496   22.0000   18.0000 
1771.6500   12.2500    6.3002   10.1395   32.7500    8.4489    8.5909 -999.0000   77.6729    2.3594    0.0123    0.2489    1.8249   18.0000   18.0000 
1771.8024   12.2500    6.2348    9.9258   35.0313    9.6098    9.9150 -999.0000   71.8437    2.3745    0.0105    0.2492    1.9722   18.0000   18.0000 
1771.9548   12.2500    6.1465    9.6358   38.7188   10.6096   11.0833 -999.0000   70.7798    2.4068    0.0066    0.2353    2.0914   18.0000   18.0000 
1772.1072   12.2500    6.1058    9.0529   47.1875   10.7680   11.2268 -999.0000   70.9460    2.4505    0.0153    0.2092    2.1233   18.0000   18.0000 
1772.2596   12.2500    6.1084    7.8458   52.7188    9.9039   10.1304 -999.0000   71.9785    2.4997    0.0496    0.1873    2.0814   18.0000   18.0000 
1772.4120   12.2500    6.1350    6.6701   52.9375    8.6424    8.6446 -999.0000   75.9140    2.5336    0.0918    0.1896    2.0066   22.0000   22.0000 
1772.5644   12.2500    6.2002    6.1915   48.8750    7.7974    7.6918 -999.0000   78.1855    2.5267    0.1045    0.2149    1.9328   22.0000   22.0000 
1772.7168   12.2500    6.2811    6.0255   47.3125    7.6556    7.5168 -999.0000   80.0840    2.4864    0.0805    0.2435    1.9003   22.0000   22.0000 
1772.8692   12.2500    6.3177    6.0040   49.4063    8.0725    7.9659 -999.0000   79.6387    2.4439    0.0471    0.2577    1.9304   18.0000   22.0000 
1773.0216   12.2500    6.2893    6.1603   51.8125    8.6145    8.5764 -999.0000   76.7578    2.4244    0.0306    0.2589    1.9898   18.0000   22.0000 
1773.1740   12.2500    6.2371    6.2912   49.6563    8.8102    8.7903 -999.0000   74.7949    2.4210    0.0363    0.2566    2.0252   18.0000   22.0000 
1773.3264   12.2500    6.1939    6.4044   42.8125    8.4425    8.3649 -999.0000   73.1289    2.4061    0.0591    0.2464    1.9631   18.0000   22.0000 
1773.4788   12.2500    6.1744    6.5490   33.2813    7.6892    7.5465 -999.0000   73.5762    2.3741    0.1015    0.2235    1.7789   18.0000   22.0000 
1773.6312   12.2500    6.2079    6.5119   29.7344    7.0503    6.8691 -999.0000   77.4765    2.3224    0.1602    0.1981    1.5852   27.0000   27.0000 
1773.7836   12.2500    6.1917    6.2677   27.3750    6.8350    6.6448 -999.0000   80.7148    2.2643    0.2099    0.1836    1.4848   27.0000   27.0000 
1773.9360   12.2500    6.0710    5.9806   30.1563    7.0194    6.8538 -999.0000   83.4609    2.2316    0.2086    0.1771    1.5230   11.0000   11.0000 
1774.0884   12.2500    6.0341    5.6290   32.1250    7.5246    7.4007 -999.0000   82.0703    2.2464    0.1442    0.1652    1.6837   11.0000   11.0000 
1774.2408   12.2500    6.1116    5.1896   36.3750    8.2357    8.1464 -999.0000   77.1835    2.3191    0.0656    0.1499    1.8594   27.0000   27.0000 
1774.3932   12.2500    6.1379    4.6134   37.4063    8.9844    8.9649 -999.0000   74.2412    2.3934    0.0161    0.1436    2.0121   27.0000   27.0000 
1774.5456   12.2500    5.9820    3.8790   40.8750    9.6977    9.8302 -999.0000   73.3584    2.4127   -0.0013    0.1458    2.1465   27.0000   27.0000 
1774.6980   12.2500    5.7406    3.0353   45.0938   10.1255   10.4165 -999.0000   72.0957    2.3695    0.0029    0.1431    2.1007   27.0000   27.0000 
1774.8504   12.2500    5.6646    4.4162   50.0938   10.0256   10.3949 -999.0000   71.0391    2.2682    0.0262    0.1293    1.8347   11.0000   27.0000 
1775.0028   12.2500    5.7391    8.3419   55.7188    9.7040   10.0815 -999.0000   73.1250    2.1426    0.0609    0.1253    1.5754   11.0000   27.0000 
1775.1552   12.2500    5.7620   10.5470   62.2500    9.4783    9.8435 -999.0000   75.7427    2.0587    0.0744    0.1560    1.4771   11.0000   27.0000 
1775.3076   12.2500    5.6934   10.6720   71.0625    9.6098    9.9708 -999.0000   74.6797    2.0749    0.0501    0.2020    1.5740   11.0000   36.0000 
1775.4600   12.2500    5.6869   10.6681   70.8125   10.2403   10.6316 -999.0000   72.3427    2.2234    0.0208    0.2172    1.7703   27.0000   36.0000 
1775.6124   12.2500    5.8157   10.6759   70.0625   10.9391   11.3685 -999.0000   70.5137    2.4241    0.0130    0.1868    1.9727   18.0000   36.0000 
1775.7648   12.2500    5.8831   10.8165   65.8125   11.2293   11.6814 -999.0000   69.3046    2.5167    0.0142    0.1429    2.1038   18.0000   36.0000 
1775.9172   12.2500    5.7676   11.0275   67.6875   11.0339   11.5151 -999.0000   71.5703    2.5175    0.0325    0.1225    2.0581   18.0000   36.0000 
1776.0696   12.2500    5.6655   11.1837   62.7188   10.6764   11.1690 -999.0000   72.2820    2.5126    0.0730    0.1305    1.9210   18.0000   36.0000 
1776.2220   12.2500    5.6713   11.2462   57.5625   10.4049   10.9234 -999.0000   72.3918    2.5078    0.0996    0.1569    1.8646   18.0000   36.0000 
1776.3744   12.2500    5.7072   11.2228   51.3750   10.2046   10.7705 -999.0000   72.6001    2.5020    0.0823    0.1860    1.9545   18.0000   36.0000 
1776.5268   12.2500    5.7355   11.1056   46.3438   10.0700   10.6249 -999.0000   72.5881    2.4961    0.0360    0.2046    2.0993   18.0000   12.0000 
1776.6792   12.2500    5.7274   10.8595   41.7813    9.9125   10.3979 -999.0000   72.4918    2.5037    0.0105    0.2129    2.1843   18.0000   12.0000 
1776.8316   12.2500    5.6820   10.6017   38.4375    9.7450   10.1817 -999.0000   72.2773    2.5192    0.0142    0.2151    2.2514   18.0000   12.0000 
