~VERSION INFORMATION
 VERS.                 2.0:   CWLS LOG ASCII STANDARD - VERSION 2.0
 WRAP.                  NO:   SINGLE LINE PER DEPTH STEP
 CREA.                 12/01/2018 09:22:08
#CREATED USING DSPetro VERSION 5000.10.1.3 BY H191660 ON 12/01/2018 09:22:08
~WELL INFORMATION
#MNEM.UNIT       DATA                          DESCRIPTION MNEMONIC
#---------      ---------------------------   --------------------------
 STRT    .M         0.0000                    : START DEPTH
 STOP    .M         1999.9452                 : STOP DEPTH
 STEP    .M         0.1524                    : STEP VALUE
 NULL    .      -999.0000                     : NULL VALUE
 DATE    .      12/01/2018                    : LAS file Creation Date
 WELL .      2575-Perindi-1              : Well Name
 COMP .      Neftex Exploration Insights : Company
 FLD  .                                  : Field
 UWI  .      ZAUWL_005981                : Unique Well Identifier (UWI)
 LOC  .                                  : Location
 RWS  .      -999                        : Def_Rw
 WST  .      -999                        : Def_Rwt
 SRVC .                                  : Contractor
~CURVE INFORMATION
#MNEM              UNIT       API CODE   Curve Type Comments
#----------  --------------- ----------  ---------- -----------
 DEPTH      .M                         : Depth       
 BitSize    .in                        : bitSize     
 CAL_CM     .inch                      : caliper     Caliper Log - A representation of the measured diameter of a borehole along its depth
 SP_MV      .mv                        : SP          Spontaneous Potential - Records the electrical potential produced by the interaction of formation water, conductive drilling mud, and certain ion-sele
 GR_API     .API                       : gammaRay    Gamma Ray (API) - Measures the intensity of natural gamma-ray radiation emitted from formations containing radioactive elements, such as K, Th and U
 LLS_OHMM   .ohmm                      : shalRes     Laterlog Shallow Resistivity - one to two feet into the formation; generally considered to measure the formation
 LLD_OHMM   .ohmm                      : deepRes     Laterlog Deep Resistivity - Measurement made several feet into the formation; generally considered a measurement of the undisturbed formation
 ILD_OHMM   .ohmm                      : deepRes     Deep Induction Resistivity - Measurement made an induction log, made several feet into the formation
 DT_US_FT   .us/ft                     : sonic       Interval Transit Time: Compressional Wave - Evaluates the time it takes for a compressional wave to traverse a fixed distance
 RHOB_G_CC  .g/cc                      : density     Bulk Density - Measures the density of bulk material, including any void space or other materials contained in the subject volume
 DRHO_G_CC  .g/cc                      : drho        Density Correction - Investigates the correction to the Bulk Density log; used as an indication of hole condition to validate the Bulk Density measure
 NPHI_V/V   .dec                       : Neutron     
 PEF_B_E    .b/e-                      : PEF         Photoelectric Factor - A log of photoelectric absorption properties. Often expressed in an approximation unit barns/electron (b/e-)
 LITH       .                          : LITH        Lithology Curve
 LITH_v2    .                          : LITH        Lithology Curve
~A  DEPTH  BitSize    CAL_CM    SP_MV     GR_API   LLS_OHMM  LLD_OHMM  ILD_OHMM  DT_US_FT RHOB_G_C  DRHO_G_C   NPHI_V/V  PEF_B_E     LITH    LITH_v2  
# ...
1324.6608   12.2500    5.1663   34.4804   22.4063    3.1199    6.5063 -999.0000   93.0784    2.2170   -0.0106    0.2504    1.6718   27.0000   27.0000 
1324.8132   12.2500    5.1709   34.7278   21.7031    3.1149    6.4280 -999.0000   92.2871    2.2187   -0.0106    0.2536    1.6690   27.0000   27.0000 
1324.9656   12.2500    5.1737   35.0142   21.4219    3.0991    6.3279 -999.0000   91.0673    2.2255   -0.0066    0.2525    1.6778   27.0000   27.0000 
1325.1180   12.2500    5.1737   35.1679   22.3906    3.1497    6.3557 -999.0000   89.7539    2.2365   -0.0026    0.2468    1.6922   27.0000   27.0000 
1325.2704   12.2500    5.1735   35.1926   23.0781    3.2535    6.5125 -999.0000   88.5664    2.2481   -0.0007    0.2383    1.7097   27.0000   27.0000 
1325.4228   12.2500    5.1735   35.1900   23.7188    3.3128    6.6014 -999.0000   87.1210    2.2558   -0.0006    0.2280    1.7218   27.0000   27.0000 
1325.5752   12.2500    5.1759   35.2655   23.6563    3.2951    6.5394 -999.0000   86.3051    2.2569   -0.0012    0.2206    1.7232   27.0000   27.0000 
1325.7276   12.2500    5.1823   35.3879   24.2344    3.2597    6.4794 -999.0000   85.5742    2.2538   -0.0013    0.2185    1.7236   27.0000   27.0000 
1325.8800   12.2500    5.1875   35.3970   27.0781    3.3532    6.7727 -999.0000   85.2400    2.2533   -0.0012    0.2205    1.7403   27.0000   27.0000 
1326.0324   12.2500    5.1889   35.2030   32.0625    3.5723    7.3866 -999.0000   85.4230    2.2597   -0.0026    0.2221    1.7738   27.0000   27.0000 
1326.1848   12.2500    5.1889   34.8136   37.2813    3.7027    7.7115 -999.0000   86.5117    2.2681   -0.0058    0.2195    1.7912   27.0000   27.0000 
1326.3372   12.2500    5.1901   34.3345   36.2500    3.7255    7.5529 -999.0000   88.6914    2.2657   -0.0081    0.2170    1.7723   27.0000   27.0000 
1326.4896   12.2500    5.2044   33.8377   33.7813    3.7047    7.2000 -999.0000   90.1603    2.2532   -0.0028    0.2210    1.7571   27.0000   27.0000 
1326.6420   12.2500    5.2517   33.4015   32.2813    3.6424    6.9857 -999.0000   90.4995    2.2496    0.0150    0.2312    1.7992   27.0000   27.0000 
1326.7944   12.2500    5.3355   33.0220   35.1250    3.6981    7.1886 -999.0000   91.0938    2.2634    0.0384    0.2412    1.8832   27.0000   27.0000 
1326.9468   12.2500    5.4308   32.5428   35.1875    3.9531    7.6235 -999.0000   91.8833    2.2757    0.0496    0.2490    1.9482   27.0000   27.0000 
1327.0992   12.2500    5.4966   32.0011   36.1875    4.2121    7.8388 -999.0000   92.4082    2.2673    0.0397    0.2579    1.9619   27.0000   27.0000 
1327.2516   12.2500    5.5186   31.6684   36.2188    4.2920    7.6897 -999.0000   93.2734    2.2475    0.0216    0.2691    1.9412   18.0000   27.0000 
1327.4040   12.2500    5.5196   31.5838   38.0625    4.2983    7.3824 -999.0000   93.8239    2.2342    0.0114    0.2793    1.9284   18.0000   27.0000 
1327.5564   12.2500    5.5178   31.6320   32.7813    4.3572    7.1463 -999.0000   93.4577    2.2277    0.0115    0.2867    1.9358   18.0000   27.0000 
1327.7088   12.2500    5.5147   31.7875   30.0156    4.3927    6.9414 -999.0000   93.2022    2.2208    0.0159    0.2922    1.9347   18.0000   27.0000 
1327.8612   12.2500    5.5078   31.9823   28.3906    4.3542    6.6581 -999.0000   92.6562    2.2112    0.0176    0.2959    1.9067   18.0000   27.0000 
1328.0136   12.2500    5.4936   32.0538   31.1875    4.3043    6.4092 -999.0000   92.5341    2.2000    0.0133    0.2991    1.8557   18.0000   27.0000 
1328.1660   12.2500    5.4616   32.7875   30.2031    4.2700    6.2563 -999.0000   93.2856    2.1907    0.0088    0.3034    1.8080   18.0000   27.0000 
1328.3184   12.2500    5.3898   34.5329   28.3750    4.1956    6.1193 -999.0000   92.9840    2.1857    0.0082    0.3059    1.7735   18.0000   27.0000 
1328.4708   12.2500    5.2998   35.4816   29.2969    4.1316    6.1068 -999.0000   92.9736    2.1875    0.0083    0.3022    1.7391   18.0000   27.0000 
1328.6232   12.2500    5.2302   35.0532   32.0625    4.3393    6.6578 -999.0000   91.5039    2.2018    0.0049    0.2921    1.7318   18.0000   27.0000 
1328.7756   12.2500    5.1781   34.5935   29.5781    5.1926    8.4336 -999.0000   88.1953    2.2386   -0.0015    0.2778    1.8124   18.0000   27.0000 
1328.9280   12.2500    5.1526   34.2628   26.4688    6.7938   11.3547 -999.0000   79.1758    2.3035   -0.0058    0.2529    2.0343   18.0000   27.0000 
1329.0804   12.2500    5.1542   33.2075   25.8906    9.5087   15.3472 -999.0000   73.9512    2.3859   -0.0055    0.2151    2.4069   18.0000   27.0000 
1329.2328   12.2500    5.1609   31.8005   31.2344   13.6945   20.1279 -999.0000   71.4258    2.4639   -0.0025    0.1880    2.8879   39.0000   39.0000 
1329.3852   12.2500    5.1621   30.7432   33.4375   17.8184   23.9735 -999.0000   70.2402    2.5237    0.0004    0.2026    3.4001   39.0000   39.0000 
1329.5376   12.2500    5.1583   29.9282   33.3125   22.6042   30.0740 -999.0000   72.3262    2.5715    0.0008    0.2537    3.8289   39.0000   39.0000 
1329.6900   12.2500    5.1538   29.0290   32.3125   31.9499   44.9033 -999.0000   68.2305    2.6145   -0.0001    0.2927    4.0434   39.0000   39.0000 
1329.8424   12.2500    5.1502   27.9522   33.6875   40.9612   59.4772 -999.0000   64.7852    2.6407   -0.0003    0.2841    4.0647   39.0000   39.0000 
1329.9948   12.2500    5.1489   27.1009   37.0625   40.8700   59.0020 -999.0000   64.8662    2.6359    0.0006    0.2467    4.0731   39.0000   39.0000 
1330.1472   12.2500    5.1489   26.5466   38.3125   35.1187   49.3847 -999.0000   66.6191    2.6089    0.0012    0.2251    4.1696   39.0000   39.0000 
1330.2996   12.2500    5.1489   26.1787   40.0625   31.3185   43.2432 -999.0000   69.9453    2.5830    0.0003    0.2355    4.3157   39.0000   39.0000 
1330.4520   12.2500    5.1465   26.0491   39.0000   31.6239   43.7587 -999.0000   70.1572    2.5742   -0.0022    0.2594    4.4139   39.0000   39.0000 
1330.6044   12.2500    5.1412   26.2771   39.3750   34.7808   49.1508 -999.0000   68.7724    2.5857   -0.0065    0.2742    4.3834   39.0000   39.0000 
1330.7568   12.2500    5.1374   26.9190   37.2188   36.4681   52.8219 -999.0000   66.6328    2.6040   -0.0119    0.2688    4.3035   39.0000   39.0000 
1330.9092   12.2500    5.1316   27.6634   35.6250   32.5913   47.7509 -999.0000   65.3979    2.6139   -0.0145    0.2547    4.2871   39.0000   39.0000 
1331.0616   12.2500    5.1212   28.2047   33.0625   24.2498   35.4062 -999.0000   66.6210    2.6059   -0.0115    0.2535    4.0600   39.0000   39.0000 
1331.2140   12.2500    5.1134   28.6983   32.0938   16.0752   23.3058 -999.0000   70.4336    2.5694   -0.0055    0.2723    3.3830   39.0000   39.0000 
1331.3664   12.2500    5.1080   29.4281   30.5313   10.5468   15.1270 -999.0000   74.5937    2.5063    0.0003    0.2908    2.5889   27.0000   27.0000 
1331.5188   12.2500    5.0994   30.1442   28.3594    7.3685   10.3319 -999.0000   78.9492    2.4316    0.0031    0.2813    2.0406   27.0000   27.0000 
1331.6712   12.2500    5.0883   30.5654   27.7031    5.8174    7.9506 -999.0000   81.2665    2.3662    0.0027    0.2487    1.7672   27.0000   27.0000 
1331.8236   12.2500    5.0820   30.8480   27.6719    5.2332    6.9931 -999.0000   82.3897    2.3223    0.0005    0.2176    1.6657   27.0000   27.0000 
1331.9760   12.2500    5.0806   31.1364   29.9219    5.2416    6.9397 -999.0000   83.1342    2.2995   -0.0021    0.2004    1.6540   27.0000   27.0000 
1332.1284   12.2500    5.0792   31.3544   30.5938    5.7663    7.7296 -999.0000   82.4336    2.2927   -0.0034    0.1940    1.7019   27.0000   27.0000 
1332.2808   12.2500    5.0789   31.3714   32.2188    6.5396    9.0767 -999.0000   81.4419    2.2949   -0.0039    0.1919    1.7620   27.0000   27.0000 
1332.4332   12.2500    5.0795   31.1676   35.0625    7.1468   10.4003 -999.0000   81.3178    2.3003   -0.0042    0.1943    1.7682   27.0000   27.0000 
1332.5856   12.2500    5.0796   30.8134   36.5313    7.3084   11.0061 -999.0000   81.4410    2.3046   -0.0048    0.1989    1.7230   27.0000   27.0000 
