~VERSION INFORMATION
 VERS.                 2.0:   CWLS LOG ASCII STANDARD - VERSION 2.0
 WRAP.                  NO:   SINGLE LINE PER DEPTH STEP
 CREA.                 12/01/2018 09:22:08
#CREATED USING DSPetro VERSION 5000.10.1.3 BY H191660 ON 12/01/2018 09:22:08
~WELL INFORMATION
#MNEM.UNIT       DATA                          DESCRIPTION MNEMONIC
#---------      ---------------------------   --------------------------
 STRT    .M         0.0000                    : START DEPTH
 STOP    .M         1999.9452                 : STOP DEPTH
 STEP    .M         0.1524                    : STEP VALUE
 NULL    .      -999.0000                     : NULL VALUE
 DATE    .      12/01/2018                    : LAS file Creation Date
 WELL .      2575-Perindi-1              : Well Name
 COMP .      Neftex Exploration Insights : Company
 FLD  .                                  : Field
 UWI  .      ZAUWL_005981                : Unique Well Identifier (UWI)
 LOC  .                                  : Location
 RWS  .      -999                        : Def_Rw
 WST  .      -999                        : Def_Rwt
 SRVC .                                  : Contractor
~CURVE INFORMATION
#MNEM              UNIT       API CODE   Curve Type Comments
#----------  --------------- ----------  ---------- -----------
 DEPTH      .M                         : Depth       
 BitSize    .in                        : bitSize     
 CAL_CM     .inch                      : caliper     Caliper Log - A representation of the measured diameter of a borehole along its depth
 SP_MV      .mv                        : SP          Spontaneous Potential - Records the electrical potential produced by the interaction of formation water, conductive drilling mud, and certain ion-sele
 GR_API     .API                       : gammaRay    Gamma Ray (API) - Measures the intensity of natural gamma-ray radiation emitted from formations containing radioactive elements, such as K, Th and U
 LLS_OHMM   .ohmm                      : shalRes     Laterlog Shallow Resistivity - one to two feet into the formation; generally considered to measure the formation
 LLD_OHMM   .ohmm                      : deepRes     Laterlog Deep Resistivity - Measurement made several feet into the formation; generally considered a measurement of the undisturbed formation
 ILD_OHMM   .ohmm                      : deepRes     Deep Induction Resistivity - Measurement made an induction log, made several feet into the formation
 DT_US_FT   .us/ft                     : sonic       Interval Transit Time: Compressional Wave - Evaluates the time it takes for a compressional wave to traverse a fixed distance
 RHOB_G_CC  .g/cc                      : density     Bulk Density - Measures the density of bulk material, including any void space or other materials contained in the subject volume
 DRHO_G_CC  .g/cc                      : drho        Density Correction - Investigates the correction to the Bulk Density log; used as an indication of hole condition to validate the Bulk Density measure
 NPHI_V/V   .dec                       : Neutron     
 PEF_B_E    .b/e-                      : PEF         Photoelectric Factor - A log of photoelectric absorption properties. Often expressed in an approximation unit barns/electron (b/e-)
 LITH       .                          : LITH        Lithology Curve
 LITH_v2    .                          : LITH        Lithology Curve
~A  DEPTH  BitSize    CAL_CM    SP_MV     GR_API   LLS_OHMM  LLD_OHMM  ILD_OHMM  DT_US_FT RHOB_G_C  DRHO_G_C   NPHI_V/V  PEF_B_E     LITH    LITH_v2  
# ...
 888.4920   12.2500    6.4837    8.3110   21.0938    2.1378    4.4766 -999.0000   93.2763    2.1891    0.0124    0.2857    1.8706   27.0000   27.0000 
 888.6444   12.2500    6.5397    8.7070   22.1406    2.1245    4.4829 -999.0000   93.7553    2.1809    0.0092    0.2915    1.8681   27.0000   27.0000 
 888.7968   12.2500    6.5507    9.1508   22.8438    2.1262    4.5186 -999.0000   93.6559    2.1795    0.0076    0.2954    1.8267   27.0000   27.0000 
 888.9492   12.2500    6.5172    9.4375   23.5781    2.1448    4.5699 -999.0000   93.4432    2.1837    0.0038    0.2957    1.7709   27.0000   27.0000 
 889.1016   12.2500    6.5022    9.6523   21.9375    2.1787    4.6172 -999.0000   93.1555    2.1913    0.0000    0.2911    1.7378   27.0000   27.0000 
 889.2540   12.2500    6.5159    9.7587   18.9375    2.2143    4.6663 -999.0000   92.6682    2.1984   -0.0009    0.2798    1.7363   27.0000   27.0000 
 889.4064   12.2500    6.5316    9.6557   21.7656    2.2458    4.7447 -999.0000   92.2509    2.2005   -0.0003    0.2645    1.7642   27.0000   27.0000 
 889.5588   12.2500    6.5576    9.4067   26.3906    2.2713    4.8546 -999.0000   92.0085    2.1989    0.0009    0.2502    1.8188   27.0000   27.0000 
 889.7112   12.2500    6.6145    9.4897   30.5156    2.2927    4.9650 -999.0000   91.7217    2.2012    0.0052    0.2463    1.8862   27.0000   27.0000 
 889.8636   12.2500    6.6713   10.7163   28.9219    2.3207    5.0628 -999.0000   91.6372    2.2105    0.0142    0.2569    1.9326   27.0000   27.0000 
 890.0160   12.2500    6.6901   12.3886   25.1563    2.3413    5.1055 -999.0000   91.7459    2.2211    0.0229    0.2713    1.9288   27.0000   27.0000 
 890.1684   12.2500    6.6817   12.8808   23.6875    2.3525    5.0857 -999.0000   91.8494    2.2238    0.0226    0.2803    1.8932   27.0000   27.0000 
 890.3208   12.2500    6.6626   12.2256   23.6875    2.3612    5.0520 -999.0000   92.0368    2.2181    0.0150    0.2812    1.8625   27.0000   27.0000 
 890.4732   12.2500    6.6461   10.9389   23.1406    2.3701    5.0239 -999.0000   91.8229    2.2138    0.0108    0.2763    1.8508   27.0000   27.0000 
 890.6256   12.2500    6.6566    9.4726   22.5938    2.3758    5.0132 -999.0000   91.3062    2.2152    0.0133    0.2730    1.8576   27.0000   27.0000 
 890.7780   12.2500    6.6876    8.6303   22.6719    2.3764    5.0048 -999.0000   91.3460    2.2172    0.0154    0.2736    1.8781   27.0000   27.0000 
 890.9304   12.2500    6.7053    8.2714   24.2813    2.3772    4.9736 -999.0000   91.6393    2.2144    0.0127    0.2741    1.9099   27.0000   27.0000 
 891.0828   12.2500    6.7159    7.8581   25.0781    2.3478    4.9061 -999.0000   91.3090    2.2079    0.0096    0.2700    1.9337   27.0000   27.0000 
 891.2352   12.2500    6.7469    7.5007   23.9531    2.3001    4.7977 -999.0000   90.8303    2.2035    0.0126    0.2618    1.9258   27.0000   27.0000 
 891.3876   12.2500    6.7895    7.4245   22.6250    2.2688    4.6840 -999.0000   91.1096    2.2014    0.0211    0.2563    1.9078   27.0000   27.0000 
 891.5400   12.2500    6.8110    7.4488   21.7031    2.2366    4.5767 -999.0000   91.5307    2.1991    0.0315    0.2590    1.9174   27.0000   27.0000 
 891.6924   12.2500    6.8084    7.4342   24.4063    2.2183    4.4612 -999.0000   91.3261    2.1980    0.0425    0.2718    1.9560   27.0000   27.0000 
 891.8448   12.2500    6.8064    7.5068   24.1406    2.2255    4.3449 -999.0000   91.6389    2.2001    0.0540    0.2918    1.9832   27.0000   27.0000 
 891.9972   12.2500    6.8154    7.5263   23.4688    2.2172    4.2248 -999.0000   91.6591    2.2057    0.0657    0.3044    1.9756   27.0000   27.0000 
 892.1496   12.2500    6.8389    7.3600   20.5469    2.1954    4.1065 -999.0000   91.1233    2.2111    0.0734    0.2965    1.9484   27.0000   27.0000 
 892.3020   12.2500    6.8554    7.1707   22.8906    2.1929    4.0205 -999.0000   90.8100    2.2122    0.0717    0.2773    1.9237   27.0000   27.0000 
 892.4544   12.2500    6.8439    7.0516   24.5781    2.2052    3.9753 -999.0000   91.2890    2.2081    0.0617    0.2669    1.9220   27.0000   27.0000 
 892.6068   12.2500    6.8380    6.9472   25.8438    2.2245    3.9353 -999.0000   91.5116    2.2016    0.0526    0.2683    1.9474   27.0000   27.0000 
 892.7592   12.2500    6.8619    6.7085   24.8281    2.2525    3.8647 -999.0000   91.4133    2.1970    0.0560    0.2678    1.9884   27.0000   27.0000 
 892.9116   12.2500    6.9093    6.4243   25.6094    2.2401    3.7272 -999.0000   91.3638    2.1969    0.0754    0.2625    2.0206   27.0000   27.0000 
 893.0640   12.2500    6.9862    6.3148   23.0156    2.1441    3.4955 -999.0000   92.4130    2.2009    0.1028    0.2660    2.0314   27.0000   27.0000 
 893.2164   12.2500    7.0712    6.2924   22.8281    2.0256    3.2303 -999.0000   93.8657    2.2044    0.1229    0.2809    2.0269   27.0000   27.0000 
 893.3688   12.2500    7.1195    6.1371   21.0313    1.9689    3.0741 -999.0000   94.8975    2.2020    0.1272    0.2955    2.0180   27.0000   27.0000 
 893.5212   12.2500    7.1178    5.8335   29.7188    2.0734    3.2569 -999.0000   94.9921    2.1985    0.1221    0.3024    2.0202   27.0000   27.0000 
 893.6736   12.2500    7.0924    5.5546   40.8438    2.4678    4.0088 -999.0000   94.1108    2.2106    0.1122    0.3062    2.0310   37.0000   37.0000 
 893.8260   12.2500    7.0715    5.3332   50.2188    3.3240    5.7111 -999.0000   92.4785    2.2507    0.0937    0.3058    2.0370   36.0000   36.0000 
 893.9784   12.2500    7.0543    5.1216   56.0313    4.7417    8.6384 -999.0000   90.0273    2.3097    0.0656    0.2909    2.0245   36.0000   36.0000 
 894.1308   12.2500    7.0624    4.9497   61.0313    6.2383   11.5973 -999.0000   87.7089    2.3601    0.0371    0.2665    1.9935   36.0000   36.0000 
 894.2832   12.2500    7.1176    4.7800   67.8125    7.0835   12.9944 -999.0000   86.2602    2.3835    0.0200    0.2504    1.9736   36.0000   36.0000 
 894.4356   12.2500    7.1810    4.6443   69.4375    7.2551   13.0031 -999.0000   85.4993    2.3847    0.0103    0.2532    1.9794   36.0000   36.0000 
 894.5880   12.2500    7.2278    4.5093   67.2500    7.0639   12.2618 -999.0000   85.4559    2.3794    0.0043    0.2606    1.9986   36.0000   36.0000 
 894.7404   12.2500    7.2629    4.2501   63.2188    6.5510   10.9098 -999.0000   85.7191    2.3741    0.0041    0.2603    2.0194   36.0000   36.0000 
 894.8928   12.2500    7.2770    3.9783   61.2813    5.8698    9.4248 -999.0000   85.7581    2.3628    0.0062    0.2601    2.0412   36.0000   36.0000 
 895.0452   12.2500    7.2744    3.8518   61.5000    5.3858    8.4222 -999.0000   86.1093    2.3438    0.0076    0.2686    2.0698   36.0000   36.0000 
 895.1976   12.2500    7.2756    3.8391   62.2188    5.2765    8.1582 -999.0000   87.3472    2.3285    0.0092    0.2852    2.0653   36.0000   36.0000 
 895.3500   12.2500    7.2995    3.7903   61.5000    5.5652    8.6803 -999.0000   87.6782    2.3288    0.0124    0.2930    2.0311   36.0000   36.0000 
 895.5024   12.2500    7.3518    3.6258   57.1875    6.1721    9.7530 -999.0000   87.2080    2.3427    0.0157    0.2830    2.0421   36.0000   36.0000 
 895.6548   12.2500    7.4161    3.4231   59.0000    6.7117   10.6016 -999.0000   86.2910    2.3552    0.0154    0.2716    2.0807   36.0000   36.0000 
 895.8072   12.2500    7.4627    3.3294   59.1563    6.7655   10.5286 -999.0000   84.9526    2.3565    0.0133    0.2802    2.0675   36.0000   36.0000 
 895.9596   12.2500    7.4749    3.2654   59.7500    6.2883    9.5495 -999.0000   84.1353    2.3473    0.0139    0.3041    1.9965   36.0000   36.0000 
 896.1120   12.2500    7.4552    3.0291   57.2813    5.6555    8.3825 -999.0000   84.1557    2.3325    0.0193    0.3169    1.9534   36.0000   36.0000 
 896.2644   12.2500    7.4155    2.7615   58.6875    5.2510    7.6803 -999.0000   84.8223    2.3223    0.0281    0.3040    1.9829   36.0000   36.0000 
 896.4168   12.2500    7.3828    2.6189   58.7188    5.1769    7.5914 -999.0000   86.0693    2.3215    0.0318    0.2812    2.0172   36.0000   36.0000 
