~VERSION INFORMATION
 VERS.                 2.0:   CWLS LOG ASCII STANDARD - VERSION 2.0
 WRAP.                  NO:   SINGLE LINE PER DEPTH STEP
 CREA.                 12/01/2018 09:22:08
#CREATED USING DSPetro VERSION 5000.10.1.3 BY H191660 ON 12/01/2018 09:22:08
~WELL INFORMATION
#MNEM.UNIT       DATA                          DESCRIPTION MNEMONIC
#---------      ---------------------------   --------------------------
 STRT    .M         0.0000                    : START DEPTH
 STOP    .M         1999.9452                 : STOP DEPTH
 STEP    .M         0.1524                    : STEP VALUE
 NULL    .      -999.0000                     : NULL VALUE
 DATE    .      12/01/2018                    : LAS file Creation Date
 WELL .      2575-Perindi-1              : Well Name
 COMP .      Neftex Exploration Insights : Company
 FLD  .                                  : Field
 UWI  .      ZAUWL_005981                : Unique Well Identifier (UWI)
 LOC  .                                  : Location
 RWS  .      -999                        : Def_Rw
 WST  .      -999                        : Def_Rwt
 SRVC .                                  : Contractor
~CURVE INFORMATION
#MNEM              UNIT       API CODE   Curve Type Comments
#----------  --------------- ----------  ---------- -----------
 DEPTH      .M                         : Depth       
 BitSize    .in                        : bitSize     
 CAL_CM     .inch                      : caliper     Caliper Log - A representation of the measured diameter of a borehole along its depth
 SP_MV      .mv                        : SP          Spontaneous Potential - Records the electrical potential produced by the interaction of formation water, conductive drilling mud, and certain ion-sele
 GR_API     .API                       : gammaRay    Gamma Ray (API) - Measures the intensity of natural gamma-ray radiation emitted from formations containing radioactive elements, such as K, Th and U
 LLS_OHMM   .ohmm                      : shalRes     Laterlog Shallow Resistivity - one to two feet into the formation; generally considered to measure the formation
 LLD_OHMM   .ohmm                      : deepRes     Laterlog Deep Resistivity - Measurement made several feet into the formation; generally considered a measurement of the undisturbed formation
 ILD_OHMM   .ohmm                      : deepRes     Deep Induction Resistivity - Measurement made an induction log, made several feet into the formation
 DT_US_FT   .us/ft                     : sonic       Interval Transit Time: Compressional Wave - Evaluates the time it takes for a compressional wave to traverse a fixed distance
 RHOB_G_CC  .g/cc                      : density     Bulk Density - Measures the density of bulk material, including any void space or other materials contained in the subject volume
 DRHO_G_CC  .g/cc                      : drho        Density Correction - Investigates the correction to the Bulk Density log; used as an indication of hole condition to validate the Bulk Density measure
 NPHI_V/V   .dec                       : Neutron     
 PEF_B_E    .b/e-                      : PEF         Photoelectric Factor - A log of photoelectric absorption properties. Often expressed in an approximation unit barns/electron (b/e-)
 LITH       .                          : LITH        Lithology Curve
 LITH_v2    .                          : LITH        Lithology Curve
~A  DEPTH  BitSize    CAL_CM    SP_MV     GR_API   LLS_OHMM  LLD_OHMM  ILD_OHMM  DT_US_FT RHOB_G_C  DRHO_G_C   NPHI_V/V  PEF_B_E     LITH    LITH_v2  
# ...
1155.0396   12.2500    6.4838   -2.1358   90.5000    7.1992    7.6959 -999.0000   98.5974    2.3823   -0.0017    0.2917    2.2864   37.0000   37.0000 
1155.1920   12.2500    6.4838   -2.1388   89.9375    7.2065    7.6987 -999.0000   98.5266    2.3855   -0.0014    0.2846    2.3554   37.0000   37.0000 
1155.3444   12.2500    6.4817   -2.1731   89.6875    7.2065    7.6950 -999.0000   98.4570    2.3890   -0.0002    0.2803    2.4271   37.0000   37.0000 
1155.4968   12.2500    6.4736   -2.1371   89.2500    7.1912    7.6819 -999.0000   98.5054    2.3905    0.0003    0.2844    2.4502   37.0000   37.0000 
1155.6492   12.2500    6.4608   -1.9840   89.6875    7.1897    7.6447 -999.0000   98.6764    2.3887   -0.0008    0.2920    2.4247   37.0000   37.0000 
1155.8016   12.2500    6.4510   -1.8142   90.0000    7.2057    7.6159 -999.0000   98.6790    2.3864   -0.0034    0.2951    2.4002   37.0000   37.0000 
1155.9540   12.2500    6.4474   -1.7528   93.8750    7.2169    7.6309 -999.0000   98.6790    2.3857   -0.0068    0.2916    2.4019   37.0000   37.0000 
1156.1064   12.2500    6.4469   -1.7607   93.5625    7.2483    7.6632 -999.0000   98.6305    2.3861   -0.0098    0.2871    2.4086   37.0000   37.0000 
1156.2588   12.2500    6.4408   -1.7911   88.1875    7.3087    7.7119 -999.0000   98.4192    2.3872   -0.0113    0.2890    2.3938   37.0000   37.0000 
1156.4112   12.2500    6.4255   -1.9153   87.3750    7.3661    7.7840 -999.0000   98.1164    2.3906   -0.0104    0.2971    2.3551   37.0000   37.0000 
1156.5636   12.2500    6.3990   -2.0541   87.6250    7.4092    7.8442 -999.0000   97.9256    2.3979   -0.0073    0.3023    2.3227   37.0000   37.0000 
1156.7160   12.2500    6.3662   -2.1919   91.0000    7.4302    7.8586 -999.0000   97.7006    2.4070   -0.0037    0.3009    2.3117   37.0000   37.0000 
1156.8684   12.2500    6.3193   -2.3845   93.1250    7.4219    7.8407 -999.0000   97.6166    2.4124   -0.0013    0.2955    2.3227   37.0000   37.0000 
1157.0208   12.2500    6.2654   -2.5301   93.5625    7.3918    7.8037 -999.0000   97.4634    2.4107    0.0000    0.2891    2.3551   37.0000   37.0000 
1157.1732   12.2500    6.2752   -2.5742   96.1250    7.3656    7.7541 -999.0000   98.0967    2.4047    0.0016    0.2833    2.3969   37.0000   37.0000 
1157.3256   12.2500    6.3364   -2.5792   94.1250    7.3887    7.7515 -999.0000   98.1886    2.3991    0.0031    0.2819    2.4142   37.0000   37.0000 
1157.4780   12.2500    6.3628   -2.5599   90.6250    7.4462    7.7996 -999.0000   98.4858    2.3955    0.0033    0.2860    2.3912   37.0000   37.0000 
1157.6304   12.2500    6.3300   -2.4136   91.0625    7.5276    7.8893 -999.0000   98.1819    2.3939    0.0019    0.2878    2.3502   37.0000   37.0000 
1157.7828   12.2500    6.2916   -2.1256   85.3125    7.7333    8.1517 -999.0000   95.3340    2.3952    0.0003    0.2817    2.3191   37.0000   37.0000 
1157.9352   12.2500    6.3095   -1.8933   85.5000    8.0641    8.5859 -999.0000   92.6387    2.4014   -0.0005    0.2704    2.3032   37.0000   37.0000 
1158.0876   12.2500    6.3059   -1.7567   82.0625    8.2929    8.8717 -999.0000   93.3740    2.4101   -0.0001    0.2632    2.3038   37.0000   37.0000 
1158.2400   12.2500    6.2548   -1.6055   89.6250    8.2474    8.7888 -999.0000   95.3994    2.4131    0.0015    0.2658    2.3376   37.0000   37.0000 
1158.3924   12.2500    6.2598   -1.5334   96.5000    7.9234    8.3698 -999.0000   99.0605    2.4048    0.0028    0.2772    2.3784   37.0000   37.0000 
1158.5448   12.2500    6.2996   -1.5560  100.2500    7.4825    7.8247 -999.0000  102.6015    2.3889    0.0022    0.2959    2.3892   37.0000   37.0000 
1158.6972   12.2500    6.3307   -1.5854  100.6250    7.2137    7.5276 -999.0000  102.2236    2.3777    0.0001    0.3122    2.3789   37.0000   37.0000 
1158.8496   12.2500    6.3450   -1.5904   96.0000    7.1998    7.5584 -999.0000  101.3472    2.3769   -0.0023    0.3163    2.4016   37.0000   37.0000 
1159.0020   12.2500    6.3361   -1.5720   95.3750    7.3029    7.6872 -999.0000  100.6929    2.3815   -0.0049    0.3103    2.4692   37.0000   37.0000 
1159.1544   12.2500    6.3426   -1.6259   88.1875    7.4117    7.7999 -999.0000   99.5674    2.3843   -0.0079    0.3030    2.5118   37.0000   37.0000 
1159.3068   12.2500    6.3452   -1.7451   89.4375    7.4775    7.8701 -999.0000   99.5821    2.3838   -0.0103    0.3000    2.4756   37.0000   37.0000 
1159.4592   12.2500    6.3294   -1.8566   91.3750    7.4930    7.8927 -999.0000   99.5787    2.3843   -0.0111    0.2988    2.3869   37.0000   37.0000 
1159.6116   12.2500    6.3420   -1.9358   98.6875    7.5199    7.9270 -999.0000   99.8081    2.3889   -0.0102    0.2971    2.3275   37.0000   37.0000 
1159.7640   12.2500    6.3720   -2.0160   99.1250    7.6283    8.0613 -999.0000   99.4587    2.3962   -0.0075    0.3001    2.3433   37.0000   37.0000 
1159.9164   12.2500    6.3853   -2.1070   97.3750    7.7918    8.2859 -999.0000   97.9267    2.4015   -0.0036    0.3092    2.3991   37.0000   37.0000 
1160.0688   12.2500    6.3889   -2.2233   91.8750    7.9208    8.4600 -999.0000   96.9263    2.4012   -0.0004    0.3124    2.4262   37.0000   37.0000 
1160.2212   12.2500    6.3930   -2.4969   90.8750    7.9658    8.5116 -999.0000   96.5156    2.3953    0.0001    0.3032    2.4161   37.0000   37.0000 
1160.3736   12.2500    6.4006   -2.8838   89.7500    7.8987    8.4279 -999.0000   96.3431    2.3865   -0.0025    0.2927    2.4210   37.0000   37.0000 
1160.5260   12.2500    6.4078   -3.1730   90.0000    7.7305    8.2310 -999.0000   97.9209    2.3779   -0.0065    0.2892    2.4580   37.0000   37.0000 
1160.6784   12.2500    6.4059   -3.2201   89.9375    7.5793    8.0755 -999.0000   99.7305    2.3718   -0.0087    0.2861    2.4873   37.0000   37.0000 
1160.8308   12.2500    6.4028   -3.1021   91.5625    7.5168    8.0372 -999.0000  100.0437    2.3695   -0.0072    0.2797    2.4948   37.0000   37.0000 
1160.9832   12.2500    6.4013   -3.0387   93.7500    7.5228    8.0725 -999.0000   99.8966    2.3695   -0.0040    0.2811    2.5054   37.0000   37.0000 
1161.1356   12.2500    6.3987   -3.0369   92.7500    7.6167    8.2066 -999.0000   98.8984    2.3716   -0.0020    0.2935    2.5232   37.0000   37.0000 
1161.2880   12.2500    6.4148   -3.0185   87.0625    7.7892    8.4304 -999.0000   97.1875    2.3767   -0.0019    0.3036    2.5195   37.0000   37.0000 
1161.4404   12.2500    6.4450   -2.9385   86.0000    7.9494    8.6223 -999.0000   96.4958    2.3840   -0.0026    0.3042    2.4850   37.0000   37.0000 
1161.5928   12.2500    6.4642   -2.8371   85.5000    8.0250    8.7189 -999.0000   96.3982    2.3902   -0.0037    0.3023    2.4518   37.0000   37.0000 
1161.7452   12.2500    6.4704   -2.7835   88.3125    8.0317    8.7454 -999.0000   96.3701    2.3914   -0.0053    0.3045    2.4308   37.0000   37.0000 
1161.8976   12.2500    6.4715   -2.7300   88.3125    8.0269    8.7477 -999.0000   96.6164    2.3876   -0.0067    0.3070    2.4056   37.0000   37.0000 
1162.0500   12.2500    6.4694   -2.6285   90.8125    8.0458    8.7892 -999.0000   96.4592    2.3835   -0.0075    0.3022    2.3769   37.0000   37.0000 
1162.2024   12.2500    6.4341   -2.4392   87.8750    8.0973    8.8844 -999.0000   95.8447    2.3833   -0.0076    0.2917    2.3665   37.0000   37.0000 
1162.3548   12.2500    6.3828   -2.1776   85.6875    8.1760    8.9997 -999.0000   95.3709    2.3854   -0.0071    0.2848    2.3739   37.0000   37.0000 
1162.5072   12.2500    6.3734   -1.8838   79.6250    8.2686    9.1069 -999.0000   94.5991    2.3859   -0.0059    0.2853    2.3847   37.0000   37.0000 
1162.6596   12.2500    6.3857   -1.6437   77.0000    8.3472    9.1948 -999.0000   94.2573    2.3861   -0.0036    0.2885    2.3927   37.0000   37.0000 
1162.8120   12.2500    6.4061   -1.4866   77.4375    8.4292    9.2900 -999.0000   94.9316    2.3898   -0.0005    0.2896    2.3934   37.0000   37.0000 
1162.9644   12.2500    6.4297   -1.4213   81.8750    8.5282    9.4005 -999.0000   95.4089    2.3958    0.0022    0.2953    2.3865   37.0000   37.0000 
