~VERSION INFORMATION
 VERS.                 2.0:   CWLS LOG ASCII STANDARD - VERSION 2.0
 WRAP.                  NO:   SINGLE LINE PER DEPTH STEP
 CREA.                 12/01/2018 09:22:08
#CREATED USING DSPetro VERSION 5000.10.1.3 BY H191660 ON 12/01/2018 09:22:08
~WELL INFORMATION
#MNEM.UNIT       DATA                          DESCRIPTION MNEMONIC
#---------      ---------------------------   --------------------------
 STRT    .M         0.0000                    : START DEPTH
 STOP    .M         1999.9452                 : STOP DEPTH
 STEP    .M         0.1524                    : STEP VALUE
 NULL    .      -999.0000                     : NULL VALUE
 DATE    .      12/01/2018                    : LAS file Creation Date
 WELL .      2575-Perindi-1              : Well Name
 COMP .      Neftex Exploration Insights : Company
 FLD  .                                  : Field
 UWI  .      ZAUWL_005981                : Unique Well Identifier (UWI)
 LOC  .                                  : Location
 RWS  .      -999                        : Def_Rw
 WST  .      -999                        : Def_Rwt
 SRVC .                                  : Contractor
~CURVE INFORMATION
#MNEM              UNIT       API CODE   Curve Type Comments
#----------  --------------- ----------  ---------- -----------
 DEPTH      .M                         : Depth       
 BitSize    .in                        : bitSize     
 CAL_CM     .inch                      : caliper     Caliper Log - A representation of the measured diameter of a borehole along its depth
 SP_MV      .mv                        : SP          Spontaneous Potential - Records the electrical potential produced by the interaction of formation water, conductive drilling mud, and certain ion-sele
 GR_API     .API                       : gammaRay    Gamma Ray (API) - Measures the intensity of natural gamma-ray radiation emitted from formations containing radioactive elements, such as K, Th and U
 LLS_OHMM   .ohmm                      : shalRes     Laterlog Shallow Resistivity - one to two feet into the formation; generally considered to measure the formation
 LLD_OHMM   .ohmm                      : deepRes     Laterlog Deep Resistivity - Measurement made several feet into the formation; generally considered a measurement of the undisturbed formation
 ILD_OHMM   .ohmm                      : deepRes     Deep Induction Resistivity - Measurement made an induction log, made several feet into the formation
 DT_US_FT   .us/ft                     : sonic       Interval Transit Time: Compressional Wave - Evaluates the time it takes for a compressional wave to traverse a fixed distance
 RHOB_G_CC  .g/cc                      : density     Bulk Density - Measures the density of bulk material, including any void space or other materials contained in the subject volume
 DRHO_G_CC  .g/cc                      : drho        Density Correction - Investigates the correction to the Bulk Density log; used as an indication of hole condition to validate the Bulk Density measure
 NPHI_V/V   .dec                       : Neutron     
 PEF_B_E    .b/e-                      : PEF         Photoelectric Factor - A log of photoelectric absorption properties. Often expressed in an approximation unit barns/electron (b/e-)
 LITH       .                          : LITH        Lithology Curve
 LITH_v2    .                          : LITH        Lithology Curve
~A  DEPTH  BitSize    CAL_CM    SP_MV     GR_API   LLS_OHMM  LLD_OHMM  ILD_OHMM  DT_US_FT RHOB_G_C  DRHO_G_C   NPHI_V/V  PEF_B_E     LITH    LITH_v2  
# ...
 977.3412   12.2500    8.2231   -2.6200   92.1875    3.6669    4.6577 -999.0000  132.4551    1.6617    0.1017    0.4479    1.2571   11.0000   11.0000 
 977.4936   12.2500    7.6426   -2.5929   90.6875    3.6563    4.6524 -999.0000  129.0352    1.6943    0.0936    0.4416    1.5673   11.0000   11.0000 
 977.6460   12.2500    7.0800   -2.6185  100.5000    3.6286    4.5492 -999.0000  128.9727    1.7915    0.0891    0.4277    1.9363   11.0000   11.0000 
 977.7984   12.2500    6.8451   -2.5583   98.4375    3.5403    4.3371 -999.0000  135.7031    1.9169    0.1078    0.4192    2.1101   11.0000   11.0000 
 977.9508   12.2500    6.9350   -2.4121   96.8125    3.3833    4.1159 -999.0000  143.6835    1.9941    0.1419    0.4196    2.0588   11.0000   11.0000 
 978.1032   12.2500    7.0777   -2.3577   93.5625    3.2569    3.9746 -999.0000  147.2538    2.0140    0.1718    0.4219    1.9318   11.0000   11.0000 
 978.2556   12.2500    6.9009   -2.4732   93.8750    3.2422    3.9300 -999.0000  146.3896    2.0099    0.1756    0.4246    1.8567   11.0000   11.0000 
 978.4080   12.2500    6.4304   -2.6141   97.8750    3.2805    3.9421 -999.0000  145.5190    1.9965    0.1429    0.4337    1.8781   11.0000   11.0000 
 978.5604   12.2500    6.2226   -2.6925  101.7500    3.3401    3.9828 -999.0000  145.1924    1.9866    0.0893    0.4477    1.9935   11.0000   11.0000 
 978.7128   12.2500    6.2378   -2.8627  104.6250    3.4329    4.0605 -999.0000  142.5508    1.9925    0.0426    0.4599    2.1288   11.0000   11.0000 
 978.8652   12.2500    5.9885   -3.1892  105.8750    3.5328    4.1458 -999.0000  138.6836    2.0103    0.0280    0.4649    2.1554   11.0000   11.0000 
 979.0176   12.2500    5.6743   -3.5390   97.1250    3.5856    4.1960 -999.0000  133.1093    2.0217    0.0534    0.4569    2.0472   11.0000   11.0000 
 979.1700   12.2500    5.6595   -3.8753   94.1250    3.5572    4.1857 -999.0000  128.3182    2.0169    0.1047    0.4380    1.8980   11.0000   11.0000 
 979.3224   12.2500    5.8602   -4.1509   94.3125    3.5048    4.1462 -999.0000  129.2656    2.0119    0.1578    0.4169    1.8141   11.0000   11.0000 
 979.4748   12.2500    6.0045   -4.3270   97.7500    3.4732    4.1148 -999.0000  135.3086    2.0279    0.1907    0.4054    1.8260   11.0000   11.0000 
 979.6272   12.2500    5.9590   -4.4053   97.3125    3.4645    4.1063 -999.0000  140.1053    2.0651    0.1927    0.4108    1.8995   11.0000   11.0000 
 979.7796   12.2500    5.9317   -4.3842   95.1875    3.4931    4.1499 -999.0000  141.8732    2.0999    0.1652    0.4299    1.9905   11.0000   11.0000 
 979.9320   12.2500    6.0522   -4.3473   97.6875    3.5719    4.2542 -999.0000  141.1151    2.1065    0.1200    0.4497    2.0679   11.0000   11.0000 
 980.0844   12.2500    6.1439   -4.2812  100.0625    3.7087    4.4324 -999.0000  138.5215    2.0926    0.0766    0.4512    2.1296   11.0000   11.0000 
 980.2368   12.2500    6.1774   -4.1701  102.5000    3.8919    4.6672 -999.0000  133.5272    2.0935    0.0502    0.4311    2.1767   11.0000   11.0000 
 980.3892   12.2500    6.2619   -4.0103   97.0000    4.0680    4.8718 -999.0000  128.3182    2.1215    0.0388    0.4065    2.2031   11.0000   11.0000 
 980.5416   12.2500    6.4176   -3.7468   96.1250    4.1866    5.0020 -999.0000  127.4745    2.1554    0.0310    0.3925    2.2034   11.0000   11.0000 
 980.6940   12.2500    6.6121   -3.3506   89.6250    4.2542    5.1002 -999.0000  128.6455    2.1739    0.0237    0.3916    2.1842   11.0000   11.0000 
 980.8464   12.2500    6.5766   -2.7904   94.0000    4.2392    5.1500 -999.0000  130.9922    2.1694    0.0178    0.3966    2.1735   11.0000   11.0000 
 980.9988   12.2500    6.1812   -2.1988   89.0625    4.1376    5.1041 -999.0000  135.0428    2.1484    0.0156    0.4015    2.2031   11.0000   11.0000 
 981.1512   12.2500    5.8457   -1.7245   88.8750    4.0795    5.0557 -999.0000  139.0879    2.1268    0.0183    0.4002    2.2820   11.0000   11.0000 
 981.3036   12.2500    5.7557   -1.3361   87.3750    4.1287    5.1056 -999.0000  133.0975    2.1204    0.0260    0.3875    2.3720   11.0000   11.0000 
 981.4560   12.2500    5.7366   -1.0122   93.8125    4.2263    5.2406 -999.0000  124.4687    2.1337    0.0384    0.3738    2.4201   37.0000   36.0000 
 981.6084   12.2500    5.7125   -0.7585   95.5625    4.3346    5.4043 -999.0000  118.7422    2.1538    0.0512    0.3764    2.4159   37.0000   36.0000 
 981.7608   12.2500    5.6657   -0.4532   94.2500    4.4068    5.5200 -999.0000  115.6874    2.1677    0.0621    0.3992    2.4097   37.0000   36.0000 
 981.9132   12.2500    5.6264   -0.0364   93.8125    4.4387    5.5746 -999.0000  118.2499    2.1743    0.0671    0.4256    2.4278   37.0000   36.0000 
 982.0656   12.2500    5.6209    0.3490   93.3750    4.4905    5.6602 -999.0000  121.9238    2.1774    0.0618    0.4393    2.4123   37.0000   36.0000 
 982.2180   12.2500    5.6410    0.6584   96.7500    4.5462    5.8330 -999.0000  122.2265    2.1808    0.0492    0.4420    2.3373   37.0000   36.0000 
 982.3704   12.2500    5.6608    0.9442   94.6875    4.5588    5.9878 -999.0000  115.6094    2.1895    0.0387    0.4390    2.2489   37.0000   36.0000 
 982.5228   12.2500    5.6315    1.2760   94.0000    4.4675    5.9314 -999.0000  109.1542    2.2030    0.0339    0.4265    2.1842   37.0000   36.0000 
 982.6752   12.2500    5.5180    1.6536   89.6875    4.2535    5.6423 -999.0000  106.2773    2.2125    0.0275    0.4052    2.1447   37.0000   36.0000 
 982.8276   12.2500    5.3322    2.0362   88.1250    3.9648    5.2326 -999.0000  103.4384    2.2139    0.0148    0.3799    2.1072   37.0000   36.0000 
 982.9800   12.2500    5.1577    2.4939   88.5000    3.6451    4.7910 -999.0000  101.9376    2.2127    0.0027    0.3530    2.0615   37.0000   36.0000 
 983.1324   12.2500    5.0793    3.1289   83.6250    3.4000    4.4775 -999.0000  101.9736    2.2153   -0.0007    0.3285    2.0327   37.0000   36.0000 
 983.2848   12.2500    5.0570    4.0036   79.5000    3.2713    4.3682 -999.0000  101.1021    2.2210    0.0034    0.3129    2.0498   37.0000   36.0000 
 983.4372   12.2500    5.0353    4.9553   73.1875    3.2161    4.3881 -999.0000  100.7192    2.2289    0.0082    0.3081    2.1027   37.0000   36.0000 
 983.5896   12.2500    5.0372    5.7735   77.9375    3.2635    4.5375 -999.0000  101.2294    2.2380    0.0098    0.3045    2.1234   37.0000   36.0000 
 983.7420   12.2500    5.0519    6.3560   79.2500    3.3907    4.7741 -999.0000   98.5215    2.2451    0.0092    0.2961    2.0689   37.0000   36.0000 
 983.8944   12.2500    5.0475    6.7404   79.0000    3.4643    4.9192 -999.0000   94.6083    2.2461    0.0077    0.2888    1.9824   37.0000   36.0000 
 984.0468   12.2500    5.0342    7.1778   71.8750    3.4536    4.9362 -999.0000   93.0070    2.2405    0.0046    0.2872    1.9245   37.0000   36.0000 
 984.1992   12.2500    5.0272    7.7784   67.4375    3.4021    4.8890 -999.0000   93.0361    2.2330    0.0005    0.2899    1.9004   37.0000   36.0000 
 984.3516   12.2500    5.0188    8.3937   67.0625    3.2818    4.7521 -999.0000   94.1391    2.2273   -0.0019    0.2940    1.8836   37.0000   36.0000 
 984.5040   12.2500    5.0015    8.8285   68.2500    3.1745    4.6426 -999.0000   94.8715    2.2237   -0.0018    0.2997    1.8765   37.0000   36.0000 
 984.6564   12.2500    4.9883    9.1224   70.6250    3.1993    4.7319 -999.0000   95.8535    2.2211   -0.0016    0.3054    1.8936   37.0000   36.0000 
 984.8088   12.2500    4.9856    9.5030   68.1875    3.3083    4.9814 -999.0000   97.3666    2.2193   -0.0031    0.3079    1.9442   37.0000   36.0000 
 984.9612   12.2500    4.9843   10.1338   68.4375    3.4484    5.3048 -999.0000   96.4641    2.2210   -0.0057    0.3067    2.0238   37.0000   36.0000 
 985.1136   12.2500    4.9798   10.7103   70.3750    3.5595    5.5377 -999.0000   96.2102    2.2242   -0.0064    0.3041    2.0884   37.0000   36.0000 
 985.2660   12.2500    4.9737   10.8970   69.2500    3.5628    5.5152 -999.0000   96.6503    2.2184   -0.0049    0.3030    2.0878   37.0000   36.0000 
