~VERSION INFORMATION
 VERS.                 2.0:   CWLS LOG ASCII STANDARD - VERSION 2.0
 WRAP.                  NO:   SINGLE LINE PER DEPTH STEP
 CREA.                 12/01/2018 09:22:08
#CREATED USING DSPetro VERSION 5000.10.1.3 BY H191660 ON 12/01/2018 09:22:08
~WELL INFORMATION
#MNEM.UNIT       DATA                          DESCRIPTION MNEMONIC
#---------      ---------------------------   --------------------------
 STRT    .M         0.0000                    : START DEPTH
 STOP    .M         1999.9452                 : STOP DEPTH
 STEP    .M         0.1524                    : STEP VALUE
 NULL    .      -999.0000                     : NULL VALUE
 DATE    .      12/01/2018                    : LAS file Creation Date
 WELL .      2575-Perindi-1              : Well Name
 COMP .      Neftex Exploration Insights : Company
 FLD  .                                  : Field
 UWI  .      ZAUWL_005981                : Unique Well Identifier (UWI)
 LOC  .                                  : Location
 RWS  .      -999                        : Def_Rw
 WST  .      -999                        : Def_Rwt
 SRVC .                                  : Contractor
~CURVE INFORMATION
#MNEM              UNIT       API CODE   Curve Type Comments
#----------  --------------- ----------  ---------- -----------
 DEPTH      .M                         : Depth       
 BitSize    .in                        : bitSize     
 CAL_CM     .inch                      : caliper     Caliper Log - A representation of the measured diameter of a borehole along its depth
 SP_MV      .mv                        : SP          Spontaneous Potential - Records the electrical potential produced by the interaction of formation water, conductive drilling mud, and certain ion-sele
 GR_API     .API                       : gammaRay    Gamma Ray (API) - Measures the intensity of natural gamma-ray radiation emitted from formations containing radioactive elements, such as K, Th and U
 LLS_OHMM   .ohmm                      : shalRes     Laterlog Shallow Resistivity - one to two feet into the formation; generally considered to measure the formation
 LLD_OHMM   .ohmm                      : deepRes     Laterlog Deep Resistivity - Measurement made several feet into the formation; generally considered a measurement of the undisturbed formation
 ILD_OHMM   .ohmm                      : deepRes     Deep Induction Resistivity - Measurement made an induction log, made several feet into the formation
 DT_US_FT   .us/ft                     : sonic       Interval Transit Time: Compressional Wave - Evaluates the time it takes for a compressional wave to traverse a fixed distance
 RHOB_G_CC  .g/cc                      : density     Bulk Density - Measures the density of bulk material, including any void space or other materials contained in the subject volume
 DRHO_G_CC  .g/cc                      : drho        Density Correction - Investigates the correction to the Bulk Density log; used as an indication of hole condition to validate the Bulk Density measure
 NPHI_V/V   .dec                       : Neutron     
 PEF_B_E    .b/e-                      : PEF         Photoelectric Factor - A log of photoelectric absorption properties. Often expressed in an approximation unit barns/electron (b/e-)
 LITH       .                          : LITH        Lithology Curve
 LITH_v2    .                          : LITH        Lithology Curve
~A  DEPTH  BitSize    CAL_CM    SP_MV     GR_API   LLS_OHMM  LLD_OHMM  ILD_OHMM  DT_US_FT RHOB_G_C  DRHO_G_C   NPHI_V/V  PEF_B_E     LITH    LITH_v2  
# ...
1502.3592   12.2500    5.5524   -2.7580   38.3125   50.2229   62.7426 -999.0000   58.6404    2.6368    0.0450    0.1607    3.7296   11.0000   11.0000 
1502.5116   12.2500    5.6150   -3.0175   36.5313   48.6805   59.0727 -999.0000   58.7195    2.5991    0.0521    0.1653    3.7426   11.0000   11.0000 
1502.6640   12.2500    5.7576   -3.0622   37.7500   46.4558   54.7889 -999.0000   58.9957    2.5839    0.1242    0.1769    3.5250   11.0000   11.0000 
1502.8164   12.2500    5.9218   -3.0404   38.4688   44.4836   51.7958 -999.0000   59.0747    2.5820    0.2072    0.1909    3.1462   11.0000   11.0000 
1502.9688   12.2500    6.0871   -2.9679   39.4375   44.2205   51.7583 -999.0000   59.4932    2.5545    0.2197    0.2024    2.8022   11.0000   11.0000 
1503.1212   12.2500    6.1759   -2.5672   38.9063   45.7762   54.6371 -999.0000   60.0557    2.5012    0.1600    0.2115    2.7405   11.0000   11.0000 
1503.2736   12.2500    6.0696   -1.9517   37.5938   48.5886   59.5754 -999.0000   60.3459    2.4755    0.0938    0.2168    3.0565   11.0000   11.0000 
1503.4260   12.2500    5.9237   -1.3557   42.7188   51.6533   64.9177 -999.0000   59.6465    2.4944    0.0570    0.2118    3.4189   11.0000   11.0000 
1503.5784   12.2500    5.9046   -1.1816   42.9688   53.8187   69.0385 -999.0000   58.4609    2.5228    0.0493    0.1984    3.4097   11.0000   11.0000 
1503.7308   12.2500    5.8570   -1.6755   46.3438   55.5905   72.8071 -999.0000   58.3021    2.5205    0.0665    0.1919    3.1778   11.0000   11.0000 
1503.8832   12.2500    5.6887   -2.2513   41.8125   57.9955   77.6800 -999.0000   57.7383    2.5034    0.0990    0.1957    3.1479   11.0000   11.0000 
1504.0356   12.2500    5.6050   -2.5734   40.7813   61.4975   84.8799 -999.0000   56.7686    2.4931    0.1093    0.1978    3.4165   11.0000   11.0000 
1504.1880   12.2500    5.6784   -2.6454   39.0313   65.6118   94.0352 -999.0000   56.2930    2.4878    0.0840    0.1889    3.7058   11.0000   11.0000 
1504.3404   12.2500    5.7535   -2.6978   38.1250   67.5832   99.2902 -999.0000   55.9705    2.5123    0.0761    0.1716    3.8234   11.0000   11.0000 
1504.4928   12.2500    5.7911   -2.9105   39.0313   65.3722   95.8436 -999.0000   55.9722    2.5842    0.1250    0.1556    3.8774   11.0000   11.0000 
1504.6452   12.2500    5.8456   -2.7285   39.0313   60.5983   86.7071 -999.0000   56.4497    2.6584    0.1949    0.1502    3.9130   11.0000   11.0000 
1504.7976   12.2500    5.9085   -1.3630   38.3125   55.1701   76.1955 -999.0000   56.7351    2.6578    0.2328    0.1584    3.8057   11.0000   11.0000 
1504.9500   12.2500    5.9753    0.2915   37.5000   50.9968   67.7883 -999.0000   57.3667    2.5782    0.2470    0.1721    3.4994   11.0000   11.0000 
1505.1024   12.2500    6.1330    1.1160   37.0625   49.6418   64.3140 -999.0000   57.4572    2.4779    0.2710    0.1837    3.1076   11.0000   11.0000 
1505.2548   12.2500    6.3776    2.1651   36.2188   49.6564   64.3523 -999.0000   56.8076    2.3897    0.3004    0.1986    2.8057   11.0000   11.0000 
1505.4072   12.2500    6.3944    3.0834   33.3750   49.1418   64.4365 -999.0000   56.4703    2.3203    0.3061    0.2208    2.7422   11.0000   11.0000 
1505.5596   12.2500    6.1771    2.5035   33.0625   47.4113   62.0675 -999.0000   56.9702    2.2908    0.2832    0.2370    2.9908   11.0000   11.0000 
1505.7120   12.2500    6.2479    0.9628   30.8906   44.5194   57.1690 -999.0000   57.9980    2.3328    0.2666    0.2326    3.4006   11.0000   11.0000 
1505.8644   12.2500    6.4695    0.5569   33.2500   41.2782   51.7759 -999.0000   59.0117    2.4422    0.2879    0.2171    3.6381   11.0000   11.0000 
1506.0168   12.2500    6.3630    2.0903   31.7031   38.8184   48.0645 -999.0000   59.7305    2.5544    0.3310    0.2062    3.5469   11.0000   11.0000 
1506.1692   12.2500    6.1357    3.3875   33.3125   37.7934   46.9438 -999.0000   59.4102    2.5947    0.3545    0.1968    3.2994   11.0000   11.0000 
1506.3216   12.2500    6.0281    3.4893   32.3125   38.0278   47.7240 -999.0000   58.8686    2.5626    0.3474    0.1855    3.0976   11.0000   11.0000 
1506.4740   12.2500    6.0509    3.1868   29.9219   38.9052   49.3127 -999.0000   58.7556    2.5249    0.3296    0.1838    2.9711   11.0000   11.0000 
1506.6264   12.2500    6.1826    2.7652   31.7188   40.0563   51.3563 -999.0000   58.6616    2.5220    0.3178    0.1982    2.8847   11.0000   11.0000 
1506.7788   12.2500    6.2647    2.3964   32.8438   41.5041   53.9016 -999.0000   58.6521    2.5265    0.3130    0.2170    2.8110   11.0000   11.0000 
1506.9312   12.2500    6.2100    2.3342   37.6875   43.0276   56.4909 -999.0000   58.9065    2.5060    0.3082    0.2245    2.7999   11.0000   11.0000 
1507.0836   12.2500    6.1327    2.3598   39.7813   44.3871   58.6645 -999.0000   59.2056    2.4836    0.2924    0.2215    3.0093   11.0000   11.0000 
1507.2360   12.2500    6.1436    1.7273   39.2500   45.7668   60.7735 -999.0000   59.2747    2.5038    0.2607    0.2197    3.4425   11.0000   11.0000 
1507.3884   12.2500    6.1835    1.0538   40.9688   47.3105   63.1571 -999.0000   58.6816    2.5753    0.2433    0.2214    3.7443   11.0000   11.0000 
1507.5408   12.2500    6.1676    0.8977   38.8438   48.7542   65.5508 -999.0000   57.7266    2.6478    0.2717    0.2160    3.6497   11.0000   11.0000 
1507.6932   12.2500    6.1622    0.8062   38.9063   49.7670   67.8336 -999.0000   56.8457    2.6590    0.3200    0.1980    3.3606   11.0000   11.0000 
1507.8456   12.2500    6.2704    1.0409   36.4375   50.2356   69.6686 -999.0000   55.8707    2.6027    0.3359    0.1732    3.1895   11.0000   11.0000 
1507.9980   12.2500    6.4139    1.1485   35.5625   50.0643   70.3920 -999.0000   55.7082    2.5384    0.3155    0.1521    3.2292   11.0000   11.0000 
1508.1504   12.2500    6.4026    0.9281   37.0000   48.6624   68.6082 -999.0000   55.7822    2.5307    0.3011    0.1408    3.3939   11.0000   11.0000 
1508.3028   12.2500    6.2077    0.7019   33.1563   44.8975   62.0098 -999.0000   56.4775    2.5858    0.3226    0.1392    3.5552   11.0000   11.0000 
1508.4552   12.2500    6.0176    0.0634   34.5938   38.7242   51.1994 -999.0000   57.2075    2.6523    0.3679    0.1460    3.5947   11.0000   11.0000 
1508.6076   12.2500    5.9617   -0.8894   32.3750   32.0910   40.2352 -999.0000   58.0879    2.6668    0.4052    0.1591    3.4640   11.0000   11.0000 
1508.7600   12.2500    6.0159   -1.3579   34.8750   26.9738   32.2173 -999.0000   59.2393    2.6137    0.4137    0.1761    3.2789   11.0000   11.0000 
1508.9124   12.2500    6.1517   -0.5802   30.6094   23.9677   27.8551 -999.0000   59.9468    2.5363    0.3919    0.1944    3.2490   11.0000   11.0000 
1509.0648   12.2500    6.3087    0.9708   30.7500   22.7849   26.3054 -999.0000   60.7412    2.4968    0.3616    0.2116    3.4786   11.0000   11.0000 
1509.2172   12.2500    6.4135    1.9652   29.1875   22.7657   26.2489 -999.0000   61.4539    2.5252    0.3506    0.2211    3.8216   11.0000   11.0000 
1509.3696   12.2500    6.3912    2.0319   32.5938   23.2225   26.7831 -999.0000   61.4463    2.5983    0.3706    0.2159    4.0253   11.0000   11.0000 
1509.5220   12.2500    6.2482    1.4696   33.8125   23.7416   27.4114 -999.0000   61.3008    2.6689    0.4085    0.2002    3.9748   11.0000   11.0000 
1509.6744   12.2500    6.2061    0.0620   37.6250   24.1965   27.9587 -999.0000   60.9824    2.7053    0.4400    0.1860    3.7242   11.0000   11.0000 
1509.8268   12.2500    6.3322   -1.2401   36.7813   24.6845   28.6075 -999.0000   60.5540    2.7004    0.4531    0.1820    3.4421   11.0000   11.0000 
1509.9792   12.2500    6.4526   -0.7687   34.7500   25.5099   29.8464 -999.0000   60.2598    2.6733    0.4492    0.1877    3.3243   11.0000   11.0000 
1510.1316   12.2500    6.4610    0.3570   34.6563   26.7039   31.7690 -999.0000   59.7817    2.6703    0.4397    0.1969    3.4537   11.0000   11.0000 
1510.2840   12.2500    6.3669    0.6603   34.8438   27.8030   33.7443 -999.0000   59.8328    2.7137    0.4350    0.2042    3.6799   11.0000   11.0000 
