~VERSION INFORMATION
 VERS.                 2.0:   CWLS LOG ASCII STANDARD - VERSION 2.0
 WRAP.                  NO:   SINGLE LINE PER DEPTH STEP
 CREA.                 12/01/2018 09:22:08
#CREATED USING DSPetro VERSION 5000.10.1.3 BY H191660 ON 12/01/2018 09:22:08
~WELL INFORMATION
#MNEM.UNIT       DATA                          DESCRIPTION MNEMONIC
#---------      ---------------------------   --------------------------
 STRT    .M         0.0000                    : START DEPTH
 STOP    .M         1999.9452                 : STOP DEPTH
 STEP    .M         0.1524                    : STEP VALUE
 NULL    .      -999.0000                     : NULL VALUE
 DATE    .      12/01/2018                    : LAS file Creation Date
 WELL .      2575-Perindi-1              : Well Name
 COMP .      Neftex Exploration Insights : Company
 FLD  .                                  : Field
 UWI  .      ZAUWL_005981                : Unique Well Identifier (UWI)
 LOC  .                                  : Location
 RWS  .      -999                        : Def_Rw
 WST  .      -999                        : Def_Rwt
 SRVC .                                  : Contractor
~CURVE INFORMATION
#MNEM              UNIT       API CODE   Curve Type Comments
#----------  --------------- ----------  ---------- -----------
 DEPTH      .M                         : Depth       
 BitSize    .in                        : bitSize     
 CAL_CM     .inch                      : caliper     Caliper Log - A representation of the measured diameter of a borehole along its depth
 SP_MV      .mv                        : SP          Spontaneous Potential - Records the electrical potential produced by the interaction of formation water, conductive drilling mud, and certain ion-sele
 GR_API     .API                       : gammaRay    Gamma Ray (API) - Measures the intensity of natural gamma-ray radiation emitted from formations containing radioactive elements, such as K, Th and U
 LLS_OHMM   .ohmm                      : shalRes     Laterlog Shallow Resistivity - one to two feet into the formation; generally considered to measure the formation
 LLD_OHMM   .ohmm                      : deepRes     Laterlog Deep Resistivity - Measurement made several feet into the formation; generally considered a measurement of the undisturbed formation
 ILD_OHMM   .ohmm                      : deepRes     Deep Induction Resistivity - Measurement made an induction log, made several feet into the formation
 DT_US_FT   .us/ft                     : sonic       Interval Transit Time: Compressional Wave - Evaluates the time it takes for a compressional wave to traverse a fixed distance
 RHOB_G_CC  .g/cc                      : density     Bulk Density - Measures the density of bulk material, including any void space or other materials contained in the subject volume
 DRHO_G_CC  .g/cc                      : drho        Density Correction - Investigates the correction to the Bulk Density log; used as an indication of hole condition to validate the Bulk Density measure
 NPHI_V/V   .dec                       : Neutron     
 PEF_B_E    .b/e-                      : PEF         Photoelectric Factor - A log of photoelectric absorption properties. Often expressed in an approximation unit barns/electron (b/e-)
 LITH       .                          : LITH        Lithology Curve
 LITH_v2    .                          : LITH        Lithology Curve
~A  DEPTH  BitSize    CAL_CM    SP_MV     GR_API   LLS_OHMM  LLD_OHMM  ILD_OHMM  DT_US_FT RHOB_G_C  DRHO_G_C   NPHI_V/V  PEF_B_E     LITH    LITH_v2  
# ...
1857.7560   12.2500    4.8500 -999.0000 -999.0000 -999.0000 -999.0000 -999.0000   51.5105    2.6661    0.0045    0.0235    4.4520   18.0000   18.0000 
1857.9084   12.2500    4.8487 -999.0000 -999.0000 -999.0000 -999.0000 -999.0000   51.1094    2.6718    0.0083    0.0238    4.5735   18.0000   18.0000 
1858.0608   12.2500    4.8482 -999.0000 -999.0000 -999.0000 -999.0000 -999.0000   50.5587    2.6754    0.0129    0.0232    4.6594   18.0000   18.0000 
1858.2132   12.2500    4.8497 -999.0000 -999.0000 -999.0000 -999.0000 -999.0000   50.2422    2.6747    0.0144    0.0215    4.6734   18.0000   18.0000 
1858.3656   12.2500    4.8525 -999.0000 -999.0000 -999.0000 -999.0000 -999.0000   49.2593    2.6709    0.0120    0.0188    4.5805   18.0000   18.0000 
1858.5180   12.2500    4.8546 -999.0000 -999.0000 -999.0000 -999.0000 -999.0000   48.7822    2.6669    0.0083    0.0161    4.4743   18.0000   18.0000 
1858.6704   12.2500    4.8531 -999.0000 -999.0000 -999.0000 -999.0000 -999.0000   48.0371    2.6620    0.0072    0.0139    4.4276   18.0000   18.0000 
1858.8228   12.2500    4.8470 -999.0000 -999.0000 -999.0000 -999.0000 -999.0000   48.5039    2.6515    0.0086    0.0117    4.3789   18.0000   18.0000 
1858.9752   12.2500    4.8424 -999.0000 -999.0000 -999.0000 -999.0000 -999.0000   49.6035    2.6358    0.0118    0.0097    4.2578   18.0000   18.0000 
1859.1276   12.2500    4.8423 -999.0000 -999.0000 -999.0000 -999.0000 -999.0000   51.3189    2.6292    0.0210    0.0088    4.1201   18.0000   18.0000 
1859.2800   12.2500    4.8393 -999.0000 -999.0000 -999.0000 -999.0000 -999.0000   50.9150    2.6469    0.0397    0.0094    4.1025   18.0000   18.0000 
1859.4324   12.2500    4.8329 -999.0000 -999.0000 -999.0000 -999.0000 -999.0000   50.1260    2.6755    0.0556    0.0102    4.1978   18.0000   18.0000 
1859.5848   12.2500 -999.0000 -999.0000 -999.0000 -999.0000 -999.0000 -999.0000 -999.0000 -999.0000 -999.0000 -999.0000 -999.0000   18.0000   18.0000 
1859.7372   12.2500    4.8300 -999.0000 -999.0000 -999.0000 -999.0000 -999.0000   49.1426    2.6871    0.0499    0.0099    4.2524   18.0000   18.0000 
1859.8896   12.2500    4.8338 -999.0000 -999.0000 -999.0000 -999.0000 -999.0000   47.5869    2.6832    0.0270    0.0081    4.2466   18.0000   18.0000 
1860.0420   12.2500    4.8425 -999.0000 -999.0000 -999.0000 -999.0000 -999.0000   47.9585    2.6845    0.0077    0.0057    4.3178   18.0000   18.0000 
1860.1944   12.2500    4.8484 -999.0000 -999.0000 -999.0000 -999.0000 -999.0000   48.3301    2.6945   -0.0005    0.0035    4.4848   18.0000   18.0000 
1860.3468   12.2500    4.8493 -999.0000 -999.0000 -999.0000 -999.0000 -999.0000   48.3489    2.7016   -0.0033    0.0019    4.5367   18.0000   18.0000 
1860.4992   12.2500    4.8495 -999.0000 -999.0000 -999.0000 -999.0000 -999.0000   48.3489    2.7018   -0.0049    0.0010    4.3547   18.0000   18.0000 
1860.6516   12.2500    4.8502 -999.0000 -999.0000 -999.0000 -999.0000 -999.0000   48.5483    2.7031   -0.0053    0.0007    4.1687   18.0000   18.0000 
1860.8040   12.2500    4.8495 -999.0000 -999.0000 -999.0000 -999.0000 -999.0000 -999.0000    2.7089   -0.0042    0.0009    4.2022   18.0000   18.0000 
1860.9564   12.2500    4.8470 -999.0000 -999.0000 -999.0000 -999.0000 -999.0000 -999.0000    2.7124   -0.0028    0.0011    4.3658   18.0000   18.0000 
1861.1088   12.2500    4.8449 -999.0000 -999.0000 -999.0000 -999.0000 -999.0000 -999.0000    2.7081   -0.0024    0.0011    4.5050   18.0000   18.0000 
1861.2612   12.2500    4.8454 -999.0000 -999.0000 -999.0000 -999.0000 -999.0000 -999.0000    2.7001   -0.0031    0.0008    4.5789   18.0000   18.0000 
1861.4136   12.2500    4.8474 -999.0000 -999.0000 -999.0000 -999.0000 -999.0000 -999.0000    2.6963   -0.0038    0.0007    4.6383   18.0000   18.0000 
1861.5660   12.2500    4.8482 -999.0000 -999.0000 -999.0000 -999.0000 -999.0000 -999.0000    2.6987   -0.0042    0.0007    4.7153   18.0000   18.0000 
1861.7184   12.2500    4.8477 -999.0000 -999.0000 -999.0000 -999.0000 -999.0000 -999.0000    2.7034   -0.0040    0.0005    4.7441   18.0000   18.0000 
1861.8708   12.2500    4.8449 -999.0000 -999.0000 -999.0000 -999.0000 -999.0000 -999.0000    2.7067   -0.0023 -999.0000    4.6833   18.0000   18.0000 
1862.0232   12.2500    4.8385 -999.0000 -999.0000 -999.0000 -999.0000 -999.0000 -999.0000    2.7062    0.0000 -999.0000    4.5822   18.0000   18.0000 
1862.1756   12.2500    4.8329 -999.0000 -999.0000 -999.0000 -999.0000 -999.0000 -999.0000    2.7017    0.0014 -999.0000    4.5183   18.0000   18.0000 
1862.3280   12.2500    4.8303 -999.0000 -999.0000 -999.0000 -999.0000 -999.0000 -999.0000    2.6965    0.0020 -999.0000    4.5007   18.0000   18.0000 
1862.4804   12.2500    4.8293 -999.0000 -999.0000 -999.0000 -999.0000 -999.0000 -999.0000    2.6955    0.0043 -999.0000    4.4695   18.0000   18.0000 
1862.6328   12.2500    4.8300 -999.0000 -999.0000 -999.0000 -999.0000 -999.0000 -999.0000    2.6980    0.0081 -999.0000    4.4035   18.0000   18.0000 
1862.7852   12.2500    4.8320 -999.0000 -999.0000 -999.0000 -999.0000 -999.0000 -999.0000    2.7005    0.0099 -999.0000    4.3423   18.0000   18.0000 
1862.9376   12.2500    4.8328 -999.0000 -999.0000 -999.0000 -999.0000 -999.0000 -999.0000    2.7009    0.0085 -999.0000    4.3293   18.0000   18.0000 
1863.0900   12.2500    4.8328 -999.0000 -999.0000 -999.0000 -999.0000 -999.0000 -999.0000    2.6981    0.0070 -999.0000    4.3795   18.0000   18.0000 
1863.2424   12.2500    4.8339 -999.0000 -999.0000 -999.0000 -999.0000 -999.0000 -999.0000    2.6910    0.0083 -999.0000    4.4235   18.0000   18.0000 
1863.3948   12.2500    4.8339 -999.0000 -999.0000 -999.0000 -999.0000 -999.0000 -999.0000    2.6870    0.0204 -999.0000    4.3733   18.0000   18.0000 
1863.5472   12.2500    4.8311 -999.0000 -999.0000 -999.0000 -999.0000 -999.0000 -999.0000    2.6933    0.0437 -999.0000    4.3193   18.0000   18.0000 
1863.6996   12.2500    4.8278 -999.0000 -999.0000 -999.0000 -999.0000 -999.0000 -999.0000    2.6981    0.0594 -999.0000    4.3672   18.0000   18.0000 
1863.8520   12.2500 -999.0000 -999.0000 -999.0000 -999.0000 -999.0000 -999.0000 -999.0000    2.6894    0.0537 -999.0000    4.3914   18.0000   18.0000 
1864.0044   12.2500 -999.0000 -999.0000 -999.0000 -999.0000 -999.0000 -999.0000 -999.0000    2.6698    0.0323 -999.0000    4.2569   18.0000   18.0000 
1864.1568   12.2500 -999.0000 -999.0000 -999.0000 -999.0000 -999.0000 -999.0000 -999.0000    2.6547    0.0147 -999.0000    4.1000   18.0000   18.0000 
1864.3092   12.2500 -999.0000 -999.0000 -999.0000 -999.0000 -999.0000 -999.0000 -999.0000    2.6522    0.0090 -999.0000    4.1608   18.0000   18.0000 
1864.4616   12.2500 -999.0000 -999.0000 -999.0000 -999.0000 -999.0000 -999.0000 -999.0000    2.6570    0.0068 -999.0000    4.4354   18.0000   18.0000 
1864.6140   12.2500 -999.0000 -999.0000 -999.0000 -999.0000 -999.0000 -999.0000 -999.0000    2.6646    0.0033 -999.0000    4.6806   18.0000   18.0000 
1864.7664   12.2500 -999.0000 -999.0000 -999.0000 -999.0000 -999.0000 -999.0000 -999.0000    2.6716   -0.0009 -999.0000    4.7202   18.0000   18.0000 
1864.9188   12.2500 -999.0000 -999.0000 -999.0000 -999.0000 -999.0000 -999.0000 -999.0000    2.6770   -0.0016 -999.0000    4.5961   22.0000   22.0000 
1865.0712   12.2500 -999.0000 -999.0000 -999.0000 -999.0000 -999.0000 -999.0000 -999.0000    2.6822    0.0045 -999.0000    4.4198   22.0000   22.0000 
1865.2236   12.2500 -999.0000 -999.0000 -999.0000 -999.0000 -999.0000 -999.0000 -999.0000    2.6886    0.0154 -999.0000    4.2549 -999.0000 -999.0000 
1865.3760   12.2500 -999.0000 -999.0000 -999.0000 -999.0000 -999.0000 -999.0000 -999.0000    2.6938    0.0247 -999.0000    4.1493 -999.0000 -999.0000 
1865.5284   12.2500 -999.0000 -999.0000 -999.0000 -999.0000 -999.0000 -999.0000 -999.0000    2.6931    0.0261 -999.0000    4.1291 -999.0000 -999.0000 
1865.6808   12.2500 -999.0000 -999.0000 -999.0000 -999.0000 -999.0000 -999.0000 -999.0000    2.6855    0.0191 -999.0000    4.2078 -999.0000 -999.0000 
