~VERSION INFORMATION
 VERS.                 2.0:   CWLS LOG ASCII STANDARD - VERSION 2.0
 WRAP.                  NO:   SINGLE LINE PER DEPTH STEP
 CREA.                 12/01/2018 09:22:08
#CREATED USING DSPetro VERSION 5000.10.1.3 BY H191660 ON 12/01/2018 09:22:08
~WELL INFORMATION
#MNEM.UNIT       DATA                          DESCRIPTION MNEMONIC
#---------      ---------------------------   --------------------------
 STRT    .M         0.0000                    : START DEPTH
 STOP    .M         1999.9452                 : STOP DEPTH
 STEP    .M         0.1524                    : STEP VALUE
 NULL    .      -999.0000                     : NULL VALUE
 DATE    .      12/01/2018                    : LAS file Creation Date
 WELL .      2575-Perindi-1              : Well Name
 COMP .      Neftex Exploration Insights : Company
 FLD  .                                  : Field
 UWI  .      ZAUWL_005981                : Unique Well Identifier (UWI)
 LOC  .                                  : Location
 RWS  .      -999                        : Def_Rw
 WST  .      -999                        : Def_Rwt
 SRVC .                                  : Contractor
~CURVE INFORMATION
#MNEM              UNIT       API CODE   Curve Type Comments
#----------  --------------- ----------  ---------- -----------
 DEPTH      .M                         : Depth       
 BitSize    .in                        : bitSize     
 CAL_CM     .inch                      : caliper     Caliper Log - A representation of the measured diameter of a borehole along its depth
 SP_MV      .mv                        : SP          Spontaneous Potential - Records the electrical potential produced by the interaction of formation water, conductive drilling mud, and certain ion-sele
 GR_API     .API                       : gammaRay    Gamma Ray (API) - Measures the intensity of natural gamma-ray radiation emitted from formations containing radioactive elements, such as K, Th and U
 LLS_OHMM   .ohmm                      : shalRes     Laterlog Shallow Resistivity - one to two feet into the formation; generally considered to measure the formation
 LLD_OHMM   .ohmm                      : deepRes     Laterlog Deep Resistivity - Measurement made several feet into the formation; generally considered a measurement of the undisturbed formation
 ILD_OHMM   .ohmm                      : deepRes     Deep Induction Resistivity - Measurement made an induction log, made several feet into the formation
 DT_US_FT   .us/ft                     : sonic       Interval Transit Time: Compressional Wave - Evaluates the time it takes for a compressional wave to traverse a fixed distance
 RHOB_G_CC  .g/cc                      : density     Bulk Density - Measures the density of bulk material, including any void space or other materials contained in the subject volume
 DRHO_G_CC  .g/cc                      : drho        Density Correction - Investigates the correction to the Bulk Density log; used as an indication of hole condition to validate the Bulk Density measure
 NPHI_V/V   .dec                       : Neutron     
 PEF_B_E    .b/e-                      : PEF         Photoelectric Factor - A log of photoelectric absorption properties. Often expressed in an approximation unit barns/electron (b/e-)
 LITH       .                          : LITH        Lithology Curve
 LITH_v2    .                          : LITH        Lithology Curve
~A  DEPTH  BitSize    CAL_CM    SP_MV     GR_API   LLS_OHMM  LLD_OHMM  ILD_OHMM  DT_US_FT RHOB_G_C  DRHO_G_C   NPHI_V/V  PEF_B_E     LITH    LITH_v2  
# ...
1680.0576   12.2500    5.4491    4.6976   22.1875    2.5974    2.7215 -999.0000   82.3722    2.2832    0.0179    0.2107    1.6277   27.0000   27.0000 
1680.2100   12.2500    5.4414    4.5550   25.3906    2.6032    2.7351 -999.0000   82.3722    2.2756    0.0096    0.2088    1.6668   27.0000   27.0000 
1680.3624   12.2500    5.4473    4.3646   25.4219    2.6070    2.7476 -999.0000   82.4393    2.2752    0.0005    0.2052    1.6779   27.0000   27.0000 
1680.5148   12.2500    5.4720    4.0325   24.1875    2.6388    2.7784 -999.0000   82.4614    2.2822   -0.0072    0.2008    1.6673   27.0000   27.0000 
1680.6672   12.2500    5.4961    3.6653   23.2656    2.6920    2.8385 -999.0000   82.0469    2.2956   -0.0107    0.1976    1.6579   27.0000   27.0000 
1680.8196   12.2500    5.5019    3.3587   22.8125    2.7344    2.8988 -999.0000   81.3955    2.3038   -0.0111    0.1934    1.6317   27.0000   27.0000 
1680.9720   12.2500    5.4914    3.0521   24.0781    2.7379    2.9171 -999.0000   81.2044    2.3006   -0.0093    0.1886    1.5942   27.0000   27.0000 
1681.1244   12.2500    5.4715    2.8256   22.7656    2.7083    2.8577 -999.0000   81.2579    2.2932   -0.0036    0.1883    1.5876   27.0000   27.0000 
1681.2768   12.2500    5.4539    2.7826   22.8125    2.6425    2.7506 -999.0000   81.5019    2.2891    0.0050    0.1948    1.6234   27.0000   27.0000 
1681.4292   12.2500    5.4504    2.8588   23.4219    2.5697    2.6670 -999.0000   82.5308    2.2882    0.0117    0.2033    1.6724   27.0000   27.0000 
1681.5816   12.2500    5.4582    3.0042   25.3125    2.5400    2.6372 -999.0000   82.9818    2.2850    0.0137    0.2097    1.7065   27.0000   27.0000 
1681.7340   12.2500    5.4746    3.2894   26.9844    2.5402    2.6496 -999.0000   83.0928    2.2785    0.0140    0.2144    1.7129   27.0000   27.0000 
1681.8864   12.2500    5.4985    3.6214   28.0156    2.5651    2.6806 -999.0000   83.4874    2.2789    0.0199    0.2237    1.6974   27.0000   27.0000 
1682.0388   12.2500    5.5163    3.8744   27.7656    2.6158    2.7217 -999.0000   83.1484    2.2910    0.0296    0.2405    1.6791   27.0000   27.0000 
1682.1912   12.2500    5.5175    4.0951   25.5313    2.6599    2.7727 -999.0000   82.0605    2.3051    0.0328    0.2544    1.6792   27.0000   27.0000 
1682.3436   12.2500    5.5114    4.3940   23.8750    2.6999    2.8176 -999.0000   82.4688    2.3115    0.0273    0.2527    1.6956   27.0000   27.0000 
1682.4960   12.2500    5.5101    4.7552   21.8906    2.7461    2.8502 -999.0000   81.8760    2.3076    0.0190    0.2348    1.7005   27.0000   27.0000 
1682.6484   12.2500    5.5099    5.0687   24.7344    2.7674    2.8796 -999.0000   80.5635    2.3013    0.0142    0.2189    1.6798   27.0000   27.0000 
1682.8008   12.2500    5.5035    5.3324   25.3750    2.7606    2.8967 -999.0000   80.9180    2.3004    0.0115    0.2132    1.6368   27.0000   27.0000 
1682.9532   12.2500    5.4961    5.5473   28.2969    2.7574    2.8933 -999.0000   80.6973    2.3044    0.0069    0.2104    1.6013   27.0000   27.0000 
1683.1056   12.2500    5.4976    5.6762   27.9219    2.7658    2.8808 -999.0000   81.5137    2.3107    0.0016    0.2056    1.6006   27.0000   27.0000 
1683.2580   12.2500    5.4980    5.6586   27.3125    2.7772    2.8671 -999.0000   80.9551    2.3133   -0.0020    0.1998    1.6283   27.0000   27.0000 
1683.4104   12.2500    5.4791    5.4809   24.7500    2.7913    2.8625 -999.0000   81.1357    2.3100   -0.0014    0.1977    1.6618   27.0000   27.0000 
1683.5628   12.2500    5.4504    5.2328   24.8281    2.8076    2.8971 -999.0000   80.6059    2.3065    0.0032    0.1984    1.6818   27.0000   27.0000 
1683.7152   12.2500    5.4287    4.9203   26.5000    2.8615    2.9820 -999.0000   80.3440    2.3073    0.0076    0.1995    1.6784   27.0000   27.0000 
1683.8676   12.2500    5.4100    4.5375   29.4063    2.9437    3.0722 -999.0000   80.5083    2.3113    0.0076    0.2017    1.6470   27.0000   27.0000 
1684.0200   12.2500    5.3741    4.1635   30.6719    2.9309    3.0724 -999.0000   80.2310    2.3127    0.0048    0.2039    1.5996   27.0000   27.0000 
1684.1724   12.2500    5.3204    3.8852   28.3906    2.7901    2.9219 -999.0000   79.4971    2.3055    0.0050    0.2067    1.5637   27.0000   27.0000 
1684.3248   12.2500    5.2872    3.7475   28.5938    2.6369    2.7173 -999.0000   78.5635    2.2921    0.0133    0.2123    1.5642   27.0000   27.0000 
1684.4772   12.2500    5.2844    3.7025   29.5156    2.6027    2.6647 -999.0000   77.8814    2.2836    0.0273    0.2192    1.6149   27.0000   27.0000 
1684.6296   12.2500    5.2643    3.7133   32.3125    2.7414    2.8623 -999.0000   78.1611    2.2888    0.0348    0.2240    1.7037   27.0000   27.0000 
1684.7820   12.2500    5.2118    3.7182   32.7500    2.9375    3.1237 -999.0000   78.4917    2.3075    0.0286    0.2238    1.7705   27.0000   27.0000 
1684.9344   12.2500    5.1828    3.6518   30.2344    3.0077    3.1814 -999.0000   78.3086    2.3270    0.0154    0.2168    1.7621   27.0000   27.0000 
1685.0868   12.2500    5.2096    3.5600   27.7188    2.8536    2.9766 -999.0000   78.0596    2.3301    0.0053    0.2048    1.7020   27.0000   27.0000 
1685.2392   12.2500    5.2661    3.6255   23.5469    2.5680    2.6398 -999.0000   77.9907    2.3155    0.0006    0.1931    1.6552   27.0000   27.0000 
1685.3916   12.2500    5.3196    3.9350   22.2500    2.3673    2.4079 -999.0000   78.1025    2.2977   -0.0024    0.1884    1.6444   27.0000   27.0000 
1685.5440   12.2500    5.3516    4.2455   21.3281    2.3357    2.3785 -999.0000   78.2520    2.2897   -0.0057    0.1901    1.6481   27.0000   27.0000 
1685.6964   12.2500    5.3550    4.3285   23.4531    2.3917    2.4548 -999.0000   78.1824    2.2918   -0.0083    0.1911    1.6483   27.0000   27.0000 
1685.8488   12.2500    5.3340    4.1528   21.5000    2.4542    2.5512 -999.0000   78.2530    2.2963   -0.0091    0.1884    1.6356   27.0000   27.0000 
1686.0012   12.2500    5.2924    3.8764   23.6563    2.5089    2.6106 -999.0000   78.1794    2.2950   -0.0090    0.1840    1.6166   27.0000   27.0000 
1686.1536   12.2500    5.2258    3.6470   20.2344    2.5446    2.6382 -999.0000   78.3926    2.2877   -0.0066    0.1812    1.5946   27.0000   27.0000 
1686.3060   12.2500    5.1502    3.3765   21.1875    2.5514    2.6549 -999.0000   78.9126    2.2824    0.0003    0.1818    1.5734   27.0000   27.0000 
1686.4584   12.2500    5.1006    2.4897   19.2500    2.5331    2.6358 -999.0000   79.0244    2.2851    0.0107    0.1866    1.5746   27.0000   27.0000 
1686.6108   12.2500    5.0957    0.9570   20.9219    2.4983    2.6005 -999.0000   79.0861    2.2913    0.0184    0.1961    1.6059   27.0000   27.0000 
1686.7632   12.2500    5.1315   -0.1939   19.8906    2.4528    2.5736 -999.0000   79.0249    2.2893    0.0164    0.2087    1.6478   27.0000   27.0000 
1686.9156   12.2500    5.1996   -0.8858   19.9688    2.4225    2.5452 -999.0000   79.1985    2.2788    0.0088    0.2163    1.6664   27.0000   27.0000 
1687.0680   12.2500    5.2815   -1.6165   18.6250    2.4260    2.5364 -999.0000   79.2750    2.2674    0.0038    0.2173    1.6529   27.0000   27.0000 
1687.2204   12.2500    5.3497   -2.2832   17.3906    2.4631    2.5901 -999.0000   79.1340    2.2608    0.0032    0.2183    1.6336   27.0000   27.0000 
1687.3728   12.2500    5.3885   -1.9661   16.7031    2.5333    2.7038 -999.0000   79.0101    2.2631    0.0041    0.2220    1.6283   27.0000   27.0000 
1687.5252   12.2500    5.3970    0.0835   18.3125    2.6184    2.8238 -999.0000   79.3823    2.2748    0.0024    0.2236    1.6392   27.0000   27.0000 
1687.6776   12.2500    5.3930    2.2192   20.2656    2.7287    2.9373 -999.0000   80.2334    2.2916   -0.0019    0.2180    1.6578   27.0000   27.0000 
1687.8300   12.2500    5.3881    2.8462   20.9063    2.8407    3.0295 -999.0000   79.7012    2.3075   -0.0061    0.2091    1.6694   27.0000   27.0000 
1687.9824   12.2500    5.3794    2.6411   23.5313    2.9010    3.0661 -999.0000   79.7678    2.3141   -0.0082    0.2008    1.6621   27.0000   27.0000 
