~VERSION INFORMATION
 VERS.                 2.0:   CWLS LOG ASCII STANDARD - VERSION 2.0
 WRAP.                  NO:   SINGLE LINE PER DEPTH STEP
 CREA.                 01/17/2018 13:37:44
#CREATED USING DSPetro VERSION 5000.10.1.3 BY H191660 ON 01/17/2018 13:37:44
~WELL INFORMATION
#MNEM.UNIT       DATA                          DESCRIPTION MNEMONIC
#---------      ---------------------------   --------------------------
 STRT    .M         0.0000                    : START DEPTH
 STOP    .M         2499.9696                 : STOP DEPTH
 STEP    .M         0.1524                    : STEP VALUE
 NULL    .      -999.0000                     : NULL VALUE
 DATE    .      01/17/2018                    : LAS file Creation Date
 WELL .      2780_Saffron-1              : Well Name
 COMP .      Neftex Exploration Insights : Company
 FLD  .      SAFFRON                     : Field
 UWI  .      ZAUWL_005718                : Unique Well Identifier (UWI)
 LOC  .                                  : Location
 RWS  .      -999                        : Def_Rw
 WST  .      -999                        : Def_Rwt
 SRVC .                                  : Contractor
~CURVE INFORMATION
#MNEM              UNIT       API CODE   Curve Type Comments
#----------  --------------- ----------  ---------- -----------
 DEPTH      .M                         : Depth       
 BS         .in                        : bitSize     
 CAL_INCH   .inch                      : caliper     Caliper Log - A representation of the measured diameter of a borehole along its depth
 SP_MV1     .mv                        : SP          Spontaneous Potential - Records the electrical potential produced by the interaction of formation water, conductive drilling mud, and certain ion-sele
 GR_API     .API                       : gammaRay    Gamma Ray (API) - Measures the intensity of natural gamma-ray radiation emitted from formations containing radioactive elements, such as K, Th and U
 LLD_OHMM   .ohmm                      : deepRes     Laterlog Deep Resistivity - Measurement made several feet into the formation; generally considered a measurement of the undisturbed formation
 LLS_OHMM   .ohmm                      : shalRes     Laterlog Shallow Resistivity - one to two feet into the formation; generally considered to measure the formation
 MSFL_OHMM  .ohmm                      : microRes    Micro-Spherically Focused Log - Measurement involves only the first few inches of the formation immediately adjacent to the borehole
 DT_US_FT   .us/ft                     : sonic       Interval Transit Time: Compressional Wave - Evaluates the time it takes for a compressional wave to traverse a fixed distance
 RHOB_G_CC  .g/cc                      : density     Bulk Density - Measures the density of bulk material, including any void space or other materials contained in the subject volume
 DRHO_G_CC  .g/cc                      : drho        Density Correction - Investigates the correction to the Bulk Density log; used as an indication of hole condition to validate the Bulk Density measure
 NPHI_v_v   .usl                       : neutron     Neutron Porosity - Measured with an neutron logging device calibrated to a given matrix (limestone, sandstone and dolomite) - unscaled
 PEF_B_E    .b/e-                      : PEF         Photoelectric Factor - A log of photoelectric absorption properties. Often expressed in an approximation unit barns/electron (b/e-)
 LITH       .                          : LITH        Lithology Curve
 LITH_v2    .                          : LITH        Lithology Curve
~A  DEPTH     BS     CAL_INCH   SP_MV1    GR_API   LLD_OHMM  LLS_OHMM MSFL_OHM   DT_US_FT RHOB_G_C  DRHO_G_C   NPHI_v_v  PEF_B_E     LITH    LITH_v2  
# ...
1284.2748   12.2500   13.7012    3.1276  102.9682    0.7938    0.7370    0.3896  426.7800 -999.0000 -999.0000 -999.0000 -999.0000 -999.0000 -999.0000 
1284.4272   12.2500   14.0240    4.4775  100.5069    0.8016    0.7411    0.4794  425.1700 -999.0000 -999.0000 -999.0000 -999.0000 -999.0000 -999.0000 
1284.5796   12.2500   14.2344    3.6593   99.1489    0.8041    0.7417    0.4334  424.8684 -999.0000 -999.0000 -999.0000 -999.0000 -999.0000 -999.0000 
1284.7320   12.2500   14.5407    2.9291   97.4597    0.7936    0.7372    0.3403  422.4488 -999.0000 -999.0000 -999.0000 -999.0000 -999.0000 -999.0000 
1284.8844   12.2500   14.6770    3.2004   97.6344    0.7855    0.7308    0.2633  422.0973 -999.0000 -999.0000 -999.0000 -999.0000 -999.0000 -999.0000 
1285.0368   12.2500   15.0116    3.7646  100.5284    0.7814    0.7246    0.2610  423.1199 -999.0000 -999.0000 -999.0000 -999.0000 -999.0000 -999.0000 
1285.1892   12.2500   15.1465    4.7098  102.1282    0.7712    0.7169    0.3052  423.2439 -999.0000 -999.0000 -999.0000 -999.0000 -999.0000 -999.0000 
1285.3416   12.2500   14.9783    3.7904  102.9218    0.7631    0.7073    0.3060  423.2538 -999.0000 -999.0000 -999.0000 -999.0000 -999.0000 -999.0000 
1285.4940   12.2500   14.2829    2.7638   99.6760    0.7612    0.7052    0.2922  421.8983 -999.0000 -999.0000 -999.0000 -999.0000 -999.0000 -999.0000 
1285.6464   12.2500   14.5761    3.4852   98.8122    0.7609    0.7046    0.3605  423.6616 -999.0000 -999.0000 -999.0000 -999.0000 -999.0000 -999.0000 
1285.7988   12.2500   14.0301    4.2168   99.1762    0.7603    0.7046    0.4118  425.1242 -999.0000 -999.0000 -999.0000 -999.0000 -999.0000 -999.0000 
1285.9512   12.2500   13.9905    4.0582   98.4041    0.7570    0.7010    0.4580  424.0775 -999.0000 -999.0000 -999.0000 -999.0000 -999.0000 -999.0000 
1286.1036   12.2500   14.3336    3.7141   94.6536    0.7500    0.6945    0.6452  422.4257 -999.0000 -999.0000 -999.0000 -999.0000 -999.0000 -999.0000 
1286.2560   12.2500   14.7975    4.2841   90.2884    0.7543    0.6983    0.3847  423.2104 -999.0000 -999.0000 -999.0000 -999.0000 -999.0000 -999.0000 
1286.4084   12.2500   14.5214    3.9893   89.8521    0.7767    0.7163    0.3425  421.3830 -999.0000 -999.0000 -999.0000 -999.0000 -999.0000 -999.0000 
1286.5608   12.2500   14.2093    3.3897   91.8225    0.8018    0.7401    0.3437  419.7161 -999.0000 -999.0000 -999.0000 -999.0000 -999.0000 -999.0000 
1286.7132   12.2500   14.0690    3.9191   93.7025    0.8329    0.7671    0.4401  416.4756 -999.0000 -999.0000 -999.0000 -999.0000 -999.0000 -999.0000 
1286.8656   12.2500   14.3551    3.7046   94.5181    0.8632    0.7982    0.3914  412.8670 -999.0000 -999.0000 -999.0000 -999.0000 -999.0000 -999.0000 
1287.0180   12.2500   14.1780    2.6600   95.4110    0.8674    0.8027    0.4546  411.0267 -999.0000 -999.0000 -999.0000 -999.0000 -999.0000 -999.0000 
1287.1704   12.2500   14.0738    2.9164   94.8993    0.8611    0.7947    0.4000  410.0656 -999.0000 -999.0000 -999.0000 -999.0000 -999.0000 -999.0000 
1287.3228   12.2500   13.8873    3.5296   94.3015    0.8426    0.7768    0.3672  411.4882 -999.0000 -999.0000 -999.0000 -999.0000 -999.0000 -999.0000 
1287.4752   12.2500   13.9756    4.0503   94.0510    0.8155    0.7514    0.3325  412.6527 -999.0000 -999.0000 -999.0000 -999.0000 -999.0000 -999.0000 
1287.6276   12.2500   14.1862    3.2054   95.6625    0.7965    0.7327    0.3044  413.9200 -999.0000 -999.0000 -999.0000 -999.0000 -999.0000 -999.0000 
1287.7800   12.2500   13.6892    3.7434   96.8459    0.7945    0.7320    0.3194  420.9998 -999.0000 -999.0000 -999.0000 -999.0000 -999.0000 -999.0000 
1287.9324   12.2500   13.3024    3.6913   98.4220    0.8034    0.7391    0.5194  422.6801 -999.0000 -999.0000 -999.0000 -999.0000 -999.0000 -999.0000 
1288.0848   12.2500   13.2357    2.8144   97.8537    0.8162    0.7511    0.4910  422.9647 -999.0000 -999.0000 -999.0000 -999.0000 -999.0000 -999.0000 
1288.2372   12.2500   13.5228    2.6338   97.5532    0.8245    0.7590    0.4549  423.1251 -999.0000 -999.0000 -999.0000 -999.0000 -999.0000 -999.0000 
1288.3896   12.2500   12.8624    3.6189   94.0110    0.8233    0.7592    0.5467  422.3772 -999.0000 -999.0000 -999.0000 -999.0000 -999.0000 -999.0000 
1288.5420   12.2500   12.5085    3.4546   96.2039    0.8161    0.7505    0.5962  423.7584 -999.0000 -999.0000 -999.0000 -999.0000 -999.0000 -999.0000 
1288.6944   12.2500   12.4229    2.8920   96.3665    0.8042    0.7401    0.7383  423.8726 -999.0000 -999.0000 -999.0000 -999.0000 -999.0000 -999.0000 
1288.8468   12.2500   12.4389    2.7513   96.4204    0.7961    0.7325    0.5575  423.3910 -999.0000 -999.0000 -999.0000 -999.0000 -999.0000 -999.0000 
1288.9992   12.2500   12.4135    2.3540   93.7088    0.7886    0.7245    0.5824  424.2964 -999.0000 -999.0000 -999.0000 -999.0000 -999.0000 -999.0000 
1289.1516   12.2500   12.3631    2.9627   93.5740    0.7827    0.7220    0.5515  425.0081 -999.0000 -999.0000 -999.0000 -999.0000 -999.0000 -999.0000 
1289.3040   12.2500   12.3714    3.2805   93.7895    0.7843    0.7207    0.8143  424.5987 -999.0000 -999.0000 -999.0000 -999.0000 -999.0000 -999.0000 
1289.4564   12.2500   12.4774    2.9011   92.3330    0.7874    0.7244    0.7940  425.6587 -999.0000 -999.0000 -999.0000 -999.0000 -999.0000 -999.0000 
1289.6088   12.2500   12.5307    2.4083   90.8663    0.7884    0.7271    0.8791  426.8036 -999.0000 -999.0000 -999.0000 -999.0000 -999.0000 -999.0000 
1289.7612   12.2500   12.6692    1.5857   89.7950    0.7946    0.7325    0.6614  425.2546 -999.0000 -999.0000 -999.0000 -999.0000 -999.0000 -999.0000 
1289.9136   12.2500   12.7533    2.4392   92.1519    0.8026    0.7421    0.6570  426.4870 -999.0000 -999.0000 -999.0000 -999.0000 -999.0000 -999.0000 
1290.0660   12.2500   12.6854    3.5763   93.3380    0.8170    0.7568    0.7748  425.0958 -999.0000 -999.0000 -999.0000 -999.0000 -999.0000 -999.0000 
1290.2184   12.2500   12.5273    3.4486   93.7117    0.8346    0.7743    0.6651  421.5931 -999.0000 -999.0000 -999.0000 -999.0000 -999.0000 -999.0000 
1290.3708   12.2500   12.3259    2.3282   93.3840    0.8477    0.7870    0.7346  420.1628 -999.0000 -999.0000 -999.0000 -999.0000 -999.0000 -999.0000 
1290.5232   12.2500   12.2512    2.9805   97.4086    0.8517    0.7914    1.0358  421.7701 -999.0000 -999.0000 -999.0000 -999.0000 -999.0000 -999.0000 
1290.6756   12.2500   12.3253    2.6792   99.3983    0.8421    0.7847    1.0228  421.1358 -999.0000 -999.0000 -999.0000 -999.0000 -999.0000 -999.0000 
1290.8280   12.2500   12.6145    2.3442  100.2186    0.8241    0.7688    0.6409  422.0099 -999.0000 -999.0000 -999.0000 -999.0000 -999.0000 -999.0000 
1290.9804   12.2500   12.6557    2.6516   98.8111    0.7964    0.7419    0.5821  425.2449 -999.0000 -999.0000 -999.0000 -999.0000 -999.0000 -999.0000 
1291.1328   12.2500   12.6319    3.1892   98.2049    0.7677    0.7095    0.9931  428.5289 -999.0000 -999.0000 -999.0000 -999.0000 -999.0000 -999.0000 
1291.2852   12.2500   12.4764    2.5608   96.1839    0.7603    0.7046    0.7200  429.0280 -999.0000 -999.0000 -999.0000 -999.0000 -999.0000 -999.0000 
1291.4376   12.2500   12.3533    2.5830   95.0100    0.7597    0.7054    0.8718  428.9348 -999.0000 -999.0000 -999.0000 -999.0000 -999.0000 -999.0000 
1291.5900   12.2500   12.3442    2.7978   93.4282    0.7698    0.7125    1.2542  428.2838 -999.0000 -999.0000 -999.0000 -999.0000 -999.0000 -999.0000 
1291.7424   12.2500   12.2847    2.9242   94.5284    0.7901    0.7268    1.1579  427.7210 -999.0000 -999.0000 -999.0000 -999.0000 -999.0000 -999.0000 
1291.8948   12.2500   12.2790    2.6558   95.9804    0.7918    0.7311    0.7779  426.2136 -999.0000 -999.0000 -999.0000 -999.0000 -999.0000 -999.0000 
1292.0472   12.2500   12.2799    2.3065   97.2651    0.7970    0.7350    0.9735  424.8730 -999.0000 -999.0000 -999.0000 -999.0000 -999.0000 -999.0000 
1292.1996   12.2500   12.2828    2.4250   96.2401    0.8012    0.7411    1.0976  422.5583 -999.0000 -999.0000 -999.0000 -999.0000 -999.0000 -999.0000 
