~VERSION INFORMATION
 VERS.                 2.0:   CWLS LOG ASCII STANDARD - VERSION 2.0
 WRAP.                  NO:   SINGLE LINE PER DEPTH STEP
 CREA.                 01/17/2018 13:37:44
#CREATED USING DSPetro VERSION 5000.10.1.3 BY H191660 ON 01/17/2018 13:37:44
~WELL INFORMATION
#MNEM.UNIT       DATA                          DESCRIPTION MNEMONIC
#---------      ---------------------------   --------------------------
 STRT    .M         0.0000                    : START DEPTH
 STOP    .M         2499.9696                 : STOP DEPTH
 STEP    .M         0.1524                    : STEP VALUE
 NULL    .      -999.0000                     : NULL VALUE
 DATE    .      01/17/2018                    : LAS file Creation Date
 WELL .      2780_Saffron-1              : Well Name
 COMP .      Neftex Exploration Insights : Company
 FLD  .      SAFFRON                     : Field
 UWI  .      ZAUWL_005718                : Unique Well Identifier (UWI)
 LOC  .                                  : Location
 RWS  .      -999                        : Def_Rw
 WST  .      -999                        : Def_Rwt
 SRVC .                                  : Contractor
~CURVE INFORMATION
#MNEM              UNIT       API CODE   Curve Type Comments
#----------  --------------- ----------  ---------- -----------
 DEPTH      .M                         : Depth       
 BS         .in                        : bitSize     
 CAL_INCH   .inch                      : caliper     Caliper Log - A representation of the measured diameter of a borehole along its depth
 SP_MV1     .mv                        : SP          Spontaneous Potential - Records the electrical potential produced by the interaction of formation water, conductive drilling mud, and certain ion-sele
 GR_API     .API                       : gammaRay    Gamma Ray (API) - Measures the intensity of natural gamma-ray radiation emitted from formations containing radioactive elements, such as K, Th and U
 LLD_OHMM   .ohmm                      : deepRes     Laterlog Deep Resistivity - Measurement made several feet into the formation; generally considered a measurement of the undisturbed formation
 LLS_OHMM   .ohmm                      : shalRes     Laterlog Shallow Resistivity - one to two feet into the formation; generally considered to measure the formation
 MSFL_OHMM  .ohmm                      : microRes    Micro-Spherically Focused Log - Measurement involves only the first few inches of the formation immediately adjacent to the borehole
 DT_US_FT   .us/ft                     : sonic       Interval Transit Time: Compressional Wave - Evaluates the time it takes for a compressional wave to traverse a fixed distance
 RHOB_G_CC  .g/cc                      : density     Bulk Density - Measures the density of bulk material, including any void space or other materials contained in the subject volume
 DRHO_G_CC  .g/cc                      : drho        Density Correction - Investigates the correction to the Bulk Density log; used as an indication of hole condition to validate the Bulk Density measure
 NPHI_v_v   .usl                       : neutron     Neutron Porosity - Measured with an neutron logging device calibrated to a given matrix (limestone, sandstone and dolomite) - unscaled
 PEF_B_E    .b/e-                      : PEF         Photoelectric Factor - A log of photoelectric absorption properties. Often expressed in an approximation unit barns/electron (b/e-)
 LITH       .                          : LITH        Lithology Curve
 LITH_v2    .                          : LITH        Lithology Curve
~A  DEPTH     BS     CAL_INCH   SP_MV1    GR_API   LLD_OHMM  LLS_OHMM MSFL_OHM   DT_US_FT RHOB_G_C  DRHO_G_C   NPHI_v_v  PEF_B_E     LITH    LITH_v2  
# ...
1146.9624   12.2500   12.2927    1.4552   55.6333    0.7582    0.6653    1.2651  384.2970 -999.0000 -999.0000 -999.0000 -999.0000 -999.0000 -999.0000 
1147.1148   12.2500   12.2935    2.3206   55.3030    0.7144    0.6288    0.9890  381.3569 -999.0000 -999.0000 -999.0000 -999.0000 -999.0000 -999.0000 
1147.2672   12.2500   12.3090    4.2413   53.0298    0.6813    0.6033    0.8804  380.3770 -999.0000 -999.0000 -999.0000 -999.0000 -999.0000 -999.0000 
1147.4196   12.2500   12.2872    3.8133   51.0075    0.6469    0.5707    0.9124  378.6359 -999.0000 -999.0000 -999.0000 -999.0000 -999.0000 -999.0000 
1147.5720   12.2500   12.2829    3.0321   49.7087    0.6429    0.5641    0.9376  376.5013 -999.0000 -999.0000 -999.0000 -999.0000 -999.0000 -999.0000 
1147.7244   12.2500   12.2840    3.3127   48.2094    0.6494    0.5684    1.0102  375.4597 -999.0000 -999.0000 -999.0000 -999.0000 -999.0000 -999.0000 
1147.8768   12.2500   12.2870    4.2105   47.3661    0.6406    0.5557    0.8928  374.7397 -999.0000 -999.0000 -999.0000 -999.0000 -999.0000 -999.0000 
1148.0292   12.2500   12.2876    5.0674   47.2214    0.6284    0.5520    0.9844  375.4703 -999.0000 -999.0000 -999.0000 -999.0000 -999.0000 -999.0000 
1148.1816   12.2500   12.3075    5.5397   47.0418    0.6342    0.5576    0.8624  375.5880 -999.0000 -999.0000 -999.0000 -999.0000 -999.0000 -999.0000 
1148.3340   12.2500   12.3029    5.7970   47.4410    0.6373    0.5586    0.8879  375.2474 -999.0000 -999.0000 -999.0000 -999.0000 -999.0000 -999.0000 
1148.4864   12.2500   12.2761    5.5083   47.5716    0.6421    0.5657    1.0314  375.4339 -999.0000 -999.0000 -999.0000 -999.0000 -999.0000 -999.0000 
1148.6388   12.2500   12.2754    5.5259   47.3533    0.6730    0.5916    0.9572  376.6632 -999.0000 -999.0000 -999.0000 -999.0000 -999.0000 -999.0000 
1148.7912   12.2500   12.2883    6.0241   47.3201    0.7336    0.6428    1.0805  378.7415 -999.0000 -999.0000 -999.0000 -999.0000 -999.0000 -999.0000 
1148.9436   12.2500   12.2937    6.4168   48.4256    0.7765    0.6794    1.3093  380.3250 -999.0000 -999.0000 -999.0000 -999.0000 -999.0000 -999.0000 
1149.0960   12.2500   12.2843    7.2910   49.1949    0.7872    0.6904    1.2918  382.4196 -999.0000 -999.0000 -999.0000 -999.0000 -999.0000 -999.0000 
1149.2484   12.2500   12.2959    6.9720   49.4913    0.7401    0.6564    1.1060  384.7120 -999.0000 -999.0000 -999.0000 -999.0000 -999.0000 -999.0000 
1149.4008   12.2500   12.2849    5.8648   48.5434    0.7181    0.6409    0.9244  385.8383 -999.0000 -999.0000 -999.0000 -999.0000 -999.0000 -999.0000 
1149.5532   12.2500   12.2759    5.4073   49.8012    0.7242    0.6454    0.9689  386.6218 -999.0000 -999.0000 -999.0000 -999.0000 -999.0000 -999.0000 
1149.7056   12.2500   12.2777    5.3878   51.4860    0.7528    0.6677    1.2444  386.8223 -999.0000 -999.0000 -999.0000 -999.0000 -999.0000 -999.0000 
1149.8580   12.2500   12.2775    6.9105   53.8908    0.7956    0.7035    1.3520  387.4161 -999.0000 -999.0000 -999.0000 -999.0000 -999.0000 -999.0000 
1150.0104   12.2500   12.2815    7.7580   54.5031    0.8196    0.7251    1.3041  387.7710 -999.0000 -999.0000 -999.0000 -999.0000 -999.0000 -999.0000 
1150.1628   12.2500   12.2808    7.9412   53.0513    0.7761    0.6932    1.1589  386.8719 -999.0000 -999.0000 -999.0000 -999.0000 -999.0000 -999.0000 
1150.3152   12.2500   12.2777    8.1117   51.1259    0.7506    0.6747    1.0976  386.7829 -999.0000 -999.0000 -999.0000 -999.0000 -999.0000 -999.0000 
1150.4676   12.2500   12.2769    7.4325   51.8471    0.7703    0.6935    1.1126  387.3756 -999.0000 -999.0000 -999.0000 -999.0000 -999.0000 -999.0000 
1150.6200   12.2500   12.2782    5.7765   55.3355    0.8085    0.7276    1.1937  387.6178 -999.0000 -999.0000 -999.0000 -999.0000 -999.0000 -999.0000 
1150.7724   12.2500   12.2751    6.9122   59.8023    0.8120    0.7288    1.4446  387.7558 -999.0000 -999.0000 -999.0000 -999.0000 -999.0000 -999.0000 
1150.9248   12.2500   12.2769    8.8258   58.7001    0.7966    0.7186    1.2306  388.1385 -999.0000 -999.0000 -999.0000 -999.0000 -999.0000 -999.0000 
1151.0772   12.2500   12.2834    8.5810   57.3470    0.7639    0.6969    1.1051  389.0990 -999.0000 -999.0000 -999.0000 -999.0000 -999.0000 -999.0000 
1151.2296   12.2500   12.2995    7.4365   56.6717    0.7314    0.6704    1.1212  390.7731 -999.0000 -999.0000 -999.0000 -999.0000 -999.0000 -999.0000 
1151.3820   12.2500   12.3087    7.3925   55.7827    0.7307    0.6696    1.1084  391.2852 -999.0000 -999.0000 -999.0000 -999.0000 -999.0000 -999.0000 
1151.5344   12.2500   12.2797    6.6198   56.8020    0.7495    0.6898    1.1515  392.2184 -999.0000 -999.0000 -999.0000 -999.0000 -999.0000 -999.0000 
1151.6868   12.2500   12.2745    6.5746   55.2920    0.7652    0.7047    1.2613  394.5647 -999.0000 -999.0000 -999.0000 -999.0000 -999.0000 -999.0000 
1151.8392   12.2500   12.2743    6.7513   54.7485    0.7831    0.7208    1.1413  397.1636 -999.0000 -999.0000 -999.0000 -999.0000 -999.0000 -999.0000 
1151.9916   12.2500   12.2733    6.4713   53.2394    0.7945    0.7323    1.2580  399.7614 -999.0000 -999.0000 -999.0000 -999.0000 -999.0000 -999.0000 
1152.1440   12.2500   12.2737    6.4179   53.3305    0.8040    0.7444    1.2260  400.4977 -999.0000 -999.0000 -999.0000 -999.0000 -999.0000 -999.0000 
1152.2964   12.2500   12.2834    6.4853   53.6193    0.8085    0.7526    1.1824  401.4403 -999.0000 -999.0000 -999.0000 -999.0000 -999.0000 -999.0000 
1152.4488   12.2500   12.3086    6.2333   52.1116    0.8023    0.7505    1.2588  402.2558 -999.0000 -999.0000 -999.0000 -999.0000 -999.0000 -999.0000 
1152.6012   12.2500   12.3269    5.8199   52.0555    0.8061    0.7560    1.2335  403.0306 -999.0000 -999.0000 -999.0000 -999.0000 -999.0000 -999.0000 
1152.7536   12.2500   12.3149    5.6739   54.9712    0.8199    0.7740    1.2485  403.0535 -999.0000 -999.0000 -999.0000 -999.0000 -999.0000 -999.0000 
1152.9060   12.2500   12.3164    6.4360   61.4197    0.8499    0.7956    1.3808  402.2245 -999.0000 -999.0000 -999.0000 -999.0000 -999.0000 -999.0000 
1153.0584   12.2500   12.3135    6.1202   64.5401    0.8863    0.8295    1.5195  403.2283 -999.0000 -999.0000 -999.0000 -999.0000 -999.0000 -999.0000 
1153.2108   12.2500   12.3147    4.9756   65.8169    0.9181    0.8610    1.5083  405.8839 -999.0000 -999.0000 -999.0000 -999.0000 -999.0000 -999.0000 
1153.3632   12.2500   12.3132    5.3132   66.2996    0.9254    0.8690    1.4068  408.5373 -999.0000 -999.0000 -999.0000 -999.0000 -999.0000 -999.0000 
1153.5156   12.2500   12.3143    6.2881   64.9482    0.8865    0.8319    1.4240  408.6273 -999.0000 -999.0000 -999.0000 -999.0000 -999.0000 -999.0000 
1153.6680   12.2500   12.2981    5.2910   63.3576    0.8431    0.7973    1.3425  410.4848 -999.0000 -999.0000 -999.0000 -999.0000 -999.0000 -999.0000 
1153.8204   12.2500   12.2812    5.1909   62.5871    0.8245    0.7829    1.2320  410.8562 -999.0000 -999.0000 -999.0000 -999.0000 -999.0000 -999.0000 
1153.9728   12.2500   12.2822    6.0259   63.9167    0.8353    0.7888    1.3099  408.7163 -999.0000 -999.0000 -999.0000 -999.0000 -999.0000 -999.0000 
1154.1252   12.2500   12.3161    6.4172   65.7860    0.8634    0.8153    1.3767  406.4479 -999.0000 -999.0000 -999.0000 -999.0000 -999.0000 -999.0000 
1154.2776   12.2500   12.3112    5.3283   66.7812    0.9084    0.8616    1.3483  403.0823 -999.0000 -999.0000 -999.0000 -999.0000 -999.0000 -999.0000 
1154.4300   12.2500   12.3113    5.1223   67.0791    0.9278    0.8810    1.3089  402.4633 -999.0000 -999.0000 -999.0000 -999.0000 -999.0000 -999.0000 
1154.5824   12.2500   12.2996    5.2755   67.1729    0.9147    0.8741    1.2958  403.8972 -999.0000 -999.0000 -999.0000 -999.0000 -999.0000 -999.0000 
1154.7348   12.2500   12.2865    5.3598   65.5215    0.8853    0.8498    1.2433  405.4019 -999.0000 -999.0000 -999.0000 -999.0000 -999.0000 -999.0000 
1154.8872   12.2500   12.2855    4.8838   64.8324    0.8626    0.8252    1.2178  405.9641 -999.0000 -999.0000 -999.0000 -999.0000 -999.0000 -999.0000 
