~VERSION INFORMATION
 VERS.                 2.0:   CWLS LOG ASCII STANDARD - VERSION 2.0
 WRAP.                  NO:   SINGLE LINE PER DEPTH STEP
 CREA.                 01/17/2018 13:37:44
#CREATED USING DSPetro VERSION 5000.10.1.3 BY H191660 ON 01/17/2018 13:37:44
~WELL INFORMATION
#MNEM.UNIT       DATA                          DESCRIPTION MNEMONIC
#---------      ---------------------------   --------------------------
 STRT    .M         0.0000                    : START DEPTH
 STOP    .M         2499.9696                 : STOP DEPTH
 STEP    .M         0.1524                    : STEP VALUE
 NULL    .      -999.0000                     : NULL VALUE
 DATE    .      01/17/2018                    : LAS file Creation Date
 WELL .      2780_Saffron-1              : Well Name
 COMP .      Neftex Exploration Insights : Company
 FLD  .      SAFFRON                     : Field
 UWI  .      ZAUWL_005718                : Unique Well Identifier (UWI)
 LOC  .                                  : Location
 RWS  .      -999                        : Def_Rw
 WST  .      -999                        : Def_Rwt
 SRVC .                                  : Contractor
~CURVE INFORMATION
#MNEM              UNIT       API CODE   Curve Type Comments
#----------  --------------- ----------  ---------- -----------
 DEPTH      .M                         : Depth       
 BS         .in                        : bitSize     
 CAL_INCH   .inch                      : caliper     Caliper Log - A representation of the measured diameter of a borehole along its depth
 SP_MV1     .mv                        : SP          Spontaneous Potential - Records the electrical potential produced by the interaction of formation water, conductive drilling mud, and certain ion-sele
 GR_API     .API                       : gammaRay    Gamma Ray (API) - Measures the intensity of natural gamma-ray radiation emitted from formations containing radioactive elements, such as K, Th and U
 LLD_OHMM   .ohmm                      : deepRes     Laterlog Deep Resistivity - Measurement made several feet into the formation; generally considered a measurement of the undisturbed formation
 LLS_OHMM   .ohmm                      : shalRes     Laterlog Shallow Resistivity - one to two feet into the formation; generally considered to measure the formation
 MSFL_OHMM  .ohmm                      : microRes    Micro-Spherically Focused Log - Measurement involves only the first few inches of the formation immediately adjacent to the borehole
 DT_US_FT   .us/ft                     : sonic       Interval Transit Time: Compressional Wave - Evaluates the time it takes for a compressional wave to traverse a fixed distance
 RHOB_G_CC  .g/cc                      : density     Bulk Density - Measures the density of bulk material, including any void space or other materials contained in the subject volume
 DRHO_G_CC  .g/cc                      : drho        Density Correction - Investigates the correction to the Bulk Density log; used as an indication of hole condition to validate the Bulk Density measure
 NPHI_v_v   .usl                       : neutron     Neutron Porosity - Measured with an neutron logging device calibrated to a given matrix (limestone, sandstone and dolomite) - unscaled
 PEF_B_E    .b/e-                      : PEF         Photoelectric Factor - A log of photoelectric absorption properties. Often expressed in an approximation unit barns/electron (b/e-)
 LITH       .                          : LITH        Lithology Curve
 LITH_v2    .                          : LITH        Lithology Curve
~A  DEPTH     BS     CAL_INCH   SP_MV1    GR_API   LLD_OHMM  LLS_OHMM MSFL_OHM   DT_US_FT RHOB_G_C  DRHO_G_C   NPHI_v_v  PEF_B_E     LITH    LITH_v2  
# ...
1688.1348    8.5000    9.5161   -2.3335  144.5775    2.0956    2.2076    2.1080  336.1308    2.4582 -999.0000    0.2919    3.4689   37.0000   37.0000 
1688.2872    8.5000    9.4985   -1.6272  141.8701    2.0977    2.2102    1.7434  337.1161    2.4646 -999.0000    0.3021    3.5310   37.0000   37.0000 
1688.4396    8.5000    9.5086   -1.3256  138.6121    2.1077    2.2227    1.0190  333.5306    2.4799    0.0026    0.3154    3.5550   37.0000   37.0000 
1688.5920    8.5000    9.5192   -1.4259  137.0151    2.1360    2.2562    1.5741  329.1479    2.4857    0.0021    0.3134    3.4615   37.0000   37.0000 
1688.7444    8.5000    9.5018   -1.9743  137.3449    2.2154    2.3371    1.7710  325.4320    2.4840    0.0025    0.3043    3.3279   37.0000   37.0000 
1688.8968    8.5000    9.4466   -1.5551  136.9496    2.2328    2.3553    1.8144  324.1194    2.4679 -999.0000    0.2910    3.2420   37.0000   37.0000 
1689.0492    8.5000    9.4316   -1.3941  135.1351    2.2419    2.3673    2.0484  322.5446    2.4566   -0.0040    0.2848    3.2166   37.0000   37.0000 
1689.2016    8.5000    9.4757   -1.4601  137.4682    2.2148    2.3475    2.8248  327.9036    2.4598   -0.0035    0.2947    3.2950   37.0000   37.0000 
1689.3540    8.5000    9.5186   -1.6017  143.0174    2.0775    2.2082    2.9152  340.6725    2.4649   -0.0022    0.3054    3.4320   37.0000   37.0000 
1689.5064    8.5000    9.5425   -1.7998  151.6054    1.9374    2.0627    1.4498  349.2765    2.4640   -0.0028    0.3171    3.5697   37.0000   37.0000 
1689.6588    8.5000    9.5587   -1.1727  154.7449    1.8570    1.9725    0.7989  356.6396    2.4521   -0.0039    0.3222    3.5794   37.0000   37.0000 
1689.8112    8.5000    9.5327   -0.9209  154.6632    1.7845    1.8950    0.8482  360.4842    2.4405   -0.0062    0.3376    3.4518   37.0000   37.0000 
1689.9636    8.5000    9.5054   -0.9395  152.4106    1.7346    1.8419    1.0933  362.0447    2.4388   -0.0059    0.3490    3.3832   37.0000   37.0000 
1690.1160    8.5000    9.4983   -0.9314  148.6587    1.7389    1.8514    1.2329  361.8152    2.4426   -0.0049    0.3436    3.3582   37.0000   37.0000 
1690.2684    8.5000    9.5109   -1.1034  148.6245    1.7358    1.8474    1.2537  359.9780    2.4453   -0.0046    0.3227    3.4012   37.0000   37.0000 
1690.4208    8.5000    9.5025   -0.4362  148.6897    1.7260    1.8393    1.2271  359.8582    2.4484   -0.0030    0.3079    3.4699   37.0000   37.0000 
1690.5732    8.5000    9.4868   -0.1540  147.5253    1.7083    1.8226    1.1528  361.6601    2.4594 -999.0000    0.3037    3.6052   37.0000   37.0000 
1690.7256    8.5000    9.4751   -0.5973  147.4214    1.6667    1.7858    1.3791  363.1376    2.4735 -999.0000    0.3150    3.6585   37.0000   37.0000 
1690.8780    8.5000    9.4840   -0.8367  147.6415    1.6486    1.7666    0.9056  362.3440    2.4756    0.0016    0.3370    3.6597   37.0000   37.0000 
1691.0304    8.5000    9.4783   -0.0410  149.7534    1.6469    1.7667    0.8385  361.7460    2.4683 -999.0000    0.3404    3.6100   37.0000   37.0000 
1691.1828    8.5000    9.4537    0.0377  151.3743    1.6412    1.7644    0.9954  362.6923    2.4497 -999.0000    0.3628    3.5290   37.0000   37.0000 
1691.3352    8.5000    9.4487    0.0628  150.0889    1.6378    1.7592    0.8542  362.4511    2.4377    0.0022    0.3664    3.3932   37.0000   37.0000 
1691.4876    8.5000    9.4490   -0.2418  147.1777    1.6238    1.7483    0.6354  363.9821    2.4245 -999.0000    0.3646    3.2817   37.0000   37.0000 
1691.6400    8.5000    9.4450    0.0669  143.9277    1.6200    1.7445    0.6504  365.0168    2.4166   -0.0029    0.3425    3.3723   37.0000   37.0000 
1691.7924    8.5000    9.4475    0.2903  144.2480    1.6054    1.7266    0.7763  363.2139    2.4184   -0.0047    0.3185    3.4166   37.0000   37.0000 
1691.9448    8.5000    9.4465    0.1138  144.8773    1.6163    1.7368    0.8664  357.8010    2.4261   -0.0058    0.3200    3.5512   37.0000   37.0000 
1692.0972    8.5000    9.4325    0.1317  142.7967    1.6960    1.8219    0.5924  354.1875    2.4498   -0.0056    0.3414    3.6653   37.0000   37.0000 
1692.2496    8.5000    9.4187    0.3067  135.9923    1.7101    1.8379    0.7889  353.2723    2.4835 -999.0000    0.3705    3.7546   37.0000   23.0000 
1692.4020    8.5000    9.4484    0.0141  131.2555    1.7185    1.8499    0.9578  354.8666    2.5130    0.0098    0.3775    3.6449   37.0000   23.0000 
1692.5544    8.5000    9.4477    0.4382  133.9743    1.7516    1.8863    0.5437  356.2212    2.4854    0.0089    0.3688    3.4102   37.0000   37.0000 
1692.7068    8.5000    9.4545    0.1164  139.6459    1.7312    1.8660    0.8552  358.0062    2.4527    0.0051    0.3668    3.4245   37.0000   37.0000 
1692.8592    8.5000    9.4552   -0.0930  148.4468    1.6259    1.7521    1.2268  361.9147    2.4330    0.0040    0.3645    3.4818   37.0000   37.0000 
1693.0116    8.5000    9.4439    0.1698  150.0918    1.6164    1.7430    1.1803  364.6441    2.4259 -999.0000    0.3626    3.5461   37.0000   37.0000 
1693.1640    8.5000    9.4465   -0.1762  149.1570    1.6021    1.7277    1.2073  364.1318    2.4243 -999.0000    0.3781    3.5103   37.0000   37.0000 
1693.3164    8.5000    9.4436   -0.0966  146.6444    1.5970    1.7176    0.9214  362.6265    2.4195   -0.0056    0.3735    3.5419   37.0000   37.0000 
1693.4688    8.5000    9.4403   -0.1327  147.1247    1.6111    1.7286    0.7004  362.5499    2.4194   -0.0044    0.3587    3.6307   37.0000   37.0000 
1693.6212    8.5000    9.4439   -0.4423  150.1078    1.6166    1.7353    0.8680  362.2873    2.4126   -0.0049    0.3460    3.6296   37.0000   37.0000 
1693.7736    8.5000    9.4332   -0.1679  149.8520    1.6329    1.7490    1.1624  361.1640    2.3994   -0.0077    0.3473    3.6046   37.0000   37.0000 
1693.9260    8.5000    9.4065   -0.5182  146.4915    1.6442    1.7560    1.0004  361.1688    2.4013   -0.0066    0.3508    3.5460   37.0000   37.0000 
1694.0784    8.5000    9.4023   -0.3821  145.2955    1.6452    1.7544    0.8212  361.7288    2.4079   -0.0039    0.3321    3.6614   37.0000   37.0000 
1694.2308    8.5000    9.4050   -0.1107  147.2551    1.6450    1.7548    0.8829  362.2581    2.4104   -0.0025    0.3217    3.7563   37.0000   37.0000 
1694.3832    8.5000    9.3875   -0.7789  148.0204    1.6429    1.7498    1.5328  362.5392    2.4044 -999.0000    0.3251    3.7351   37.0000   37.0000 
1694.5356    8.5000    9.3240   -0.3920  150.2462    1.6698    1.7785    1.0556  358.9231    2.4040    0.0063    0.3362    3.6003   37.0000   37.0000 
1694.6880    8.5000    9.2572   -0.2946  151.4655    1.7307    1.8427    0.8459  355.9625    2.4008    0.0076    0.3491    3.5001   37.0000   37.0000 
1694.8404    8.5000    9.1364   -0.7511  151.8705    1.8252    1.9424    1.0456  353.2333    2.4043    0.0096    0.3373    3.4924   37.0000   37.0000 
1694.9928    8.5000    9.0255   -1.1790  148.6349    1.8786    1.9978    1.1393  349.3339    2.4055    0.0132    0.3187    3.5636   37.0000   37.0000 
1695.1452    8.5000    8.9954   -0.5674  147.0563    1.9271    2.0542    1.4514  346.3126    2.3979    0.0208    0.3123    3.7018   37.0000   37.0000 
1695.2976    8.5000    8.9944   -0.4984  147.3447    1.9499    2.0766    1.6565  346.1960    2.3760    0.0447    0.3093    3.7959   37.0000   37.0000 
1695.4500    8.5000    9.1116   -0.7355  149.1944    1.9459    2.0717    1.5415  346.3475    2.3472    0.0622    0.3120    3.8248   37.0000   37.0000 
1695.6024    8.5000    9.1415   -1.3254  149.2726    1.9126    2.0369    1.1919  347.5027    2.3326    0.0746    0.3123    3.8013   37.0000   37.0000 
1695.7548    8.5000    9.0142   -0.6993  148.3385    1.8997    2.0258    1.1069  348.6349    2.3454    0.0783    0.3147    3.7565   37.0000   37.0000 
1695.9072    8.5000    9.0325   -0.5896  146.2733    1.8900    2.0121    1.4204  349.6966    2.3643    0.0732    0.3033    3.6950   37.0000   37.0000 
1696.0596    8.5000    9.0222   -0.9675  145.0907    1.8770    1.9977    1.3417  349.7949    2.3714    0.0509    0.3045    3.6534   37.0000   37.0000 
