~VERSION INFORMATION
 VERS.                 2.0:   CWLS LOG ASCII STANDARD - VERSION 2.0
 WRAP.                  NO:   SINGLE LINE PER DEPTH STEP
 CREA.                 01/17/2018 13:37:44
#CREATED USING DSPetro VERSION 5000.10.1.3 BY H191660 ON 01/17/2018 13:37:44
~WELL INFORMATION
#MNEM.UNIT       DATA                          DESCRIPTION MNEMONIC
#---------      ---------------------------   --------------------------
 STRT    .M         0.0000                    : START DEPTH
 STOP    .M         2499.9696                 : STOP DEPTH
 STEP    .M         0.1524                    : STEP VALUE
 NULL    .      -999.0000                     : NULL VALUE
 DATE    .      01/17/2018                    : LAS file Creation Date
 WELL .      2780_Saffron-1              : Well Name
 COMP .      Neftex Exploration Insights : Company
 FLD  .      SAFFRON                     : Field
 UWI  .      ZAUWL_005718                : Unique Well Identifier (UWI)
 LOC  .                                  : Location
 RWS  .      -999                        : Def_Rw
 WST  .      -999                        : Def_Rwt
 SRVC .                                  : Contractor
~CURVE INFORMATION
#MNEM              UNIT       API CODE   Curve Type Comments
#----------  --------------- ----------  ---------- -----------
 DEPTH      .M                         : Depth       
 BS         .in                        : bitSize     
 CAL_INCH   .inch                      : caliper     Caliper Log - A representation of the measured diameter of a borehole along its depth
 SP_MV1     .mv                        : SP          Spontaneous Potential - Records the electrical potential produced by the interaction of formation water, conductive drilling mud, and certain ion-sele
 GR_API     .API                       : gammaRay    Gamma Ray (API) - Measures the intensity of natural gamma-ray radiation emitted from formations containing radioactive elements, such as K, Th and U
 LLD_OHMM   .ohmm                      : deepRes     Laterlog Deep Resistivity - Measurement made several feet into the formation; generally considered a measurement of the undisturbed formation
 LLS_OHMM   .ohmm                      : shalRes     Laterlog Shallow Resistivity - one to two feet into the formation; generally considered to measure the formation
 MSFL_OHMM  .ohmm                      : microRes    Micro-Spherically Focused Log - Measurement involves only the first few inches of the formation immediately adjacent to the borehole
 DT_US_FT   .us/ft                     : sonic       Interval Transit Time: Compressional Wave - Evaluates the time it takes for a compressional wave to traverse a fixed distance
 RHOB_G_CC  .g/cc                      : density     Bulk Density - Measures the density of bulk material, including any void space or other materials contained in the subject volume
 DRHO_G_CC  .g/cc                      : drho        Density Correction - Investigates the correction to the Bulk Density log; used as an indication of hole condition to validate the Bulk Density measure
 NPHI_v_v   .usl                       : neutron     Neutron Porosity - Measured with an neutron logging device calibrated to a given matrix (limestone, sandstone and dolomite) - unscaled
 PEF_B_E    .b/e-                      : PEF         Photoelectric Factor - A log of photoelectric absorption properties. Often expressed in an approximation unit barns/electron (b/e-)
 LITH       .                          : LITH        Lithology Curve
 LITH_v2    .                          : LITH        Lithology Curve
~A  DEPTH     BS     CAL_INCH   SP_MV1    GR_API   LLD_OHMM  LLS_OHMM MSFL_OHM   DT_US_FT RHOB_G_C  DRHO_G_C   NPHI_v_v  PEF_B_E     LITH    LITH_v2  
# ...
 743.1024   12.2500   12.1092    2.0020   74.0388    0.5635    0.4754    0.9144  390.2569 -999.0000 -999.0000 -999.0000 -999.0000 -999.0000 -999.0000 
 743.2548   12.2500   12.1534    2.1295   72.4446    0.5557    0.4694    0.8834  394.6934 -999.0000 -999.0000 -999.0000 -999.0000 -999.0000 -999.0000 
 743.4072   12.2500   12.1812    1.5764   73.9298    0.5392    0.4528    0.9196  395.7423 -999.0000 -999.0000 -999.0000 -999.0000 -999.0000 -999.0000 
 743.5596   12.2500   12.2395    1.1022   73.4623    0.5285    0.4436    0.9192  395.8932 -999.0000 -999.0000 -999.0000 -999.0000 -999.0000 -999.0000 
 743.7120   12.2500   12.2979    1.1112   71.6861    0.5268    0.4432    0.8357  395.3974 -999.0000 -999.0000 -999.0000 -999.0000 -999.0000 -999.0000 
 743.8644   12.2500   12.3157    1.5076   71.4295    0.5309    0.4479    0.7942  393.6352 -999.0000 -999.0000 -999.0000 -999.0000 -999.0000 -999.0000 
 744.0168   12.2500   12.3160    1.0611   71.3637    0.5345    0.4448    0.8052  392.1242 -999.0000 -999.0000 -999.0000 -999.0000 -999.0000 -999.0000 
 744.1692   12.2500   12.3150    1.9590   72.5154    0.5384    0.4496    0.8487  394.2319 -999.0000 -999.0000 -999.0000 -999.0000 -999.0000 -999.0000 
 744.3216   12.2500   12.3158    2.7742   72.6425    0.5444    0.4582    0.8089  393.6783 -999.0000 -999.0000 -999.0000 -999.0000 -999.0000 -999.0000 
 744.4740   12.2500   12.3162    2.3133   72.6943    0.5510    0.4633    0.8048  393.5324 -999.0000 -999.0000 -999.0000 -999.0000 -999.0000 -999.0000 
 744.6264   12.2500   12.3162    1.2838   75.4138    0.5548    0.4656    0.8273  394.1394 -999.0000 -999.0000 -999.0000 -999.0000 -999.0000 -999.0000 
 744.7788   12.2500   12.3162    1.3448   76.8465    0.5574    0.4713    0.7969  391.0818 -999.0000 -999.0000 -999.0000 -999.0000 -999.0000 -999.0000 
 744.9312   12.2500   12.3162    2.3684   79.0547    0.5592    0.4751    0.8309  389.2705 -999.0000 -999.0000 -999.0000 -999.0000 -999.0000 -999.0000 
 745.0836   12.2500   12.3162    1.9876   78.5568    0.5627    0.4789    0.8648  387.5803 -999.0000 -999.0000 -999.0000 -999.0000 -999.0000 -999.0000 
 745.2360   12.2500   12.3160    1.2891   74.4275    0.5724    0.4830    0.8971  385.2545 -999.0000 -999.0000 -999.0000 -999.0000 -999.0000 -999.0000 
 745.3884   12.2500   12.3146    2.5942   70.1919    0.5786    0.4867    0.9654  383.9918 -999.0000 -999.0000 -999.0000 -999.0000 -999.0000 -999.0000 
 745.5408   12.2500   12.3158    3.0714   71.8947    0.5832    0.4937    1.0184  379.6592 -999.0000 -999.0000 -999.0000 -999.0000 -999.0000 -999.0000 
 745.6932   12.2500   12.3162    2.1421   74.9563    0.5824    0.4960    0.9932  379.5512 -999.0000 -999.0000 -999.0000 -999.0000 -999.0000 -999.0000 
 745.8456   12.2500   12.3159    1.2063   76.3806    0.5772    0.4906    0.9705  380.8255 -999.0000 -999.0000 -999.0000 -999.0000 -999.0000 -999.0000 
 745.9980   12.2500   12.3144    1.4645   75.7897    0.5737    0.4892    0.9354  381.9867 -999.0000 -999.0000 -999.0000 -999.0000 -999.0000 -999.0000 
 746.1504   12.2500   12.3258    1.7798   73.9198    0.5700    0.4854    0.8621  387.0522 -999.0000 -999.0000 -999.0000 -999.0000 -999.0000 -999.0000 
 746.3028   12.2500   12.3405    2.0676   73.8593    0.5648    0.4823    0.8855  387.6638 -999.0000 -999.0000 -999.0000 -999.0000 -999.0000 -999.0000 
 746.4552   12.2500   12.3435    2.1037   72.9457    0.5600    0.4769    0.8949  389.7051 -999.0000 -999.0000 -999.0000 -999.0000 -999.0000 -999.0000 
 746.6076   12.2500   12.3442    1.6045   73.7627    0.5563    0.4731    0.8616  390.5063 -999.0000 -999.0000 -999.0000 -999.0000 -999.0000 -999.0000 
 746.7600   12.2500   12.3551    1.5990   75.1894    0.5568    0.4722    0.9185  387.2723 -999.0000 -999.0000 -999.0000 -999.0000 -999.0000 -999.0000 
 746.9124   12.2500   12.3618    2.3555   73.7627    0.5630    0.4776    0.9398  385.5821 -999.0000 -999.0000 -999.0000 -999.0000 -999.0000 -999.0000 
 747.0648   12.2500   12.3673    2.1726   71.6165    0.5720    0.4861    0.9602  383.8111 -999.0000 -999.0000 -999.0000 -999.0000 -999.0000 -999.0000 
 747.2172   12.2500   12.3895    2.0352   71.9603    0.5788    0.4928    0.9820  383.7685 -999.0000 -999.0000 -999.0000 -999.0000 -999.0000 -999.0000 
 747.3696   12.2500   12.4255    1.8100   75.4137    0.5861    0.4992    1.0007  381.0934 -999.0000 -999.0000 -999.0000 -999.0000 -999.0000 -999.0000 
 747.5220   12.2500   12.4585    2.2828   76.6736    0.5975    0.5102    0.9445  376.6154 -999.0000 -999.0000 -999.0000 -999.0000 -999.0000 -999.0000 
 747.6744   12.2500   12.4427    2.3543   73.5349    0.6013    0.5160    0.9901  377.9772 -999.0000 -999.0000 -999.0000 -999.0000 -999.0000 -999.0000 
 747.8268   12.2500   12.4363    1.3996   69.9953    0.6040    0.5177    1.0199  373.4088 -999.0000 -999.0000 -999.0000 -999.0000 -999.0000 -999.0000 
 747.9792   12.2500   12.4460    1.1277   68.6601    0.6141    0.5240    1.0134  369.4331 -999.0000 -999.0000 -999.0000 -999.0000 -999.0000 -999.0000 
 748.1316   12.2500   12.4815    2.2063   70.5260    0.6455    0.5526    0.9447  366.6807 -999.0000 -999.0000 -999.0000 -999.0000 -999.0000 -999.0000 
 748.2840   12.2500   12.4292    2.7214   67.7868    0.6749    0.5763    1.0349  362.8971 -999.0000 -999.0000 -999.0000 -999.0000 -999.0000 -999.0000 
 748.4364   12.2500   12.4137    1.8264   66.4619    0.6796    0.5748    1.6151  365.6788 -999.0000 -999.0000 -999.0000 -999.0000 -999.0000 -999.0000 
 748.5888   12.2500   12.3894    1.2672   67.1269    0.6673    0.5670    1.3766  368.3223 -999.0000 -999.0000 -999.0000 -999.0000 -999.0000 -999.0000 
 748.7412   12.2500   12.3925    1.7419   72.1299    0.6331    0.5368    0.9950  373.2821 -999.0000 -999.0000 -999.0000 -999.0000 -999.0000 -999.0000 
 748.8936   12.2500   12.4155    1.7753   76.1951    0.5943    0.5063    0.9359  381.0316 -999.0000 -999.0000 -999.0000 -999.0000 -999.0000 -999.0000 
 749.0460   12.2500   12.3974    1.9466   77.3607    0.5762    0.4879    0.9683  387.5199 -999.0000 -999.0000 -999.0000 -999.0000 -999.0000 -999.0000 
 749.1984   12.2500   12.3657    1.4989   77.9284    0.5685    0.4783    0.9616  392.2197 -999.0000 -999.0000 -999.0000 -999.0000 -999.0000 -999.0000 
 749.3508   12.2500   12.3447    1.1520   79.6176    0.5630    0.4725    0.8740  394.2976 -999.0000 -999.0000 -999.0000 -999.0000 -999.0000 -999.0000 
 749.5032   12.2500   12.3260    2.2273   80.4082    0.5580    0.4618    0.8421  397.8527 -999.0000 -999.0000 -999.0000 -999.0000 -999.0000 -999.0000 
 749.6556   12.2500   12.3120    3.2930   81.9606    0.5452    0.4594    0.9174  400.4216 -999.0000 -999.0000 -999.0000 -999.0000 -999.0000 -999.0000 
 749.8080   12.2500   12.2853    2.5992   81.4225    0.5333    0.4465    0.9412  402.5059 -999.0000 -999.0000 -999.0000 -999.0000 -999.0000 -999.0000 
 749.9604   12.2500   12.2563    1.4728   80.0988    0.5222    0.4367    0.8599  404.1348 -999.0000 -999.0000 -999.0000 -999.0000 -999.0000 -999.0000 
 750.1128   12.2500   12.2459    0.8074   78.2380    0.5112    0.4277    0.7787  406.3781 -999.0000 -999.0000 -999.0000 -999.0000 -999.0000 -999.0000 
 750.2652   12.2500   12.2483    1.2538   77.4875    0.5058    0.4206    0.7666  410.6691 -999.0000 -999.0000 -999.0000 -999.0000 -999.0000 -999.0000 
 750.4176   12.2500   12.2467    1.8205   77.1498    0.5053    0.4193    0.7439  411.8801 -999.0000 -999.0000 -999.0000 -999.0000 -999.0000 -999.0000 
 750.5700   12.2500   12.2441    1.7278   75.4430    0.5063    0.4193    0.8087  411.4405 -999.0000 -999.0000 -999.0000 -999.0000 -999.0000 -999.0000 
 750.7224   12.2500   12.2326    1.5848   74.3681    0.5092    0.4216    0.8594  410.3252 -999.0000 -999.0000 -999.0000 -999.0000 -999.0000 -999.0000 
 750.8748   12.2500   12.2183    1.4147   76.4014    0.5122    0.4195    0.8895  408.5651 -999.0000 -999.0000 -999.0000 -999.0000 -999.0000 -999.0000 
 751.0272   12.2500   12.2317    1.1265   78.2411    0.5118    0.4228    0.7969  406.4556 -999.0000 -999.0000 -999.0000 -999.0000 -999.0000 -999.0000 
