~VERSION INFORMATION
 VERS.                 2.0:   CWLS LOG ASCII STANDARD - VERSION 2.0
 WRAP.                  NO:   SINGLE LINE PER DEPTH STEP
 CREA.                 01/17/2018 13:37:44
#CREATED USING DSPetro VERSION 5000.10.1.3 BY H191660 ON 01/17/2018 13:37:44
~WELL INFORMATION
#MNEM.UNIT       DATA                          DESCRIPTION MNEMONIC
#---------      ---------------------------   --------------------------
 STRT    .M         0.0000                    : START DEPTH
 STOP    .M         2499.9696                 : STOP DEPTH
 STEP    .M         0.1524                    : STEP VALUE
 NULL    .      -999.0000                     : NULL VALUE
 DATE    .      01/17/2018                    : LAS file Creation Date
 WELL .      2780_Saffron-1              : Well Name
 COMP .      Neftex Exploration Insights : Company
 FLD  .      SAFFRON                     : Field
 UWI  .      ZAUWL_005718                : Unique Well Identifier (UWI)
 LOC  .                                  : Location
 RWS  .      -999                        : Def_Rw
 WST  .      -999                        : Def_Rwt
 SRVC .                                  : Contractor
~CURVE INFORMATION
#MNEM              UNIT       API CODE   Curve Type Comments
#----------  --------------- ----------  ---------- -----------
 DEPTH      .M                         : Depth       
 BS         .in                        : bitSize     
 CAL_INCH   .inch                      : caliper     Caliper Log - A representation of the measured diameter of a borehole along its depth
 SP_MV1     .mv                        : SP          Spontaneous Potential - Records the electrical potential produced by the interaction of formation water, conductive drilling mud, and certain ion-sele
 GR_API     .API                       : gammaRay    Gamma Ray (API) - Measures the intensity of natural gamma-ray radiation emitted from formations containing radioactive elements, such as K, Th and U
 LLD_OHMM   .ohmm                      : deepRes     Laterlog Deep Resistivity - Measurement made several feet into the formation; generally considered a measurement of the undisturbed formation
 LLS_OHMM   .ohmm                      : shalRes     Laterlog Shallow Resistivity - one to two feet into the formation; generally considered to measure the formation
 MSFL_OHMM  .ohmm                      : microRes    Micro-Spherically Focused Log - Measurement involves only the first few inches of the formation immediately adjacent to the borehole
 DT_US_FT   .us/ft                     : sonic       Interval Transit Time: Compressional Wave - Evaluates the time it takes for a compressional wave to traverse a fixed distance
 RHOB_G_CC  .g/cc                      : density     Bulk Density - Measures the density of bulk material, including any void space or other materials contained in the subject volume
 DRHO_G_CC  .g/cc                      : drho        Density Correction - Investigates the correction to the Bulk Density log; used as an indication of hole condition to validate the Bulk Density measure
 NPHI_v_v   .usl                       : neutron     Neutron Porosity - Measured with an neutron logging device calibrated to a given matrix (limestone, sandstone and dolomite) - unscaled
 PEF_B_E    .b/e-                      : PEF         Photoelectric Factor - A log of photoelectric absorption properties. Often expressed in an approximation unit barns/electron (b/e-)
 LITH       .                          : LITH        Lithology Curve
 LITH_v2    .                          : LITH        Lithology Curve
~A  DEPTH     BS     CAL_INCH   SP_MV1    GR_API   LLD_OHMM  LLS_OHMM MSFL_OHM   DT_US_FT RHOB_G_C  DRHO_G_C   NPHI_v_v  PEF_B_E     LITH    LITH_v2  
# ...
 613.8672   12.2500   12.3559    2.0202   77.2140    0.4319    0.3453    0.5934  443.9580 -999.0000 -999.0000 -999.0000 -999.0000 -999.0000 -999.0000 
 614.0196   12.2500   12.2066    1.4822   74.7062    0.4247    0.3373    0.5503  444.5720 -999.0000 -999.0000 -999.0000 -999.0000 -999.0000 -999.0000 
 614.1720   12.2500   12.2211    0.6959   74.1088    0.4250    0.3393    0.5867  444.1624 -999.0000 -999.0000 -999.0000 -999.0000 -999.0000 -999.0000 
 614.3244   12.2500   12.1507    0.5607   72.9184    0.4349    0.3463    0.6316  441.9092 -999.0000 -999.0000 -999.0000 -999.0000 -999.0000 -999.0000 
 614.4768   12.2500   12.0644    1.5844   73.2788    0.4434    0.3502    0.6322  439.8909 -999.0000 -999.0000 -999.0000 -999.0000 -999.0000 -999.0000 
 614.6292   12.2500   12.0378    2.8220   72.2086    0.4429    0.3514    0.6820  438.9909 -999.0000 -999.0000 -999.0000 -999.0000 -999.0000 -999.0000 
 614.7816   12.2500   12.0054    1.2279   75.4661    0.4347    0.3462    0.6797  438.0279 -999.0000 -999.0000 -999.0000 -999.0000 -999.0000 -999.0000 
 614.9340   12.2500   11.9420    0.6541   78.3202    0.4237    0.3371    0.6820  438.6283 -999.0000 -999.0000 -999.0000 -999.0000 -999.0000 -999.0000 
 615.0864   12.2500   11.9195    1.0856   80.3640    0.4160    0.3320    0.6687  440.0543 -999.0000 -999.0000 -999.0000 -999.0000 -999.0000 -999.0000 
 615.2388   12.2500   11.9444    2.0531   79.1851    0.4113    0.3275    0.6236  443.4525 -999.0000 -999.0000 -999.0000 -999.0000 -999.0000 -999.0000 
 615.3912   12.2500   11.9917    1.6162   76.9336    0.4086    0.3274    0.6226  446.1248 -999.0000 -999.0000 -999.0000 -999.0000 -999.0000 -999.0000 
 615.5436   12.2500   12.0585    0.7244   75.0251    0.4090    0.3228    0.5886  446.4011 -999.0000 -999.0000 -999.0000 -999.0000 -999.0000 -999.0000 
 615.6960   12.2500   12.1327    0.4997   75.4738    0.4117    0.3258    0.5459  445.6573 -999.0000 -999.0000 -999.0000 -999.0000 -999.0000 -999.0000 
 615.8484   12.2500   12.2523    1.3711   77.1639    0.4156    0.3316    0.6270  445.4714 -999.0000 -999.0000 -999.0000 -999.0000 -999.0000 -999.0000 
 616.0008   12.2500   12.3856    2.5981   78.7951    0.4247    0.3364    0.6856  443.7324 -999.0000 -999.0000 -999.0000 -999.0000 -999.0000 -999.0000 
 616.1532   12.2500   12.3467    0.8228   77.1646    0.4313    0.3431    0.7358  442.5282 -999.0000 -999.0000 -999.0000 -999.0000 -999.0000 -999.0000 
 616.3056   12.2500   12.3553    0.0355   76.1404    0.4300    0.3426    0.7902  441.8022 -999.0000 -999.0000 -999.0000 -999.0000 -999.0000 -999.0000 
 616.4580   12.2500   12.3181    0.3266   75.1203    0.4294    0.3427    0.6715  442.2050 -999.0000 -999.0000 -999.0000 -999.0000 -999.0000 -999.0000 
 616.6104   12.2500   12.2887    1.1757   75.1899    0.4302    0.3413    0.6300  441.7569 -999.0000 -999.0000 -999.0000 -999.0000 -999.0000 -999.0000 
 616.7628   12.2500   12.3261    1.8549   77.2612    0.4235    0.3390    0.7183  440.5404 -999.0000 -999.0000 -999.0000 -999.0000 -999.0000 -999.0000 
 616.9152   12.2500   12.2729    1.1691   77.5630    0.4245    0.3382    0.7423  439.4920 -999.0000 -999.0000 -999.0000 -999.0000 -999.0000 -999.0000 
 617.0676   12.2500   12.2181    1.2023   77.9363    0.4245    0.3376    0.6685  439.1306 -999.0000 -999.0000 -999.0000 -999.0000 -999.0000 -999.0000 
 617.2200   12.2500   12.2225    1.0733   76.1256    0.4220    0.3354    0.6388  440.7113 -999.0000 -999.0000 -999.0000 -999.0000 -999.0000 -999.0000 
 617.3724   12.2500   12.1373    1.0632   77.8508    0.4202    0.3342    0.6237  435.4260 -999.0000 -999.0000 -999.0000 -999.0000 -999.0000 -999.0000 
 617.5248   12.2500   12.1845    0.5666   77.9967    0.4258    0.3379    0.6013  435.0447 -999.0000 -999.0000 -999.0000 -999.0000 -999.0000 -999.0000 
 617.6772   12.2500   12.0920    0.3886   78.7423    0.4332    0.3443    0.5955  438.6450 -999.0000 -999.0000 -999.0000 -999.0000 -999.0000 -999.0000 
 617.8296   12.2500   12.0614    1.2345   77.2296    0.4381    0.3499    0.6514  443.3177 -999.0000 -999.0000 -999.0000 -999.0000 -999.0000 -999.0000 
 617.9820   12.2500   12.0206    1.9861   75.3214    0.4421    0.3537    0.6473  445.3847 -999.0000 -999.0000 -999.0000 -999.0000 -999.0000 -999.0000 
 618.1344   12.2500   12.1435    1.4391   76.4800    0.4488    0.3570    0.6841  442.8455 -999.0000 -999.0000 -999.0000 -999.0000 -999.0000 -999.0000 
 618.2868   12.2500   12.2320    1.2389   77.8063    0.4467    0.3580    0.6880  439.7929 -999.0000 -999.0000 -999.0000 -999.0000 -999.0000 -999.0000 
 618.4392   12.2500   12.2217    0.6938   80.4489    0.4410    0.3508    0.7347  438.8846 -999.0000 -999.0000 -999.0000 -999.0000 -999.0000 -999.0000 
 618.5916   12.2500   12.2181    0.9743   82.5105    0.4298    0.3392    0.6511  439.0612 -999.0000 -999.0000 -999.0000 -999.0000 -999.0000 -999.0000 
 618.7440   12.2500   12.1828    2.7258   82.3838    0.4159    0.3288    0.5416  437.8784 -999.0000 -999.0000 -999.0000 -999.0000 -999.0000 -999.0000 
 618.8964   12.2500   12.0710    1.9294   79.9695    0.4033    0.3196    0.5513  437.4535 -999.0000 -999.0000 -999.0000 -999.0000 -999.0000 -999.0000 
 619.0488   12.2500   12.0778    1.1965   74.7411    0.3982    0.3167    0.5349  436.9412 -999.0000 -999.0000 -999.0000 -999.0000 -999.0000 -999.0000 
 619.2012   12.2500   12.2089    0.6972   71.8178    0.3968    0.3165    0.5450  436.2425 -999.0000 -999.0000 -999.0000 -999.0000 -999.0000 -999.0000 
 619.3536   12.2500   12.4130    0.6121   71.2910    0.3945    0.3132    0.6404  435.7624 -999.0000 -999.0000 -999.0000 -999.0000 -999.0000 -999.0000 
 619.5060   12.2500   12.4908    1.0807   72.2836    0.3904    0.3095    0.6371  433.5435 -999.0000 -999.0000 -999.0000 -999.0000 -999.0000 -999.0000 
 619.6584   12.2500   12.4426    1.1242   74.1449    0.4014    0.3223    0.5755  429.4654 -999.0000 -999.0000 -999.0000 -999.0000 -999.0000 -999.0000 
 619.8108   12.2500   12.3869    1.3428   73.1713    0.4256    0.3429    0.5982  426.4073 -999.0000 -999.0000 -999.0000 -999.0000 -999.0000 -999.0000 
 619.9632   12.2500   12.2546    1.2466   71.1318    0.4556    0.3648    0.6197  422.7768 -999.0000 -999.0000 -999.0000 -999.0000 -999.0000 -999.0000 
 620.1156   12.2500   11.9822    1.0899   68.3225    0.4832    0.3851    0.6983  420.9987 -999.0000 -999.0000 -999.0000 -999.0000 -999.0000 -999.0000 
 620.2680   12.2500   11.8734    1.4328   68.5228    0.4846    0.3865    0.8918  422.6475 -999.0000 -999.0000 -999.0000 -999.0000 -999.0000 -999.0000 
 620.4204   12.2500   11.8226    1.1523   69.1272    0.4595    0.3682    0.6884  429.0519 -999.0000 -999.0000 -999.0000 -999.0000 -999.0000 -999.0000 
 620.5728   12.2500   11.8175    1.2211   70.9118    0.4351    0.3490    0.6260  433.6100 -999.0000 -999.0000 -999.0000 -999.0000 -999.0000 -999.0000 
 620.7252   12.2500   11.8333    0.4864   71.1461    0.4173    0.3373    0.6253  436.3661 -999.0000 -999.0000 -999.0000 -999.0000 -999.0000 -999.0000 
 620.8776   12.2500   12.0215    0.9973   72.0575    0.4111    0.3307    0.5931  439.2550 -999.0000 -999.0000 -999.0000 -999.0000 -999.0000 -999.0000 
 621.0300   12.2500   11.9777    1.4367   72.1807    0.4111    0.3283    0.5932  442.6131 -999.0000 -999.0000 -999.0000 -999.0000 -999.0000 -999.0000 
 621.1824   12.2500   11.9105    0.9461   72.8630    0.4177    0.3341    0.6167  445.0863 -999.0000 -999.0000 -999.0000 -999.0000 -999.0000 -999.0000 
 621.3348   12.2500   11.8668    0.8878   72.6397    0.4318    0.3463    0.6900  446.8358 -999.0000 -999.0000 -999.0000 -999.0000 -999.0000 -999.0000 
 621.4872   12.2500   11.8206    0.9353   71.2074    0.4454    0.3566    0.6349  448.3102 -999.0000 -999.0000 -999.0000 -999.0000 -999.0000 -999.0000 
 621.6396   12.2500   11.7701    1.4684   71.9034    0.4541    0.3601    0.6289  446.9695 -999.0000 -999.0000 -999.0000 -999.0000 -999.0000 -999.0000 
 621.7920   12.2500   11.8842    1.6494   72.6101    0.4481    0.3587    0.7055  444.1386 -999.0000 -999.0000 -999.0000 -999.0000 -999.0000 -999.0000 
