~VERSION INFORMATION
 VERS.                 2.0:   CWLS LOG ASCII STANDARD - VERSION 2.0
 WRAP.                  NO:   SINGLE LINE PER DEPTH STEP
 CREA.                 01/17/2018 13:37:44
#CREATED USING DSPetro VERSION 5000.10.1.3 BY H191660 ON 01/17/2018 13:37:44
~WELL INFORMATION
#MNEM.UNIT       DATA                          DESCRIPTION MNEMONIC
#---------      ---------------------------   --------------------------
 STRT    .M         0.0000                    : START DEPTH
 STOP    .M         2499.9696                 : STOP DEPTH
 STEP    .M         0.1524                    : STEP VALUE
 NULL    .      -999.0000                     : NULL VALUE
 DATE    .      01/17/2018                    : LAS file Creation Date
 WELL .      2780_Saffron-1              : Well Name
 COMP .      Neftex Exploration Insights : Company
 FLD  .      SAFFRON                     : Field
 UWI  .      ZAUWL_005718                : Unique Well Identifier (UWI)
 LOC  .                                  : Location
 RWS  .      -999                        : Def_Rw
 WST  .      -999                        : Def_Rwt
 SRVC .                                  : Contractor
~CURVE INFORMATION
#MNEM              UNIT       API CODE   Curve Type Comments
#----------  --------------- ----------  ---------- -----------
 DEPTH      .M                         : Depth       
 BS         .in                        : bitSize     
 CAL_INCH   .inch                      : caliper     Caliper Log - A representation of the measured diameter of a borehole along its depth
 SP_MV1     .mv                        : SP          Spontaneous Potential - Records the electrical potential produced by the interaction of formation water, conductive drilling mud, and certain ion-sele
 GR_API     .API                       : gammaRay    Gamma Ray (API) - Measures the intensity of natural gamma-ray radiation emitted from formations containing radioactive elements, such as K, Th and U
 LLD_OHMM   .ohmm                      : deepRes     Laterlog Deep Resistivity - Measurement made several feet into the formation; generally considered a measurement of the undisturbed formation
 LLS_OHMM   .ohmm                      : shalRes     Laterlog Shallow Resistivity - one to two feet into the formation; generally considered to measure the formation
 MSFL_OHMM  .ohmm                      : microRes    Micro-Spherically Focused Log - Measurement involves only the first few inches of the formation immediately adjacent to the borehole
 DT_US_FT   .us/ft                     : sonic       Interval Transit Time: Compressional Wave - Evaluates the time it takes for a compressional wave to traverse a fixed distance
 RHOB_G_CC  .g/cc                      : density     Bulk Density - Measures the density of bulk material, including any void space or other materials contained in the subject volume
 DRHO_G_CC  .g/cc                      : drho        Density Correction - Investigates the correction to the Bulk Density log; used as an indication of hole condition to validate the Bulk Density measure
 NPHI_v_v   .usl                       : neutron     Neutron Porosity - Measured with an neutron logging device calibrated to a given matrix (limestone, sandstone and dolomite) - unscaled
 PEF_B_E    .b/e-                      : PEF         Photoelectric Factor - A log of photoelectric absorption properties. Often expressed in an approximation unit barns/electron (b/e-)
 LITH       .                          : LITH        Lithology Curve
 LITH_v2    .                          : LITH        Lithology Curve
~A  DEPTH     BS     CAL_INCH   SP_MV1    GR_API   LLD_OHMM  LLS_OHMM MSFL_OHM   DT_US_FT RHOB_G_C  DRHO_G_C   NPHI_v_v  PEF_B_E     LITH    LITH_v2  
# ...
2495.8548    8.5000    3.7063   26.9930  176.4457 100000.0000   11.3857   22.4729  253.8080    2.5381    0.0114    0.2251    3.2607 -999.0000 -999.0000 
2496.0072    8.5000    3.7063   26.9930  176.4457 100000.0000   11.3857   22.4729  254.5367    2.5381    0.0114    0.2251    3.2607 -999.0000 -999.0000 
2496.1596 -999.0000    3.7063   26.9930  176.4457 100000.0000   11.3857   22.4729  254.5367    2.5381    0.0114    0.2251    3.2607 -999.0000 -999.0000 
2496.3120 -999.0000    3.7063   26.9930  176.4457 100000.0000   11.3857   22.4729  254.5367    2.5381    0.0114    0.2251    3.2607 -999.0000 -999.0000 
2496.4644 -999.0000    3.7063   26.9930  176.4457 100000.0000   11.3857   22.4729  254.5367    2.5381    0.0114    0.2251    3.2607 -999.0000 -999.0000 
2496.6168 -999.0000    3.7063   26.9930  176.4457 100000.0000   11.3857   22.4729  254.5367    2.5381    0.0114    0.2251    3.2607 -999.0000 -999.0000 
2496.7692 -999.0000    3.7063   26.9930  176.4457 100000.0000   11.3857   22.4729  254.5367    2.5381    0.0114    0.2251    3.2607 -999.0000 -999.0000 
2496.9216 -999.0000    3.7063   26.9930  176.4457 100000.0000   11.3857   22.4729  254.5367    2.5381    0.0114    0.2251    3.2607 -999.0000 -999.0000 
2497.0740 -999.0000    3.7063   26.9930  176.4457 100000.0000   11.3857   22.4729  254.5367    2.5381    0.0114    0.2251    3.2607 -999.0000 -999.0000 
2497.2264 -999.0000    3.7063   26.9930  176.4457 100000.0000   11.3857   22.4729  254.5367    2.5381    0.0114    0.2251    3.2607 -999.0000 -999.0000 
2497.3788 -999.0000    3.7063   26.9930  176.4457 100000.0000   11.3857   22.4729  254.5367    2.5381    0.0114    0.2251    3.2607 -999.0000 -999.0000 
2497.5312 -999.0000    3.7063   26.9930  176.4457 100000.0000   11.3857   22.4729  254.5367    2.5381    0.0114    0.2251    3.2607 -999.0000 -999.0000 
2497.6836 -999.0000    3.7063   26.9930  176.4457 100000.0000   11.3857   22.4729  254.5367    2.5381    0.0114    0.2251    3.2607 -999.0000 -999.0000 
2497.8360 -999.0000    3.7063   26.9930  176.4457 100000.0000   11.3857   22.4729  254.5367    2.5381    0.0114    0.2251    3.2607 -999.0000 -999.0000 
2497.9884 -999.0000    3.7063   26.9930  176.4457 100000.0000   11.3857   22.4729  254.5367    2.5381    0.0114    0.2251    3.2607 -999.0000 -999.0000 
2498.1408 -999.0000    3.7063   26.9930  176.4457 100000.0000   11.3857   22.4729  254.5367    2.5381    0.0114    0.2251    3.2607 -999.0000 -999.0000 
2498.2932 -999.0000    3.7063   26.9930  176.4457 100000.0000   11.3857   22.4729  254.5367    2.5381    0.0114    0.2251    3.2607 -999.0000 -999.0000 
2498.4456 -999.0000    3.7063   26.9930  176.4457 100000.0000   11.3857   22.4729  254.5367    2.5381    0.0114    0.2251    3.2607 -999.0000 -999.0000 
2498.5980 -999.0000 -999.0000   26.9930  176.4457 100000.0000   11.3857   22.4729  254.5367 -999.0000 -999.0000 -999.0000 -999.0000 -999.0000 -999.0000 
2498.7504 -999.0000 -999.0000   26.9930  176.4457 100000.0000   11.3857   22.4729  254.5367 -999.0000 -999.0000 -999.0000 -999.0000 -999.0000 -999.0000 
2498.9028 -999.0000 -999.0000   26.9930  176.4457 100000.0000   11.3857   22.4729  254.5367 -999.0000 -999.0000 -999.0000 -999.0000 -999.0000 -999.0000 
2499.0552 -999.0000 -999.0000   26.9930  176.4457 100000.0000   11.3857   22.4729  254.5367 -999.0000 -999.0000 -999.0000 -999.0000 -999.0000 -999.0000 
2499.2076 -999.0000 -999.0000   26.9930  176.4457 100000.0000   11.3857   22.4729  254.5367 -999.0000 -999.0000 -999.0000 -999.0000 -999.0000 -999.0000 
2499.3600 -999.0000 -999.0000   26.9930  176.4457 100000.0000   11.3857   22.4729  254.5367 -999.0000 -999.0000 -999.0000 -999.0000 -999.0000 -999.0000 
2499.5124 -999.0000 -999.0000   26.9930  176.4457 100000.0000   11.3857   22.4729  254.5367 -999.0000 -999.0000 -999.0000 -999.0000 -999.0000 -999.0000 
2499.6648 -999.0000 -999.0000   26.9930  176.4457 100000.0000   11.3857   22.4729  254.5367 -999.0000 -999.0000 -999.0000 -999.0000 -999.0000 -999.0000 
2499.8172 -999.0000 -999.0000   26.9930  176.4457 100000.0000   11.3857   22.4729  254.5367 -999.0000 -999.0000 -999.0000 -999.0000 -999.0000 -999.0000 
2499.9696 -999.0000 -999.0000   26.9930  176.4457 100000.0000   11.3857   22.4729  254.5367 -999.0000 -999.0000 -999.0000 -999.0000 -999.0000 -999.0000 
