~VERSION INFORMATION
 VERS.                 2.0:   CWLS LOG ASCII STANDARD - VERSION 2.0
 WRAP.                  NO:   SINGLE LINE PER DEPTH STEP
 CREA.                 01/17/2018 13:37:44
#CREATED USING DSPetro VERSION 5000.10.1.3 BY H191660 ON 01/17/2018 13:37:44
~WELL INFORMATION
#MNEM.UNIT       DATA                          DESCRIPTION MNEMONIC
#---------      ---------------------------   --------------------------
 STRT    .M         0.0000                    : START DEPTH
 STOP    .M         2499.9696                 : STOP DEPTH
 STEP    .M         0.1524                    : STEP VALUE
 NULL    .      -999.0000                     : NULL VALUE
 DATE    .      01/17/2018                    : LAS file Creation Date
 WELL .      2780_Saffron-1              : Well Name
 COMP .      Neftex Exploration Insights : Company
 FLD  .      SAFFRON                     : Field
 UWI  .      ZAUWL_005718                : Unique Well Identifier (UWI)
 LOC  .                                  : Location
 RWS  .      -999                        : Def_Rw
 WST  .      -999                        : Def_Rwt
 SRVC .                                  : Contractor
~CURVE INFORMATION
#MNEM              UNIT       API CODE   Curve Type Comments
#----------  --------------- ----------  ---------- -----------
 DEPTH      .M                         : Depth       
 BS         .in                        : bitSize     
 CAL_INCH   .inch                      : caliper     Caliper Log - A representation of the measured diameter of a borehole along its depth
 SP_MV1     .mv                        : SP          Spontaneous Potential - Records the electrical potential produced by the interaction of formation water, conductive drilling mud, and certain ion-sele
 GR_API     .API                       : gammaRay    Gamma Ray (API) - Measures the intensity of natural gamma-ray radiation emitted from formations containing radioactive elements, such as K, Th and U
 LLD_OHMM   .ohmm                      : deepRes     Laterlog Deep Resistivity - Measurement made several feet into the formation; generally considered a measurement of the undisturbed formation
 LLS_OHMM   .ohmm                      : shalRes     Laterlog Shallow Resistivity - one to two feet into the formation; generally considered to measure the formation
 MSFL_OHMM  .ohmm                      : microRes    Micro-Spherically Focused Log - Measurement involves only the first few inches of the formation immediately adjacent to the borehole
 DT_US_FT   .us/ft                     : sonic       Interval Transit Time: Compressional Wave - Evaluates the time it takes for a compressional wave to traverse a fixed distance
 RHOB_G_CC  .g/cc                      : density     Bulk Density - Measures the density of bulk material, including any void space or other materials contained in the subject volume
 DRHO_G_CC  .g/cc                      : drho        Density Correction - Investigates the correction to the Bulk Density log; used as an indication of hole condition to validate the Bulk Density measure
 NPHI_v_v   .usl                       : neutron     Neutron Porosity - Measured with an neutron logging device calibrated to a given matrix (limestone, sandstone and dolomite) - unscaled
 PEF_B_E    .b/e-                      : PEF         Photoelectric Factor - A log of photoelectric absorption properties. Often expressed in an approximation unit barns/electron (b/e-)
 LITH       .                          : LITH        Lithology Curve
 LITH_v2    .                          : LITH        Lithology Curve
~A  DEPTH     BS     CAL_INCH   SP_MV1    GR_API   LLD_OHMM  LLS_OHMM MSFL_OHM   DT_US_FT RHOB_G_C  DRHO_G_C   NPHI_v_v  PEF_B_E     LITH    LITH_v2  
# ...
1825.4472    8.5000    8.8125   37.5672   83.1244    1.1451    0.9199    0.7870  303.6533    2.3055    0.0017    0.2382    2.9907   36.0000   36.0000 
1825.5996    8.5000    8.8097   36.9217   75.8339    1.0061    0.8284    0.6939  307.5644    2.2666    0.0041    0.2473    2.8482   36.0000   36.0000 
1825.7520    8.5000    8.8109   37.8332   71.5593    0.9013    0.7472    0.5949  308.5840    2.2488    0.0047    0.2480    2.8229   36.0000   36.0000 
1825.9044    8.5000    8.8131   37.4805   67.4945    0.8754    0.7245    0.5589  309.3501    2.2350    0.0041    0.2494    2.7919   36.0000   36.0000 
1826.0568    8.5000    8.8143   37.7773   63.7356    0.8702    0.7194    0.5597  309.0838    2.2251    0.0020    0.2530    2.7179   36.0000   36.0000 
1826.2092    8.5000    8.8151   37.0838   58.5646    0.8896    0.7289    0.5594  310.0368    2.2200 -999.0000    0.2528    2.6326   36.0000   36.0000 
1826.3616    8.5000    8.8153   37.1211   53.8092    0.9132    0.7450    0.6036  310.5216    2.2076 -999.0000    0.2508    2.5469   36.0000   36.0000 
1826.5140    8.5000    8.8164   36.8090   53.0438    0.9307    0.7525    0.5728  311.0460    2.1939   -0.0074    0.2424    2.5647   36.0000   36.0000 
1826.6664    8.5000    8.8111   36.7190   54.8006    0.9137    0.7334    0.5454  311.6649    2.1924   -0.0091    0.2460    2.6355   36.0000   36.0000 
1826.8188    8.5000    8.8096   37.3555   55.6013    0.8902    0.7161    0.5287  310.0211    2.1941   -0.0107    0.2481    2.6648   36.0000   36.0000 
1826.9712    8.5000    8.8134   37.6327   56.1382    0.8675    0.6990    0.5192  305.8277    2.1996   -0.0102    0.2478    2.6983   36.0000   36.0000 
1827.1236    8.5000    8.8155   36.5247   56.7845    0.8477    0.6799    0.4974  298.6639    2.2055   -0.0070    0.2447    2.7838   36.0000   36.0000 
1827.2760    8.5000    8.8187   36.7547   56.9744    0.9060    0.7149    0.4936  286.9756    2.2146   -0.0048    0.2391    3.2195   36.0000   36.0000 
1827.4284    8.5000    8.8225   37.2884   58.1704    0.9719    0.7629    0.5706  277.6118    2.2457   -0.0043    0.2332    3.4783   36.0000   36.0000 
1827.5808    8.5000    8.8180   37.4896   57.7672    1.0193    0.7924    0.7196  272.0647    2.2937 -999.0000    0.2249    3.5224   36.0000   36.0000 
1827.7332    8.5000    8.8185   37.0891   57.9718    1.0316    0.8011    0.7194  267.7321    2.3133 -999.0000    0.2215    3.3842   36.0000   36.0000 
1827.8856    8.5000    8.8194   37.0346   56.4653    0.9867    0.7664    0.6453  266.9355    2.3189   -0.0016    0.2201    3.2506   36.0000   36.0000 
1828.0380    8.5000    8.8209   37.1493   57.4159    0.9397    0.7309    0.5632  269.8330    2.2879   -0.0087    0.2203    2.9886   36.0000   36.0000 
1828.1904    8.5000    8.8230   37.1021   57.8721    0.9341    0.7253    0.5494  275.2079    2.2527   -0.0138    0.2233    2.8511   36.0000   36.0000 
1828.3428    8.5000    8.8210   37.3856   57.4304    0.9496    0.7350    0.5390  276.3102    2.2652   -0.0102    0.2235    2.8577   36.0000   36.0000 
1828.4952    8.5000    8.8187   36.9373   58.5387    0.9687    0.7438    0.5593  275.3178    2.2808   -0.0076    0.2222    2.8205   36.0000   36.0000 
1828.6476    8.5000    8.8171   36.9282   58.5443    0.9853    0.7567    0.5619  273.2697    2.2914   -0.0047    0.2135    2.7832   36.0000   36.0000 
1828.8000    8.5000    8.8202   36.5869   59.5058    1.0033    0.7686    0.5821  272.6394    2.2960   -0.0006    0.2114    2.7572   36.0000   36.0000 
1828.9524    8.5000    8.8218   36.9184   59.1966    1.0046    0.7724    0.6009  273.1935    2.2897    0.0018    0.2174    2.7523   36.0000   36.0000 
1829.1048    8.5000    8.8242   37.2790   59.1143    0.9929    0.7644    0.6086  274.5812    2.2813    0.0013    0.2164    2.6955   36.0000   36.0000 
1829.2572    8.5000    8.8313   36.5849   59.7985    0.9812    0.7578    0.5721  277.6890    2.2756 -999.0000    0.2142    2.6836   36.0000   36.0000 
1829.4096    8.5000    8.8336   36.6069   60.9797    0.9555    0.7395    0.5641  279.5450    2.2770 -999.0000    0.2130    2.7556   36.0000   36.0000 
1829.5620    8.5000    8.8305   36.8976   62.0906    0.9403    0.7277    0.5610  280.5980    2.2768 -999.0000    0.2126    2.8232   36.0000   36.0000 
1829.7144    8.5000    8.8329   37.0446   62.8705    0.9359    0.7256    0.5622  282.1701    2.2695   -0.0019    0.2126    2.7884   36.0000   36.0000 
1829.8668    8.5000    8.8361   37.0025   62.1137    0.9354    0.7231    0.5580  285.7846    2.2636   -0.0031    0.2145    2.7026   36.0000   36.0000 
1830.0192    8.5000    8.8326   36.9891   62.9517    0.9312    0.7168    0.5536  286.4910    2.2596   -0.0044    0.2179    2.6707   36.0000   36.0000 
1830.1716    8.5000    8.8258   37.3823   62.6549    0.9252    0.7143    0.5494  285.0821    2.2588   -0.0052    0.2193    2.6937   36.0000   36.0000 
1830.3240    8.5000    8.8275   37.5713   62.2260    0.9174    0.7089    0.5544  283.6447    2.2547   -0.0057    0.2219    2.7424   36.0000   36.0000 
1830.4764    8.5000    8.8272   37.3109   60.9059    0.9087    0.7015    0.5561  285.4571    2.2509   -0.0076    0.2235    2.7814   36.0000   36.0000 
1830.6288    8.5000    8.8264   37.1281   59.7909    0.9023    0.6917    0.5537  287.2036    2.2493   -0.0085    0.2235    2.8143   36.0000   36.0000 
1830.7812    8.5000    8.8195   36.9081   61.4119    0.8942    0.6912    0.5535  286.2929    2.2526   -0.0076    0.2251    2.8720   36.0000   36.0000 
1830.9336    8.5000    8.8132   37.3701   61.5412    0.9005    0.6940    0.5602  282.7281    2.2618   -0.0071    0.2295    2.9710   36.0000   36.0000 
1831.0860    8.5000    8.8153   37.1656   61.8988    0.9203    0.7095    0.5676  278.6357    2.2786   -0.0077    0.2349    3.1506   36.0000   36.0000 
1831.2384    8.5000    8.8137   36.7023   60.9635    0.9487    0.7334    0.5969  276.0903    2.3026   -0.0071    0.2337    3.2724   36.0000   36.0000 
1831.3908    8.5000    8.8091   36.8427   61.5552    0.9780    0.7576    0.6520  272.7181    2.3201   -0.0070    0.2236    3.3208   36.0000   36.0000 
1831.5432    8.5000    8.8252   36.9823   61.4646    1.0076    0.7798    0.6810  272.7146    2.3292   -0.0068    0.2118    3.3412   36.0000   36.0000 
1831.6956    8.5000    8.8500   36.7860   62.7405    1.0081    0.7806    0.6832  274.5770    2.3280   -0.0056    0.2057    3.3738   36.0000   36.0000 
1831.8480    8.5000    8.8488   36.8544   63.8748    0.9729    0.7564    0.6283  276.5840    2.3162   -0.0055    0.2102    3.2372   36.0000   36.0000 
1832.0004    8.5000    8.8490   36.7260   65.2641    0.9406    0.7338    0.5449  275.9717    2.2958   -0.0070    0.2219    3.0084   36.0000   36.0000 
1832.1528    8.5000    8.8463   37.2434   63.7602    0.9404    0.7377    0.5377  275.8684    2.2840   -0.0083    0.2286    3.0165   36.0000   36.0000 
1832.3052    8.5000    8.8452   36.5689   62.7716    0.9666    0.7578    0.5797  274.4294    2.2945   -0.0081    0.2253    3.2487   36.0000   36.0000 
1832.4576    8.5000    8.8467   36.5017   61.8078    1.0275    0.8045    0.6962  271.9047    2.3103   -0.0079    0.2202    3.5557   36.0000   36.0000 
1832.6100    8.5000    8.8505   37.1554   61.4422    1.0933    0.8588    0.7275  267.8974    2.3413   -0.0057    0.2180    3.9531   36.0000   36.0000 
1832.7624    8.5000    8.8512   36.5645   61.5484    1.1143    0.8810    0.7554  265.8972    2.3628   -0.0032    0.2191    4.1048   36.0000   36.0000 
1832.9148    8.5000    8.8503   36.1243   61.2669    1.0698    0.8504    0.7512  268.4665    2.3673 -999.0000    0.2190    3.9115   36.0000   36.0000 
1833.0672    8.5000    8.8488   36.2665   62.3642    1.0383    0.8311    0.6590  268.1483    2.3567 -999.0000    0.2227    3.5121   36.0000   36.0000 
1833.2196    8.5000    8.8479   36.8709   63.8143    1.0405    0.8341    0.6198  266.6927    2.3371 -999.0000    0.2321    3.2024   36.0000   36.0000 
1833.3720    8.5000    8.8462   36.1950   64.6465    1.0957    0.8747    0.6316  269.1056    2.3256   -0.0073    0.2387    3.2297   36.0000   36.0000 
