~VERSION INFORMATION
 VERS.                 2.0:   CWLS LOG ASCII STANDARD - VERSION 2.0
 WRAP.                  NO:   SINGLE LINE PER DEPTH STEP
 CREA.                 01/17/2018 13:37:44
#CREATED USING DSPetro VERSION 5000.10.1.3 BY H191660 ON 01/17/2018 13:37:44
~WELL INFORMATION
#MNEM.UNIT       DATA                          DESCRIPTION MNEMONIC
#---------      ---------------------------   --------------------------
 STRT    .M         0.0000                    : START DEPTH
 STOP    .M         2499.9696                 : STOP DEPTH
 STEP    .M         0.1524                    : STEP VALUE
 NULL    .      -999.0000                     : NULL VALUE
 DATE    .      01/17/2018                    : LAS file Creation Date
 WELL .      2780_Saffron-1              : Well Name
 COMP .      Neftex Exploration Insights : Company
 FLD  .      SAFFRON                     : Field
 UWI  .      ZAUWL_005718                : Unique Well Identifier (UWI)
 LOC  .                                  : Location
 RWS  .      -999                        : Def_Rw
 WST  .      -999                        : Def_Rwt
 SRVC .                                  : Contractor
~CURVE INFORMATION
#MNEM              UNIT       API CODE   Curve Type Comments
#----------  --------------- ----------  ---------- -----------
 DEPTH      .M                         : Depth       
 BS         .in                        : bitSize     
 CAL_INCH   .inch                      : caliper     Caliper Log - A representation of the measured diameter of a borehole along its depth
 SP_MV1     .mv                        : SP          Spontaneous Potential - Records the electrical potential produced by the interaction of formation water, conductive drilling mud, and certain ion-sele
 GR_API     .API                       : gammaRay    Gamma Ray (API) - Measures the intensity of natural gamma-ray radiation emitted from formations containing radioactive elements, such as K, Th and U
 LLD_OHMM   .ohmm                      : deepRes     Laterlog Deep Resistivity - Measurement made several feet into the formation; generally considered a measurement of the undisturbed formation
 LLS_OHMM   .ohmm                      : shalRes     Laterlog Shallow Resistivity - one to two feet into the formation; generally considered to measure the formation
 MSFL_OHMM  .ohmm                      : microRes    Micro-Spherically Focused Log - Measurement involves only the first few inches of the formation immediately adjacent to the borehole
 DT_US_FT   .us/ft                     : sonic       Interval Transit Time: Compressional Wave - Evaluates the time it takes for a compressional wave to traverse a fixed distance
 RHOB_G_CC  .g/cc                      : density     Bulk Density - Measures the density of bulk material, including any void space or other materials contained in the subject volume
 DRHO_G_CC  .g/cc                      : drho        Density Correction - Investigates the correction to the Bulk Density log; used as an indication of hole condition to validate the Bulk Density measure
 NPHI_v_v   .usl                       : neutron     Neutron Porosity - Measured with an neutron logging device calibrated to a given matrix (limestone, sandstone and dolomite) - unscaled
 PEF_B_E    .b/e-                      : PEF         Photoelectric Factor - A log of photoelectric absorption properties. Often expressed in an approximation unit barns/electron (b/e-)
 LITH       .                          : LITH        Lithology Curve
 LITH_v2    .                          : LITH        Lithology Curve
~A  DEPTH     BS     CAL_INCH   SP_MV1    GR_API   LLD_OHMM  LLS_OHMM MSFL_OHM   DT_US_FT RHOB_G_C  DRHO_G_C   NPHI_v_v  PEF_B_E     LITH    LITH_v2  
# ...
1550.8224   12.2500   11.6518 -999.0000   74.9301    1.5489    1.4103    0.9403  323.1662 -999.0000 -999.0000 -999.0000 -999.0000 -999.0000 -999.0000 
1550.9748   12.2500   11.6331 -999.0000   73.3699    1.5624    1.4195    0.9462  320.1603 -999.0000 -999.0000 -999.0000 -999.0000 -999.0000 -999.0000 
1551.1272   12.2500   11.6145 -999.0000   70.2056    1.5758    1.4287    0.9522  315.3819 -999.0000 -999.0000 -999.0000 -999.0000 -999.0000 -999.0000 
1551.2796   12.2500   11.5958 -999.0000   70.0093    1.5893    1.4379    0.9581  320.3163 -999.0000 -999.0000 -999.0000 -999.0000 -999.0000 -999.0000 
1551.4320   12.2500   11.5771 -999.0000   70.7554    1.6027    1.4471    0.9640  327.5011 -999.0000 -999.0000 -999.0000 -999.0000 -999.0000 -999.0000 
1551.5844   12.2500   11.5584 -999.0000   72.7067    1.6161    1.4563    0.9700  332.0833 -999.0000 -999.0000 -999.0000 -999.0000 -999.0000 -999.0000 
1551.7368   12.2500   11.5397 -999.0000   74.1904    1.6296    1.4655    0.9759  335.9557 -999.0000 -999.0000 -999.0000 -999.0000 -999.0000 -999.0000 
1551.8892   12.2500   11.5211 -999.0000   74.0737    1.6430    1.4747    0.9818  329.9849 -999.0000 -999.0000 -999.0000 -999.0000 -999.0000 -999.0000 
1552.0416   12.2500   11.5024 -999.0000   72.3962    1.6565    1.4839    0.9878  328.9827 -999.0000 -999.0000 -999.0000 -999.0000 -999.0000 -999.0000 
1552.1940   12.2500   11.4837 -999.0000   70.8645    1.6699    1.4931    0.9937  328.8905 -999.0000 -999.0000 -999.0000 -999.0000 -999.0000 -999.0000 
1552.3464   12.2500   11.4650 -999.0000   70.6975    1.6833    1.5023    0.9997  325.5580 -999.0000 -999.0000 -999.0000 -999.0000 -999.0000 -999.0000 
1552.4988   12.2500   11.4463 -999.0000   69.7741    1.6968    1.5115    1.0056  321.5443 -999.0000 -999.0000 -999.0000 -999.0000 -999.0000 -999.0000 
1552.6512   12.2500   11.4277 -999.0000   68.6494    1.7102    1.5207    1.0115  319.1002 -999.0000 -999.0000 -999.0000 -999.0000 -999.0000 -999.0000 
1552.8036   12.2500   11.4090 -999.0000   66.8549    1.7236    1.5299    1.0175  316.0152 -999.0000 -999.0000 -999.0000 -999.0000 -999.0000 -999.0000 
1552.9560   12.2500   11.3903 -999.0000   67.6375    1.7371    1.5391    1.0234  317.6625 -999.0000 -999.0000 -999.0000 -999.0000 -999.0000 -999.0000 
1553.1084   12.2500   11.3716 -999.0000   68.2137    1.7505    1.5483    1.0293  318.4127 -999.0000 -999.0000 -999.0000 -999.0000 -999.0000 -999.0000 
1553.2608   12.2500   11.3529 -999.0000   67.9954    1.7640    1.5575    1.0353  322.2398 -999.0000 -999.0000 -999.0000 -999.0000 -999.0000 -999.0000 
1553.4132   12.2500   11.3343 -999.0000   65.0567    1.7774    1.5667    1.0412  331.5267 -999.0000 -999.0000 -999.0000 -999.0000 -999.0000 -999.0000 
1553.5656   12.2500   11.3156 -999.0000   63.3350    1.7908    1.5759    1.0472  338.2632 -999.0000 -999.0000 -999.0000 -999.0000 -999.0000 -999.0000 
1553.7180   12.2500   11.2969 -999.0000   62.0921    1.8043    1.5851    1.0531  334.3389 -999.0000 -999.0000 -999.0000 -999.0000 -999.0000 -999.0000 
1553.8704   12.2500   11.2782 -999.0000   61.7760    1.8177    1.5943    1.0590  296.3151 -999.0000 -999.0000 -999.0000 -999.0000 -999.0000 -999.0000 
1554.0228   12.2500   11.2595 -999.0000   61.9273    1.8312    1.6035    1.0650  304.2811 -999.0000 -999.0000 -999.0000 -999.0000 -999.0000 -999.0000 
1554.1752   12.2500   11.2409 -999.0000   65.0327    1.8446    1.6127    1.0709  306.3299 -999.0000 -999.0000 -999.0000 -999.0000 -999.0000 -999.0000 
1554.3276   12.2500   11.2222 -999.0000   68.0122    1.8580    1.6219    1.0768  309.6523 -999.0000 -999.0000 -999.0000 -999.0000 -999.0000 -999.0000 
1554.4800   12.2500   11.2035 -999.0000   70.5915    1.8715    1.6311    1.0828  297.6222 -999.0000 -999.0000 -999.0000 -999.0000 -999.0000 -999.0000 
1554.6324   12.2500   11.1848 -999.0000   71.2079    1.8849    1.6403    1.0887  288.4594 -999.0000 -999.0000 -999.0000 -999.0000 -999.0000 -999.0000 
1554.7848   12.2500   11.1661 -999.0000   72.3853    1.8983    1.6495    1.0946  286.1920 -999.0000 -999.0000 -999.0000 -999.0000 -999.0000 -999.0000 
1554.9372   12.2500   11.1475 -999.0000   71.9141    1.9118    1.6587    1.1006  270.3825 -999.0000 -999.0000 -999.0000 -999.0000 -999.0000 -999.0000 
1555.0896   12.2500   11.1288 -999.0000   71.9553    1.9252    1.6679    1.1065  285.1547 -999.0000 -999.0000 -999.0000 -999.0000 -999.0000 -999.0000 
1555.2420   12.2500   11.1101 -999.0000   71.1144    1.9387    1.6771    1.1125  292.0649 -999.0000 -999.0000 -999.0000 -999.0000 -999.0000 -999.0000 
1555.3944   12.2500   11.0914 -999.0000   71.4407    1.9521    1.6863    1.1184  291.2842 -999.0000 -999.0000 -999.0000 -999.0000 -999.0000 -999.0000 
1555.5468   12.2500   11.0727 -999.0000   70.6348    1.9655    1.6955    1.1243  294.0935 -999.0000 -999.0000 -999.0000 -999.0000 -999.0000 -999.0000 
1555.6992   12.2500   11.0541 -999.0000   70.8087    1.9790    1.7047    1.1303  302.1109 -999.0000 -999.0000 -999.0000 -999.0000 -999.0000 -999.0000 
1555.8516   12.2500   11.0354 -999.0000   70.5460    1.9924    1.7139    1.1362  308.6182 -999.0000 -999.0000 -999.0000 -999.0000 -999.0000 -999.0000 
1556.0040   12.2500   11.0167 -999.0000   71.1325    2.0059    1.7231    1.1421  315.6026 -999.0000 -999.0000 -999.0000 -999.0000 -999.0000 -999.0000 
1556.1564   12.2500   10.9980 -999.0000   71.7218    2.0193    1.7323    1.1481  319.7620 -999.0000 -999.0000 -999.0000 -999.0000 -999.0000 -999.0000 
1556.3088   12.2500   10.9793 -999.0000   74.1987    2.0327    1.7415    1.1540  318.8666 -999.0000 -999.0000 -999.0000 -999.0000 -999.0000 -999.0000 
1556.4612   12.2500   10.9607 -999.0000   76.2388    2.0462    1.7507    1.1600  318.5843 -999.0000 -999.0000 -999.0000 -999.0000 -999.0000 -999.0000 
1556.6136   12.2500   10.9420 -999.0000   77.2402    2.0596    1.7599    1.1659  319.3340 -999.0000 -999.0000 -999.0000 -999.0000 -999.0000 -999.0000 
1556.7660   12.2500   10.9233 -999.0000   74.9599    2.0730    1.7691    1.1718  317.5571 -999.0000 -999.0000 -999.0000 -999.0000 -999.0000 -999.0000 
1556.9184   12.2500   10.9046 -999.0000   73.6797    2.0865    1.7783    1.1778  317.2571 -999.0000 -999.0000 -999.0000 -999.0000 -999.0000 -999.0000 
1557.0708   12.2500   10.8859 -999.0000   73.3165    2.0999    1.7875    1.1837  312.4813 -999.0000 -999.0000 -999.0000 -999.0000 -999.0000 -999.0000 
1557.2232   12.2500   10.8673 -999.0000   74.6740    2.1134    1.7967    1.1896  304.0283 -999.0000 -999.0000 -999.0000 -999.0000 -999.0000 -999.0000 
1557.3756   12.2500   10.8486 -999.0000   75.1985    2.1268    1.8059    1.1956  300.0104 -999.0000 -999.0000 -999.0000 -999.0000 -999.0000 -999.0000 
1557.5280   12.2500   10.8299 -999.0000   73.0833    2.1402    1.8151    1.2015  297.1500 -999.0000 -999.0000 -999.0000 -999.0000 -999.0000 -999.0000 
1557.6804   12.2500   10.8112 -999.0000   71.3171    2.1537    1.8243    1.2074  300.2621 -999.0000 -999.0000 -999.0000 -999.0000 -999.0000 -999.0000 
1557.8328   12.2500   10.7925 -999.0000   70.5177    2.1671    1.8335    1.2134  311.2704 -999.0000 -999.0000 -999.0000 -999.0000 -999.0000 -999.0000 
1557.9852   12.2500   10.7739 -999.0000   71.1404    2.1806    1.8427    1.2193  315.4141 -999.0000 -999.0000 -999.0000 -999.0000 -999.0000 -999.0000 
1558.1376   12.2500   10.7552 -999.0000   71.3684    2.1940    1.8519    1.2253  314.4319 -999.0000 -999.0000 -999.0000 -999.0000 -999.0000 -999.0000 
1558.2900   12.2500   10.7365 -999.0000   72.8248    2.2074    1.8612    1.2312  311.6193 -999.0000 -999.0000 -999.0000 -999.0000 -999.0000 -999.0000 
1558.4424   12.2500   10.7178 -999.0000   73.6518    2.2209    1.8704    1.2371  310.8839 -999.0000 -999.0000 -999.0000 -999.0000 -999.0000 -999.0000 
1558.5948   12.2500   10.6991 -999.0000   75.4118    2.2343    1.8796    1.2431  309.0484 -999.0000 -999.0000 -999.0000 -999.0000 -999.0000 -999.0000 
1558.7472   12.2500   10.6805 -999.0000   75.8418    2.2477    1.8888    1.2490  309.5711 -999.0000 -999.0000 -999.0000 -999.0000 -999.0000 -999.0000 
