~VERSION INFORMATION
 VERS.                 2.0:   CWLS LOG ASCII STANDARD - VERSION 2.0
 WRAP.                  NO:   SINGLE LINE PER DEPTH STEP
 CREA.                 01/17/2018 13:37:44
#CREATED USING DSPetro VERSION 5000.10.1.3 BY H191660 ON 01/17/2018 13:37:44
~WELL INFORMATION
#MNEM.UNIT       DATA                          DESCRIPTION MNEMONIC
#---------      ---------------------------   --------------------------
 STRT    .M         0.0000                    : START DEPTH
 STOP    .M         2499.9696                 : STOP DEPTH
 STEP    .M         0.1524                    : STEP VALUE
 NULL    .      -999.0000                     : NULL VALUE
 DATE    .      01/17/2018                    : LAS file Creation Date
 WELL .      2780_Saffron-1              : Well Name
 COMP .      Neftex Exploration Insights : Company
 FLD  .      SAFFRON                     : Field
 UWI  .      ZAUWL_005718                : Unique Well Identifier (UWI)
 LOC  .                                  : Location
 RWS  .      -999                        : Def_Rw
 WST  .      -999                        : Def_Rwt
 SRVC .                                  : Contractor
~CURVE INFORMATION
#MNEM              UNIT       API CODE   Curve Type Comments
#----------  --------------- ----------  ---------- -----------
 DEPTH      .M                         : Depth       
 BS         .in                        : bitSize     
 CAL_INCH   .inch                      : caliper     Caliper Log - A representation of the measured diameter of a borehole along its depth
 SP_MV1     .mv                        : SP          Spontaneous Potential - Records the electrical potential produced by the interaction of formation water, conductive drilling mud, and certain ion-sele
 GR_API     .API                       : gammaRay    Gamma Ray (API) - Measures the intensity of natural gamma-ray radiation emitted from formations containing radioactive elements, such as K, Th and U
 LLD_OHMM   .ohmm                      : deepRes     Laterlog Deep Resistivity - Measurement made several feet into the formation; generally considered a measurement of the undisturbed formation
 LLS_OHMM   .ohmm                      : shalRes     Laterlog Shallow Resistivity - one to two feet into the formation; generally considered to measure the formation
 MSFL_OHMM  .ohmm                      : microRes    Micro-Spherically Focused Log - Measurement involves only the first few inches of the formation immediately adjacent to the borehole
 DT_US_FT   .us/ft                     : sonic       Interval Transit Time: Compressional Wave - Evaluates the time it takes for a compressional wave to traverse a fixed distance
 RHOB_G_CC  .g/cc                      : density     Bulk Density - Measures the density of bulk material, including any void space or other materials contained in the subject volume
 DRHO_G_CC  .g/cc                      : drho        Density Correction - Investigates the correction to the Bulk Density log; used as an indication of hole condition to validate the Bulk Density measure
 NPHI_v_v   .usl                       : neutron     Neutron Porosity - Measured with an neutron logging device calibrated to a given matrix (limestone, sandstone and dolomite) - unscaled
 PEF_B_E    .b/e-                      : PEF         Photoelectric Factor - A log of photoelectric absorption properties. Often expressed in an approximation unit barns/electron (b/e-)
 LITH       .                          : LITH        Lithology Curve
 LITH_v2    .                          : LITH        Lithology Curve
~A  DEPTH     BS     CAL_INCH   SP_MV1    GR_API   LLD_OHMM  LLS_OHMM MSFL_OHM   DT_US_FT RHOB_G_C  DRHO_G_C   NPHI_v_v  PEF_B_E     LITH    LITH_v2  
# ...
1954.6824    8.5000    9.3545   -0.2863  161.2360    2.7466    2.8102    3.3644  309.0608    2.5340 -999.0000    0.3387    3.3824   37.0000   37.0000 
1954.8348    8.5000    9.3562   -0.2863  161.4336    2.8193    2.8826    3.5674  304.7634    2.5185   -0.0045    0.3380    3.2760   37.0000   37.0000 
1954.9872    8.5000    9.3762   -0.2863  161.4650    2.8659    2.9345    3.7549  303.6700    2.5036   -0.0035    0.3266    3.2253   37.0000   37.0000 
1955.1396    8.5000    9.4004   -0.2863  159.4664    2.8772    2.9439    3.7768  304.3128    2.4930 -999.0000    0.3075    3.2172   37.0000   37.0000 
1955.2920    8.5000    9.4145   -0.2863  155.9333    2.8943    2.9626    3.6775  303.8517    2.4860 -999.0000    0.2930    3.2884   37.0000   37.0000 
1955.4444    8.5000    9.4017   -0.2863  155.7364    2.9496    3.0180    3.5077  300.9538    2.4855 -999.0000    0.2841    3.3809   37.0000   37.0000 
1955.5968    8.5000    9.3824   -0.2863  156.4885    3.0451    3.1131    3.4680  299.7981    2.4888    0.0051    0.2819    3.3959   37.0000   37.0000 
1955.7492    8.5000    9.3760   -0.2863  158.0427    3.2295    3.2977    3.8711  300.9758    2.4916    0.0059    0.2860    3.3652   37.0000   37.0000 
1955.9016    8.5000    9.3806   -0.2863  156.3887    3.4157    3.4926    3.9601  297.3004    2.4939    0.0058    0.2872    3.3753   37.0000   37.0000 
1956.0540    8.5000    9.3996   -0.2863  156.6716    3.4702    3.5533    4.4189  295.4760    2.4974    0.0081    0.2896    3.3974   37.0000   37.0000 
1956.2064    8.5000    9.4121   -0.2863  159.1185    3.5170    3.6089    4.5842  296.8728    2.4966    0.0083    0.2963    3.3647   37.0000   37.0000 
1956.3588    8.5000    9.4271   -0.2863  160.7243    3.5357    3.6265    5.1828  304.2205    2.4958    0.0073    0.3100    3.2689   37.0000   37.0000 
1956.5112    8.5000    9.4454   -0.2863  161.9744    3.3291    3.4160    4.1511  311.6886    2.4987    0.0069    0.3059    3.2290   37.0000   37.0000 
1956.6636    8.5000    9.4168   -0.2863  161.8836    3.0751    3.1486    3.8800  311.2676    2.5001    0.0077    0.2774    3.2883   37.0000   37.0000 
1956.8160    8.5000    9.3593   -0.2863  163.4249    2.9282    2.9958    2.4745  311.9469    2.4928    0.0070    0.2687    3.3691   37.0000   37.0000 
1956.9684    8.5000    9.3387   -0.2863  163.8451    2.8174    2.8896    2.8342  315.4669    2.4870    0.0060    0.2819    3.4950   37.0000   37.0000 
1957.1208    8.5000    9.3849   -0.2863  161.9340    2.7856    2.8472    3.5915  315.8271    2.4904    0.0051    0.2906    3.5493   37.0000   37.0000 
1957.2732    8.5000    9.4602   -0.2863  160.9231    2.9724    3.0354    3.7691  309.7910    2.4946    0.0028    0.2821    3.6228   37.0000   37.0000 
1957.4256    8.5000    9.4890   -0.2863  163.0686    3.1736    3.2439    3.8084  303.8225    2.4938   -0.0001    0.2716    3.5521   37.0000   37.0000 
1957.5780    8.5000    9.4810   -0.2863  164.1025    3.2693    3.3469    4.0870  299.7201    2.4877   -0.0031    0.2696    3.5254   37.0000   37.0000 
1957.7304    8.5000    9.4708   -0.2863  163.3996    3.3181    3.3994    3.8690  296.0090    2.4897   -0.0050    0.2697    3.4740   37.0000   37.0000 
1957.8828    8.5000    9.4446   -0.2863  160.8167    3.3917    3.4618    4.2907  293.0314    2.4953   -0.0057    0.2740    3.4187   37.0000   37.0000 
1958.0352    8.5000    9.4012   -0.2863  159.0398    3.4726    3.5490    4.5990  291.7037    2.5012   -0.0047    0.2740    3.3565   37.0000   37.0000 
1958.1876    8.5000    9.3996   -0.2863  159.1372    3.6221    3.6949    4.8146  289.1481    2.5075   -0.0048    0.2603    3.2967   37.0000   37.0000 
1958.3400    8.5000    9.4218   -0.2863  158.7961    3.7324    3.7986    4.8190  288.9867    2.5145   -0.0055    0.2448    3.3015   37.0000   37.0000 
1958.4924    8.5000    9.4566   -0.2863  159.7463    3.7383    3.8020    4.9733  289.8327    2.5173   -0.0056    0.2349    3.2878   37.0000   37.0000 
1958.6448    8.5000    9.4767   -0.2863  161.4788    3.6353    3.6961    4.8743  289.6215    2.5150   -0.0045    0.2321    3.3112   37.0000   37.0000 
1958.7972    8.5000    9.4548   -0.2863  160.5077    3.5421    3.6129    4.2246  289.5714    2.5140   -0.0026    0.2422    3.3983   37.0000   37.0000 
1958.9496    8.5000    9.4297   -0.2863  158.6545    3.4755    3.5483    3.9854  289.3441    2.5164 -999.0000    0.2566    3.4197   37.0000   37.0000 
1959.1020    8.5000    9.4296   -0.2863  155.4619    3.4470    3.5213    4.6269  289.9957    2.5149 -999.0000    0.2540    3.4821   37.0000   37.0000 
1959.2544    8.5000    9.4385   -0.2863  155.5688    3.4689    3.5449    4.8359  292.3359    2.5134 -999.0000    0.2459    3.5749   37.0000   37.0000 
1959.4068    8.5000    9.4527   -0.2863  159.5605    3.4408    3.5155    4.4562  293.3882    2.5097   -0.0024    0.2396    3.7416   37.0000   37.0000 
1959.5592    8.5000    9.4880   -0.2863  161.6691    3.3491    3.4272    3.7572  297.3367    2.5010   -0.0048    0.2400    3.8464   37.0000   37.0000 
1959.7116    8.5000    9.5177   -0.2863  164.0319    3.2926    3.3605    4.0028  301.0618    2.4900   -0.0067    0.2489    3.6961   37.0000   37.0000 
1959.8640    8.5000    9.5186   -0.2863  166.5978    3.2676    3.3370    4.1684  302.8527    2.4874   -0.0069    0.2656    3.4679   37.0000   37.0000 
1960.0164    8.5000    9.5165   -0.2863  166.7876    3.2456    3.3119    4.4242  302.1945    2.4962   -0.0041    0.2792    3.2803   37.0000   37.0000 
1960.1688    8.5000    9.5245   -0.2863  165.5740    3.2492    3.3066    4.0718  303.8161    2.5061 -999.0000    0.2834    3.3528   37.0000   37.0000 
1960.3212    8.5000    9.5562   -0.2863  163.1195    3.2580    3.3106    3.9203  301.4366    2.5104 -999.0000    0.2897    3.6388   37.0000   37.0000 
1960.4736    8.5000    9.5795   -0.2863  162.9974    3.2515    3.3020    4.2995  299.0795    2.5043   -0.0039    0.2880    3.7695   37.0000   37.0000 
1960.6260    8.5000    9.5949   -0.2863  161.8404    3.3238    3.3789    4.2331  293.9792    2.4944   -0.0059    0.2700    3.6959   37.0000   37.0000 
1960.7784    8.5000    9.6050   -0.2863  158.6127    3.4898    3.5399    4.2101  292.8645    2.4911   -0.0072    0.2504    3.5346   37.0000   37.0000 
1960.9308    8.5000    9.5983   -0.2863  153.5474    3.5930    3.6375    4.5587  293.1435    2.5014   -0.0074    0.2432    3.5478   37.0000   37.0000 
1961.0832    8.5000    9.5969   -0.2863  150.5674    3.5710    3.6147    4.7325  292.7099    2.5187   -0.0033    0.2321    3.6421   37.0000   37.0000 
1961.2356    8.5000    9.6072   -0.2863  152.0401    3.4854    3.5322    4.7513  290.5003    2.5204    0.0008    0.2251    3.7480   37.0000   37.0000 
1961.3880    8.5000    9.6148   -0.2863  157.1366    3.4227    3.4742    3.7487  289.8270    2.5130    0.0025    0.2313    3.8185   37.0000   37.0000 
1961.5404    8.5000    9.6119   -0.2863  159.9222    3.3426    3.4013    3.9576  290.8615    2.5124    0.0052    0.2488    3.7149   37.0000   37.0000 
1961.6928    8.5000    9.6061   -0.2863  159.7973    3.3133    3.3792    4.3079  291.4063    2.5212    0.0092    0.2600    3.5918   37.0000   37.0000 
1961.8452    8.5000    9.6012   -0.2863  162.0941    3.3545    3.4272    4.0138  292.3778    2.5285    0.0091    0.2533    3.4441   37.0000   37.0000 
1961.9976    8.5000    9.5975   -0.2863  169.5362    3.3468    3.4315    3.9216  289.3133    2.5319    0.0088    0.2553    3.3455   37.0000   37.0000 
1962.1500    8.5000    9.5907   -0.2863  186.1270    3.3023    3.3992    3.8827  291.7448    2.5330    0.0086    0.2805    3.3144   37.0000   37.0000 
1962.3024    8.5000    9.5909   -0.2863  192.2387    3.2975    3.4083    3.9088  295.9047    2.5268    0.0048    0.3055    3.4006   37.0000   37.0000 
1962.4548    8.5000    9.5811   -0.2863  185.9163    3.2666    3.3910    4.5306  301.1052    2.5231    0.0030    0.3050    3.5703   37.0000   37.0000 
1962.6072    8.5000    9.5745   -0.2863  170.0381    3.1917    3.3250    4.7122  307.0048    2.5191    0.0033    0.2988    3.6131   37.0000   37.0000 
