~VERSION INFORMATION
 VERS.                 2.0:   CWLS LOG ASCII STANDARD - VERSION 2.0
 WRAP.                  NO:   SINGLE LINE PER DEPTH STEP
 CREA.                 01/17/2018 13:37:44
#CREATED USING DSPetro VERSION 5000.10.1.3 BY H191660 ON 01/17/2018 13:37:44
~WELL INFORMATION
#MNEM.UNIT       DATA                          DESCRIPTION MNEMONIC
#---------      ---------------------------   --------------------------
 STRT    .M         0.0000                    : START DEPTH
 STOP    .M         2499.9696                 : STOP DEPTH
 STEP    .M         0.1524                    : STEP VALUE
 NULL    .      -999.0000                     : NULL VALUE
 DATE    .      01/17/2018                    : LAS file Creation Date
 WELL .      2780_Saffron-1              : Well Name
 COMP .      Neftex Exploration Insights : Company
 FLD  .      SAFFRON                     : Field
 UWI  .      ZAUWL_005718                : Unique Well Identifier (UWI)
 LOC  .                                  : Location
 RWS  .      -999                        : Def_Rw
 WST  .      -999                        : Def_Rwt
 SRVC .                                  : Contractor
~CURVE INFORMATION
#MNEM              UNIT       API CODE   Curve Type Comments
#----------  --------------- ----------  ---------- -----------
 DEPTH      .M                         : Depth       
 BS         .in                        : bitSize     
 CAL_INCH   .inch                      : caliper     Caliper Log - A representation of the measured diameter of a borehole along its depth
 SP_MV1     .mv                        : SP          Spontaneous Potential - Records the electrical potential produced by the interaction of formation water, conductive drilling mud, and certain ion-sele
 GR_API     .API                       : gammaRay    Gamma Ray (API) - Measures the intensity of natural gamma-ray radiation emitted from formations containing radioactive elements, such as K, Th and U
 LLD_OHMM   .ohmm                      : deepRes     Laterlog Deep Resistivity - Measurement made several feet into the formation; generally considered a measurement of the undisturbed formation
 LLS_OHMM   .ohmm                      : shalRes     Laterlog Shallow Resistivity - one to two feet into the formation; generally considered to measure the formation
 MSFL_OHMM  .ohmm                      : microRes    Micro-Spherically Focused Log - Measurement involves only the first few inches of the formation immediately adjacent to the borehole
 DT_US_FT   .us/ft                     : sonic       Interval Transit Time: Compressional Wave - Evaluates the time it takes for a compressional wave to traverse a fixed distance
 RHOB_G_CC  .g/cc                      : density     Bulk Density - Measures the density of bulk material, including any void space or other materials contained in the subject volume
 DRHO_G_CC  .g/cc                      : drho        Density Correction - Investigates the correction to the Bulk Density log; used as an indication of hole condition to validate the Bulk Density measure
 NPHI_v_v   .usl                       : neutron     Neutron Porosity - Measured with an neutron logging device calibrated to a given matrix (limestone, sandstone and dolomite) - unscaled
 PEF_B_E    .b/e-                      : PEF         Photoelectric Factor - A log of photoelectric absorption properties. Often expressed in an approximation unit barns/electron (b/e-)
 LITH       .                          : LITH        Lithology Curve
 LITH_v2    .                          : LITH        Lithology Curve
~A  DEPTH     BS     CAL_INCH   SP_MV1    GR_API   LLD_OHMM  LLS_OHMM MSFL_OHM   DT_US_FT RHOB_G_C  DRHO_G_C   NPHI_v_v  PEF_B_E     LITH    LITH_v2  
# ...
2358.5424    8.5000    9.0106   29.0247   54.5964    1.3759    1.2273    0.6116  283.4842    2.2830    0.1140    0.1722    3.4164   27.0000   27.0000 
2358.6948    8.5000    8.9894   28.1721   53.1248    1.2973    1.1572    0.6578  287.2382    2.2800    0.1172    0.1882    3.3340   27.0000   27.0000 
2358.8472    8.5000    8.8818   28.1184   52.2770    1.2671    1.1199    0.7033  284.9871    2.3163    0.1106    0.2031    3.2577   27.0000   27.0000 
2358.9996    8.5000    8.8380   28.1219   50.6763    1.3183    1.1678    0.5967  275.1346    2.3676    0.1001    0.2131    3.3190   27.0000   27.0000 
2359.1520    8.5000    8.7609   29.1492   48.0726    1.4271    1.2709    0.5178  265.1203    2.3927    0.0786    0.2093    3.5177   27.0000   27.0000 
2359.3044    8.5000    8.7141   28.1966   46.7698    1.6988    1.5051    0.6987  258.3051    2.4037    0.0601    0.1949    3.7718   27.0000   27.0000 
2359.4568    8.5000    8.6770   28.0716   46.2447    1.9932    1.7377    2.3258  254.1410    2.4222    0.0727    0.1753    3.8978   27.0000   27.0000 
2359.6092    8.5000    8.6513   28.3053   46.7477    2.1360    1.8646    1.8445  254.4270    2.4137    0.0823    0.1579    3.7873   27.0000   18.0000 
2359.7616    8.5000    8.6967   28.9433   49.0316    2.0051    1.8156    0.9142  255.9180    2.3768    0.0718    0.1577    3.5517   27.0000   27.0000 
2359.9140    8.5000    8.7538   28.4411   51.5668    1.6894    1.5837    0.7833  265.4351    2.3575    0.0609    0.1700    3.4872   27.0000   27.0000 
2360.0664    8.5000    8.8181   28.6576   52.7941    1.5721    1.4934    0.7815  272.7261    2.3496    0.0553    0.1836    3.5830   27.0000   27.0000 
2360.2188    8.5000    8.9714   29.0704   52.0372    1.4876    1.4107    0.7336  274.3806    2.3182    0.0452    0.1876    3.7361   27.0000   27.0000 
2360.3712    8.5000    9.1545   28.2732   50.2013    1.3710    1.3040    0.5102  271.0338    2.2731    0.0427    0.1850    3.8151   27.0000   27.0000 
2360.5236    8.5000    9.2159   28.4936   51.5257    1.4527    1.3856    0.4004  270.4762    2.2559    0.0419    0.1908    3.7583   27.0000   27.0000 
2360.6760    8.5000    9.1797   29.2825   52.1333    1.4948    1.4302    0.7389  264.5396    2.2746    0.0442    0.1928    3.6586   27.0000   27.0000 
2360.8284    8.5000    8.9225   29.4117   52.0644    1.6882    1.6097    0.9411  254.7937    2.3293    0.0461    0.1877    3.5010   27.0000   27.0000 
2360.9808    8.5000    8.7227   28.9546   49.8606    2.2051    2.0945    0.9416  244.5778    2.3798    0.0362    0.1726    3.4084   27.0000   27.0000 
2361.1332    8.5000    8.7984   29.0181   47.6657    2.4833    2.4116    1.0731  240.7000    2.4300    0.0224    0.1558    3.3931   27.0000   18.0000 
2361.2856    8.5000    8.8753   29.3361   47.1727    2.3635    2.3060    2.4087  244.2634    2.4600    0.0149    0.1429    3.4057   27.0000   18.0000 
2361.4380    8.5000    8.8771   28.6580   47.0245    2.0667    2.0096    2.6759  240.1964    2.4649    0.0110    0.1346    3.3663   27.0000   18.0000 
2361.5904    8.5000    8.8220   28.0238   47.3172    1.6401    1.5936    0.9025  227.5175    2.4244    0.0082    0.1372    3.3128   27.0000   27.0000 
2361.7428    8.5000    8.7524   27.6653   47.9057    1.2771    1.2677    0.6283  221.4095    2.3547    0.0157    0.1466    3.2838   27.0000   27.0000 
2361.8952    8.5000    8.6743   28.2499   49.2375    1.3648    1.3471    0.5721  253.3514    2.3039    0.0350    0.1563    3.3376   27.0000   27.0000 
2362.0476    8.5000    8.6246   28.2633   48.8258    1.6856    1.6468    1.9236  254.3937    2.3075    0.0521    0.1573    3.3911   27.0000   27.0000 
2362.2000    8.5000    8.6468   27.6283   47.6982    2.6386    2.4656    3.1083  248.0202    2.3719    0.0657    0.1560    3.3658   27.0000   27.0000 
2362.3524    8.5000    8.7634   27.3627   46.6855    4.3025    3.9457    2.0294  235.9467    2.4705    0.0780    0.1484    3.3002   27.0000   18.0000 
2362.5048    8.5000    8.8386   28.2942   47.7128    4.0688    4.0788    2.2861  235.0144    2.5139    0.0730    0.1341    3.3020   27.0000   18.0000 
2362.6572    8.5000    8.8337   27.2455   49.0788    3.1299    3.2357    2.4304  242.4518    2.4779    0.0545    0.1258    3.4564   27.0000   18.0000 
2362.8096    8.5000    8.8082   27.1537   49.3433    2.2013    2.2810    1.8420  254.0340    2.4251    0.0549    0.1255    3.5304   27.0000   27.0000 
2362.9620    8.5000    8.7107   28.1216   47.9777    1.5943    1.6343    1.0122  261.9706    2.3713    0.0727    0.1333    3.5024   27.0000   27.0000 
2363.1144    8.5000    8.5958   27.9623   47.8139    1.3325    1.3506    0.5849  265.4456    2.3273    0.0833    0.1430    3.3208   27.0000   27.0000 
2363.2668    8.5000    8.6026   27.8771   47.7749    1.3198    1.3271    0.6801  267.1227    2.3126    0.0808    0.1448    3.1793   27.0000   27.0000 
2363.4192    8.5000    8.6735   28.2430   48.0569    1.5253    1.5072    0.7906  262.7818    2.3384    0.0725    0.1455    3.0929   27.0000   27.0000 
2363.5716    8.5000    8.7733   27.9175   46.6864    2.0354    1.9612    1.0587  251.6350    2.3719    0.0535    0.1467    3.1338   27.0000   27.0000 
2363.7240    8.5000    8.8440   27.1788   46.0847    2.8672    2.7043    1.2679  237.7422    2.3938    0.0257    0.1408    3.3229   27.0000   27.0000 
2363.8764    8.5000    8.8410   27.3078   45.3140    4.5580    4.2396    2.1569  230.4511    2.4205    0.0167    0.1268    3.7268   27.0000   27.0000 
2364.0288    8.5000    8.7716   27.7498   45.5206    4.8863    4.5208    4.1936  233.0755    2.4461    0.0283    0.1123    4.0253   27.0000   27.0000 
2364.1812    8.5000    8.6918   27.6814   46.8979    3.9964    3.6997    1.9754  240.5515    2.4228    0.0477    0.1097    4.0755   27.0000   27.0000 
2364.3336    8.5000    8.6824   27.3966   50.6188    2.8176    2.5613    0.6807  251.7274    2.3350    0.0581    0.1161    3.9207   27.0000   27.0000 
2364.4860    8.5000    8.8201   26.4048   54.6659    1.3174    1.2523    0.5386  265.7135    2.2439    0.0516    0.1198    3.6464   27.0000   27.0000 
2364.6384    8.5000    9.1105   27.1950   57.0270    1.1298    1.0898    0.5684  280.0269    2.2125    0.0491    0.1184    3.4658   27.0000   27.0000 
2364.7908    8.5000    9.3049   26.1201   57.5231    1.1671    1.1169    0.5368  281.5778    2.2354    0.0422    0.1278    3.3362   27.0000   27.0000 
2364.9432    8.5000    9.2999   25.9867   56.6059    1.3117    1.2432    0.6189  283.9324    2.2715    0.0242    0.1478    3.3936   27.0000   27.0000 
2365.0956    8.5000    9.2643   25.4387   54.8609    1.4463    1.3473    0.6686  278.6945    2.3137    0.0098    0.1627    3.4774   27.0000   27.0000 
2365.2480    8.5000    9.2673   25.7422   52.9891    1.5009    1.3504    0.3853  277.5526    2.3351    0.0131    0.1611    3.4818   27.0000   27.0000 
2365.4004    8.5000    9.0121   26.2264   50.7734    1.4640    1.3268    0.3588  277.3956    2.3111    0.0087    0.1589    3.4040   27.0000   27.0000 
2365.5528    8.5000    8.9369   26.5054   51.3788    1.3061    1.1997    0.5342  276.2914    2.2792    0.0071    0.1625    3.3087   27.0000   27.0000 
2365.7052    8.5000    8.8901   26.4659   51.7823    1.2593    1.1547    0.5792  276.7107    2.2728    0.0149    0.1680    3.2551   27.0000   27.0000 
2365.8576    8.5000    8.8488   26.4919   51.9148    1.3045    1.1856    0.5463  275.4439    2.2817    0.0298    0.1732    3.2708   27.0000   27.0000 
2366.0100    8.5000    8.8866   26.9838   50.2454    1.3170    1.2013    0.5585  275.2469    2.2845    0.0359    0.1723    3.3686   27.0000   27.0000 
2366.1624    8.5000    8.8396   26.6005   49.8705    1.3434    1.2161    0.6021  277.0215    2.2847    0.0379    0.1748    3.4667   27.0000   27.0000 
2366.3148    8.5000    8.8121   26.4915   50.2522    1.3579    1.2134    0.4965  278.5507    2.2885    0.0400    0.1772    3.5422   27.0000   27.0000 
2366.4672    8.5000    8.8269   26.4444   50.8990    1.3698    1.2137    0.3021  280.2813    2.2849    0.0414    0.1781    3.5796   27.0000   27.0000 
