~VERSION INFORMATION
 VERS.                 2.0:   CWLS LOG ASCII STANDARD - VERSION 2.0
 WRAP.                  NO:   SINGLE LINE PER DEPTH STEP
 CREA.                 01/17/2018 13:37:44
#CREATED USING DSPetro VERSION 5000.10.1.3 BY H191660 ON 01/17/2018 13:37:44
~WELL INFORMATION
#MNEM.UNIT       DATA                          DESCRIPTION MNEMONIC
#---------      ---------------------------   --------------------------
 STRT    .M         0.0000                    : START DEPTH
 STOP    .M         2499.9696                 : STOP DEPTH
 STEP    .M         0.1524                    : STEP VALUE
 NULL    .      -999.0000                     : NULL VALUE
 DATE    .      01/17/2018                    : LAS file Creation Date
 WELL .      2780_Saffron-1              : Well Name
 COMP .      Neftex Exploration Insights : Company
 FLD  .      SAFFRON                     : Field
 UWI  .      ZAUWL_005718                : Unique Well Identifier (UWI)
 LOC  .                                  : Location
 RWS  .      -999                        : Def_Rw
 WST  .      -999                        : Def_Rwt
 SRVC .                                  : Contractor
~CURVE INFORMATION
#MNEM              UNIT       API CODE   Curve Type Comments
#----------  --------------- ----------  ---------- -----------
 DEPTH      .M                         : Depth       
 BS         .in                        : bitSize     
 CAL_INCH   .inch                      : caliper     Caliper Log - A representation of the measured diameter of a borehole along its depth
 SP_MV1     .mv                        : SP          Spontaneous Potential - Records the electrical potential produced by the interaction of formation water, conductive drilling mud, and certain ion-sele
 GR_API     .API                       : gammaRay    Gamma Ray (API) - Measures the intensity of natural gamma-ray radiation emitted from formations containing radioactive elements, such as K, Th and U
 LLD_OHMM   .ohmm                      : deepRes     Laterlog Deep Resistivity - Measurement made several feet into the formation; generally considered a measurement of the undisturbed formation
 LLS_OHMM   .ohmm                      : shalRes     Laterlog Shallow Resistivity - one to two feet into the formation; generally considered to measure the formation
 MSFL_OHMM  .ohmm                      : microRes    Micro-Spherically Focused Log - Measurement involves only the first few inches of the formation immediately adjacent to the borehole
 DT_US_FT   .us/ft                     : sonic       Interval Transit Time: Compressional Wave - Evaluates the time it takes for a compressional wave to traverse a fixed distance
 RHOB_G_CC  .g/cc                      : density     Bulk Density - Measures the density of bulk material, including any void space or other materials contained in the subject volume
 DRHO_G_CC  .g/cc                      : drho        Density Correction - Investigates the correction to the Bulk Density log; used as an indication of hole condition to validate the Bulk Density measure
 NPHI_v_v   .usl                       : neutron     Neutron Porosity - Measured with an neutron logging device calibrated to a given matrix (limestone, sandstone and dolomite) - unscaled
 PEF_B_E    .b/e-                      : PEF         Photoelectric Factor - A log of photoelectric absorption properties. Often expressed in an approximation unit barns/electron (b/e-)
 LITH       .                          : LITH        Lithology Curve
 LITH_v2    .                          : LITH        Lithology Curve
~A  DEPTH     BS     CAL_INCH   SP_MV1    GR_API   LLD_OHMM  LLS_OHMM MSFL_OHM   DT_US_FT RHOB_G_C  DRHO_G_C   NPHI_v_v  PEF_B_E     LITH    LITH_v2  
# ...
 476.5548   12.3000   21.7174    4.0192   84.7063    0.6705    0.3956    0.6549  429.4346 -999.0000 -999.0000 -999.0000 -999.0000 -999.0000 -999.0000 
 476.7072   12.3000   21.3577    3.7026   86.7875    0.6574    0.3753    0.6145  426.6042 -999.0000 -999.0000 -999.0000 -999.0000 -999.0000 -999.0000 
 476.8596   12.3000   21.5578    3.1905   90.9454    0.6356    0.3488    0.6424  428.5254 -999.0000 -999.0000 -999.0000 -999.0000 -999.0000 -999.0000 
 477.0120   12.3000   21.8815    1.7584   89.7521    0.6334    0.3356    0.2746  432.3324 -999.0000 -999.0000 -999.0000 -999.0000 -999.0000 -999.0000 
 477.1644   12.3000   21.9239    2.1802   87.4496    0.6436    0.3299    0.1773  435.2649 -999.0000 -999.0000 -999.0000 -999.0000 -999.0000 -999.0000 
 477.3168   12.3000   21.9268    2.7341   84.8995    0.6466    0.3251    0.1728  435.8755 -999.0000 -999.0000 -999.0000 -999.0000 -999.0000 -999.0000 
 477.4692   12.3000   21.8545    2.4015   84.3975    0.6507    0.3243    0.4027  436.3291 -999.0000 -999.0000 -999.0000 -999.0000 -999.0000 -999.0000 
 477.6216   12.3000   21.4900    1.4220   88.1823    0.6569    0.3245    0.8979  437.5382 -999.0000 -999.0000 -999.0000 -999.0000 -999.0000 -999.0000 
 477.7740   12.3000   21.7255    0.8958   88.2479    0.6558    0.3241    0.1941  432.3722 -999.0000 -999.0000 -999.0000 -999.0000 -999.0000 -999.0000 
 477.9264   12.3000   21.7859    1.5291   87.8326    0.6572    0.3220    0.1745  427.0383 -999.0000 -999.0000 -999.0000 -999.0000 -999.0000 -999.0000 
 478.0788   12.3000   21.5956    1.8141   86.7339    0.6665    0.3223    0.3761  421.4879 -999.0000 -999.0000 -999.0000 -999.0000 -999.0000 -999.0000 
 478.2312   12.3000   21.7611    1.9646   86.5003    0.6765    0.3239    0.4394  418.1174 -999.0000 -999.0000 -999.0000 -999.0000 -999.0000 -999.0000 
 478.3836   12.3000   21.9203    2.0336   85.6312    0.6775    0.3238    0.1648  420.3133 -999.0000 -999.0000 -999.0000 -999.0000 -999.0000 -999.0000 
 478.5360   12.3000   21.9262    1.8095   85.0121    0.6687    0.3151    0.1432  423.0035 -999.0000 -999.0000 -999.0000 -999.0000 -999.0000 -999.0000 
 478.6884   12.3000   21.9226    1.1330   83.1568    0.6771    0.3177    0.1375  420.8951 -999.0000 -999.0000 -999.0000 -999.0000 -999.0000 -999.0000 
 478.8408   12.3000   21.9190    0.8846   80.7952    0.6913    0.3199    0.1363  420.9379 -999.0000 -999.0000 -999.0000 -999.0000 -999.0000 -999.0000 
 478.9932   12.3000   21.9195    0.8121   78.9580    0.6994    0.3269    0.1434  418.5853 -999.0000 -999.0000 -999.0000 -999.0000 -999.0000 -999.0000 
 479.1456   12.3000   21.9131    2.3003   80.7485    0.7091    0.3263    0.1707  412.4602 -999.0000 -999.0000 -999.0000 -999.0000 -999.0000 -999.0000 
 479.2980   12.3000   21.9201    2.1549   81.8650    0.7049    0.3228    0.1479  415.2149 -999.0000 -999.0000 -999.0000 -999.0000 -999.0000 -999.0000 
 479.4504   12.3000   21.9225    1.5770   81.8237    0.6884    0.3176    0.1363  417.5242 -999.0000 -999.0000 -999.0000 -999.0000 -999.0000 -999.0000 
 479.6028   12.3000   21.9186    1.1301   81.9931    0.6714    0.3114    0.1366  420.3065 -999.0000 -999.0000 -999.0000 -999.0000 -999.0000 -999.0000 
 479.7552   12.3000   21.9243    1.3249   81.7562    0.6683    0.3137    0.1362  413.6757 -999.0000 -999.0000 -999.0000 -999.0000 -999.0000 -999.0000 
 479.9076   12.3000   21.9218    2.2766   84.8230    0.6788    0.3189    0.1362  406.6529 -999.0000 -999.0000 -999.0000 -999.0000 -999.0000 -999.0000 
 480.0600   12.3000   21.9166    1.7375   87.3468    0.6965    0.3266    0.1363  402.7610 -999.0000 -999.0000 -999.0000 -999.0000 -999.0000 -999.0000 
 480.2124   12.3000   21.9203    0.9176   90.7499    0.7115    0.3315    0.1373  405.2795 -999.0000 -999.0000 -999.0000 -999.0000 -999.0000 -999.0000 
 480.3648   12.3000   21.9228    1.3460   90.2270    0.7301    0.3305    0.1388  412.1720 -999.0000 -999.0000 -999.0000 -999.0000 -999.0000 -999.0000 
 480.5172   12.3000   21.9230    1.2443   85.5961    0.7112    0.3241    0.1401  417.5217 -999.0000 -999.0000 -999.0000 -999.0000 -999.0000 -999.0000 
 480.6696   12.3000   21.9207    1.8336   82.1755    0.6946    0.3191    0.1375  432.0797 -999.0000 -999.0000 -999.0000 -999.0000 -999.0000 -999.0000 
 480.8220   12.3000   21.9175    2.4270   81.4840    0.6817    0.3117    0.1354  436.2095 -999.0000 -999.0000 -999.0000 -999.0000 -999.0000 -999.0000 
 480.9744   12.3000   21.9166    1.8944   85.3210    0.6791    0.3110    0.1354  430.9467 -999.0000 -999.0000 -999.0000 -999.0000 -999.0000 -999.0000 
 481.1268   12.3000   21.9194    1.1870   90.1440    0.6913    0.3155    0.1356  426.8549 -999.0000 -999.0000 -999.0000 -999.0000 -999.0000 -999.0000 
 481.2792   12.3000   21.9183    2.1783   91.4878    0.7012    0.3237    0.1360  424.3670 -999.0000 -999.0000 -999.0000 -999.0000 -999.0000 -999.0000 
 481.4316   12.3000   21.9221    2.2511   89.5316    0.7081    0.3257    0.1369  420.3871 -999.0000 -999.0000 -999.0000 -999.0000 -999.0000 -999.0000 
 481.5840   12.3000   21.9204    1.8188   86.6827    0.7095    0.3233    0.1367  418.4724 -999.0000 -999.0000 -999.0000 -999.0000 -999.0000 -999.0000 
 481.7364   12.3000   21.9181    1.2199   86.4956    0.7065    0.3238    0.1364  420.4381 -999.0000 -999.0000 -999.0000 -999.0000 -999.0000 -999.0000 
 481.8888   12.3000   21.9196    1.1954   87.0338    0.7036    0.3255    0.1372  431.3691 -999.0000 -999.0000 -999.0000 -999.0000 -999.0000 -999.0000 
 482.0412   12.3000   21.9186    1.3476   86.5645    0.7002    0.3201    0.1392  430.8513 -999.0000 -999.0000 -999.0000 -999.0000 -999.0000 -999.0000 
 482.1936   12.3000   21.9205    1.3731   84.6348    0.6973    0.3147    0.1409  428.8255 -999.0000 -999.0000 -999.0000 -999.0000 -999.0000 -999.0000 
 482.3460   12.3000   21.9237    2.4628   82.4084    0.6953    0.3119    0.1381  428.9581 -999.0000 -999.0000 -999.0000 -999.0000 -999.0000 -999.0000 
 482.4984   12.3000   21.9233    2.7701   78.7804    0.6977    0.3076    0.1376  428.7306 -999.0000 -999.0000 -999.0000 -999.0000 -999.0000 -999.0000 
 482.6508   12.3000   21.9217    1.1335   80.7465    0.7005    0.3098    0.1370  417.2545 -999.0000 -999.0000 -999.0000 -999.0000 -999.0000 -999.0000 
 482.8032   12.3000   21.9229    1.0662   84.2885    0.7045    0.3114    0.1360  430.2821 -999.0000 -999.0000 -999.0000 -999.0000 -999.0000 -999.0000 
 482.9556   12.3000   21.9226    2.2156   85.3953    0.7043    0.3100    0.1357  436.9166 -999.0000 -999.0000 -999.0000 -999.0000 -999.0000 -999.0000 
 483.1080   12.3000   21.9200    2.9160   82.8761    0.7027    0.3084    0.1358  438.6102 -999.0000 -999.0000 -999.0000 -999.0000 -999.0000 -999.0000 
 483.2604   12.3000   21.9213    1.9192   80.2443    0.7052    0.3130    0.1360  432.1080 -999.0000 -999.0000 -999.0000 -999.0000 -999.0000 -999.0000 
 483.4128   12.3000   21.9197    1.8382   80.1892    0.7152    0.3158    0.1356  403.6410 -999.0000 -999.0000 -999.0000 -999.0000 -999.0000 -999.0000 
 483.5652   12.3000   21.9228    2.2347   82.3270    0.7263    0.3189    0.1356  397.6949 -999.0000 -999.0000 -999.0000 -999.0000 -999.0000 -999.0000 
 483.7176   12.3000   21.9196    2.2405   82.1814    0.7315    0.3226    0.1359  398.8156 -999.0000 -999.0000 -999.0000 -999.0000 -999.0000 -999.0000 
 483.8700   12.3000   21.9068    2.6047   82.0148    0.7335    0.3169    0.1355  400.0421 -999.0000 -999.0000 -999.0000 -999.0000 -999.0000 -999.0000 
 484.0224   12.3000   21.9215    2.9993   82.5433    0.7264    0.3179    0.1352  411.0286 -999.0000 -999.0000 -999.0000 -999.0000 -999.0000 -999.0000 
 484.1748   12.3000   21.9242    2.3158   83.0107    0.7134    0.3131    0.1351  417.9432 -999.0000 -999.0000 -999.0000 -999.0000 -999.0000 -999.0000 
 484.3272   12.3000   21.9221    1.4253   84.2817    0.7028    0.3100    0.1350  422.0316 -999.0000 -999.0000 -999.0000 -999.0000 -999.0000 -999.0000 
 484.4796   12.3000   21.9279    1.0729   83.3962    0.6937    0.3063    0.1348  423.0797 -999.0000 -999.0000 -999.0000 -999.0000 -999.0000 -999.0000 
