~VERSION INFORMATION
 VERS.                 2.0:   CWLS LOG ASCII STANDARD - VERSION 2.0
 WRAP.                  NO:   SINGLE LINE PER DEPTH STEP
 CREA.                 01/17/2018 13:37:44
#CREATED USING DSPetro VERSION 5000.10.1.3 BY H191660 ON 01/17/2018 13:37:44
~WELL INFORMATION
#MNEM.UNIT       DATA                          DESCRIPTION MNEMONIC
#---------      ---------------------------   --------------------------
 STRT    .M         0.0000                    : START DEPTH
 STOP    .M         2499.9696                 : STOP DEPTH
 STEP    .M         0.1524                    : STEP VALUE
 NULL    .      -999.0000                     : NULL VALUE
 DATE    .      01/17/2018                    : LAS file Creation Date
 WELL .      2780_Saffron-1              : Well Name
 COMP .      Neftex Exploration Insights : Company
 FLD  .      SAFFRON                     : Field
 UWI  .      ZAUWL_005718                : Unique Well Identifier (UWI)
 LOC  .                                  : Location
 RWS  .      -999                        : Def_Rw
 WST  .      -999                        : Def_Rwt
 SRVC .                                  : Contractor
~CURVE INFORMATION
#MNEM              UNIT       API CODE   Curve Type Comments
#----------  --------------- ----------  ---------- -----------
 DEPTH      .M                         : Depth       
 BS         .in                        : bitSize     
 CAL_INCH   .inch                      : caliper     Caliper Log - A representation of the measured diameter of a borehole along its depth
 SP_MV1     .mv                        : SP          Spontaneous Potential - Records the electrical potential produced by the interaction of formation water, conductive drilling mud, and certain ion-sele
 GR_API     .API                       : gammaRay    Gamma Ray (API) - Measures the intensity of natural gamma-ray radiation emitted from formations containing radioactive elements, such as K, Th and U
 LLD_OHMM   .ohmm                      : deepRes     Laterlog Deep Resistivity - Measurement made several feet into the formation; generally considered a measurement of the undisturbed formation
 LLS_OHMM   .ohmm                      : shalRes     Laterlog Shallow Resistivity - one to two feet into the formation; generally considered to measure the formation
 MSFL_OHMM  .ohmm                      : microRes    Micro-Spherically Focused Log - Measurement involves only the first few inches of the formation immediately adjacent to the borehole
 DT_US_FT   .us/ft                     : sonic       Interval Transit Time: Compressional Wave - Evaluates the time it takes for a compressional wave to traverse a fixed distance
 RHOB_G_CC  .g/cc                      : density     Bulk Density - Measures the density of bulk material, including any void space or other materials contained in the subject volume
 DRHO_G_CC  .g/cc                      : drho        Density Correction - Investigates the correction to the Bulk Density log; used as an indication of hole condition to validate the Bulk Density measure
 NPHI_v_v   .usl                       : neutron     Neutron Porosity - Measured with an neutron logging device calibrated to a given matrix (limestone, sandstone and dolomite) - unscaled
 PEF_B_E    .b/e-                      : PEF         Photoelectric Factor - A log of photoelectric absorption properties. Often expressed in an approximation unit barns/electron (b/e-)
 LITH       .                          : LITH        Lithology Curve
 LITH_v2    .                          : LITH        Lithology Curve
~A  DEPTH     BS     CAL_INCH   SP_MV1    GR_API   LLD_OHMM  LLS_OHMM MSFL_OHM   DT_US_FT RHOB_G_C  DRHO_G_C   NPHI_v_v  PEF_B_E     LITH    LITH_v2  
# ...
2091.9948    8.5000    8.8132    9.2267   67.7459    9.2618    9.2214    4.4887  289.5616    2.3682 -999.0000    0.1321    2.8362   27.0000   27.0000 
2092.1472    8.5000    8.8020    9.8354   60.7810   17.4241   15.9796    3.7109  292.6082    2.3064    0.0025    0.1126    2.7463   27.0000   27.0000 
2092.2996    8.5000    8.7781   10.4953   57.4226   24.5105   21.9687    2.1014  293.6201    2.2821    0.0054    0.1021    2.8422   27.0000   27.0000 
2092.4520    8.5000    8.7839   10.8540   55.2322   25.9880   23.4221    2.9809  293.6870    2.2895    0.0067    0.1013    3.0551   27.0000   27.0000 
2092.6044    8.5000    8.8001   11.2924   54.5844   27.9833   25.0915    4.1629  293.4547    2.3084    0.0061    0.1010    3.1852   27.0000   27.0000 
2092.7568    8.5000    8.8190   12.1101   53.7143   45.7533   38.4683    3.2062  296.1336    2.3035    0.0038    0.0991    3.1592   27.0000   27.0000 
2092.9092    8.5000    8.8275   12.6731   56.3061   57.7978   47.7708    1.9563  300.3070    2.2776 -999.0000    0.1012    3.0299   27.0000   27.0000 
2093.0616    8.5000    8.8206   12.8086   58.1524   55.9130   47.7331    1.3121  304.6968    2.2618 -999.0000    0.1099    2.8957   27.0000   27.0000 
2093.2140    8.5000    8.8179   13.0438   58.5657   50.9156   45.5382    1.7067  311.8510    2.2501 -999.0000    0.1200    2.7730   27.0000   27.0000 
2093.3664    8.5000    8.8034   12.9140   57.2714   45.9923   43.2337    1.9751  319.5800    2.2244    0.0030    0.1276    2.7281   27.0000   27.0000 
2093.5188    8.5000    8.7846   13.3912   60.1169   32.6026   32.9975    1.6343  323.1335    2.1841 -999.0000    0.1321    2.7890   27.0000   27.0000 
2093.6712    8.5000    8.7910   13.7613   61.9587   19.6644   19.5894    1.4071  325.5252    2.1629 -999.0000    0.1394    2.9849   27.0000   27.0000 
2093.8236    8.5000    8.8193   14.4314   64.3221   12.8949   12.5252    1.1683  322.8956    2.1994   -0.0022    0.1488    3.2852   27.0000   27.0000 
2093.9760    8.5000    8.8208   14.9157   67.0532   11.2262   10.8932    0.8611  316.4154    2.2846    0.0022    0.1608    3.4307   27.0000   27.0000 
2094.1284    8.5000    8.8129   15.5460   71.4364   11.8948   11.4765    1.8648  306.7312    2.3469    0.0060    0.1673    3.3594   27.0000   27.0000 
2094.2808    8.5000    8.8116   15.8912   69.6203   17.5146   16.8792    3.6533  295.6017    2.3336    0.0048    0.1518    3.1706   27.0000   27.0000 
2094.4332    8.5000    8.8088   16.6945   63.4435   92.4118   61.8782    3.1278  286.0273    2.2764 -999.0000    0.1196    2.9682   27.0000   27.0000 
2094.5856    8.5000    8.7959   17.5842   57.2196  301.0564  173.6935    2.6544  282.9955    2.2321 -999.0000    0.0920    2.8491   27.0000   27.0000 
2094.7380    8.5000    8.8090   17.7297   52.8590  414.6403  228.0306    2.3103  279.0469    2.2156 -999.0000    0.0836    2.7473   27.0000   27.0000 
2094.8904    8.5000    8.8429   17.5982   52.1665  278.1401  163.4676    2.1046  284.5475    2.2109 -999.0000    0.0888    2.7759   27.0000   27.0000 
2095.0428    8.5000    8.8652   18.2804   51.4991  199.0630  118.9403    2.0943  285.6840    2.2164   -0.0034    0.0986    2.8080   27.0000   27.0000 
2095.1952    8.5000    8.8593   18.5176   52.0073  167.0726   98.1526    2.0320  285.8983    2.2167   -0.0079    0.1006    2.7818   27.0000   27.0000 
2095.3476    8.5000    8.8550   18.5544   53.2371  154.0075   89.2674    1.9188  284.9892    2.2118   -0.0122    0.0983    2.7200   27.0000   27.0000 
2095.5000    8.5000    8.8497   18.8680   54.8753  140.1496   81.8238    1.9455  283.9780    2.2121   -0.0139    0.0961    2.6935   27.0000   27.0000 
2095.6524    8.5000    8.8314   19.4042   55.2206  130.3106   77.8392    1.8049  284.5021    2.2182   -0.0129    0.0946    2.7151   27.0000   27.0000 
2095.8048    8.5000    8.8210   19.5405   55.1938  125.2200   77.3236    1.6754  284.5828    2.2272   -0.0102    0.0934    2.7230   27.0000   27.0000 
2095.9572    8.5000    8.8189   19.3528   55.3745  121.4701   77.1003    1.8280  286.1659    2.2339   -0.0067    0.0942    2.7190   27.0000   27.0000 
2096.1096    8.5000    8.8276   20.3728   55.0998  119.4590   76.9050    1.9402  286.3682    2.2381   -0.0040    0.0974    2.7257   27.0000   27.0000 
2096.2620    8.5000    8.8386   20.2383   55.2429  117.5945   75.8616    1.7761  284.2599    2.2391 -999.0000    0.1000    2.7683   27.0000   27.0000 
2096.4144    8.5000    8.8468   20.7397   54.2732   96.4637   61.9401    1.5107  284.8322    2.2368 -999.0000    0.1013    2.8143   27.0000   27.0000 
2096.5668    8.5000    8.8594   21.4241   53.3667   58.2704   38.3997    1.3987  284.7404    2.2296   -0.0025    0.1033    2.9442   27.0000   27.0000 
2096.7192    8.5000    8.8782   21.5530   52.6903   31.4045   22.2400    1.2907  281.8208    2.2380   -0.0110    0.1051    3.2071   27.0000   27.0000 
2096.8716    8.5000    8.8759   22.4550   54.2726   20.7415   15.8245    1.1247  279.7201    2.2746   -0.0134    0.1077    3.3962   27.0000   27.0000 
2097.0240    8.5000    8.8437   22.2327   57.5275   15.2155   12.4738    1.1476  276.7260    2.3106   -0.0114    0.1138    3.2383   27.0000   27.0000 
2097.1764    8.5000    8.8127   23.2590   57.3723   13.1311   11.5851    1.0392  278.7201    2.3070   -0.0131    0.1244    2.9540   27.0000   27.0000 
2097.3288    8.5000    8.8081   23.1419   55.8469   13.8670   12.6930    1.0443  283.8122    2.2685   -0.0176    0.1319    2.8266   27.0000   27.0000 
2097.4812    8.5000    8.8115   22.7031   54.7605   16.0444   14.8071    1.2741  288.4516    2.2329   -0.0142    0.1261    2.8039   27.0000   27.0000 
2097.6336    8.5000    8.8126   22.9601   57.9769   20.4742   18.6163    1.7385  289.6373    2.2046   -0.0127    0.1152    2.7434   27.0000   27.0000 
2097.7860    8.5000    8.8214   23.5007   56.8472   30.0697   25.0412    1.8599  291.4724    2.1811   -0.0141    0.1063    2.6833   27.0000   27.0000 
2097.9384    8.5000    8.8221   23.3421   55.5213   39.0814   29.3982    2.0150  291.6408    2.1696   -0.0136    0.0993    2.6558   27.0000   27.0000 
2098.0908    8.5000    8.8054   23.8660   54.3535   44.4221   31.1997    1.7375  290.8116    2.1683   -0.0110    0.0946    2.6360   27.0000   27.0000 
2098.2432    8.5000    8.7842   23.4031   54.7740   47.0534   31.3938    1.3927  287.4880    2.1748   -0.0071    0.0937    2.5842   27.0000   27.0000 
2098.3956    8.5000    8.7784   24.4053   54.5821   48.4344   30.1474    1.3903  285.7090    2.1826   -0.0063    0.0953    2.5688   27.0000   27.0000 
2098.5480    8.5000    8.7987   23.8848   52.5686   51.6355   29.5592    1.4660  284.6997    2.1919   -0.0055    0.0957    2.5951   27.0000   27.0000 
2098.7004    8.5000    8.8154   24.0655   50.5404   56.3425   29.8346    1.3299  281.7691    2.2024   -0.0049    0.0936    2.6212   27.0000   27.0000 
2098.8528    8.5000    8.8381   24.9006   49.1346   60.5534   30.0149    1.2221  279.7141    2.2093   -0.0045    0.0899    2.6187   27.0000   27.0000 
2099.0052    8.5000    8.8449   25.6253   48.5932   63.2650   29.2746    1.2461  280.1466    2.2205 -999.0000    0.0890    2.6482   27.0000   27.0000 
2099.1576    8.5000    8.8365   25.0098   50.1759   58.5864   26.7226    1.2289  281.5447    2.2331 -999.0000    0.0907    2.7827   27.0000   27.0000 
2099.3100    8.5000    8.8246   25.5442   51.1714   52.7370   25.2231    1.1792  280.1948    2.2425    0.0023    0.0911    2.8487   27.0000   27.0000 
2099.4624    8.5000    8.7967   26.1264   50.9411   49.6867   25.2190    1.1312  277.5856    2.2431    0.0017    0.0888    2.8365   27.0000   27.0000 
2099.6148    8.5000    8.8041   25.4679   49.2284   50.3844   26.6810    1.3464  272.5065    2.2278 -999.0000    0.0846    2.7869   27.0000   27.0000 
2099.7672    8.5000    8.8210   25.9167   46.9065   55.1075   28.8626    1.6264  271.9093    2.2126   -0.0033    0.0800    2.8869   27.0000   27.0000 
2099.9196    8.5000    8.8282   26.4209   46.5056   60.6581   30.5606    1.5341  271.0639    2.2098   -0.0067    0.0758    3.0001   27.0000   27.0000 
