~VERSION INFORMATION
 VERS.                 2.0:   CWLS LOG ASCII STANDARD - VERSION 2.0
 WRAP.                  NO:   SINGLE LINE PER DEPTH STEP
 CREA.                 01/17/2018 13:37:44
#CREATED USING DSPetro VERSION 5000.10.1.3 BY H191660 ON 01/17/2018 13:37:44
~WELL INFORMATION
#MNEM.UNIT       DATA                          DESCRIPTION MNEMONIC
#---------      ---------------------------   --------------------------
 STRT    .M         0.0000                    : START DEPTH
 STOP    .M         2499.9696                 : STOP DEPTH
 STEP    .M         0.1524                    : STEP VALUE
 NULL    .      -999.0000                     : NULL VALUE
 DATE    .      01/17/2018                    : LAS file Creation Date
 WELL .      2780_Saffron-1              : Well Name
 COMP .      Neftex Exploration Insights : Company
 FLD  .      SAFFRON                     : Field
 UWI  .      ZAUWL_005718                : Unique Well Identifier (UWI)
 LOC  .                                  : Location
 RWS  .      -999                        : Def_Rw
 WST  .      -999                        : Def_Rwt
 SRVC .                                  : Contractor
~CURVE INFORMATION
#MNEM              UNIT       API CODE   Curve Type Comments
#----------  --------------- ----------  ---------- -----------
 DEPTH      .M                         : Depth       
 BS         .in                        : bitSize     
 CAL_INCH   .inch                      : caliper     Caliper Log - A representation of the measured diameter of a borehole along its depth
 SP_MV1     .mv                        : SP          Spontaneous Potential - Records the electrical potential produced by the interaction of formation water, conductive drilling mud, and certain ion-sele
 GR_API     .API                       : gammaRay    Gamma Ray (API) - Measures the intensity of natural gamma-ray radiation emitted from formations containing radioactive elements, such as K, Th and U
 LLD_OHMM   .ohmm                      : deepRes     Laterlog Deep Resistivity - Measurement made several feet into the formation; generally considered a measurement of the undisturbed formation
 LLS_OHMM   .ohmm                      : shalRes     Laterlog Shallow Resistivity - one to two feet into the formation; generally considered to measure the formation
 MSFL_OHMM  .ohmm                      : microRes    Micro-Spherically Focused Log - Measurement involves only the first few inches of the formation immediately adjacent to the borehole
 DT_US_FT   .us/ft                     : sonic       Interval Transit Time: Compressional Wave - Evaluates the time it takes for a compressional wave to traverse a fixed distance
 RHOB_G_CC  .g/cc                      : density     Bulk Density - Measures the density of bulk material, including any void space or other materials contained in the subject volume
 DRHO_G_CC  .g/cc                      : drho        Density Correction - Investigates the correction to the Bulk Density log; used as an indication of hole condition to validate the Bulk Density measure
 NPHI_v_v   .usl                       : neutron     Neutron Porosity - Measured with an neutron logging device calibrated to a given matrix (limestone, sandstone and dolomite) - unscaled
 PEF_B_E    .b/e-                      : PEF         Photoelectric Factor - A log of photoelectric absorption properties. Often expressed in an approximation unit barns/electron (b/e-)
 LITH       .                          : LITH        Lithology Curve
 LITH_v2    .                          : LITH        Lithology Curve
~A  DEPTH     BS     CAL_INCH   SP_MV1    GR_API   LLD_OHMM  LLS_OHMM MSFL_OHM   DT_US_FT RHOB_G_C  DRHO_G_C   NPHI_v_v  PEF_B_E     LITH    LITH_v2  
# ...
1421.5872   12.2500   12.5482    0.8490   86.5682    1.0425    1.0181    1.1765  383.6179 -999.0000 -999.0000 -999.0000 -999.0000 -999.0000 -999.0000 
1421.7396   12.2500   12.4447   -0.2883   89.9019    1.0661    1.0403    1.9849  383.0930 -999.0000 -999.0000 -999.0000 -999.0000 -999.0000 -999.0000 
1421.8920   12.2500   12.4398   -0.5365   87.0843    1.0928    1.0628    1.9847  381.0350 -999.0000 -999.0000 -999.0000 -999.0000 -999.0000 -999.0000 
1422.0444   12.2500   12.4416    0.3095   82.6496    1.0923    1.0621    1.9921  380.6491 -999.0000 -999.0000 -999.0000 -999.0000 -999.0000 -999.0000 
1422.1968   12.2500   12.4394    0.8396   80.7386    1.0859    1.0544    1.8456  380.5022 -999.0000 -999.0000 -999.0000 -999.0000 -999.0000 -999.0000 
1422.3492   12.2500   12.4295    0.8473   82.5657    1.0796    1.0505    1.4311  380.2217 -999.0000 -999.0000 -999.0000 -999.0000 -999.0000 -999.0000 
1422.5016   12.2500   12.5206    1.1287   85.1289    1.0771    1.0469    1.1233  378.2253 -999.0000 -999.0000 -999.0000 -999.0000 -999.0000 -999.0000 
1422.6540   12.2500   12.5314    0.6319   82.7171    1.0873    1.0579    0.6999  377.3329 -999.0000 -999.0000 -999.0000 -999.0000 -999.0000 -999.0000 
1422.8064   12.2500   12.5196   -0.2254   78.8885    1.1103    1.0787    0.7363  374.8102 -999.0000 -999.0000 -999.0000 -999.0000 -999.0000 -999.0000 
1422.9588   12.2500   12.4396   -0.2273   75.4443    1.1432    1.1118    0.9629  371.1413 -999.0000 -999.0000 -999.0000 -999.0000 -999.0000 -999.0000 
1423.1112   12.2500   12.4288    0.6438   72.4686    1.1837    1.1463    1.9904  368.4690 -999.0000 -999.0000 -999.0000 -999.0000 -999.0000 -999.0000 
1423.2636   12.2500   12.4076    0.5007   75.5785    1.2095    1.1738    0.7604  365.6432 -999.0000 -999.0000 -999.0000 -999.0000 -999.0000 -999.0000 
1423.4160   12.2500   12.3957   -0.2669   81.0319    1.2343    1.1984    0.8598  366.2796 -999.0000 -999.0000 -999.0000 -999.0000 -999.0000 -999.0000 
1423.5684   12.2500   12.4256   -0.6785   84.5297    1.2382    1.2029    0.6467  367.1958 -999.0000 -999.0000 -999.0000 -999.0000 -999.0000 -999.0000 
1423.7208   12.2500   12.6094   -1.1646   82.0771    1.2237    1.1894    1.6624  368.0473 -999.0000 -999.0000 -999.0000 -999.0000 -999.0000 -999.0000 
1423.8732   12.2500   12.5424   -0.5048   80.3397    1.1992    1.1667    1.8468  369.4860 -999.0000 -999.0000 -999.0000 -999.0000 -999.0000 -999.0000 
1424.0256   12.2500   12.5715    0.1687   81.4735    1.1273    1.0991    1.6322  372.9754 -999.0000 -999.0000 -999.0000 -999.0000 -999.0000 -999.0000 
1424.1780   12.2500   12.9864   -0.2826   85.2131    1.0965    1.0670    1.0693  376.6289 -999.0000 -999.0000 -999.0000 -999.0000 -999.0000 -999.0000 
1424.3304   12.2500   13.9200   -0.9153   86.6144    1.0850    1.0574    1.1401  377.9710 -999.0000 -999.0000 -999.0000 -999.0000 -999.0000 -999.0000 
1424.4828   12.2500   14.1141   -1.2550   85.8927    1.0786    1.0532    0.9399  378.4970 -999.0000 -999.0000 -999.0000 -999.0000 -999.0000 -999.0000 
1424.6352   12.2500   13.2539   -1.3965   82.3443    1.0758    1.0445    0.8592  377.4576 -999.0000 -999.0000 -999.0000 -999.0000 -999.0000 -999.0000 
1424.7876   12.2500   13.4783   -0.8509   82.4697    1.0787    1.0480    0.4734  378.9375 -999.0000 -999.0000 -999.0000 -999.0000 -999.0000 -999.0000 
1424.9400   12.2500   13.7039   -0.7451   83.6476    1.0724    1.0419    0.3598  379.8154 -999.0000 -999.0000 -999.0000 -999.0000 -999.0000 -999.0000 
1425.0924   12.2500   13.4397   -1.2056   84.7792    1.0689    1.0415    0.3120  379.8021 -999.0000 -999.0000 -999.0000 -999.0000 -999.0000 -999.0000 
1425.2448   12.2500   13.6396   -1.7996   83.4179    1.0701    1.0427    0.5581  379.9088 -999.0000 -999.0000 -999.0000 -999.0000 -999.0000 -999.0000 
1425.3972   12.2500   13.9617   -1.3841   82.6204    1.0708    1.0442    0.6210  379.6165 -999.0000 -999.0000 -999.0000 -999.0000 -999.0000 -999.0000 
1425.5496   12.2500   14.1064   -0.4608   82.7716    1.0724    1.0475    0.4299  379.5199 -999.0000 -999.0000 -999.0000 -999.0000 -999.0000 -999.0000 
1425.7020   12.2500   13.4608    0.3314   82.5240    1.0621    1.0390    0.4227  379.9162 -999.0000 -999.0000 -999.0000 -999.0000 -999.0000 -999.0000 
1425.8544   12.2500   12.8349    0.3462   81.3794    1.0502    1.0272    0.3541  380.2245 -999.0000 -999.0000 -999.0000 -999.0000 -999.0000 -999.0000 
1426.0068   12.2500   13.6692   -0.6844   81.6232    1.0415    1.0159    0.3609  380.5244 -999.0000 -999.0000 -999.0000 -999.0000 -999.0000 -999.0000 
1426.1592   12.2500   13.4775   -0.8597   84.2429    1.0350    1.0110    0.3549  381.9343 -999.0000 -999.0000 -999.0000 -999.0000 -999.0000 -999.0000 
1426.3116   12.2500   12.9412   -0.0767   88.0093    1.0272    1.0017    0.6479  381.1084 -999.0000 -999.0000 -999.0000 -999.0000 -999.0000 -999.0000 
1426.4640   12.2500   12.6668   -0.0985   90.9172    1.0271    0.9967    0.9890  380.7252 -999.0000 -999.0000 -999.0000 -999.0000 -999.0000 -999.0000 
1426.6164   12.2500   12.4894   -1.3317   89.9347    1.0376    1.0071    1.0532  380.2198 -999.0000 -999.0000 -999.0000 -999.0000 -999.0000 -999.0000 
1426.7688   12.2500   12.4972   -1.2258   84.1166    1.0433    1.0117    0.9035  378.5975 -999.0000 -999.0000 -999.0000 -999.0000 -999.0000 -999.0000 
1426.9212   12.2500   12.5445    0.3464   80.2850    1.0525    1.0189    1.6589  378.8191 -999.0000 -999.0000 -999.0000 -999.0000 -999.0000 -999.0000 
1427.0736   12.2500   12.4731    0.3237   80.0129    1.0532    1.0200    1.4437  378.7347 -999.0000 -999.0000 -999.0000 -999.0000 -999.0000 -999.0000 
1427.2260   12.2500   12.4356   -0.6220   80.5869    1.0544    1.0213    1.2419  378.4247 -999.0000 -999.0000 -999.0000 -999.0000 -999.0000 -999.0000 
1427.3784   12.2500   12.4415    0.2642   81.2216    1.0708    1.0356    1.6596  378.2580 -999.0000 -999.0000 -999.0000 -999.0000 -999.0000 -999.0000 
1427.5308   12.2500   12.4401    1.0435   83.4805    1.0752    1.0433    1.6177  377.4943 -999.0000 -999.0000 -999.0000 -999.0000 -999.0000 -999.0000 
1427.6832   12.2500   12.4395    0.4129   84.7671    1.0876    1.0523    1.8670  377.6174 -999.0000 -999.0000 -999.0000 -999.0000 -999.0000 -999.0000 
1427.8356   12.2500   12.4387   -0.3679   84.1804    1.0915    1.0552    1.8020  377.8469 -999.0000 -999.0000 -999.0000 -999.0000 -999.0000 -999.0000 
1427.9880   12.2500   12.4397    0.2394   81.5435    1.0918    1.0544    1.7764  377.8659 -999.0000 -999.0000 -999.0000 -999.0000 -999.0000 -999.0000 
1428.1404   12.2500   12.4398    0.2708   78.5414    1.0910    1.0584    1.5482  377.0728 -999.0000 -999.0000 -999.0000 -999.0000 -999.0000 -999.0000 
1428.2928   12.2500   12.4398    0.0665   78.7557    1.0999    1.0627    1.5901  373.5875 -999.0000 -999.0000 -999.0000 -999.0000 -999.0000 -999.0000 
1428.4452   12.2500   12.4398   -0.5647   78.9418    1.1288    1.0910    1.6786  369.3986 -999.0000 -999.0000 -999.0000 -999.0000 -999.0000 -999.0000 
1428.5976   12.2500   12.4398   -0.2006   81.2721    1.1683    1.1269    1.7742  367.4461 -999.0000 -999.0000 -999.0000 -999.0000 -999.0000 -999.0000 
1428.7500   12.2500   12.4398    0.5027   82.3445    1.1841    1.1421    2.0381  367.2173 -999.0000 -999.0000 -999.0000 -999.0000 -999.0000 -999.0000 
1428.9024   12.2500   12.4398   -0.2238   81.4852    1.1914    1.1497    1.9723  367.2622 -999.0000 -999.0000 -999.0000 -999.0000 -999.0000 -999.0000 
1429.0548   12.2500   12.4398   -0.4629   80.8208    1.1793    1.1390    1.8794  369.7967 -999.0000 -999.0000 -999.0000 -999.0000 -999.0000 -999.0000 
1429.2072   12.2500   12.4398   -0.4332   80.2537    1.1529    1.1162    1.9027  372.2800 -999.0000 -999.0000 -999.0000 -999.0000 -999.0000 -999.0000 
1429.3596   12.2500   12.4371   -0.2234   81.3227    1.1347    1.0995    1.8993  374.5412 -999.0000 -999.0000 -999.0000 -999.0000 -999.0000 -999.0000 
1429.5120   12.2500   12.4122   -0.6984   82.5131    1.1228    1.0861    1.9798  376.3036 -999.0000 -999.0000 -999.0000 -999.0000 -999.0000 -999.0000 
