~VERSION INFORMATION
 VERS.                 2.0:   CWLS LOG ASCII STANDARD - VERSION 2.0
 WRAP.                  NO:   SINGLE LINE PER DEPTH STEP
 CREA.                 01/17/2018 13:37:44
#CREATED USING DSPetro VERSION 5000.10.1.3 BY H191660 ON 01/17/2018 13:37:44
~WELL INFORMATION
#MNEM.UNIT       DATA                          DESCRIPTION MNEMONIC
#---------      ---------------------------   --------------------------
 STRT    .M         0.0000                    : START DEPTH
 STOP    .M         2499.9696                 : STOP DEPTH
 STEP    .M         0.1524                    : STEP VALUE
 NULL    .      -999.0000                     : NULL VALUE
 DATE    .      01/17/2018                    : LAS file Creation Date
 WELL .      2780_Saffron-1              : Well Name
 COMP .      Neftex Exploration Insights : Company
 FLD  .      SAFFRON                     : Field
 UWI  .      ZAUWL_005718                : Unique Well Identifier (UWI)
 LOC  .                                  : Location
 RWS  .      -999                        : Def_Rw
 WST  .      -999                        : Def_Rwt
 SRVC .                                  : Contractor
~CURVE INFORMATION
#MNEM              UNIT       API CODE   Curve Type Comments
#----------  --------------- ----------  ---------- -----------
 DEPTH      .M                         : Depth       
 BS         .in                        : bitSize     
 CAL_INCH   .inch                      : caliper     Caliper Log - A representation of the measured diameter of a borehole along its depth
 SP_MV1     .mv                        : SP          Spontaneous Potential - Records the electrical potential produced by the interaction of formation water, conductive drilling mud, and certain ion-sele
 GR_API     .API                       : gammaRay    Gamma Ray (API) - Measures the intensity of natural gamma-ray radiation emitted from formations containing radioactive elements, such as K, Th and U
 LLD_OHMM   .ohmm                      : deepRes     Laterlog Deep Resistivity - Measurement made several feet into the formation; generally considered a measurement of the undisturbed formation
 LLS_OHMM   .ohmm                      : shalRes     Laterlog Shallow Resistivity - one to two feet into the formation; generally considered to measure the formation
 MSFL_OHMM  .ohmm                      : microRes    Micro-Spherically Focused Log - Measurement involves only the first few inches of the formation immediately adjacent to the borehole
 DT_US_FT   .us/ft                     : sonic       Interval Transit Time: Compressional Wave - Evaluates the time it takes for a compressional wave to traverse a fixed distance
 RHOB_G_CC  .g/cc                      : density     Bulk Density - Measures the density of bulk material, including any void space or other materials contained in the subject volume
 DRHO_G_CC  .g/cc                      : drho        Density Correction - Investigates the correction to the Bulk Density log; used as an indication of hole condition to validate the Bulk Density measure
 NPHI_v_v   .usl                       : neutron     Neutron Porosity - Measured with an neutron logging device calibrated to a given matrix (limestone, sandstone and dolomite) - unscaled
 PEF_B_E    .b/e-                      : PEF         Photoelectric Factor - A log of photoelectric absorption properties. Often expressed in an approximation unit barns/electron (b/e-)
 LITH       .                          : LITH        Lithology Curve
 LITH_v2    .                          : LITH        Lithology Curve
~A  DEPTH     BS     CAL_INCH   SP_MV1    GR_API   LLD_OHMM  LLS_OHMM MSFL_OHM   DT_US_FT RHOB_G_C  DRHO_G_C   NPHI_v_v  PEF_B_E     LITH    LITH_v2  
# ...
2229.3072    8.5000    8.8640   23.7026   88.3722    2.6116    2.5958    1.7157  263.4202    2.4234    0.0355    0.1392    2.9399   36.0000   31.0000 
2229.4596    8.5000    8.7115   23.7974   85.4742    2.3722    2.3429    1.1615  265.1505    2.3943    0.0585    0.1355    3.0164   36.0000   31.0000 
2229.6120    8.5000    8.5799   24.2677   83.7267    2.2010    2.1647    1.0284  266.5865    2.3749    0.0749    0.1330    3.0350   36.0000   31.0000 
2229.7644    8.5000    8.6650   23.8055   83.2392    2.1092    2.0719    1.2335  266.1569    2.3949    0.0823    0.1368    3.0214   36.0000   31.0000 
2229.9168    8.5000    8.7790   23.4940   83.9333    2.2480    2.1772    1.2700  262.2855    2.4427    0.0874    0.1443    3.0315   36.0000   31.0000 
2230.0692    8.5000    8.8277   23.8148   85.2768    2.6035    2.4858    1.3068  256.8467    2.4667    0.0775    0.1485    3.0717   36.0000   31.0000 
2230.2216    8.5000    8.8778   23.5455   87.5486    2.7670    2.6158    2.5589  254.2309    2.4507    0.0676    0.1426    3.0687   36.0000   31.0000 
2230.3740    8.5000    8.8331   22.3810   91.1539    2.8095    2.6275    2.0501  251.5461    2.4270    0.0742    0.1349    3.0631   36.0000   31.0000 
2230.5264    8.5000    8.7148   23.0128   91.0179    3.0991    2.8949    1.3971  251.1442    2.4146    0.0828    0.1310    3.0275   36.0000   31.0000 
2230.6788    8.5000    8.6866   23.5562   92.5552    3.1373    2.9470    1.8779  247.9403    2.4327    0.0840    0.1273    3.0407   36.0000   31.0000 
2230.8312    8.5000    8.7897   24.0454   92.1254    3.2373    3.0287    2.4844  249.5249    2.4825    0.0873    0.1285    3.0265   36.0000   31.0000 
2230.9836    8.5000    8.8716   23.4966   90.4052    3.5550    3.2831    2.5780  250.8185    2.4965    0.0715    0.1348    3.0414   36.0000   31.0000 
2231.1360    8.5000    8.9110   23.6352   85.9407    3.3165    3.0630    2.0503  253.6599    2.4598    0.0352    0.1408    3.0857   36.0000   31.0000 
2231.2884    8.5000    8.8621   23.7310   81.6737    2.7386    2.5213    1.6783  257.6469    2.4080    0.0240    0.1422    3.0771   36.0000   31.0000 
2231.4408    8.5000    8.6953   25.2019   79.0100    2.4086    2.2176    1.1958  264.1866    2.3660    0.0485    0.1400    3.0486   36.0000   31.0000 
2231.5932    8.5000    8.5940   26.3263   78.9354    2.1646    1.9860    1.1378  267.4251    2.3356    0.0644    0.1382    2.9604   36.0000   31.0000 
2231.7456    8.5000    8.6292   25.9965   80.7632    1.9361    1.7551    1.1215  267.1073    2.3474    0.0751    0.1363    2.9425   36.0000   31.0000 
2231.8980    8.5000    8.6780   25.7624   84.3624    2.1041    1.8729    0.9882  261.1118    2.4152    0.0920    0.1393    3.0282   36.0000   31.0000 
2232.0504    8.5000    8.7247   26.5761   91.5391    2.3576    2.0759    0.9922  259.6237    2.4716    0.0860    0.1441    3.0776   36.0000   31.0000 
2232.2028    8.5000    8.8160   26.0585   99.3173    2.4516    2.1259    2.9313  258.2342    2.4710    0.0532    0.1489    3.1065   36.0000   31.0000 
2232.3552    8.5000    8.8844   25.7635  103.0523    2.4190    2.0569    1.9892  257.2968    2.4422    0.0264    0.1489    3.0684   36.0000   31.0000 
2232.5076    8.5000    8.8680   25.9031  100.2453    2.1957    1.8694    0.8758  260.9091    2.4043    0.0148    0.1515    3.0972   36.0000   31.0000 
2232.6600    8.5000    8.8066   26.8567   91.6211    1.8385    1.5837    0.9405  264.9716    2.3747    0.0251    0.1595    3.0956   36.0000   36.0000 
2232.8124    8.5000    8.7180   27.6647   84.8881    1.5732    1.3577    1.1005  272.4192    2.3521    0.0472    0.1626    3.0595   36.0000   36.0000 
2232.9648    8.5000    8.6742   27.0749   77.1857    1.3974    1.1896    0.8887  281.1048    2.3273    0.0539    0.1620    3.0256   36.0000   36.0000 
2233.1172    8.5000    8.7548   27.2495   69.7641    1.2466    1.0471    0.6706  290.3264    2.3089    0.0537    0.1652    2.9547   36.0000   36.0000 
2233.2696    8.5000    8.8367   28.8454   68.4611    1.0341    0.8624    0.4968  298.7750    2.2898    0.0455    0.1827    2.8764   36.0000   36.0000 
2233.4220    8.5000    8.8693   28.9569   70.2875    0.8789    0.7269    0.4027  301.8329    2.2507    0.0203    0.2067    2.7866   36.0000   36.0000 
2233.5744    8.5000    8.9048   28.9159   72.3874    0.8009    0.6551    0.3570  302.3761    2.2233   -0.0007    0.2241    2.8048   36.0000   36.0000 
2233.7268    8.5000    8.9030   29.4300   71.4878    0.7859    0.6410    0.3657  302.5571    2.2347   -0.0024    0.2309    2.9281   36.0000   36.0000 
2233.8792    8.5000    8.8747   30.4514   70.4777    0.8180    0.6705    0.4166  303.3380    2.2570    0.0028    0.2232    3.0136   36.0000   36.0000 
2234.0316    8.5000    8.8742   30.0652   70.4389    0.8475    0.6844    0.4028  302.3701    2.2667    0.0081    0.2103    3.0334   36.0000   36.0000 
2234.1840    8.5000    8.8712   29.8594   69.1954    0.8728    0.6942    0.4620  302.8473    2.2542    0.0141    0.2041    3.0568   36.0000   36.0000 
2234.3364    8.5000    8.7971   30.1149   67.6915    0.8799    0.6962    0.4223  305.5840    2.2375    0.0234    0.2061    3.0599   36.0000   36.0000 
2234.4888    8.5000    8.7481   30.2386   67.2143    0.8437    0.6660    0.4134  308.9344    2.2251    0.0278    0.2157    3.0470   36.0000   36.0000 
2234.6412    8.5000    8.7417   29.4305   67.4900    0.8170    0.6398    0.3630  308.4501    2.2132    0.0214    0.2234    2.9438   36.0000   36.0000 
2234.7936    8.5000    8.7732   28.8233   67.0656    0.8148    0.6319    0.3481  306.1528    2.2124    0.0139    0.2286    2.8919   36.0000   36.0000 
2234.9460    8.5000    8.8438   28.9167   66.5393    0.8208    0.6298    0.3594  305.0378    2.2199    0.0128    0.2275    2.8399   36.0000   36.0000 
2235.0984    8.5000    8.8463   28.7578   67.1321    0.8275    0.6262    0.4009  304.4037    2.2262    0.0126    0.2265    2.7060   36.0000   36.0000 
2235.2508    8.5000    8.8011   28.8075   68.4737    0.8290    0.6239    0.4258  302.9179    2.2307    0.0141    0.2251    2.5721   36.0000   36.0000 
2235.4032    8.5000    8.7779   29.2697   68.3128    0.8615    0.6433    0.4311  299.9531    2.2442    0.0204    0.2204    2.5159   36.0000   36.0000 
2235.5556    8.5000    8.7553   29.2770   66.3992    0.9101    0.6733    0.4376  296.8232    2.2724    0.0291    0.2150    2.6372   36.0000   36.0000 
2235.7080    8.5000    8.7541   28.6592   64.2981    0.9301    0.6826    0.5554  290.4959    2.2897    0.0332    0.2119    2.7256   36.0000   36.0000 
2235.8604    8.5000    8.7588   28.6560   63.5165    0.9598    0.7030    0.4991  283.4601    2.2973    0.0330    0.2066    2.7947   36.0000   36.0000 
2236.0128    8.5000    8.7345   29.7314   62.5795    0.9742    0.7179    0.5298  278.6596    2.2995    0.0279    0.2008    2.8540   36.0000   36.0000 
2236.1652    8.5000    8.7717   29.3904   61.7866    0.9403    0.6975    0.5479  276.5498    2.2996    0.0174    0.1943    2.8585   36.0000   36.0000 
2236.3176    8.5000    8.8764   29.1458   60.7422    0.9403    0.7016    0.5903  277.5551    2.3058    0.0116    0.1890    2.8722   36.0000   36.0000 
2236.4700    8.5000    8.9154   29.3773   60.2290    0.9286    0.6954    0.5607  279.4763    2.3030    0.0189    0.1795    2.8108   36.0000   36.0000 
2236.6224    8.5000    8.7752   29.7930   60.0083    0.9028    0.6769    0.5572  281.9834    2.2724    0.0295    0.1749    2.7344   36.0000   36.0000 
2236.7748    8.5000    8.6788   29.6642   59.8455    0.8993    0.6757    0.4937  283.6203    2.2530    0.0490    0.1719    2.7372   36.0000   36.0000 
2236.9272    8.5000    8.6786   30.2686   61.4869    0.9340    0.7021    0.4513  286.0555    2.2601    0.0697    0.1684    2.8572   36.0000   36.0000 
2237.0796    8.5000    8.7044   30.1783   62.8511    0.9640    0.7268    0.4280  283.6429    2.3000    0.0808    0.1720    2.8372   36.0000   36.0000 
2237.2320    8.5000    8.7851   29.4136   63.3631    1.0007    0.7565    0.4578  280.6893    2.3212    0.0702    0.1786    2.7101   27.0000   27.0000 
