~VERSION INFORMATION
 VERS.                 2.0:   CWLS LOG ASCII STANDARD - VERSION 2.0
 WRAP.                  NO:   SINGLE LINE PER DEPTH STEP
 CREA.                 01/17/2018 13:37:44
#CREATED USING DSPetro VERSION 5000.10.1.3 BY H191660 ON 01/17/2018 13:37:44
~WELL INFORMATION
#MNEM.UNIT       DATA                          DESCRIPTION MNEMONIC
#---------      ---------------------------   --------------------------
 STRT    .M         0.0000                    : START DEPTH
 STOP    .M         2499.9696                 : STOP DEPTH
 STEP    .M         0.1524                    : STEP VALUE
 NULL    .      -999.0000                     : NULL VALUE
 DATE    .      01/17/2018                    : LAS file Creation Date
 WELL .      2780_Saffron-1              : Well Name
 COMP .      Neftex Exploration Insights : Company
 FLD  .      SAFFRON                     : Field
 UWI  .      ZAUWL_005718                : Unique Well Identifier (UWI)
 LOC  .                                  : Location
 RWS  .      -999                        : Def_Rw
 WST  .      -999                        : Def_Rwt
 SRVC .                                  : Contractor
~CURVE INFORMATION
#MNEM              UNIT       API CODE   Curve Type Comments
#----------  --------------- ----------  ---------- -----------
 DEPTH      .M                         : Depth       
 BS         .in                        : bitSize     
 CAL_INCH   .inch                      : caliper     Caliper Log - A representation of the measured diameter of a borehole along its depth
 SP_MV1     .mv                        : SP          Spontaneous Potential - Records the electrical potential produced by the interaction of formation water, conductive drilling mud, and certain ion-sele
 GR_API     .API                       : gammaRay    Gamma Ray (API) - Measures the intensity of natural gamma-ray radiation emitted from formations containing radioactive elements, such as K, Th and U
 LLD_OHMM   .ohmm                      : deepRes     Laterlog Deep Resistivity - Measurement made several feet into the formation; generally considered a measurement of the undisturbed formation
 LLS_OHMM   .ohmm                      : shalRes     Laterlog Shallow Resistivity - one to two feet into the formation; generally considered to measure the formation
 MSFL_OHMM  .ohmm                      : microRes    Micro-Spherically Focused Log - Measurement involves only the first few inches of the formation immediately adjacent to the borehole
 DT_US_FT   .us/ft                     : sonic       Interval Transit Time: Compressional Wave - Evaluates the time it takes for a compressional wave to traverse a fixed distance
 RHOB_G_CC  .g/cc                      : density     Bulk Density - Measures the density of bulk material, including any void space or other materials contained in the subject volume
 DRHO_G_CC  .g/cc                      : drho        Density Correction - Investigates the correction to the Bulk Density log; used as an indication of hole condition to validate the Bulk Density measure
 NPHI_v_v   .usl                       : neutron     Neutron Porosity - Measured with an neutron logging device calibrated to a given matrix (limestone, sandstone and dolomite) - unscaled
 PEF_B_E    .b/e-                      : PEF         Photoelectric Factor - A log of photoelectric absorption properties. Often expressed in an approximation unit barns/electron (b/e-)
 LITH       .                          : LITH        Lithology Curve
 LITH_v2    .                          : LITH        Lithology Curve
~A  DEPTH     BS     CAL_INCH   SP_MV1    GR_API   LLD_OHMM  LLS_OHMM MSFL_OHM   DT_US_FT RHOB_G_C  DRHO_G_C   NPHI_v_v  PEF_B_E     LITH    LITH_v2  
# ...
 880.4148   12.2500   12.4720    3.3433   88.3346    0.6443    0.5315    0.6022  393.3308 -999.0000 -999.0000 -999.0000 -999.0000 -999.0000 -999.0000 
 880.5672   12.2500   12.3814    3.0387   86.3703    0.6580    0.5421    0.7286  390.8501 -999.0000 -999.0000 -999.0000 -999.0000 -999.0000 -999.0000 
 880.7196   12.2500   12.3868    2.7896   84.0306    0.6673    0.5466    0.7941  390.5850 -999.0000 -999.0000 -999.0000 -999.0000 -999.0000 -999.0000 
 880.8720   12.2500   12.3951    3.6799   81.9259    0.6655    0.5437    0.9129  393.2569 -999.0000 -999.0000 -999.0000 -999.0000 -999.0000 -999.0000 
 881.0244   12.2500   12.2223    3.5531   83.3448    0.6614    0.5416    0.9608  399.1406 -999.0000 -999.0000 -999.0000 -999.0000 -999.0000 -999.0000 
 881.1768   12.2500   12.1241    3.0041   85.9174    0.6570    0.5383    0.7235  406.1816 -999.0000 -999.0000 -999.0000 -999.0000 -999.0000 -999.0000 
 881.3292   12.2500   12.2318    2.7763   90.7098    0.6481    0.5299    0.6549  410.3099 -999.0000 -999.0000 -999.0000 -999.0000 -999.0000 -999.0000 
 881.4816   12.2500   12.3613    2.9506   94.4241    0.6378    0.5223    0.7154  413.2859 -999.0000 -999.0000 -999.0000 -999.0000 -999.0000 -999.0000 
 881.6340   12.2500   12.4254    3.6123   96.5220    0.6333    0.5157    0.5322  410.9711 -999.0000 -999.0000 -999.0000 -999.0000 -999.0000 -999.0000 
 881.7864   12.2500   12.8400    3.7039   96.8303    0.6314    0.5157    0.7493  409.5212 -999.0000 -999.0000 -999.0000 -999.0000 -999.0000 -999.0000 
 881.9388   12.2500   12.9847    3.3199   96.0595    0.6331    0.5194    0.6341  407.1749 -999.0000 -999.0000 -999.0000 -999.0000 -999.0000 -999.0000 
 882.0912   12.2500   12.7372    2.9869   95.8423    0.6390    0.5226    0.6270  406.7685 -999.0000 -999.0000 -999.0000 -999.0000 -999.0000 -999.0000 
 882.2436   12.2500   12.5096    2.8419   94.1469    0.6468    0.5296    0.6845  403.1740 -999.0000 -999.0000 -999.0000 -999.0000 -999.0000 -999.0000 
 882.3960   12.2500   12.3106    3.1221   93.2266    0.6505    0.5335    0.6517  401.3193 -999.0000 -999.0000 -999.0000 -999.0000 -999.0000 -999.0000 
 882.5484   12.2500   12.3699    3.9849   90.3253    0.6514    0.5366    0.6709  395.4514 -999.0000 -999.0000 -999.0000 -999.0000 -999.0000 -999.0000 
 882.7008   12.2500   12.3502    3.3574   89.3799    0.6519    0.5389    0.6598  392.6031 -999.0000 -999.0000 -999.0000 -999.0000 -999.0000 -999.0000 
 882.8532   12.2500   12.3405    2.4406   89.5082    0.6504    0.5358    0.5081  391.7787 -999.0000 -999.0000 -999.0000 -999.0000 -999.0000 -999.0000 
 883.0056   12.2500   12.4563    2.6658   92.5196    0.6521    0.5374    0.5759  393.2590 -999.0000 -999.0000 -999.0000 -999.0000 -999.0000 -999.0000 
 883.1580   12.2500   12.5830    3.4944   93.9500    0.6537    0.5361    0.5578  396.1871 -999.0000 -999.0000 -999.0000 -999.0000 -999.0000 -999.0000 
 883.3104   12.2500   12.6746    3.7289   93.1370    0.6499    0.5344    0.5001  398.7621 -999.0000 -999.0000 -999.0000 -999.0000 -999.0000 -999.0000 
 883.4628   12.2500   12.7468    3.2096   91.2613    0.6435    0.5300    0.6243  400.0351 -999.0000 -999.0000 -999.0000 -999.0000 -999.0000 -999.0000 
 883.6152   12.2500   12.8084    2.5156   88.8813    0.6372    0.5236    0.8334  404.0295 -999.0000 -999.0000 -999.0000 -999.0000 -999.0000 -999.0000 
 883.7676   12.2500   12.7749    2.6478   89.0329    0.6350    0.5173    0.6392  407.0724 -999.0000 -999.0000 -999.0000 -999.0000 -999.0000 -999.0000 
 883.9200   12.2500   12.6880    3.0246   90.5355    0.6304    0.5140    0.6707  405.8235 -999.0000 -999.0000 -999.0000 -999.0000 -999.0000 -999.0000 
 884.0724   12.2500   12.4767    3.6612   90.5495    0.6316    0.5171    0.5960  405.3880 -999.0000 -999.0000 -999.0000 -999.0000 -999.0000 -999.0000 
 884.2248   12.2500   12.3794    3.3245   91.0117    0.6385    0.5223    0.5560  403.9008 -999.0000 -999.0000 -999.0000 -999.0000 -999.0000 -999.0000 
 884.3772   12.2500   12.2703    2.2409   91.1356    0.6449    0.5266    0.5889  402.0400 -999.0000 -999.0000 -999.0000 -999.0000 -999.0000 -999.0000 
 884.5296   12.2500   12.1361    3.2538   91.9616    0.6546    0.5363    0.6606  399.9493 -999.0000 -999.0000 -999.0000 -999.0000 -999.0000 -999.0000 
 884.6820   12.2500   12.1215    4.5786   91.1158    0.6546    0.5365    0.6565  397.3426 -999.0000 -999.0000 -999.0000 -999.0000 -999.0000 -999.0000 
 884.8344   12.2500   12.0906    4.5090   90.1473    0.6511    0.5372    0.7858  397.0573 -999.0000 -999.0000 -999.0000 -999.0000 -999.0000 -999.0000 
 884.9868   12.2500   11.8931    3.6553   90.4603    0.6498    0.5375    0.6859  395.4355 -999.0000 -999.0000 -999.0000 -999.0000 -999.0000 -999.0000 
 885.1392   12.2500   12.0225    2.8429   90.4586    0.6511    0.5337    0.6418  396.9357 -999.0000 -999.0000 -999.0000 -999.0000 -999.0000 -999.0000 
 885.2916   12.2500   12.0847    2.7820   90.9393    0.6510    0.5337    0.6185  396.7959 -999.0000 -999.0000 -999.0000 -999.0000 -999.0000 -999.0000 
 885.4440   12.2500   12.1125    2.9885   92.7144    0.6529    0.5367    0.5727  395.6567 -999.0000 -999.0000 -999.0000 -999.0000 -999.0000 -999.0000 
 885.5964   12.2500   12.1514    3.2695   95.5500    0.6560    0.5387    0.5653  396.4859 -999.0000 -999.0000 -999.0000 -999.0000 -999.0000 -999.0000 
 885.7488   12.2500   12.2062    4.0819   97.9598    0.6581    0.5420    0.5685  395.7119 -999.0000 -999.0000 -999.0000 -999.0000 -999.0000 -999.0000 
 885.9012   12.2500   12.1720    3.9256   99.8455    0.6601    0.5374    0.5685  394.5704 -999.0000 -999.0000 -999.0000 -999.0000 -999.0000 -999.0000 
 886.0536   12.2500   12.1818    3.2782   98.4861    0.6589    0.5401    0.5431  394.0571 -999.0000 -999.0000 -999.0000 -999.0000 -999.0000 -999.0000 
 886.2060   12.2500   12.1759    2.8677   96.8721    0.6577    0.5382    0.6214  394.5347 -999.0000 -999.0000 -999.0000 -999.0000 -999.0000 -999.0000 
 886.3584   12.2500   12.1831    3.0758   97.5801    0.6612    0.5401    0.5887  393.5582 -999.0000 -999.0000 -999.0000 -999.0000 -999.0000 -999.0000 
 886.5108   12.2500   12.2234    3.7928   97.7743    0.6609    0.5394    0.7798  395.5745 -999.0000 -999.0000 -999.0000 -999.0000 -999.0000 -999.0000 
 886.6632   12.2500   12.1940    3.8063   95.7822    0.6597    0.5404    0.7327  396.4750 -999.0000 -999.0000 -999.0000 -999.0000 -999.0000 -999.0000 
 886.8156   12.2500   12.2035    3.3790   92.5926    0.6576    0.5403    0.7546  395.5047 -999.0000 -999.0000 -999.0000 -999.0000 -999.0000 -999.0000 
 886.9680   12.2500   12.2575    2.9264   92.7486    0.6555    0.5383    0.7015  393.1688 -999.0000 -999.0000 -999.0000 -999.0000 -999.0000 -999.0000 
 887.1204   12.2500   12.3757    3.0872   95.0670    0.6600    0.5411    0.6104  397.6050 -999.0000 -999.0000 -999.0000 -999.0000 -999.0000 -999.0000 
 887.2728   12.2500   12.9613    3.2334   93.9222    0.6633    0.5439    0.7121  392.5444 -999.0000 -999.0000 -999.0000 -999.0000 -999.0000 -999.0000 
 887.4252   12.2500   13.5076    3.3698   91.0729    0.6592    0.5418    0.7855  387.3808 -999.0000 -999.0000 -999.0000 -999.0000 -999.0000 -999.0000 
 887.5776   12.2500   13.7709    3.0257   87.5315    0.6569    0.5421    0.7311  384.9954 -999.0000 -999.0000 -999.0000 -999.0000 -999.0000 -999.0000 
 887.7300   12.2500   13.6378    2.0449   86.6537    0.6541    0.5385    0.8082  382.9847 -999.0000 -999.0000 -999.0000 -999.0000 -999.0000 -999.0000 
 887.8824   12.2500   13.5907    1.5525   85.2234    0.6588    0.5387    0.7000  384.3454 -999.0000 -999.0000 -999.0000 -999.0000 -999.0000 -999.0000 
 888.0348   12.2500   13.0786    3.7542   86.7548    0.6670    0.5525    0.6769  386.7852 -999.0000 -999.0000 -999.0000 -999.0000 -999.0000 -999.0000 
 888.1872   12.2500   12.3347    4.4447   90.3345    0.6729    0.5567    0.6861  387.3000 -999.0000 -999.0000 -999.0000 -999.0000 -999.0000 -999.0000 
 888.3396   12.2500   12.1264    3.3455   94.8109    0.6798    0.5606    0.7153  388.7085 -999.0000 -999.0000 -999.0000 -999.0000 -999.0000 -999.0000 
