~VERSION INFORMATION
 VERS.                 2.0:   CWLS LOG ASCII STANDARD - VERSION 2.0
 WRAP.                  NO:   SINGLE LINE PER DEPTH STEP
 CREA.                 01/17/2018 13:37:44
#CREATED USING DSPetro VERSION 5000.10.1.3 BY H191660 ON 01/17/2018 13:37:44
~WELL INFORMATION
#MNEM.UNIT       DATA                          DESCRIPTION MNEMONIC
#---------      ---------------------------   --------------------------
 STRT    .M         0.0000                    : START DEPTH
 STOP    .M         2499.9696                 : STOP DEPTH
 STEP    .M         0.1524                    : STEP VALUE
 NULL    .      -999.0000                     : NULL VALUE
 DATE    .      01/17/2018                    : LAS file Creation Date
 WELL .      2780_Saffron-1              : Well Name
 COMP .      Neftex Exploration Insights : Company
 FLD  .      SAFFRON                     : Field
 UWI  .      ZAUWL_005718                : Unique Well Identifier (UWI)
 LOC  .                                  : Location
 RWS  .      -999                        : Def_Rw
 WST  .      -999                        : Def_Rwt
 SRVC .                                  : Contractor
~CURVE INFORMATION
#MNEM              UNIT       API CODE   Curve Type Comments
#----------  --------------- ----------  ---------- -----------
 DEPTH      .M                         : Depth       
 BS         .in                        : bitSize     
 CAL_INCH   .inch                      : caliper     Caliper Log - A representation of the measured diameter of a borehole along its depth
 SP_MV1     .mv                        : SP          Spontaneous Potential - Records the electrical potential produced by the interaction of formation water, conductive drilling mud, and certain ion-sele
 GR_API     .API                       : gammaRay    Gamma Ray (API) - Measures the intensity of natural gamma-ray radiation emitted from formations containing radioactive elements, such as K, Th and U
 LLD_OHMM   .ohmm                      : deepRes     Laterlog Deep Resistivity - Measurement made several feet into the formation; generally considered a measurement of the undisturbed formation
 LLS_OHMM   .ohmm                      : shalRes     Laterlog Shallow Resistivity - one to two feet into the formation; generally considered to measure the formation
 MSFL_OHMM  .ohmm                      : microRes    Micro-Spherically Focused Log - Measurement involves only the first few inches of the formation immediately adjacent to the borehole
 DT_US_FT   .us/ft                     : sonic       Interval Transit Time: Compressional Wave - Evaluates the time it takes for a compressional wave to traverse a fixed distance
 RHOB_G_CC  .g/cc                      : density     Bulk Density - Measures the density of bulk material, including any void space or other materials contained in the subject volume
 DRHO_G_CC  .g/cc                      : drho        Density Correction - Investigates the correction to the Bulk Density log; used as an indication of hole condition to validate the Bulk Density measure
 NPHI_v_v   .usl                       : neutron     Neutron Porosity - Measured with an neutron logging device calibrated to a given matrix (limestone, sandstone and dolomite) - unscaled
 PEF_B_E    .b/e-                      : PEF         Photoelectric Factor - A log of photoelectric absorption properties. Often expressed in an approximation unit barns/electron (b/e-)
 LITH       .                          : LITH        Lithology Curve
 LITH_v2    .                          : LITH        Lithology Curve
~A  DEPTH     BS     CAL_INCH   SP_MV1    GR_API   LLD_OHMM  LLS_OHMM MSFL_OHM   DT_US_FT RHOB_G_C  DRHO_G_C   NPHI_v_v  PEF_B_E     LITH    LITH_v2  
# ...
1017.7272   12.2500   14.4545    2.1736   76.6602    1.1135    0.9941    0.7910  358.0790 -999.0000 -999.0000 -999.0000 -999.0000 -999.0000 -999.0000 
1017.8796   12.2500   14.1264    2.0225   77.0068    1.1157    1.0014    0.7139  358.8148 -999.0000 -999.0000 -999.0000 -999.0000 -999.0000 -999.0000 
1018.0320   12.2500   13.5795    2.1412   76.8380    1.1164    0.9936    0.5676  359.4586 -999.0000 -999.0000 -999.0000 -999.0000 -999.0000 -999.0000 
1018.1844   12.2500   13.5830    1.8354   77.6853    1.1175    0.9893    0.5335  359.6072 -999.0000 -999.0000 -999.0000 -999.0000 -999.0000 -999.0000 
1018.3368   12.2500   13.4800    1.6123   80.0050    1.1282    0.9960    0.8384  358.0284 -999.0000 -999.0000 -999.0000 -999.0000 -999.0000 -999.0000 
1018.4892   12.2500   13.4599    1.3723   84.6554    1.1347    1.0115    0.7029  356.9425 -999.0000 -999.0000 -999.0000 -999.0000 -999.0000 -999.0000 
1018.6416   12.2500   13.2092    0.9826   83.9835    1.1650    1.0409    0.6661  350.7231 -999.0000 -999.0000 -999.0000 -999.0000 -999.0000 -999.0000 
1018.7940   12.2500   13.1990    1.0371   81.5896    1.2005    1.0721    0.6828  345.7780 -999.0000 -999.0000 -999.0000 -999.0000 -999.0000 -999.0000 
1018.9464   12.2500   13.1640    1.5852   79.4387    1.2213    1.0929    0.6554  343.1048 -999.0000 -999.0000 -999.0000 -999.0000 -999.0000 -999.0000 
1019.0988   12.2500   13.2258    1.9234   78.2383    1.2242    1.1015    0.8057  343.7700 -999.0000 -999.0000 -999.0000 -999.0000 -999.0000 -999.0000 
1019.2512   12.2500   13.3135    1.0765   79.2113    1.2189    1.0990    0.7981  348.4075 -999.0000 -999.0000 -999.0000 -999.0000 -999.0000 -999.0000 
1019.4036   12.2500   13.7351    0.6035   76.8019    1.1885    1.0774    0.6568  349.2004 -999.0000 -999.0000 -999.0000 -999.0000 -999.0000 -999.0000 
1019.5560   12.2500   14.1472    1.2120   77.4373    1.1401    1.0395    0.5465  351.9505 -999.0000 -999.0000 -999.0000 -999.0000 -999.0000 -999.0000 
1019.7084   12.2500   14.8456    1.8128   78.0622    1.0819    0.9847    0.4470  359.0175 -999.0000 -999.0000 -999.0000 -999.0000 -999.0000 -999.0000 
1019.8608   12.2500   15.0769    1.4918   80.1508    1.0226    0.9269    0.4573  362.8569 -999.0000 -999.0000 -999.0000 -999.0000 -999.0000 -999.0000 
1020.0132   12.2500   14.9663    0.7342   81.6930    0.9630    0.8737    0.3333  371.6551 -999.0000 -999.0000 -999.0000 -999.0000 -999.0000 -999.0000 
1020.1656   12.2500   15.2035    0.6741   83.1710    0.9194    0.8346    0.2882  380.2683 -999.0000 -999.0000 -999.0000 -999.0000 -999.0000 -999.0000 
1020.3180   12.2500   15.5592    1.7868   82.9168    0.8777    0.8002    0.3091  386.7688 -999.0000 -999.0000 -999.0000 -999.0000 -999.0000 -999.0000 
1020.4704   12.2500   16.1509    2.5437   80.5176    0.8510    0.7775    0.3687  391.7952 -999.0000 -999.0000 -999.0000 -999.0000 -999.0000 -999.0000 
1020.6228   12.2500   16.8524    1.2792   83.0689    0.8476    0.7736    0.3724  392.7166 -999.0000 -999.0000 -999.0000 -999.0000 -999.0000 -999.0000 
1020.7752   12.2500   16.9598    0.7468   87.7249    0.8532    0.7873    0.5624  393.7439 -999.0000 -999.0000 -999.0000 -999.0000 -999.0000 -999.0000 
1020.9276   12.2500   16.7450    1.0272   94.6910    0.8669    0.8006    0.8388  394.6349 -999.0000 -999.0000 -999.0000 -999.0000 -999.0000 -999.0000 
1021.0800   12.2500   16.4213    1.6726   97.6534    0.8815    0.8167    0.7117  393.2066 -999.0000 -999.0000 -999.0000 -999.0000 -999.0000 -999.0000 
1021.2324   12.2500   15.5573    1.3905   98.9330    0.8851    0.8226    0.4880  391.7518 -999.0000 -999.0000 -999.0000 -999.0000 -999.0000 -999.0000 
1021.3848   12.2500   15.7708    0.7954   96.0552    0.8583    0.7922    0.5139  395.3036 -999.0000 -999.0000 -999.0000 -999.0000 -999.0000 -999.0000 
1021.5372   12.2500   16.4576    0.7805   92.4288    0.8285    0.7645    0.5423  395.6916 -999.0000 -999.0000 -999.0000 -999.0000 -999.0000 -999.0000 
1021.6896   12.2500   16.8159    1.4314   89.7476    0.8304    0.7688    0.4838  394.7151 -999.0000 -999.0000 -999.0000 -999.0000 -999.0000 -999.0000 
1021.8420   12.2500   17.1251    2.1981   88.9446    0.8579    0.7922    0.4256  392.4010 -999.0000 -999.0000 -999.0000 -999.0000 -999.0000 -999.0000 
1021.9944   12.2500   16.9564    1.7157   88.2895    0.8947    0.8239    0.6568  388.1017 -999.0000 -999.0000 -999.0000 -999.0000 -999.0000 -999.0000 
1022.1468   12.2500   16.4132    1.2567   85.3736    0.9340    0.8589    1.5412  380.5011 -999.0000 -999.0000 -999.0000 -999.0000 -999.0000 -999.0000 
1022.2992   12.2500   16.6033    1.2041   84.1378    0.9467    0.8695    0.9807  379.7022 -999.0000 -999.0000 -999.0000 -999.0000 -999.0000 -999.0000 
1022.4516   12.2500   16.4896    1.5392   86.3882    0.9357    0.8595    0.6880  376.9078 -999.0000 -999.0000 -999.0000 -999.0000 -999.0000 -999.0000 
1022.6040   12.2500   16.4449    2.3720   89.9759    0.9196    0.8397    0.4454  377.3094 -999.0000 -999.0000 -999.0000 -999.0000 -999.0000 -999.0000 
1022.7564   12.2500   16.9085    3.1217   93.0183    0.9269    0.8534    0.3790  378.1542 -999.0000 -999.0000 -999.0000 -999.0000 -999.0000 -999.0000 
1022.9088   12.2500   16.8209    1.9448   90.6185    0.9519    0.8817    0.3014  374.5754 -999.0000 -999.0000 -999.0000 -999.0000 -999.0000 -999.0000 
1023.0612   12.2500   16.0389    1.4069   86.2549    0.9975    0.9184    0.2770  371.3652 -999.0000 -999.0000 -999.0000 -999.0000 -999.0000 -999.0000 
1023.2136   12.2500   15.8727    2.0986   82.4600    1.0391    0.9522    0.4102  370.0453 -999.0000 -999.0000 -999.0000 -999.0000 -999.0000 -999.0000 
1023.3660   12.2500   16.2773    2.1418   80.7857    1.0543    0.9667    0.6172  366.1730 -999.0000 -999.0000 -999.0000 -999.0000 -999.0000 -999.0000 
1023.5184   12.2500   16.3081    1.8202   80.7415    1.0404    0.9599    0.3336  370.1496 -999.0000 -999.0000 -999.0000 -999.0000 -999.0000 -999.0000 
1023.6708   12.2500   16.0787    1.5744   81.7885    1.0090    0.9341    0.3250  373.4548 -999.0000 -999.0000 -999.0000 -999.0000 -999.0000 -999.0000 
1023.8232   12.2500   16.2957    1.9584   84.0396    0.9930    0.9130    0.3986  377.3972 -999.0000 -999.0000 -999.0000 -999.0000 -999.0000 -999.0000 
1023.9756   12.2500   16.4047    2.4836   87.4630    0.9711    0.8901    0.4500  381.7950 -999.0000 -999.0000 -999.0000 -999.0000 -999.0000 -999.0000 
1024.1280   12.2500   16.8839    1.7911   85.6107    0.9425    0.8592    0.5830  389.5346 -999.0000 -999.0000 -999.0000 -999.0000 -999.0000 -999.0000 
1024.2804   12.2500   17.3910    1.8820   84.4732    0.9136    0.8324    0.4378  390.6123 -999.0000 -999.0000 -999.0000 -999.0000 -999.0000 -999.0000 
1024.4328   12.2500   17.3889    2.3885   84.7659    0.8992    0.8166    0.2229  391.0060 -999.0000 -999.0000 -999.0000 -999.0000 -999.0000 -999.0000 
1024.5852   12.2500   17.4298    3.0821   88.4251    0.8961    0.8156    0.3138  389.8482 -999.0000 -999.0000 -999.0000 -999.0000 -999.0000 -999.0000 
1024.7376   12.2500   17.4246    2.5033   90.0721    0.9006    0.8247    0.6847  389.0005 -999.0000 -999.0000 -999.0000 -999.0000 -999.0000 -999.0000 
1024.8900   12.2500   17.2410    0.8189   86.9120    0.9359    0.8601    0.3268  378.8890 -999.0000 -999.0000 -999.0000 -999.0000 -999.0000 -999.0000 
1025.0424   12.2500   16.2827    1.2279   83.8631    0.9690    0.8902    0.3296  375.7548 -999.0000 -999.0000 -999.0000 -999.0000 -999.0000 -999.0000 
1025.1948   12.2500   15.9023    1.8635   84.1069    1.0014    0.9238    0.4460  371.9397 -999.0000 -999.0000 -999.0000 -999.0000 -999.0000 -999.0000 
1025.3472   12.2500   15.8455    2.6336   84.9155    1.0350    0.9638    0.3422  375.7381 -999.0000 -999.0000 -999.0000 -999.0000 -999.0000 -999.0000 
1025.4996   12.2500   15.9116    2.2077   84.7610    1.0360    0.9630    0.3392  378.0157 -999.0000 -999.0000 -999.0000 -999.0000 -999.0000 -999.0000 
1025.6520   12.2500   15.7355    0.7823   81.2517    1.0405    0.9649    0.4202  375.3929 -999.0000 -999.0000 -999.0000 -999.0000 -999.0000 -999.0000 
