~VERSION INFORMATION
 VERS.                 2.0:   CWLS LOG ASCII STANDARD - VERSION 2.0
 WRAP.                  NO:   SINGLE LINE PER DEPTH STEP
 CREA.                 19/01/2018 11:58:16
#CREATED USING DSPetro VERSION 5000.10.1.3 BY H191660 ON 19/01/2018 11:58:16
~WELL INFORMATION
#MNEM.UNIT       DATA                          DESCRIPTION MNEMONIC
#---------      ---------------------------   --------------------------
 STRT    .M         0.1524                    : START DEPTH
 STOP    .M         1199.9976                 : STOP DEPTH
 STEP    .M         0.1524                    : STEP VALUE
 NULL    .      -999.0000                     : NULL VALUE
 DATE    .      19/01/2018                    : LAS file Creation Date
 WELL .      2930_Spider-1               : Well Name
 COMP .      Neftex Exploration Insights : Company
 FLD  .                                  : Field
 UWI  .      ZAUWL_006180                : Unique Well Identifier (UWI)
 LOC  .                                  : Location
 RWS  .      -999                        : Def_Rw
 WST  .      -999                        : Def_Rwt
 SRVC .                                  : Contractor
~CURVE INFORMATION
#MNEM              UNIT       API CODE   Curve Type Comments
#----------  --------------- ----------  ---------- -----------
 DEPTH      .M                         : Depth       
 Bitsize    .in                        : BitSize     
 CAL_INCH   .inch                      :             Caliper Log - A representation of the measured diameter of a borehole along its depth
 SP_Corr    .mv                        : SP          Spontaneous Potential - Records the electrical potential produced by the interaction of formation water, conductive drilling mud, and certain ion-sele
 GR_API     .API                       : GammaRay    gammaRay    Corrected / Computed Gamma Ray - Radiation with the Uranium component removed. Also known as a 'carbonate gamma ray'
 SGR_API    .API                       : gammaRay    Spectral Gamma Ray - Total gamma calibrated to API, measured using a spectoral gamma array tool
 CGR_API    .API                       : gammaRay    Corrected / Computed Gamma Ray - Radiation with the Uranium component removed. Also known as a 'carbonate gamma ray'
 LLD_OHMM   .ohmm                      : deepRes     Laterlog Deep Resistivity - Measurement made several feet into the formation; generally considered a measurement of the undisturbed formation
 LLS_OHMM   .ohmm                      : shalRes     Laterlog Shallow Resistivity - one to two feet into the formation; generally considered to measure the formation
 DT_US_FT   .us/ft                     : sonic       Interval Transit Time: Compressional Wave - Evaluates the time it takes for a compressional wave to traverse a fixed distance
 RHOB_G_CC  .g/cc                      : density     Bulk Density - Measures the density of bulk material, including any void space or other materials contained in the subject volume
 DRHO_G_CC  .g/cc                      : drho        Density Correction - Investigates the correction to the Bulk Density log; used as an indication of hole condition to validate the Bulk Density measure
 NPHI_v_v   .usl                       : neutron     Neutron Porosity - Measured with an neutron logging device calibrated to a given matrix (limestone, sandstone and dolomite) - unscaled
 PEF_B_E    .b/e-                      : PEF         Photoelectric Factor - A log of photoelectric absorption properties. Often expressed in an approximation unit barns/electron (b/e-)
 LITH       .                          : LITH        Lithology Curve
 LITH_v2    .                          : LITH        Lithology Curve
~A  DEPTH  Bitsize   CAL_INCH  SP_Corr    GR_API   SGR_API   CGR_API   LLD_OHMM  LLS_OHMM  DT_US_FT RHOB_G_C  DRHO_G_C   NPHI_v_v  PEF_B_E     LITH    LITH_v2  
# ...
 762.1524    8.5000    8.6640   18.4868   41.4350   61.8560   41.4350    0.6920    0.5820  140.3000    1.9320   -0.0150    0.4080    2.8870   27.0000   27.0000 
 762.3048    8.5000    8.6640   18.4781   40.4730   60.7210   40.4730    0.6720    0.5800  140.1000    1.9070   -0.0190    0.4060    2.8890   27.0000   27.0000 
 762.4572    8.5000    8.6640   18.7193   42.6960   64.2800   42.6960    0.6420    0.5570  140.0000    1.8880   -0.0220    0.3980    3.0430   27.0000   27.0000 
 762.6096    8.5000    8.6640   18.9606   43.0240   64.7630   43.0240    0.6300    0.5440  139.9000    1.8920   -0.0210    0.4040    3.0130   27.0000   27.0000 
 762.7620    8.5000    8.6740   19.2019   43.8220   65.8060   43.8220    0.6270    0.5490  137.1000    1.8900   -0.0260    0.4250    2.9880   27.0000   27.0000 
 762.9144    8.5000    8.6990   19.1932   43.3190   65.2640   43.3190    0.6610    0.5710  136.7000    1.8940   -0.0240    0.4240    2.9510   27.0000   27.0000 
 763.0668    8.5000    8.7230   19.4345   47.4640   69.6980   47.4640    0.6940    0.5910  136.9000    1.9140   -0.0170    0.3740    2.9240   27.0000   27.0000 
 763.2192    8.5000    8.7130   19.4258   44.5890   60.3460   44.5890    0.7240    0.6220  135.8000    1.9190   -0.0130    0.3580    2.9480   27.0000   27.0000 
 763.3716    8.5000    8.7720   19.1671   41.6340   54.4300   41.6340    0.7490    0.6280  136.1000    1.9100   -0.0080    0.3850    2.8530   27.0000   27.0000 
 763.5240    8.5000    8.7540   19.1584   39.1080   50.5870   39.1080    0.7120    0.6060  118.9000    1.8840   -0.0060    0.4240    2.7280   27.0000   27.0000 
 763.6764    8.5000    8.7410   19.1497   38.3150   49.5490   38.3150    0.7050    0.6120  117.3000    1.8790   -0.0090    0.4170    2.6340   27.0000   27.0000 
 763.8288    8.5000    8.7270   19.1410   36.9050   47.8030   36.9050    0.7350    0.6490   97.8000    1.8980   -0.0120    0.3460    2.5670   27.0000   27.0000 
 763.9812    8.5000    8.7200   19.1323   35.4920   45.9880   35.4920    0.8030    0.7060   90.3000    1.9170   -0.0140    0.3240    2.6220   27.0000   27.0000 
 764.1336    8.5000    8.7330   19.1236   34.1110   44.6870   34.1110    0.8580    0.7420  116.6000    1.9400   -0.0210    0.3200    2.7420   27.0000   27.0000 
 764.2860    8.5000    8.7410   19.1149   35.0540   46.3690   35.0540    0.8830    0.7870  130.6000    1.9470   -0.0230    0.3450    2.8620   27.0000   27.0000 
 764.4384    8.5000    8.7340   18.8562   36.1070   48.0930   36.1070    0.8910    0.7820  140.9000    1.9460   -0.0140    0.3480    3.0070   27.0000   27.0000 
 764.5908    8.5000    8.7340   18.5975   35.3410   47.0080   35.3410    0.8820    0.7940  137.7000    1.9460   -0.0110    0.3540    3.0660   27.0000   27.0000 
 764.7432    8.5000    8.7490   18.3388   37.8440   50.1100   37.8440    0.8480    0.7620  133.1000    1.9440   -0.0080    0.3580    2.9440   27.0000   27.0000 
 764.8956    8.5000    8.7740   18.3301   38.6050   50.6850   38.6050    0.8450    0.7560  150.8000    1.9430   -0.0050    0.3790    2.8990   27.0000   27.0000 
 765.0480    8.5000    8.7970   18.3214   38.5480   49.9510   38.5480    0.8450    0.7400  124.9000    1.9220   -0.0110    0.3870    2.8120   27.0000   27.0000 
 765.2004    8.5000    8.7970   17.8127   39.5420   50.8680   39.5420    0.8240    0.7380  127.6000    1.9130   -0.0180    0.3910    2.8510   27.0000   27.0000 
 765.3528    8.5000    8.7970   17.0540   37.5380   47.1370   37.5380    0.7820    0.6880  128.1000    1.9210   -0.0200    0.3910    2.8720   27.0000   27.0000 
 765.5052    8.5000    8.7970   17.0453   37.1530   46.2360   37.1530    0.7570    0.6600  127.0000    1.9250   -0.0220    0.3910    2.9730   27.0000   27.0000 
 765.6576    8.5000    8.7800   17.2865   37.8750   46.7760   37.8750    0.7260    0.6400  127.6000    1.9170   -0.0060    0.3950    3.4520   27.0000   27.0000 
 765.8100    8.5000    8.7600   17.2778   42.8280   53.6530   42.8280    0.7140    0.6200  130.1000    1.9220   -0.0010    0.3810    3.7250   27.0000   27.0000 
 765.9624    8.5000    8.7770   17.2691   46.1880   58.2920   46.1880    0.8000    0.7160  130.5000    1.9790    0.0060    0.3580    3.9520   27.0000   27.0000 
 766.1148    8.5000    8.7880   17.2604   49.4460   62.7030   49.4460    0.8370    0.7560  130.5000    2.0350    0.0100    0.3480    3.5530   27.0000   27.0000 
 766.2672    8.5000    8.7380   17.5017   52.8090   65.9870   52.8090    0.8570    0.7730  129.3000    2.0770    0.0050    0.3620    3.1590   27.0000   36.0000 
 766.4196    8.5000    8.6760   17.4930   50.4130   56.8070   50.4130    1.0230    0.9170  123.9000    2.0610   -0.0080    0.3680    2.9880   27.0000   36.0000 
 766.5720    8.5000    8.6640   17.4843   50.0910   55.3190   50.0910    1.1080    1.0200  121.2000    2.0300   -0.0230    0.3440    2.9530   27.0000   27.0000 
 766.7244    8.5000    8.6640   17.4756   49.6910   55.1620   49.6910    1.0680    0.9700  120.3000    2.0190   -0.0220    0.3340    2.8330   27.0000   27.0000 
 766.8768    8.5000    8.6640   17.4669   50.9840   57.3140   50.9840    1.0850    0.9650  122.8000    2.0070   -0.0220    0.3470    2.7810   27.0000   27.0000 
 767.0292    8.5000    8.6640   17.2082   51.5730   58.6320   51.5730    0.9230    0.8210  129.5000    1.9680   -0.0160    0.3600    2.7040   27.0000   27.0000 
 767.1816    8.5000    8.6640   17.4495   51.2450   58.3220   51.2450    0.7200    0.6440  134.6000    1.9470   -0.0160    0.3690    2.7260   27.0000   27.0000 
 767.3340    8.5000    8.6840   16.6908   52.0740   59.7630   52.0740    0.6630    0.6160  136.2000    1.9270   -0.0150    0.3820    2.6750   27.0000   27.0000 
 767.4864    8.5000    8.7170   16.4321   52.2770   60.2390   52.2770    0.6530    0.5760  137.8000    1.9160   -0.0170    0.3920    2.6430   27.0000   27.0000 
 767.6388    8.5000    8.7730   16.4234   53.3100   62.1530   53.3100    0.6470    0.5640  138.1000    1.9080   -0.0200    0.3960    2.6200   27.0000   27.0000 
 767.7912    8.5000    8.7730   16.6647   55.9690   66.5060   55.9690    0.6450    0.5880  135.2000    1.9110   -0.0180    0.3870    2.6550   27.0000   27.0000 
 767.9436    8.5000    8.7530   16.6560   57.2330   74.1160   57.2330    0.6910    0.6050  134.3000    1.9510   -0.0200    0.3770    2.9280   27.0000   27.0000 
 768.0960    8.5000    8.7190   16.8973   58.2720   84.9470   58.2720    0.7670    0.6840  135.9000    1.9790   -0.0200    0.3770    2.9470   27.0000   27.0000 
 768.2484    8.5000    8.7190   16.6385   56.5120   79.6060   56.5120    0.8420    0.7520  135.1000    2.0220   -0.0130    0.4020    2.9000   27.0000   36.0000 
 768.4008    8.5000    8.7190   16.8799   53.4740   70.0510   53.4740    0.8810    0.7900  134.9000    2.0240   -0.0110    0.4090    2.8290   27.0000   36.0000 
 768.5532    8.5000    8.6800   16.8712   52.2890   67.7060   52.2890    0.8430    0.7570  134.3000    1.9870   -0.0180    0.4240    2.7670   27.0000   36.0000 
 768.7056    8.5000    8.6650   16.8625   52.4660   67.7450   52.4660    0.7500    0.6620  134.9000    1.9680   -0.0190    0.4230    2.7620   27.0000   36.0000 
 768.8580    8.5000    8.6640   17.1037   53.2060   68.9110   53.2060    0.7200    0.6640  135.9000    1.9630   -0.0210    0.4220    2.7860   27.0000   36.0000 
 769.0104    8.5000    8.6640   17.3450   53.8320   69.8110   53.8320    0.7170    0.6230  136.2000    1.9650   -0.0230    0.4210    2.8330   27.0000   36.0000 
 769.1628    8.5000    8.6640   17.5863   51.5040   66.5390   51.5040    0.7270    0.6640  136.6000    1.9720   -0.0250    0.4110    2.8460   27.0000   27.0000 
 769.3152    8.5000    8.6640   17.8276   49.6170   63.9670   49.6170    0.7180    0.6240  136.7000    1.9660   -0.0260    0.4100    2.8050   27.0000   27.0000 
 769.4676    8.5000    8.6640   17.8189   50.4170   65.2020   50.4170    0.7140    0.6660  137.1000    1.9550   -0.0230    0.3770    2.7720   27.0000   27.0000 
 769.6200    8.5000    8.6640   17.8102   47.8830   61.9810   47.8830    0.6920    0.6260  137.2000    1.9550   -0.0210    0.3770    2.7850   27.0000   27.0000 
