~VERSION INFORMATION
 VERS.                 2.0:   CWLS LOG ASCII STANDARD - VERSION 2.0
 WRAP.                  NO:   SINGLE LINE PER DEPTH STEP
 CREA.                 19/01/2018 11:58:16
#CREATED USING DSPetro VERSION 5000.10.1.3 BY H191660 ON 19/01/2018 11:58:16
~WELL INFORMATION
#MNEM.UNIT       DATA                          DESCRIPTION MNEMONIC
#---------      ---------------------------   --------------------------
 STRT    .M         0.1524                    : START DEPTH
 STOP    .M         1199.9976                 : STOP DEPTH
 STEP    .M         0.1524                    : STEP VALUE
 NULL    .      -999.0000                     : NULL VALUE
 DATE    .      19/01/2018                    : LAS file Creation Date
 WELL .      2930_Spider-1               : Well Name
 COMP .      Neftex Exploration Insights : Company
 FLD  .                                  : Field
 UWI  .      ZAUWL_006180                : Unique Well Identifier (UWI)
 LOC  .                                  : Location
 RWS  .      -999                        : Def_Rw
 WST  .      -999                        : Def_Rwt
 SRVC .                                  : Contractor
~CURVE INFORMATION
#MNEM              UNIT       API CODE   Curve Type Comments
#----------  --------------- ----------  ---------- -----------
 DEPTH      .M                         : Depth       
 Bitsize    .in                        : BitSize     
 CAL_INCH   .inch                      :             Caliper Log - A representation of the measured diameter of a borehole along its depth
 SP_Corr    .mv                        : SP          Spontaneous Potential - Records the electrical potential produced by the interaction of formation water, conductive drilling mud, and certain ion-sele
 GR_API     .API                       : GammaRay    gammaRay    Corrected / Computed Gamma Ray - Radiation with the Uranium component removed. Also known as a 'carbonate gamma ray'
 SGR_API    .API                       : gammaRay    Spectral Gamma Ray - Total gamma calibrated to API, measured using a spectoral gamma array tool
 CGR_API    .API                       : gammaRay    Corrected / Computed Gamma Ray - Radiation with the Uranium component removed. Also known as a 'carbonate gamma ray'
 LLD_OHMM   .ohmm                      : deepRes     Laterlog Deep Resistivity - Measurement made several feet into the formation; generally considered a measurement of the undisturbed formation
 LLS_OHMM   .ohmm                      : shalRes     Laterlog Shallow Resistivity - one to two feet into the formation; generally considered to measure the formation
 DT_US_FT   .us/ft                     : sonic       Interval Transit Time: Compressional Wave - Evaluates the time it takes for a compressional wave to traverse a fixed distance
 RHOB_G_CC  .g/cc                      : density     Bulk Density - Measures the density of bulk material, including any void space or other materials contained in the subject volume
 DRHO_G_CC  .g/cc                      : drho        Density Correction - Investigates the correction to the Bulk Density log; used as an indication of hole condition to validate the Bulk Density measure
 NPHI_v_v   .usl                       : neutron     Neutron Porosity - Measured with an neutron logging device calibrated to a given matrix (limestone, sandstone and dolomite) - unscaled
 PEF_B_E    .b/e-                      : PEF         Photoelectric Factor - A log of photoelectric absorption properties. Often expressed in an approximation unit barns/electron (b/e-)
 LITH       .                          : LITH        Lithology Curve
 LITH_v2    .                          : LITH        Lithology Curve
~A  DEPTH  Bitsize   CAL_INCH  SP_Corr    GR_API   SGR_API   CGR_API   LLD_OHMM  LLS_OHMM  DT_US_FT RHOB_G_C  DRHO_G_C   NPHI_v_v  PEF_B_E     LITH    LITH_v2  
# ...
 457.3524    8.5000   10.3460    1.7819   62.3790   54.9870   62.3790    0.6940    0.5160  153.0000    1.7440    0.0040    0.4650    3.3940   36.0000   11.0000 
 457.5048    8.5000    9.5310    1.5319   63.7000   64.1060   63.7000    0.7460    0.5460  147.7000    1.7810    0.0030    0.4730    3.2600   36.0000   11.0000 
 457.6572    8.5000    9.1650    1.2819   67.9160   71.1680   67.9160    0.8020    0.5760  148.0000    1.8700    0.0070    0.4870    3.5350   36.0000   11.0000 
 457.8096    8.5000    9.2210    1.0319   67.8650   71.3120   67.8650    0.7940    0.5600  145.7000    1.8990    0.0070    0.4820    3.5990   36.0000   11.0000 
 457.9620    8.5000    9.4040    1.0319   62.3230   64.2480   62.3230    0.8060    0.5530  146.9000    1.8680    0.0050    0.4710    3.5300   36.0000   11.0000 
 458.1144    8.5000    9.3380    0.7819   62.6240   64.9900   62.6240    0.7520    0.5350  149.8000    1.8380    0.0040    0.4670    3.5980   36.0000   11.0000 
 458.2668    8.5000    9.0350    0.7819   62.7720   65.7320   62.7720    0.7250    0.5040  152.2000    1.7610    0.0020    0.4700    3.7990   36.0000   11.0000 
 458.4192    8.5000    9.0450    0.7819   62.9280   66.1830   62.9280    0.7030    0.4930  153.4000    1.7330   -0.0020    0.4650    3.9450   36.0000   11.0000 
 458.5716    8.5000    8.9680    0.5319   62.9820   66.9920   62.9820    0.7490    0.5240  153.3000    1.7560   -0.0050    0.4220    3.8730   36.0000   11.0000 
 458.7240    8.5000    8.9300    0.5319   62.9530   67.4640   62.9530    0.8310    0.5700  152.0000    1.8860   -0.0010    0.4080    3.6940   36.0000   11.0000 
 458.8764    8.5000    8.9250    0.5319   63.5470   68.6370   63.5470    0.8510    0.5860  149.2000    1.9540    0.0030    0.4120    3.7410   36.0000   11.0000 
 459.0288    8.5000    8.8840    0.5319   61.5280   66.3990   61.5280    0.9030    0.6200  147.6000    1.9830    0.0010    0.4640    3.9750   36.0000   37.0000 
 459.1812    8.5000    8.8740    0.2819   60.7720   65.5460   60.7720    0.9400    0.6550  147.5000    1.9700   -0.0010    0.4860    4.0740   36.0000   37.0000 
 459.3336    8.5000    8.9250    0.5319   64.8690   72.5920   64.8690    0.9220    0.6540  148.4000    1.9690    0.0070    0.4900    4.0870   36.0000   37.0000 
 459.4860    8.5000    8.9300    0.7819   68.3310   78.7040   68.3310    0.9110    0.6450  147.2000    1.9890    0.0090    0.4910    3.9710   36.0000   37.0000 
 459.6384    8.5000    8.8760    0.7819   72.2930   85.0050   72.2930    0.9350    0.6740  147.2000    2.0370    0.0090    0.4820    4.1390   36.0000   37.0000 
 459.7908    8.5000    8.7970    0.7819   74.5460   88.7550   74.5460    0.9730    0.6970  146.6000    2.0630    0.0110    0.4980    4.2410   36.0000   37.0000 
 459.9432    8.5000    8.8260    1.0319   73.4670   87.5180   73.4670    0.9600    0.7010  147.0000    2.0650    0.0150    0.4940    4.3290   36.0000   37.0000 
 460.0956    8.5000    8.8750    1.0319   71.6250   85.1750   71.6250    0.9590    0.6930  148.8000    2.0470    0.0080    0.4830    4.3070   36.0000   37.0000 
 460.2480    8.5000    8.8880    1.0319   68.2480   80.8830   68.2480    0.9630    0.7020  150.2000    2.0180    0.0050    0.4430    3.9720   36.0000   37.0000 
 460.4004    8.5000    8.9140    1.2819   67.5030   79.6890   67.5030    0.9420    0.7010  148.9000    2.0010    0.0030    0.4360    3.9180   36.0000   37.0000 
 460.5528    8.5000    8.9300    1.2819   68.5630   81.0600   68.5630    0.9420    0.6950  151.7000    1.9760   -0.0060    0.4170    3.7530   36.0000   11.0000 
 460.7052    8.5000    8.9300    1.2819   62.8440   72.1300   62.8440    0.9480    0.7060  152.8000    1.9610   -0.0100    0.4210    3.8080   36.0000   11.0000 
 460.8576    8.5000    8.9300    1.5319   79.2230   88.6910   79.2230    0.9280    0.6870  153.9000    1.9700   -0.0070    0.4280    4.0670   36.0000   11.0000 
 461.0100    8.5000    8.9300    1.2819   81.0270   91.1360   81.0270    0.8770    0.6570  156.1000    1.9770   -0.0020    0.4700    4.1980   36.0000   37.0000 
 461.1624    8.5000    8.9300    1.2819   80.5310   90.5380   80.5310    0.8630    0.6470  156.5000    1.9670    0.0020    0.5140    3.8620   36.0000   37.0000 
 461.3148    8.5000    8.9300    1.0319   82.2970   93.1370   82.2970    0.8240    0.6130  158.4000    1.9450    0.0070    0.5270    3.7710   36.0000   37.0000 
 461.4672    8.5000    8.9420    1.2819   84.7650   96.0590   84.7650    0.7740    0.5970  161.0000    1.9260    0.0110    0.4960    3.6320   36.0000   37.0000 
 461.6196    8.5000    8.9320    1.2819   81.9570   91.4510   81.9570    0.7970    0.6130  161.2000    1.9210    0.0120    0.5140    3.6310   36.0000   37.0000 
 461.7720    8.5000    8.9300    1.2819   88.2610   98.2250   88.2610    0.7730    0.5990  161.8000    1.9170    0.0120    0.5150    3.6100   36.0000   37.0000 
 461.9244    8.5000    8.9300    1.2819   88.4930   97.9910   88.4930    0.7840    0.5980  162.7000    1.8760    0.0100    0.5150    3.5330   36.0000   37.0000 
 462.0768    8.5000    8.9300    1.2819   87.5980   96.4700   87.5980    0.7990    0.6210  161.0000    1.8510    0.0060    0.5020    3.4450   36.0000   37.0000 
 462.2292    8.5000    8.9840    1.2819   88.2650   96.7530   88.2650    0.8040    0.6220  163.4000    1.7990    0.0000    0.5390    3.2020   36.0000   37.0000 
 462.3816    8.5000    9.0490    1.2819   87.9860   95.8650   87.9860    0.8100    0.6440  164.2000    1.7760   -0.0020    0.5300    3.0960   36.0000   11.0000 
 462.5340    8.5000    9.1340    1.2819   86.1270   92.0520   86.1270    0.8430    0.6600  163.4000    1.7370   -0.0020    0.4860    3.2610   36.0000   11.0000 
 462.6864    8.5000    9.2340    1.0319   85.6800   90.8460   85.6800    0.8450    0.6590  162.9000    1.7430   -0.0030    0.4330    3.4000   36.0000   11.0000 
 462.8388    8.5000    9.2120    1.0319   89.4030   95.2800   89.4030    0.8010    0.6270  162.1000    1.8210    0.0060    0.4460    3.9540   36.0000   11.0000 
 462.9912    8.5000    9.0640    1.0319   91.3470   97.7010   91.3470    0.7700    0.6130  161.6000    1.8840    0.0130    0.4870    4.1640   36.0000   11.0000 
 463.1436    8.5000    9.0820    1.2819   95.0680  102.6150   95.0680    0.7200    0.5690  162.1000    1.9600    0.0210    0.5120    4.0260   36.0000   37.0000 
 463.2960    8.5000    9.0620    1.2819   96.9110  104.9270   96.9110    0.7560    0.5840  160.3000    1.9700    0.0070    0.5130    3.7770   36.0000   37.0000 
 463.4484    8.5000    9.0070    1.2819   97.3180  104.2070   97.3180    0.7740    0.5950  158.9000    1.9940    0.0030    0.4530    3.4210   36.0000   37.0000 
 463.6008    8.5000    8.9300    1.2819   97.6860  104.1850   97.6860    0.7430    0.6310  156.0000    2.0080    0.0010    0.4480    3.2980   36.0000   37.0000 
 463.7532    8.5000    8.9340    1.5319   98.7370  105.3670   98.7370    0.8150    0.6440  153.6000    1.9850   -0.0050    0.4550    3.3470   36.0000   37.0000 
 463.9056    8.5000    8.9450    1.2819   99.2690  105.6510   99.2690    0.8380    0.6580  152.8000    1.9700   -0.0080    0.4440    3.3240   36.0000   37.0000 
 464.0580    8.5000    8.9750    1.2819   97.1890  102.4840   97.1890    0.7380    0.6520  153.4000    1.9520    0.0020    0.4900    3.2950   36.0000   37.0000 
 464.2104    8.5000    9.0830    1.2819   94.0400   98.3800   94.0400    0.8180    0.6350  155.1000    1.9560    0.0050    0.5000    3.2600   36.0000   37.0000 
 464.3628    8.5000    9.1470    1.2819   93.8700   97.7830   93.8700    0.8090    0.6210  155.0000    1.9560    0.0110    0.5130    3.4270   36.0000   37.0000 
 464.5152    8.5000    9.2910    1.0319   95.5790   99.7720   95.5790    0.8050    0.6280  155.9000    1.9600    0.0120    0.5190    3.4940   36.0000   37.0000 
 464.6676    8.5000    9.1230    1.2819   94.7820   99.1120   94.7820    0.7960    0.6270  154.0000    1.9580    0.0130    0.4870    3.6010   36.0000   37.0000 
 464.8200    8.5000    9.1180    1.0319   93.8810   97.1340   93.8810    0.8260    0.6490  152.2000    1.9660    0.0110    0.4810    3.5140   36.0000   37.0000 
