~VERSION INFORMATION
 VERS.                 2.0:   CWLS LOG ASCII STANDARD - VERSION 2.0
 WRAP.                  NO:   SINGLE LINE PER DEPTH STEP
 CREA.                 19/01/2018 11:58:16
#CREATED USING DSPetro VERSION 5000.10.1.3 BY H191660 ON 19/01/2018 11:58:16
~WELL INFORMATION
#MNEM.UNIT       DATA                          DESCRIPTION MNEMONIC
#---------      ---------------------------   --------------------------
 STRT    .M         0.1524                    : START DEPTH
 STOP    .M         1199.9976                 : STOP DEPTH
 STEP    .M         0.1524                    : STEP VALUE
 NULL    .      -999.0000                     : NULL VALUE
 DATE    .      19/01/2018                    : LAS file Creation Date
 WELL .      2930_Spider-1               : Well Name
 COMP .      Neftex Exploration Insights : Company
 FLD  .                                  : Field
 UWI  .      ZAUWL_006180                : Unique Well Identifier (UWI)
 LOC  .                                  : Location
 RWS  .      -999                        : Def_Rw
 WST  .      -999                        : Def_Rwt
 SRVC .                                  : Contractor
~CURVE INFORMATION
#MNEM              UNIT       API CODE   Curve Type Comments
#----------  --------------- ----------  ---------- -----------
 DEPTH      .M                         : Depth       
 Bitsize    .in                        : BitSize     
 CAL_INCH   .inch                      :             Caliper Log - A representation of the measured diameter of a borehole along its depth
 SP_Corr    .mv                        : SP          Spontaneous Potential - Records the electrical potential produced by the interaction of formation water, conductive drilling mud, and certain ion-sele
 GR_API     .API                       : GammaRay    gammaRay    Corrected / Computed Gamma Ray - Radiation with the Uranium component removed. Also known as a 'carbonate gamma ray'
 SGR_API    .API                       : gammaRay    Spectral Gamma Ray - Total gamma calibrated to API, measured using a spectoral gamma array tool
 CGR_API    .API                       : gammaRay    Corrected / Computed Gamma Ray - Radiation with the Uranium component removed. Also known as a 'carbonate gamma ray'
 LLD_OHMM   .ohmm                      : deepRes     Laterlog Deep Resistivity - Measurement made several feet into the formation; generally considered a measurement of the undisturbed formation
 LLS_OHMM   .ohmm                      : shalRes     Laterlog Shallow Resistivity - one to two feet into the formation; generally considered to measure the formation
 DT_US_FT   .us/ft                     : sonic       Interval Transit Time: Compressional Wave - Evaluates the time it takes for a compressional wave to traverse a fixed distance
 RHOB_G_CC  .g/cc                      : density     Bulk Density - Measures the density of bulk material, including any void space or other materials contained in the subject volume
 DRHO_G_CC  .g/cc                      : drho        Density Correction - Investigates the correction to the Bulk Density log; used as an indication of hole condition to validate the Bulk Density measure
 NPHI_v_v   .usl                       : neutron     Neutron Porosity - Measured with an neutron logging device calibrated to a given matrix (limestone, sandstone and dolomite) - unscaled
 PEF_B_E    .b/e-                      : PEF         Photoelectric Factor - A log of photoelectric absorption properties. Often expressed in an approximation unit barns/electron (b/e-)
 LITH       .                          : LITH        Lithology Curve
 LITH_v2    .                          : LITH        Lithology Curve
~A  DEPTH  Bitsize   CAL_INCH  SP_Corr    GR_API   SGR_API   CGR_API   LLD_OHMM  LLS_OHMM  DT_US_FT RHOB_G_C  DRHO_G_C   NPHI_v_v  PEF_B_E     LITH    LITH_v2  
# ...
 518.3124    8.5000    8.8780   -0.1471   88.7490   94.4130   88.7490    0.7520    0.6680  151.4000    2.0200    0.0100    0.5030    3.5560   36.0000   37.0000 
 518.4648    8.5000    8.8590   -0.4051   88.2950   94.7350   88.2950    0.7640    0.6760  151.0000    2.0220    0.0060    0.5170    3.3290   36.0000   37.0000 
 518.6172    8.5000    8.8130   -0.4131   88.7640   95.7430   88.7640    0.7690    0.6830  150.6000    2.0250    0.0060    0.5270    3.2370   36.0000   37.0000 
 518.7696    8.5000    8.8020   -0.1711   90.1650   98.0440   90.1650    0.7660    0.6830  151.2000    2.0350    0.0000    0.4880    3.0740   36.0000   37.0000 
 518.9220    8.5000    8.8170   -0.1791   90.2850   98.8810   90.2850    0.7610    0.6760  152.2000    2.0390   -0.0040    0.4710    3.0610   36.0000   37.0000 
 519.0744    8.5000    8.8270   -0.1871   88.0490   96.0960   88.0490    0.7520    0.6700  152.1000    2.0480   -0.0040    0.4280    2.9620   36.0000   37.0000 
 519.2268    8.5000    8.8200   -0.1951   88.0150   95.8760   88.0150    0.7650    0.6780  151.6000    2.0460   -0.0100    0.4380    2.8910   36.0000   37.0000 
 519.3792    8.5000    8.8200    0.0469   88.6210   96.6680   88.6210    0.7700    0.6840  151.6000    2.0460   -0.0120    0.4470    2.8730   36.0000   37.0000 
 519.5316    8.5000    8.8200    0.2888   89.3880   99.0760   89.3880    0.7830    0.6980  150.1000    2.0470   -0.0130    0.4810    2.9190   36.0000   37.0000 
 519.6840    8.5000    8.8210    0.5309   88.5810   98.6880   88.5810    0.7900    0.7000  150.3000    2.0410   -0.0140    0.4950    2.9310   36.0000   37.0000 
 519.8364    8.5000    8.8250    0.5228   85.8610   95.5920   85.8610    0.7790    0.6960  151.0000    2.0270   -0.0170    0.4750    2.9120   36.0000   37.0000 
 519.9888    8.5000    8.8210    0.2648   84.7380   94.4440   84.7380    0.7730    0.6910  151.5000    2.0210   -0.0150    0.4690    2.8720   36.0000   37.0000 
 520.1412    8.5000    8.8250    0.5068   81.9170   91.5310   81.9170    0.7710    0.6870  151.5000    2.0130   -0.0140    0.4470    2.8570   36.0000   37.0000 
 520.2936    8.5000    8.8210    0.2488   80.7900   90.3810   80.7900    0.7620    0.6900  151.0000    2.0020   -0.0160    0.4770    2.8630   36.0000   37.0000 
 520.4460    8.5000    8.8250    0.2408   82.5420   93.7180   82.5420    0.7670    0.6810  151.4000    1.9810   -0.0170    0.5010    2.9090   36.0000   37.0000 
 520.5984    8.5000    8.8200    0.4828   84.3190   96.5750   84.3190    0.7530    0.6750  152.0000    1.9740   -0.0140    0.4980    2.9210   36.0000   37.0000 
 520.7508    8.5000    8.8330    0.2248   82.4920   93.6070   82.4920    0.7380    0.6640  152.6000    1.9690   -0.0120    0.4530    2.8430   36.0000   36.0000 
 520.9032    8.5000    8.8430    0.2168   82.8880   93.4670   82.8880    0.7370    0.6580  153.8000    1.9720   -0.0130    0.4490    2.7960   36.0000   36.0000 
 521.0556    8.5000    8.8160    0.2088   76.3720   85.5270   76.3720    0.7290    0.6540  153.7000    1.9800   -0.0080    0.4470    2.7570   36.0000   36.0000 
 521.2080    8.5000    8.8060   -0.0493   76.3710   85.0690   76.3710    0.7310    0.6640  154.0000    1.9910   -0.0040    0.4420    2.7450   36.0000   36.0000 
 521.3604    8.5000    8.8200   -0.0573   81.7320   92.2440   81.7320    0.7430    0.6640  153.1000    1.9920   -0.0070    0.4280    2.8090   36.0000   36.0000 
 521.5128    8.5000    8.8200   -0.3153   81.8890   92.4550   81.8890    0.7410    0.6720  152.9000    1.9990   -0.0070    0.4330    2.8030   36.0000   36.0000 
 521.6652    8.5000    8.8080   -0.0733   80.1200   89.8330   80.1200    0.7510    0.6750  152.4000    2.0030   -0.0100    0.4500    2.7520   36.0000   36.0000 
 521.8176    8.5000    8.8190   -0.3313   80.3480   90.5450   80.3480    0.7420    0.6690  152.2000    2.0070   -0.0110    0.4520    2.7120   36.0000   36.0000 
 521.9700    8.5000    8.8090   -0.3393   80.2910   89.6020   80.2910    0.7350    0.6650  153.0000    2.0050   -0.0160    0.4440    2.7670   36.0000   36.0000 
 522.1224    8.5000    8.8250   -0.3473   77.2070   84.6360   77.2070    0.7370    0.6640  152.9000    2.0040   -0.0170    0.4730    2.8280   36.0000   37.0000 
 522.2748    8.5000    8.8620   -0.1053   77.4300   84.6840   77.4300    0.7240    0.6520  153.1000    1.9970   -0.0180    0.4820    2.9580   36.0000   37.0000 
 522.4272    8.5000    8.7970   -0.1133   77.7820   84.1520   77.7820    0.7200    0.6520  153.6000    1.9930   -0.0170    0.4850    2.9950   36.0000   37.0000 
 522.5796    8.5000    8.7970   -0.1213   78.5660   85.1000   78.5660    0.7230    0.6470  153.6000    1.9940   -0.0150    0.4690    3.0140   36.0000   37.0000 
 522.7320    8.5000    8.7970   -0.1294   78.5640   86.5220   78.5640    0.7100    0.6480  153.7000    2.0000   -0.0170    0.4710    3.0060   36.0000   37.0000 
 522.8844    8.5000    8.7970    0.1126   78.7860   87.3610   78.7860    0.7250    0.6590  152.9000    2.0060   -0.0170    0.4650    2.9770   36.0000   37.0000 
 523.0368    8.5000    8.7970    0.3546   74.0730   79.6260   74.0730    0.7380    0.6660  151.4000    2.0250   -0.0180    0.4390    2.9320   36.0000   37.0000 
 523.1892    8.5000    8.7970    0.0966   74.8770   80.8030   74.8770    0.7490    0.6930  150.0000    2.0370   -0.0170    0.4240    2.9070   36.0000   37.0000 
 523.3416    8.5000    8.7970   -0.1614   79.3090   86.7800   79.3090    0.7730    0.7050  148.8000    2.0440   -0.0200    0.4640    2.9470   36.0000   37.0000 
 523.4940    8.5000    8.7970   -0.4194   79.0670   86.6280   79.0670    0.7570    0.7010  149.2000    2.0480   -0.0180    0.5030    2.9780   36.0000   37.0000 
 523.6464    8.5000    8.8350   -0.6774   76.3530   84.6460   76.3530    0.7420    0.6930  149.1000    2.0640   -0.0240    0.4920    3.7610   36.0000   37.0000 
 523.7988    8.5000    8.9060   -0.4354   67.0930   75.0680   67.0930    0.7930    0.7340  146.8000    2.0930   -0.0270    0.4610    4.5990   36.0000   37.0000 
 523.9512    8.5000    8.8700   -0.1934   73.0440   84.1430   73.0440    0.8490    0.7700  144.1000    2.1730   -0.0190    0.4250    4.0140   36.0000   37.0000 
 524.1036    8.5000    8.8450   -0.2014   72.9650   84.2700   72.9650    0.8240    0.7520  144.1000    2.1830   -0.0170    0.4400    3.5780   36.0000   37.0000 
 524.2560    8.5000    8.8470    0.0406   75.1160   87.4170   75.1160    0.8130    0.7360  146.1000    2.0810   -0.0270    0.4280    2.7950   36.0000   37.0000 
 524.4084    8.5000    8.8370    0.2825   74.3010   85.9110   74.3010    0.7700    0.7050  150.8000    2.0420   -0.0250    0.4050    2.7280   36.0000   36.0000 
 524.5608    8.5000    8.8940    0.2745   74.0350   85.2190   74.0350    0.6950    0.6480  150.0000    2.0430   -0.0110    0.3830    2.7270   36.0000   36.0000 
 524.7132    8.5000    8.8840    0.2665   72.1960   82.7890   72.1960    0.7100    0.6550  152.4000    2.0560   -0.0080    0.3820    2.7680   36.0000   36.0000 
 524.8656    8.5000    8.8700    0.2585   72.8950   83.2550   72.8950    0.7390    0.6820  150.2000    2.0710   -0.0070    0.4120    2.8920   36.0000   37.0000 
 525.0180    8.5000    8.8350    0.2505   72.7870   82.8970   72.7870    0.7910    0.7260  148.3000    2.0720   -0.0060    0.4160    2.9120   36.0000   37.0000 
 525.1704    8.5000    8.8220    0.2425   73.7660   84.0620   73.7660    0.8060    0.7360  148.6000    2.0630   -0.0090    0.4670    2.9050   36.0000   37.0000 
 525.3228    8.5000    8.8270    0.2345   73.5010   83.6370   73.5010    0.7930    0.7280  146.8000    2.0490   -0.0110    0.4770    2.8760   36.0000   37.0000 
 525.4752    8.5000    8.8010   -0.0235   75.9450   87.2010   75.9450    0.7670    0.7040  150.6000    2.0130   -0.0180    0.4680    2.9110   36.0000   37.0000 
 525.6276    8.5000    8.8240   -0.0315   77.6040   89.1430   77.6040    0.7250    0.6710  153.2000    1.9920   -0.0190    0.4450    2.8710   36.0000   36.0000 
 525.7800    8.5000    8.8310    0.2104   76.9300   87.8370   76.9300    0.7100    0.6550  154.5000    1.9900   -0.0200    0.4330    2.8590   36.0000   36.0000 
