~VERSION INFORMATION
 VERS.                 2.0:   CWLS LOG ASCII STANDARD - VERSION 2.0
 WRAP.                  NO:   SINGLE LINE PER DEPTH STEP
 CREA.                 19/01/2018 11:58:16
#CREATED USING DSPetro VERSION 5000.10.1.3 BY H191660 ON 19/01/2018 11:58:16
~WELL INFORMATION
#MNEM.UNIT       DATA                          DESCRIPTION MNEMONIC
#---------      ---------------------------   --------------------------
 STRT    .M         0.1524                    : START DEPTH
 STOP    .M         1199.9976                 : STOP DEPTH
 STEP    .M         0.1524                    : STEP VALUE
 NULL    .      -999.0000                     : NULL VALUE
 DATE    .      19/01/2018                    : LAS file Creation Date
 WELL .      2930_Spider-1               : Well Name
 COMP .      Neftex Exploration Insights : Company
 FLD  .                                  : Field
 UWI  .      ZAUWL_006180                : Unique Well Identifier (UWI)
 LOC  .                                  : Location
 RWS  .      -999                        : Def_Rw
 WST  .      -999                        : Def_Rwt
 SRVC .                                  : Contractor
~CURVE INFORMATION
#MNEM              UNIT       API CODE   Curve Type Comments
#----------  --------------- ----------  ---------- -----------
 DEPTH      .M                         : Depth       
 Bitsize    .in                        : BitSize     
 CAL_INCH   .inch                      :             Caliper Log - A representation of the measured diameter of a borehole along its depth
 SP_Corr    .mv                        : SP          Spontaneous Potential - Records the electrical potential produced by the interaction of formation water, conductive drilling mud, and certain ion-sele
 GR_API     .API                       : GammaRay    gammaRay    Corrected / Computed Gamma Ray - Radiation with the Uranium component removed. Also known as a 'carbonate gamma ray'
 SGR_API    .API                       : gammaRay    Spectral Gamma Ray - Total gamma calibrated to API, measured using a spectoral gamma array tool
 CGR_API    .API                       : gammaRay    Corrected / Computed Gamma Ray - Radiation with the Uranium component removed. Also known as a 'carbonate gamma ray'
 LLD_OHMM   .ohmm                      : deepRes     Laterlog Deep Resistivity - Measurement made several feet into the formation; generally considered a measurement of the undisturbed formation
 LLS_OHMM   .ohmm                      : shalRes     Laterlog Shallow Resistivity - one to two feet into the formation; generally considered to measure the formation
 DT_US_FT   .us/ft                     : sonic       Interval Transit Time: Compressional Wave - Evaluates the time it takes for a compressional wave to traverse a fixed distance
 RHOB_G_CC  .g/cc                      : density     Bulk Density - Measures the density of bulk material, including any void space or other materials contained in the subject volume
 DRHO_G_CC  .g/cc                      : drho        Density Correction - Investigates the correction to the Bulk Density log; used as an indication of hole condition to validate the Bulk Density measure
 NPHI_v_v   .usl                       : neutron     Neutron Porosity - Measured with an neutron logging device calibrated to a given matrix (limestone, sandstone and dolomite) - unscaled
 PEF_B_E    .b/e-                      : PEF         Photoelectric Factor - A log of photoelectric absorption properties. Often expressed in an approximation unit barns/electron (b/e-)
 LITH       .                          : LITH        Lithology Curve
 LITH_v2    .                          : LITH        Lithology Curve
~A  DEPTH  Bitsize   CAL_INCH  SP_Corr    GR_API   SGR_API   CGR_API   LLD_OHMM  LLS_OHMM  DT_US_FT RHOB_G_C  DRHO_G_C   NPHI_v_v  PEF_B_E     LITH    LITH_v2  
# ...
 335.4324   12.2500    3.5960 -999.0000   31.7590   30.1210   31.7590 -999.0000 -999.0000 -999.0000    1.6760   -1.0420    0.5840   58.1330 -999.0000    3.0000 
 335.5848   12.2500    3.5960 -999.0000   32.2780   30.8260   32.2780 -999.0000 -999.0000 -999.0000    1.6740   -1.0440    0.5910   61.5840 -999.0000    3.0000 
 335.7372   12.2500    3.5960 -999.0000   31.9510   30.5990   31.9510 -999.0000 -999.0000 -999.0000    1.6690   -1.0370    0.5940   40.2770 -999.0000    3.0000 
 335.8896   12.2500    3.5960 -999.0000   31.1930   29.5520   31.1930 -999.0000 -999.0000 -999.0000    1.6580   -1.0390    0.5690   39.1510 -999.0000    3.0000 
 336.0420   12.2500    3.5960 -999.0000   32.4490   31.5250   32.4490 -999.0000 -999.0000 -999.0000    1.6740   -1.0310    0.5550   30.6600 -999.0000    3.0000 
 336.1944   12.2500    3.5960 -999.0000   32.5900   31.8920   32.5900 -999.0000 -999.0000 -999.0000    1.6800   -1.0260    0.5670   30.7420 -999.0000    3.0000 
 336.3468   12.2500    3.5960 -999.0000   30.3270   29.4150   30.3270 -999.0000 -999.0000 -999.0000    1.6730   -1.0340    0.6260   27.8440 -999.0000    3.0000 
 336.4992   12.2500    3.5960 -999.0000   30.8940   30.6300   30.8940 -999.0000 -999.0000 -999.0000    1.6640   -1.0380    0.6320   27.4890 -999.0000    3.0000 
 336.6516   12.2500    3.5960 -999.0000   28.9570   28.1980   28.9570 -999.0000 -999.0000 -999.0000    1.6750   -1.0360    0.6070   44.5230 -999.0000    3.0000 
 336.8040   12.2500    3.5960 -999.0000   28.7400   28.0960   28.7400 -999.0000 -999.0000 -999.0000    1.6870   -1.0260    0.5830   47.4760 -999.0000    3.0000 
 336.9564   12.2500    3.5960 -999.0000   28.5040   28.1830   28.5040 -999.0000 -999.0000 -999.0000    1.6950   -1.0150    0.5880   53.7680 -999.0000    3.0000 
 337.1088   12.2500    3.5960 -999.0000   27.3490   26.8140   27.3490 -999.0000 -999.0000 -999.0000    1.6980   -1.0120    0.5730   53.8090 -999.0000    3.0000 
 337.2612   12.2500    3.5960 -999.0000   28.3000   28.7650   28.3000 -999.0000 -999.0000 -999.0000    1.6990   -1.0120    0.5980   57.4140 -999.0000    3.0000 
 337.4136   12.2500    3.5960 -999.0000   28.6020   29.7300   28.6020 -999.0000 -999.0000 -999.0000    1.7050   -1.0060    0.5960   48.4940 -999.0000    3.0000 
 337.5660   12.2500    3.5960 -999.0000   26.8530   27.4350   26.8530 -999.0000 -999.0000 -999.0000    1.6980   -1.0190    0.6030   40.2000 -999.0000    3.0000 
 337.7184   12.2500    3.5960 -999.0000   26.7230   27.2360   26.7230 -999.0000 -999.0000 -999.0000    1.7070   -1.0200    0.6250   36.2830 -999.0000    3.0000 
 337.8708   12.2500    3.5960 -999.0000   25.2830   24.7520   25.2830 -999.0000 -999.0000 -999.0000    1.7340   -1.0130    0.6300   61.7540 -999.0000    3.0000 
 338.0232   12.2500    3.5960 -999.0000   26.6020   26.5410   26.6020 -999.0000 -999.0000 -999.0000    1.7390   -1.0070    0.6480   59.5190 -999.0000    3.0000 
 338.1756   12.2500    3.5960 -999.0000   27.3690   26.9200   27.3690 -999.0000 -999.0000 -999.0000    1.7150   -1.0130    0.6150   50.3410 -999.0000    3.0000 
 338.3280   12.2500    3.5960 -999.0000   29.2740   28.9140   29.2740 -999.0000 -999.0000 -999.0000    1.6890   -1.0210    0.6010   35.4390 -999.0000    3.0000 
 338.4804   12.2500    3.5960 -999.0000   30.2750   30.2180   30.2750 -999.0000 -999.0000 -999.0000    1.6800   -1.0240    0.5820   33.1670 -999.0000    3.0000 
 338.6328   12.2500    3.5960 -999.0000   28.2510   27.3710   28.2510 -999.0000 -999.0000 -999.0000    1.6460   -1.0320    0.5740   40.9520 -999.0000    3.0000 
 338.7852   12.2500    3.5960 -999.0000   28.0830   27.0130   28.0830 -999.0000 -999.0000 -999.0000    1.6250   -1.0430    0.5640   39.4670 -999.0000    3.0000 
 338.9376   12.2500    3.5960 -999.0000   29.2290   28.6000   29.2290 -999.0000 -999.0000 -999.0000    1.6200   -1.0500    0.5680   42.6510 -999.0000    3.0000 
 339.0900   12.2500    3.5960 -999.0000   29.4960   28.9760   29.4960 -999.0000 -999.0000 -999.0000    1.6380   -1.0450    0.5730   43.6390 -999.0000    3.0000 
 339.2424   12.2500    3.5960 -999.0000   26.9100   25.7500   26.9100 -999.0000 -999.0000 -999.0000    1.6700   -1.0430    0.5850   50.8220 -999.0000    3.0000 
 339.3948   12.2500    3.5960 -999.0000   26.2240   25.0890   26.2240 -999.0000 -999.0000 -999.0000    1.6660   -1.0480    0.6010   58.9370 -999.0000    3.0000 
 339.5472   12.2500    3.5960 -999.0000   26.2730   25.8540   26.2730 -999.0000 -999.0000 -999.0000    1.6690   -1.0480    0.5820   44.5280 -999.0000    3.0000 
 339.6996   12.2500    3.5960 -999.0000   25.9200   25.7370   25.9200 -999.0000 -999.0000 -999.0000    1.6650   -1.0490    0.6040   40.7270 -999.0000    3.0000 
 339.8520   12.2500    3.5960 -999.0000   26.0140   26.7520   26.0140 -999.0000 -999.0000 -999.0000    1.6710   -1.0520    0.5680   32.2430 -999.0000    3.0000 
 340.0044   12.2500    3.5960 -999.0000   26.9310   27.9520   26.9310 -999.0000 -999.0000 -999.0000    1.6790   -1.0490    0.5620   32.8780 -999.0000    3.0000 
 340.1568   12.2500    3.5960 -999.0000   26.8850   27.6760   26.8850 -999.0000 -999.0000 -999.0000    1.6820   -1.0490    0.5410   35.6580 -999.0000    3.0000 
 340.3092   12.2500    3.5960 -999.0000   25.0560   24.4950   25.0560 -999.0000 -999.0000 -999.0000    1.6960   -1.0450    0.5490   43.0400 -999.0000    3.0000 
 340.4616   12.2500    3.5960 -999.0000   26.1200   25.8610   26.1200 -999.0000 -999.0000 -999.0000    1.7120   -1.0350    0.5650   57.9790 -999.0000    3.0000 
 340.6140   12.2500    3.5960 -999.0000   26.9700   26.6100   26.9700 -999.0000 -999.0000 -999.0000    1.7060   -1.0360    0.5770   82.3400 -999.0000    3.0000 
 340.7664   12.2500    3.5960 -999.0000   27.1970   25.9490   27.1970 -999.0000 -999.0000 -999.0000    1.6420   -1.0540    0.6280   49.6710 -999.0000    3.0000 
 340.9188   12.2500    3.5960 -999.0000   27.4970   25.9100   27.4970 -999.0000 -999.0000 -999.0000    1.6230   -1.0530    0.6240   36.3220 -999.0000    3.0000 
 341.0712   12.2500    3.5960 -999.0000   28.6450   27.0760   28.6450 -999.0000 -999.0000 -999.0000    1.6600   -1.0350    0.5800   26.7900 -999.0000    3.0000 
 341.2236   12.2500    3.5960 -999.0000   30.0340   28.8800   30.0340 -999.0000 -999.0000 -999.0000    1.6980   -1.0250    0.5470   26.0620 -999.0000    3.0000 
 341.3760   12.2500    3.5960 -999.0000   29.7090   28.2730   29.7090 -999.0000 -999.0000 -999.0000    1.7500   -1.0090    0.5680   40.8400 -999.0000    3.0000 
 341.5284   12.2500    3.5960 -999.0000   30.7810   29.6740   30.7810 -999.0000 -999.0000 -999.0000    1.7340   -1.0150    0.6260   47.0580 -999.0000    3.0000 
 341.6808   12.2500    3.5960 -999.0000   32.5300   32.0170   32.5300 -999.0000 -999.0000 -999.0000    1.7100   -1.0270    0.6300   51.0850 -999.0000    3.0000 
 341.8332   12.2500    3.5960 -999.0000   30.7040   29.6040   30.7040 -999.0000 -999.0000 -999.0000    1.6640   -1.0520    0.5930   34.8120 -999.0000    3.0000 
 341.9856   12.2500    3.5960 -999.0000   30.0060   28.6240   30.0060 -999.0000 -999.0000 -999.0000    1.6560   -1.0580    0.5760   38.6360 -999.0000    3.0000 
 342.1380   12.2500    3.5960 -999.0000   29.3610   27.9980   29.3610 -999.0000 -999.0000 -999.0000    1.6680   -1.0610    0.6130   67.8940 -999.0000    3.0000 
 342.2904   12.2500    3.5960 -999.0000   28.8130   27.5170   28.8130 -999.0000 -999.0000 -999.0000    1.6650   -1.0700    0.6190   91.2880 -999.0000    3.0000 
 342.4428   12.2500    3.5960 -999.0000   29.0660   28.1340   29.0660 -999.0000 -999.0000 -999.0000    1.6520   -1.0750    0.6160   59.9470 -999.0000    3.0000 
 342.5952   12.2500    3.5960 -999.0000   32.5910   32.8730   32.5910 -999.0000 -999.0000 -999.0000    1.6500   -1.0720    0.5920   48.4080 -999.0000    3.0000 
 342.7476   12.2500    3.5960 -999.0000   29.9030   28.8010   29.9030 -999.0000 -999.0000 -999.0000    1.6500   -1.0740    0.6460   40.8370 -999.0000    3.0000 
 342.9000   12.2500    3.5960 -999.0000   31.6650   31.3870   31.6650 -999.0000 -999.0000 -999.0000    1.6480   -1.0760    0.6360   39.0940 -999.0000    3.0000 
