~VERSION INFORMATION
 VERS.                 2.0:   CWLS LOG ASCII STANDARD - VERSION 2.0
 WRAP.                  NO:   SINGLE LINE PER DEPTH STEP
 CREA.                 19/01/2018 11:58:16
#CREATED USING DSPetro VERSION 5000.10.1.3 BY H191660 ON 19/01/2018 11:58:16
~WELL INFORMATION
#MNEM.UNIT       DATA                          DESCRIPTION MNEMONIC
#---------      ---------------------------   --------------------------
 STRT    .M         0.1524                    : START DEPTH
 STOP    .M         1199.9976                 : STOP DEPTH
 STEP    .M         0.1524                    : STEP VALUE
 NULL    .      -999.0000                     : NULL VALUE
 DATE    .      19/01/2018                    : LAS file Creation Date
 WELL .      2930_Spider-1               : Well Name
 COMP .      Neftex Exploration Insights : Company
 FLD  .                                  : Field
 UWI  .      ZAUWL_006180                : Unique Well Identifier (UWI)
 LOC  .                                  : Location
 RWS  .      -999                        : Def_Rw
 WST  .      -999                        : Def_Rwt
 SRVC .                                  : Contractor
~CURVE INFORMATION
#MNEM              UNIT       API CODE   Curve Type Comments
#----------  --------------- ----------  ---------- -----------
 DEPTH      .M                         : Depth       
 Bitsize    .in                        : BitSize     
 CAL_INCH   .inch                      :             Caliper Log - A representation of the measured diameter of a borehole along its depth
 SP_Corr    .mv                        : SP          Spontaneous Potential - Records the electrical potential produced by the interaction of formation water, conductive drilling mud, and certain ion-sele
 GR_API     .API                       : GammaRay    gammaRay    Corrected / Computed Gamma Ray - Radiation with the Uranium component removed. Also known as a 'carbonate gamma ray'
 SGR_API    .API                       : gammaRay    Spectral Gamma Ray - Total gamma calibrated to API, measured using a spectoral gamma array tool
 CGR_API    .API                       : gammaRay    Corrected / Computed Gamma Ray - Radiation with the Uranium component removed. Also known as a 'carbonate gamma ray'
 LLD_OHMM   .ohmm                      : deepRes     Laterlog Deep Resistivity - Measurement made several feet into the formation; generally considered a measurement of the undisturbed formation
 LLS_OHMM   .ohmm                      : shalRes     Laterlog Shallow Resistivity - one to two feet into the formation; generally considered to measure the formation
 DT_US_FT   .us/ft                     : sonic       Interval Transit Time: Compressional Wave - Evaluates the time it takes for a compressional wave to traverse a fixed distance
 RHOB_G_CC  .g/cc                      : density     Bulk Density - Measures the density of bulk material, including any void space or other materials contained in the subject volume
 DRHO_G_CC  .g/cc                      : drho        Density Correction - Investigates the correction to the Bulk Density log; used as an indication of hole condition to validate the Bulk Density measure
 NPHI_v_v   .usl                       : neutron     Neutron Porosity - Measured with an neutron logging device calibrated to a given matrix (limestone, sandstone and dolomite) - unscaled
 PEF_B_E    .b/e-                      : PEF         Photoelectric Factor - A log of photoelectric absorption properties. Often expressed in an approximation unit barns/electron (b/e-)
 LITH       .                          : LITH        Lithology Curve
 LITH_v2    .                          : LITH        Lithology Curve
~A  DEPTH  Bitsize   CAL_INCH  SP_Corr    GR_API   SGR_API   CGR_API   LLD_OHMM  LLS_OHMM  DT_US_FT RHOB_G_C  DRHO_G_C   NPHI_v_v  PEF_B_E     LITH    LITH_v2  
# ...
 274.4724   12.2500    3.5960 -999.0000   28.2670   26.5510   28.2670 -999.0000 -999.0000 -999.0000    1.4250   -1.0950    0.6610   42.2970 -999.0000    3.0000 
 274.6248   12.2500    3.5960 -999.0000   28.3440   26.9800   28.3440 -999.0000 -999.0000 -999.0000    1.4440   -1.0780    0.6740   42.0580 -999.0000    3.0000 
 274.7772   12.2500    3.5960 -999.0000   28.2160   26.9630   28.2160 -999.0000 -999.0000 -999.0000    1.4460   -1.0700    0.6670   39.2710 -999.0000    3.0000 
 274.9296   12.2500    3.5960 -999.0000   26.4370   24.7650   26.4370 -999.0000 -999.0000 -999.0000    1.4260   -1.0730    0.6500   36.0340 -999.0000    3.0000 
 275.0820   12.2500    3.5960 -999.0000   27.7380   26.7830   27.7380 -999.0000 -999.0000 -999.0000    1.4190   -1.0700    0.6240   37.9210 -999.0000    3.0000 
 275.2344   12.2500    3.5960 -999.0000   28.9340   28.8670   28.9340 -999.0000 -999.0000 -999.0000    1.4070   -1.0610    0.6200   39.7890 -999.0000    3.0000 
 275.3868   12.2500    3.5960 -999.0000   27.9490   27.3400   27.9490 -999.0000 -999.0000 -999.0000    1.4000   -1.0600    0.6310   33.8070 -999.0000    3.0000 
 275.5392   12.2500    3.5960 -999.0000   29.5340   29.6000   29.5340 -999.0000 -999.0000 -999.0000    1.4070   -1.0480    0.6250   30.2330 -999.0000    3.0000 
 275.6916   12.2500    3.5960 -999.0000   29.1190   29.0150   29.1190 -999.0000 -999.0000 -999.0000    1.4160   -1.0380    0.6160   29.6040 -999.0000    3.0000 
 275.8440   12.2500    3.5960 -999.0000   28.8760   29.1280   28.8760 -999.0000 -999.0000 -999.0000    1.4230   -1.0390    0.5650   32.8970 -999.0000    3.0000 
 275.9964   12.2500    3.5960 -999.0000   28.7680   29.2950   28.7680 -999.0000 -999.0000 -999.0000    1.4290   -1.0400    0.5410   32.7550 -999.0000    3.0000 
 276.1488   12.2500    3.5960 -999.0000   26.4540   26.2360   26.4540 -999.0000 -999.0000 -999.0000    1.4560   -1.0320    0.5430   35.3840 -999.0000    3.0000 
 276.3012   12.2500    3.5960 -999.0000   26.4940   26.1750   26.4940 -999.0000 -999.0000 -999.0000    1.4590   -1.0360    0.5330   37.5980 -999.0000    3.0000 
 276.4536   12.2500    3.5960 -999.0000   28.1630   27.8630   28.1630 -999.0000 -999.0000 -999.0000    1.4570   -1.0340    0.5840   35.7350 -999.0000    3.0000 
 276.6060   12.2500    3.5960 -999.0000   28.5100   27.9370   28.5100 -999.0000 -999.0000 -999.0000    1.4500   -1.0360    0.5840   33.9510 -999.0000    3.0000 
 276.7584   12.2500    3.5960 -999.0000   28.4740   26.9470   28.4740 -999.0000 -999.0000 -999.0000    1.4380   -1.0390    0.5750   33.2470 -999.0000    3.0000 
 276.9108   12.2500    3.5960 -999.0000   27.0650   24.2720   27.0650 -999.0000 -999.0000 -999.0000    1.4470   -1.0350    0.5590   32.9390 -999.0000    3.0000 
 277.0632   12.2500    3.5960 -999.0000   28.0580   24.9450   28.0580 -999.0000 -999.0000 -999.0000    1.4700   -1.0160    0.5360   40.9770 -999.0000    3.0000 
 277.2156   12.2500    3.5960 -999.0000   28.6940   25.3400   28.6940 -999.0000 -999.0000 -999.0000    1.4780   -1.0140    0.5250   43.3760 -999.0000    3.0000 
 277.3680   12.2500    3.5960 -999.0000   30.6490   27.4500   30.6490 -999.0000 -999.0000 -999.0000    1.4840   -1.0060    0.5460   44.3570 -999.0000    3.0000 
 277.5204   12.2500    3.5960 -999.0000   31.5830   28.7240   31.5830 -999.0000 -999.0000 -999.0000    1.5040   -0.9910    0.5530   44.0090 -999.0000    3.0000 
 277.6728   12.2500    3.5960 -999.0000   30.8460   27.3730   30.8460 -999.0000 -999.0000 -999.0000    1.5310   -0.9760    0.5550   43.6800 -999.0000    3.0000 
 277.8252   12.2500    3.5960 -999.0000   30.3360   26.4680   30.3360 -999.0000 -999.0000 -999.0000    1.5650   -0.9660    0.5410   50.5570 -999.0000    3.0000 
 277.9776   12.2500    3.5960 -999.0000   29.1360   24.7210   29.1360 -999.0000 -999.0000 -999.0000    1.5940   -0.9560    0.5370   49.7760 -999.0000    3.0000 
 278.1300   12.2500    3.5960 -999.0000   28.8340   24.6570   28.8340 -999.0000 -999.0000 -999.0000    1.6680   -0.9640    0.5160   47.7520 -999.0000    3.0000 
 278.2824   12.2500    3.5960 -999.0000   28.8010   24.7710   28.8010 -999.0000 -999.0000 -999.0000    1.7110   -0.9950    0.5010   47.1390 -999.0000    3.0000 
 278.4348   12.2500    3.5960 -999.0000   28.1420   24.2290   28.1420 -999.0000 -999.0000 -999.0000    1.8270   -1.0460    0.5000   48.2940 -999.0000    3.0000 
 278.5872   12.2500    3.5960 -999.0000   28.0770   24.6380   28.0770 -999.0000 -999.0000 -999.0000    1.9030   -1.0450    0.5090   45.6100 -999.0000    3.0000 
 278.7396   12.2500    3.5960 -999.0000   26.2140   23.4520   26.2140 -999.0000 -999.0000 -999.0000    1.7790   -1.0950    0.5350   47.9920 -999.0000    3.0000 
 278.8920   12.2500    3.5960 -999.0000   27.1230   26.1100   27.1230 -999.0000 -999.0000 -999.0000    1.6450   -1.1340    0.5290   45.0050 -999.0000    3.0000 
 279.0444   12.2500    3.5960 -999.0000   26.4000   26.5200   26.4000 -999.0000 -999.0000 -999.0000    1.5540   -1.0810    0.5280   40.5520 -999.0000    3.0000 
 279.1968   12.2500    3.5960 -999.0000   25.0780   25.2700   25.0780 -999.0000 -999.0000 -999.0000    1.5410   -1.0410    0.5350   36.5930 -999.0000    3.0000 
 279.3492   12.2500    3.5960 -999.0000   23.3980   24.1920   23.3980 -999.0000 -999.0000 -999.0000    1.5480   -1.0290    0.5490   35.0630 -999.0000    3.0000 
 279.5016   12.2500    3.5960 -999.0000   24.6190   26.9070   24.6190 -999.0000 -999.0000 -999.0000    1.5490   -1.0280    0.5360   29.2190 -999.0000    3.0000 
 279.6540   12.2500    3.5960 -999.0000   25.4700   28.7980   25.4700 -999.0000 -999.0000 -999.0000    1.5650   -1.0150    0.5070   29.6110 -999.0000    3.0000 
 279.8064   12.2500    3.5960 -999.0000   26.1150   29.8110   26.1150 -999.0000 -999.0000 -999.0000    1.5800   -1.0040    0.5100   26.7610 -999.0000    3.0000 
 279.9588   12.2500    3.5960 -999.0000   23.8910   26.7520   23.8910 -999.0000 -999.0000 -999.0000    1.5710   -1.0030    0.5650   34.9600 -999.0000    3.0000 
 280.1112   12.2500    3.5960 -999.0000   23.0280   25.5770   23.0280 -999.0000 -999.0000 -999.0000    1.5660   -1.0050    0.5920   34.9400 -999.0000    3.0000 
 280.2636   12.2500    3.5960 -999.0000   24.5810   27.6360   24.5810 -999.0000 -999.0000 -999.0000    1.5290   -1.0180    0.5790   45.1850 -999.0000    3.0000 
 280.4160   12.2500    3.5960 -999.0000   24.7650   27.9740   24.7650 -999.0000 -999.0000 -999.0000    1.5180   -1.0240    0.5700   44.4060 -999.0000    3.0000 
 280.5684   12.2500    3.5960 -999.0000   23.0150   25.3080   23.0150 -999.0000 -999.0000 -999.0000    1.4880   -1.0450    0.5530   41.0350 -999.0000    3.0000 
 280.7208   12.2500    3.5960 -999.0000   23.0320   24.9320   23.0320 -999.0000 -999.0000 -999.0000    1.4770   -1.0540    0.6260   35.2110 -999.0000    3.0000 
 280.8732   12.2500    3.5960 -999.0000   25.1270   27.1290   25.1270 -999.0000 -999.0000 -999.0000    1.4730   -1.0500    0.6670   39.3690 -999.0000    3.0000 
 281.0256   12.2500    3.5960 -999.0000   25.2160   26.3960   25.2160 -999.0000 -999.0000 -999.0000    1.4640   -1.0480    0.6460   52.7780 -999.0000    3.0000 
 281.1780   12.2500    3.5960 -999.0000   25.7450   26.7020   25.7450 -999.0000 -999.0000 -999.0000    1.4510   -1.0540    0.6040   57.4300 -999.0000    3.0000 
 281.3304   12.2500    3.5960 -999.0000   26.5870   26.8570   26.5870 -999.0000 -999.0000 -999.0000    1.4400   -1.0520    0.6110   40.5160 -999.0000    3.0000 
 281.4828   12.2500    3.5960 -999.0000   27.1660   27.3830   27.1660 -999.0000 -999.0000 -999.0000    1.4440   -1.0440    0.6240   31.2660 -999.0000    3.0000 
 281.6352   12.2500    3.5960 -999.0000   27.6160   27.9010   27.6160 -999.0000 -999.0000 -999.0000    1.4440   -1.0430    0.5790   29.7540 -999.0000    3.0000 
 281.7876   12.2500    3.5960 -999.0000   27.5640   27.7030   27.5640 -999.0000 -999.0000 -999.0000    1.4400   -1.0440    0.5650   32.8310 -999.0000    3.0000 
 281.9400   12.2500    3.5960 -999.0000   26.2860   25.3670   26.2860 -999.0000 -999.0000 -999.0000    1.4490   -1.0270    0.5350   41.4220 -999.0000    3.0000 
