~VERSION INFORMATION
 VERS.                 2.0:   CWLS LOG ASCII STANDARD - VERSION 2.0
 WRAP.                  NO:   SINGLE LINE PER DEPTH STEP
 CREA.                 19/01/2018 11:58:16
#CREATED USING DSPetro VERSION 5000.10.1.3 BY H191660 ON 19/01/2018 11:58:16
~WELL INFORMATION
#MNEM.UNIT       DATA                          DESCRIPTION MNEMONIC
#---------      ---------------------------   --------------------------
 STRT    .M         0.1524                    : START DEPTH
 STOP    .M         1199.9976                 : STOP DEPTH
 STEP    .M         0.1524                    : STEP VALUE
 NULL    .      -999.0000                     : NULL VALUE
 DATE    .      19/01/2018                    : LAS file Creation Date
 WELL .      2930_Spider-1               : Well Name
 COMP .      Neftex Exploration Insights : Company
 FLD  .                                  : Field
 UWI  .      ZAUWL_006180                : Unique Well Identifier (UWI)
 LOC  .                                  : Location
 RWS  .      -999                        : Def_Rw
 WST  .      -999                        : Def_Rwt
 SRVC .                                  : Contractor
~CURVE INFORMATION
#MNEM              UNIT       API CODE   Curve Type Comments
#----------  --------------- ----------  ---------- -----------
 DEPTH      .M                         : Depth       
 Bitsize    .in                        : BitSize     
 CAL_INCH   .inch                      :             Caliper Log - A representation of the measured diameter of a borehole along its depth
 SP_Corr    .mv                        : SP          Spontaneous Potential - Records the electrical potential produced by the interaction of formation water, conductive drilling mud, and certain ion-sele
 GR_API     .API                       : GammaRay    gammaRay    Corrected / Computed Gamma Ray - Radiation with the Uranium component removed. Also known as a 'carbonate gamma ray'
 SGR_API    .API                       : gammaRay    Spectral Gamma Ray - Total gamma calibrated to API, measured using a spectoral gamma array tool
 CGR_API    .API                       : gammaRay    Corrected / Computed Gamma Ray - Radiation with the Uranium component removed. Also known as a 'carbonate gamma ray'
 LLD_OHMM   .ohmm                      : deepRes     Laterlog Deep Resistivity - Measurement made several feet into the formation; generally considered a measurement of the undisturbed formation
 LLS_OHMM   .ohmm                      : shalRes     Laterlog Shallow Resistivity - one to two feet into the formation; generally considered to measure the formation
 DT_US_FT   .us/ft                     : sonic       Interval Transit Time: Compressional Wave - Evaluates the time it takes for a compressional wave to traverse a fixed distance
 RHOB_G_CC  .g/cc                      : density     Bulk Density - Measures the density of bulk material, including any void space or other materials contained in the subject volume
 DRHO_G_CC  .g/cc                      : drho        Density Correction - Investigates the correction to the Bulk Density log; used as an indication of hole condition to validate the Bulk Density measure
 NPHI_v_v   .usl                       : neutron     Neutron Porosity - Measured with an neutron logging device calibrated to a given matrix (limestone, sandstone and dolomite) - unscaled
 PEF_B_E    .b/e-                      : PEF         Photoelectric Factor - A log of photoelectric absorption properties. Often expressed in an approximation unit barns/electron (b/e-)
 LITH       .                          : LITH        Lithology Curve
 LITH_v2    .                          : LITH        Lithology Curve
~A  DEPTH  Bitsize   CAL_INCH  SP_Corr    GR_API   SGR_API   CGR_API   LLD_OHMM  LLS_OHMM  DT_US_FT RHOB_G_C  DRHO_G_C   NPHI_v_v  PEF_B_E     LITH    LITH_v2  
# ...
 701.1924    8.5000    8.8180    1.2186   74.1820   81.1320   74.1820    1.1390    1.1020  135.3000    2.1930   -0.0040    0.3690    3.1620   36.0000   36.0000 
 701.3448    8.5000    8.9170    0.9599   76.2840   83.6180   76.2840    1.1530    1.1520  134.7000    2.2030   -0.0060    0.3770    3.2680   36.0000   36.0000 
 701.4972    8.5000    8.9220    0.9512   76.2220   83.1450   76.2220    1.1470    1.1350  134.7000    2.2040   -0.0040    0.3780    3.3090   36.0000   36.0000 
 701.6496    8.5000    8.9370    1.1925   76.2380   82.5190   76.2380    1.1400    1.1120  133.3000    2.1870   -0.0100    0.3700    3.2150   36.0000   36.0000 
 701.8020    8.5000    8.9530    1.1838   76.9510   83.0960   76.9510    1.1170    1.0900  135.3000    2.1740   -0.0120    0.3710    3.1690   36.0000   36.0000 
 701.9544    8.5000    8.9170    1.4251   77.5850   82.9880   77.5850    1.0880    1.0890  137.8000    2.1740   -0.0050    0.3790    3.2090   36.0000   36.0000 
 702.1068    8.5000    8.9070    1.4164   77.8920   82.9530   77.8920    1.0880    1.0660  137.7000    2.1760   -0.0020    0.3730    3.2310   36.0000   36.0000 
 702.2592    8.5000    8.8650    1.4077   79.7420   85.0400   79.7420    1.0740    1.0610  136.5000    2.1750   -0.0010    0.3630    3.3690   36.0000   36.0000 
 702.4116    8.5000    8.8390    1.1490   78.7900   83.2990   78.7900    1.0770    1.0550  138.0000    2.1830    0.0010    0.3590    3.3250   36.0000   36.0000 
 702.5640    8.5000    8.8580    0.8903   79.5860   83.7900   79.5860    1.0690    1.0670  138.4000    2.1710    0.0080    0.3880    3.3270   36.0000   36.0000 
 702.7164    8.5000    8.8120    1.1316   77.9180   81.1270   77.9180    1.0700    1.0490  138.6000    2.1670    0.0050    0.3830    3.2410   36.0000   36.0000 
 702.8688    8.5000    8.8800    1.1229   79.8030   84.3790   79.8030    1.0890    1.0550  138.0000    2.1640    0.0030    0.3840    3.2120   36.0000   36.0000 
 703.0212    8.5000    8.8950    1.3642   79.5730   83.5910   79.5730    1.0860    1.0600  138.0000    2.1740    0.0020    0.3700    3.1450   36.0000   36.0000 
 703.1736    8.5000    8.9390    1.6055   79.9740   83.0300   79.9740    1.1020    1.0820  135.3000    2.1960    0.0020    0.3670    3.1830   36.0000   36.0000 
 703.3260    8.5000    8.9380    1.5967   82.4950   86.1700   82.4950    1.1170    1.0830  135.3000    2.2040   -0.0010    0.3720    3.2360   36.0000   36.0000 
 703.4784    8.5000    8.9300    1.5880   84.4830   89.1340   84.4830    1.0980    1.1010  136.0000    2.2030    0.0010    0.3710    3.2550   36.0000   36.0000 
 703.6308    8.5000    8.9300    1.5793   81.3070   84.2240   81.3070    1.1000    1.0620  136.7000    2.1850    0.0020    0.3600    3.1730   36.0000   36.0000 
 703.7832    8.5000    8.9270    1.3206   79.4960   81.4890   79.4960    1.0980    1.0950  137.1000    2.1750    0.0010    0.3530    3.1730   36.0000   36.0000 
 703.9356    8.5000    8.9000    1.5619   82.1750   85.4110   82.1750    1.0870    1.0840  138.0000    2.1780    0.0040    0.3450    3.3350   36.0000   36.0000 
 704.0880    8.5000    8.8960    1.3032   82.5710   86.1180   82.5710    1.0810    1.0510  137.8000    2.1810    0.0070    0.3530    3.4710   36.0000   36.0000 
 704.2404    8.5000    8.9530    1.0445   81.3360   84.8110   81.3360    1.0900    1.0670  137.3000    2.1710    0.0120    0.3700    3.6470   36.0000   36.0000 
 704.3928    8.5000    8.9520    1.7858   81.4180   84.9880   81.4180    1.0770    1.0680  137.9000    2.1600    0.0130    0.3830    3.6660   36.0000   36.0000 
 704.5452    8.5000    8.9410    1.5271   81.7680   86.1960   81.7680    1.0740    1.0520  136.9000    2.1590    0.0230    0.3730    3.6920   36.0000   36.0000 
 704.6976    8.5000    8.9610    2.2684   81.6850   86.6280   81.6850    1.0740    1.0540  136.7000    2.1690    0.0330    0.3730    3.7290   36.0000   36.0000 
 704.8500    8.5000    8.9890    2.0097   77.9060   81.3810   77.9060    1.0780    1.0700  136.5000    2.1730    0.0290    0.3960    3.7270   36.0000   23.0000 
 705.0024    8.5000    9.0150    2.0010   79.2840   83.7400   79.2840    1.1050    1.0840  135.3000    2.1650    0.0150    0.4040    3.7070   36.0000   23.0000 
 705.1548    8.5000    8.8720    1.7423   79.6060   84.4570   79.6060    1.1160    1.1030  135.3000    2.1680    0.0120    0.3750    3.5710   36.0000   36.0000 
 705.3072    8.5000    8.8310    1.4836   78.8320   83.7890   78.8320    1.1210    1.1050  135.6000    2.1680    0.0110    0.3630    3.5470   36.0000   36.0000 
 705.4596    8.5000    8.8680    1.4749   78.3300   83.8560   78.3300    1.1430    1.1380  135.4000    2.1610   -0.0010    0.3470    3.4150   36.0000   36.0000 
 705.6120    8.5000    8.9090    1.7162   78.6040   84.5790   78.6040    1.1310    1.1230  135.0000    2.1580   -0.0020    0.3490    3.3690   36.0000   36.0000 
 705.7644    8.5000    8.9120    1.4575   76.3760   82.7780   76.3760    1.0900    1.0940  135.9000    2.1650    0.0060    0.3630    3.3700   36.0000   36.0000 
 705.9168    8.5000    8.9270    1.6988   76.0780   82.9150   76.0780    1.0740    1.0580  136.9000    2.1630    0.0090    0.3710    3.3730   36.0000   36.0000 
 706.0692    8.5000    8.9330    1.4401   77.3200   85.3060   77.3200    1.0370    1.0680  138.4000    2.1590    0.0080    0.3920    3.3760   36.0000   36.0000 
 706.2216    8.5000    8.9430    1.9314   76.0730   83.8280   76.0730    1.0320    1.0370  137.8000    2.1700    0.0090    0.3960    3.3350   36.0000   36.0000 
 706.3740    8.5000    8.9690    1.9227   72.7350   79.0030   72.7350    1.0850    1.1020  133.3000    2.2110    0.0020    0.3780    4.0100   23.0000   23.0000 
 706.5264    8.5000    8.9700    2.1639   71.0870   76.8070   71.0870    1.3090    1.3250  119.0000    2.3490   -0.0030    0.3450    5.3850   23.0000   23.0000 
 706.6788    8.5000    8.9280    2.1552   72.2040   78.5160   72.2040    1.3680    1.3810  130.0000    2.4150    0.0030    0.3330    5.2700   23.0000   23.0000 
 706.8312    8.5000    8.9460    1.8965   73.9250   82.0830   73.9250    1.3450    1.3560  130.5000    2.3880    0.0040    0.3380    4.2250   23.0000   23.0000 
 706.9836    8.5000    8.9840    1.6378   74.6540   83.6290   74.6540    1.3180    1.3200  129.6000    2.2890   -0.0030    0.3500    3.7850   23.0000   23.0000 
 707.1360    8.5000    8.9220    1.3791   75.9720   86.4050   75.9720    1.1160    1.1050  129.7000    2.1750    0.0030    0.3640    3.6170   36.0000   36.0000 
 707.2884    8.5000    8.8370    1.6204   75.3920   85.7080   75.3920    1.0220    1.0310  138.0000    2.1470    0.0130    0.3730    3.5670   36.0000   36.0000 
 707.4408    8.5000    8.8300    1.3617   76.5150   87.9190   76.5150    1.0260    1.0410  138.2000    2.1530    0.0130    0.3910    3.5330   36.0000   36.0000 
 707.5932    8.5000    8.7980    1.6030   75.6320   86.8160   75.6320    1.0140    1.0460  137.7000    2.1590    0.0120    0.4140    3.5070   36.0000   36.0000 
 707.7456    8.5000    8.8170    1.8443   73.6900   85.4200   73.6900    1.0090    1.0570  116.8000    2.1980    0.0080    0.4120    3.8370   23.0000   23.0000 
 707.8980    8.5000    8.7970    1.8356   74.2460   86.5250   74.2460    1.2820    1.2990  106.3000    2.2400   -0.0010    0.3750    4.2000   23.0000   23.0000 
 708.0504    8.5000    8.7970    1.8269   49.3800   60.8490   49.3800    1.8680    1.8210   99.0000    2.4930   -0.0070    0.2790    7.5300   23.0000   23.0000 
 708.2028    8.5000    8.7970    2.0682   44.1950   54.6160   44.1950    2.0030    1.9670   99.7000    2.6990    0.0080    0.2610    6.3610   23.0000   23.0000 
 708.3552    8.5000    8.8260    1.8095   68.9310   80.0920   68.9310    1.9660    1.9340  126.5000    2.6520    0.0030    0.3330    4.4910   23.0000   23.0000 
 708.5076    8.5000    8.8210    2.0508   75.3340   87.8610   75.3340    1.5260    1.6030  127.3000    2.4370   -0.0210    0.3630    3.9400   23.0000   23.0000 
 708.6600    8.5000    8.8220    2.0421   74.9110   87.2790   74.9110    1.1600    1.1730  134.7000    2.2090   -0.0210    0.3980    3.4680   36.0000   23.0000 
