~VERSION INFORMATION
 VERS.                 2.0:   CWLS LOG ASCII STANDARD - VERSION 2.0
 WRAP.                  NO:   SINGLE LINE PER DEPTH STEP
 CREA.                 19/01/2018 11:58:16
#CREATED USING DSPetro VERSION 5000.10.1.3 BY H191660 ON 19/01/2018 11:58:16
~WELL INFORMATION
#MNEM.UNIT       DATA                          DESCRIPTION MNEMONIC
#---------      ---------------------------   --------------------------
 STRT    .M         0.1524                    : START DEPTH
 STOP    .M         1199.9976                 : STOP DEPTH
 STEP    .M         0.1524                    : STEP VALUE
 NULL    .      -999.0000                     : NULL VALUE
 DATE    .      19/01/2018                    : LAS file Creation Date
 WELL .      2930_Spider-1               : Well Name
 COMP .      Neftex Exploration Insights : Company
 FLD  .                                  : Field
 UWI  .      ZAUWL_006180                : Unique Well Identifier (UWI)
 LOC  .                                  : Location
 RWS  .      -999                        : Def_Rw
 WST  .      -999                        : Def_Rwt
 SRVC .                                  : Contractor
~CURVE INFORMATION
#MNEM              UNIT       API CODE   Curve Type Comments
#----------  --------------- ----------  ---------- -----------
 DEPTH      .M                         : Depth       
 Bitsize    .in                        : BitSize     
 CAL_INCH   .inch                      :             Caliper Log - A representation of the measured diameter of a borehole along its depth
 SP_Corr    .mv                        : SP          Spontaneous Potential - Records the electrical potential produced by the interaction of formation water, conductive drilling mud, and certain ion-sele
 GR_API     .API                       : GammaRay    gammaRay    Corrected / Computed Gamma Ray - Radiation with the Uranium component removed. Also known as a 'carbonate gamma ray'
 SGR_API    .API                       : gammaRay    Spectral Gamma Ray - Total gamma calibrated to API, measured using a spectoral gamma array tool
 CGR_API    .API                       : gammaRay    Corrected / Computed Gamma Ray - Radiation with the Uranium component removed. Also known as a 'carbonate gamma ray'
 LLD_OHMM   .ohmm                      : deepRes     Laterlog Deep Resistivity - Measurement made several feet into the formation; generally considered a measurement of the undisturbed formation
 LLS_OHMM   .ohmm                      : shalRes     Laterlog Shallow Resistivity - one to two feet into the formation; generally considered to measure the formation
 DT_US_FT   .us/ft                     : sonic       Interval Transit Time: Compressional Wave - Evaluates the time it takes for a compressional wave to traverse a fixed distance
 RHOB_G_CC  .g/cc                      : density     Bulk Density - Measures the density of bulk material, including any void space or other materials contained in the subject volume
 DRHO_G_CC  .g/cc                      : drho        Density Correction - Investigates the correction to the Bulk Density log; used as an indication of hole condition to validate the Bulk Density measure
 NPHI_v_v   .usl                       : neutron     Neutron Porosity - Measured with an neutron logging device calibrated to a given matrix (limestone, sandstone and dolomite) - unscaled
 PEF_B_E    .b/e-                      : PEF         Photoelectric Factor - A log of photoelectric absorption properties. Often expressed in an approximation unit barns/electron (b/e-)
 LITH       .                          : LITH        Lithology Curve
 LITH_v2    .                          : LITH        Lithology Curve
~A  DEPTH  Bitsize   CAL_INCH  SP_Corr    GR_API   SGR_API   CGR_API   LLD_OHMM  LLS_OHMM  DT_US_FT RHOB_G_C  DRHO_G_C   NPHI_v_v  PEF_B_E     LITH    LITH_v2  
# ...
  91.5924   12.2500    3.5960 -999.0000   52.8110   55.0290   52.8110 -999.0000 -999.0000 -999.0000    0.9360   -1.1770    0.6550   31.2310 -999.0000    3.0000 
  91.7448   12.2500    3.5960 -999.0000   49.1420   48.3090   49.1420 -999.0000 -999.0000 -999.0000    0.9560   -1.1860    0.6370   30.3810 -999.0000    3.0000 
  91.8972   12.2500    3.5960 -999.0000   48.0480   46.4500   48.0480 -999.0000 -999.0000 -999.0000    0.9790   -1.2100    0.6400   31.1840 -999.0000    3.0000 
  92.0496   12.2500    3.5960 -999.0000   46.8560   44.8580   46.8560 -999.0000 -999.0000 -999.0000    1.0810   -1.2580    0.6270   39.3240 -999.0000    3.0000 
  92.2020   12.2500    3.5960 -999.0000   46.6920   45.0550   46.6920 -999.0000 -999.0000 -999.0000    1.1580   -1.2600    0.6200   44.2450 -999.0000    3.0000 
  92.3544   12.2500    3.5960 -999.0000   48.6030   47.7650   48.6030 -999.0000 -999.0000 -999.0000    1.1340   -1.2700    0.6130   40.2760 -999.0000    3.0000 
  92.5068   12.2500    3.5960 -999.0000   51.7050   52.4200   51.7050 -999.0000 -999.0000 -999.0000    1.0050   -1.3030    0.6200   36.7700 -999.0000    3.0000 
  92.6592   12.2500    3.5960 -999.0000   49.2200   48.8840   49.2200 -999.0000 -999.0000 -999.0000    0.8860   -1.2750    0.6740   33.5170 -999.0000    3.0000 
  92.8116   12.2500    3.5960 -999.0000   48.8920   48.3750   48.8920 -999.0000 -999.0000 -999.0000    0.8560   -1.2450    0.6650   35.0140 -999.0000    3.0000 
  92.9640   12.2500    3.5960 -999.0000   48.6730   47.9580   48.6730 -999.0000 -999.0000 -999.0000    0.8570   -1.2240    0.6680   41.3760 -999.0000    3.0000 
  93.1164   12.2500    3.5960 -999.0000   49.0830   48.3840   49.0830 -999.0000 -999.0000 -999.0000    0.8490   -1.2260    0.6400   43.5500 -999.0000    3.0000 
  93.2688   12.2500    3.5960 -999.0000   49.8390   49.2410   49.8390 -999.0000 -999.0000 -999.0000    0.8300   -1.2350    0.6580   40.0480 -999.0000    3.0000 
  93.4212   12.2500    3.5960 -999.0000   50.5400   50.3530   50.5400 -999.0000 -999.0000 -999.0000    0.8330   -1.2300    0.6500   35.4960 -999.0000    3.0000 
  93.5736   12.2500    3.5960 -999.0000   50.8520   51.0970   50.8520 -999.0000 -999.0000 -999.0000    0.8330   -1.2360    0.6880   35.3830 -999.0000    3.0000 
  93.7260   12.2500    3.5960 -999.0000   52.3080   53.2620   52.3080 -999.0000 -999.0000 -999.0000    0.8420   -1.2310    0.6920   34.6940 -999.0000    3.0000 
  93.8784   12.2500    3.5960 -999.0000   51.6640   52.3490   51.6640 -999.0000 -999.0000 -999.0000    0.8480   -1.2270    0.6830   34.8190 -999.0000    3.0000 
  94.0308   12.2500    3.5960 -999.0000   53.3270   54.6900   53.3270 -999.0000 -999.0000 -999.0000    0.8410   -1.2350    0.6700   32.4240 -999.0000    3.0000 
  94.1832   12.2500    3.5960 -999.0000   54.5310   56.4000   54.5310 -999.0000 -999.0000 -999.0000    0.8360   -1.2420    0.6690   31.5450 -999.0000    3.0000 
  94.3356   12.2500    3.5960 -999.0000   51.7770   52.2370   51.7770 -999.0000 -999.0000 -999.0000    0.8330   -1.2510    0.6760   34.0650 -999.0000    3.0000 
  94.4880   12.2500    3.5960 -999.0000   50.6580   50.3890   50.6580 -999.0000 -999.0000 -999.0000    0.8250   -1.2630    0.6810   32.9150 -999.0000    3.0000 
  94.6404   12.2500    3.5960 -999.0000   51.3510   51.1480   51.3510 -999.0000 -999.0000 -999.0000    0.8120   -1.2750    0.6950   37.4800 -999.0000    3.0000 
  94.7928   12.2500    3.5960 -999.0000   52.3520   52.5350   52.3520 -999.0000 -999.0000 -999.0000    0.8100   -1.2780    0.6710   37.7000 -999.0000    3.0000 
  94.9452   12.2500    3.5960 -999.0000   51.5060   51.7660   51.5060 -999.0000 -999.0000 -999.0000    0.7970   -1.2890    0.6810   39.6860 -999.0000    3.0000 
  95.0976   12.2500    3.5960 -999.0000   50.2830   50.5430   50.2830 -999.0000 -999.0000 -999.0000    0.7960   -1.2910    0.6580   39.3280 -999.0000    3.0000 
  95.2500   12.2500    3.5960 -999.0000   52.3680   53.7810   52.3680 -999.0000 -999.0000 -999.0000    0.8100   -1.2770    0.7140   35.1750 -999.0000    3.0000 
  95.4024   12.2500    3.5960 -999.0000   52.6620   54.1260   52.6620 -999.0000 -999.0000 -999.0000    0.8160   -1.2710    0.7180   36.7130 -999.0000    3.0000 
  95.5548   12.2500    3.5960 -999.0000   51.3210   51.9600   51.3210 -999.0000 -999.0000 -999.0000    0.8370   -1.2520    0.7090   31.8330 -999.0000    3.0000 
  95.7072   12.2500    3.5960 -999.0000   52.3410   52.9390   52.3410 -999.0000 -999.0000 -999.0000    0.8430   -1.2440    0.7390   30.0790 -999.0000    3.0000 
  95.8596   12.2500    3.5960 -999.0000   52.0380   52.3840   52.0380 -999.0000 -999.0000 -999.0000    0.8840   -1.2230    0.6660   30.3370 -999.0000    3.0000 
  96.0120   12.2500    3.5960 -999.0000   55.0610   56.5430   55.0610 -999.0000 -999.0000 -999.0000    0.9040   -1.2130    0.6690   33.1050 -999.0000    3.0000 
  96.1644   12.2500    3.5960 -999.0000   56.0450   58.1700   56.0450 -999.0000 -999.0000 -999.0000    0.9220   -1.2080    0.5890   40.4680 -999.0000    3.0000 
  96.3168   12.2500    3.5960 -999.0000   55.1890   57.3960   55.1890 -999.0000 -999.0000 -999.0000    0.9290   -1.2020    0.5880   37.0440 -999.0000    3.0000 
  96.4692   12.2500    3.5960 -999.0000   54.9160   57.2430   54.9160 -999.0000 -999.0000 -999.0000    0.9460   -1.1850    0.6050   38.0710 -999.0000    3.0000 
  96.6216   12.2500    3.5960 -999.0000   54.3790   56.4520   54.3790 -999.0000 -999.0000 -999.0000    0.9540   -1.1770    0.6250   36.8820 -999.0000    3.0000 
  96.7740   12.2500    3.5960 -999.0000   53.8850   55.7770   53.8850 -999.0000 -999.0000 -999.0000    0.9530   -1.1700    0.6130   44.2760 -999.0000    3.0000 
  96.9264   12.2500    3.5960 -999.0000   53.1370   55.3670   53.1370 -999.0000 -999.0000 -999.0000    0.9430   -1.1730    0.6590   41.5700 -999.0000    3.0000 
  97.0788   12.2500    3.5960 -999.0000   53.9560   56.8750   53.9560 -999.0000 -999.0000 -999.0000    0.9370   -1.1770    0.6910   42.9380 -999.0000    3.0000 
  97.2312   12.2500    3.5960 -999.0000   53.9920   57.8250   53.9920 -999.0000 -999.0000 -999.0000    0.9330   -1.1840    0.7370   44.4040 -999.0000    3.0000 
  97.3836   12.2500    3.5960 -999.0000   53.9350   58.1710   53.9350 -999.0000 -999.0000 -999.0000    0.9250   -1.1910    0.7110   40.6820 -999.0000    3.0000 
  97.5360   12.2500    3.5960 -999.0000   51.1120   54.1740   51.1120 -999.0000 -999.0000 -999.0000    0.9160   -1.1990    0.6890   33.6980 -999.0000    3.0000 
  97.6884   12.2500    3.5960 -999.0000   50.1510   52.8710   50.1510 -999.0000 -999.0000 -999.0000    0.9180   -1.1960    0.6930   30.5080 -999.0000    3.0000 
  97.8408   12.2500    3.5960 -999.0000   49.1180   51.6080   49.1180 -999.0000 -999.0000 -999.0000    0.9340   -1.1810    0.6960   31.4100 -999.0000    3.0000 
  97.9932   12.2500    3.5960 -999.0000   49.2500   51.5130   49.2500 -999.0000 -999.0000 -999.0000    0.9450   -1.1710    0.6910   33.9490 -999.0000    3.0000 
  98.1456   12.2500    3.5960 -999.0000   50.2400   52.7330   50.2400 -999.0000 -999.0000 -999.0000    0.9580   -1.1640    0.6610   35.5310 -999.0000    3.0000 
  98.2980   12.2500    3.5960 -999.0000   50.9720   53.5920   50.9720 -999.0000 -999.0000 -999.0000    0.9640   -1.1550    0.6600   35.4400 -999.0000    3.0000 
  98.4504   12.2500    3.5960 -999.0000   48.2480   49.3660   48.2480 -999.0000 -999.0000 -999.0000    0.9680   -1.1520    0.6240   27.0570 -999.0000    3.0000 
  98.6028   12.2500    3.5960 -999.0000   49.9090   51.5690   49.9090 -999.0000 -999.0000 -999.0000    0.9660   -1.1540    0.6710   24.0220 -999.0000    3.0000 
  98.7552   12.2500    3.5960 -999.0000   48.4830   49.3200   48.4830 -999.0000 -999.0000 -999.0000    0.9920   -1.1520    0.6820   24.6850 -999.0000    3.0000 
  98.9076   12.2500    3.5960 -999.0000   47.9180   48.9980   47.9180 -999.0000 -999.0000 -999.0000    1.0070   -1.1470    0.6900   26.8070 -999.0000    3.0000 
  99.0600   12.2500    3.5960 -999.0000   50.0250   51.9250   50.0250 -999.0000 -999.0000 -999.0000    1.0040   -1.1540    0.6340   29.0920 -999.0000    3.0000 
