~VERSION INFORMATION
 VERS.                 2.0:   CWLS LOG ASCII STANDARD - VERSION 2.0
 WRAP.                  NO:   SINGLE LINE PER DEPTH STEP
 CREA.                 19/01/2018 11:58:16
#CREATED USING DSPetro VERSION 5000.10.1.3 BY H191660 ON 19/01/2018 11:58:16
~WELL INFORMATION
#MNEM.UNIT       DATA                          DESCRIPTION MNEMONIC
#---------      ---------------------------   --------------------------
 STRT    .M         0.1524                    : START DEPTH
 STOP    .M         1199.9976                 : STOP DEPTH
 STEP    .M         0.1524                    : STEP VALUE
 NULL    .      -999.0000                     : NULL VALUE
 DATE    .      19/01/2018                    : LAS file Creation Date
 WELL .      2930_Spider-1               : Well Name
 COMP .      Neftex Exploration Insights : Company
 FLD  .                                  : Field
 UWI  .      ZAUWL_006180                : Unique Well Identifier (UWI)
 LOC  .                                  : Location
 RWS  .      -999                        : Def_Rw
 WST  .      -999                        : Def_Rwt
 SRVC .                                  : Contractor
~CURVE INFORMATION
#MNEM              UNIT       API CODE   Curve Type Comments
#----------  --------------- ----------  ---------- -----------
 DEPTH      .M                         : Depth       
 Bitsize    .in                        : BitSize     
 CAL_INCH   .inch                      :             Caliper Log - A representation of the measured diameter of a borehole along its depth
 SP_Corr    .mv                        : SP          Spontaneous Potential - Records the electrical potential produced by the interaction of formation water, conductive drilling mud, and certain ion-sele
 GR_API     .API                       : GammaRay    gammaRay    Corrected / Computed Gamma Ray - Radiation with the Uranium component removed. Also known as a 'carbonate gamma ray'
 SGR_API    .API                       : gammaRay    Spectral Gamma Ray - Total gamma calibrated to API, measured using a spectoral gamma array tool
 CGR_API    .API                       : gammaRay    Corrected / Computed Gamma Ray - Radiation with the Uranium component removed. Also known as a 'carbonate gamma ray'
 LLD_OHMM   .ohmm                      : deepRes     Laterlog Deep Resistivity - Measurement made several feet into the formation; generally considered a measurement of the undisturbed formation
 LLS_OHMM   .ohmm                      : shalRes     Laterlog Shallow Resistivity - one to two feet into the formation; generally considered to measure the formation
 DT_US_FT   .us/ft                     : sonic       Interval Transit Time: Compressional Wave - Evaluates the time it takes for a compressional wave to traverse a fixed distance
 RHOB_G_CC  .g/cc                      : density     Bulk Density - Measures the density of bulk material, including any void space or other materials contained in the subject volume
 DRHO_G_CC  .g/cc                      : drho        Density Correction - Investigates the correction to the Bulk Density log; used as an indication of hole condition to validate the Bulk Density measure
 NPHI_v_v   .usl                       : neutron     Neutron Porosity - Measured with an neutron logging device calibrated to a given matrix (limestone, sandstone and dolomite) - unscaled
 PEF_B_E    .b/e-                      : PEF         Photoelectric Factor - A log of photoelectric absorption properties. Often expressed in an approximation unit barns/electron (b/e-)
 LITH       .                          : LITH        Lithology Curve
 LITH_v2    .                          : LITH        Lithology Curve
~A  DEPTH  Bitsize   CAL_INCH  SP_Corr    GR_API   SGR_API   CGR_API   LLD_OHMM  LLS_OHMM  DT_US_FT RHOB_G_C  DRHO_G_C   NPHI_v_v  PEF_B_E     LITH    LITH_v2  
# ...
 945.0324    8.5000    8.7800   -0.5388   27.6800   41.5470   27.6800    9.9990   10.6170   64.6000    2.5730    0.0360    0.2260    6.2170   37.0000   11.0000 
 945.1848    8.5000    8.7840   -0.5433   27.6200   41.5470   27.6200   18.6890   18.1990   64.6000    2.6070    0.0410    0.2560    6.1760   37.0000   11.0000 
 945.3372    8.5000    8.6930   -0.5479   27.4130   41.5470   27.4130   30.1120   30.0780   64.6000    2.5620    0.0270    0.2650    5.6270 -999.0000   11.0000 
 945.4896    8.5000    8.6350   -0.5524   27.4180   41.5470   27.4180   12.8980   12.8410   64.6000    2.5070    0.0150    0.2670    5.3170 -999.0000   11.0000 
 945.6420    8.5000    8.6760   -0.5569   27.2350   41.5470   27.2350    6.7760    6.9360   64.6000    2.4520    0.0100    0.2640    5.0420 -999.0000   11.0000 
 945.7944    8.5000    8.6940   -0.5615   26.9110   41.5470   26.9110    6.0440    6.2800   64.6000    2.4530    0.0100    0.2610    5.1160 -999.0000   11.0000 
 945.9468    8.5000    8.6960   -0.5660   26.6350   41.5470   26.6350    6.1030    6.4260   64.6000    2.5090    0.0150    0.2560    5.3070 -999.0000   11.0000 
 946.0992    8.5000    8.7420   -0.5706   26.6220   41.5470   26.6220    7.9000    8.3280   64.6000    2.5390    0.0200    0.2530    5.3470 -999.0000   11.0000 
 946.2516    8.5000    8.6670   -0.5751   26.4730   41.5470   26.4730   12.7200   13.2070   64.6000    2.4960    0.0140    0.2600    5.1650 -999.0000   11.0000 
 946.4040    8.5000    8.6420   -0.5797   26.4710   41.5470   26.4710   10.9700   11.6190   64.6000    2.4590    0.0140    0.2600    5.0630 -999.0000   11.0000 
 946.5564    8.5000    8.6580   -0.5842   26.4650   41.5470   26.4650    7.2880    7.4640   64.6000    2.3870    0.0140    0.2580    4.7560 -999.0000   11.0000 
 946.7088    8.5000    8.6640   -0.5888   26.4620   41.5470   26.4620    2.9680    3.4400   64.6000    2.3650    0.0130    0.2550    4.7790 -999.0000   11.0000 
 946.8612    8.5000    8.6620   -0.5933   26.4550   41.5470   26.4550    2.7410    3.1690   64.6000    2.3800    0.0170    0.2510    4.6180 -999.0000   11.0000 
 947.0136    8.5000    8.6570   -0.5975   26.4510   41.5470   26.4510    2.4430    2.8110   64.6000    2.3780    0.0170    0.2510    4.5000 -999.0000   11.0000 
 947.1660    8.5000    8.6640   -0.5975   26.4420   41.5470   26.4420    2.0220    2.3340   64.6000    2.3300    0.0070    0.2510    4.1480 -999.0000   11.0000 
 947.3184    8.5000    8.6640   -0.5975   26.4370   41.5470   26.4370    1.8950    2.1750   64.6000    2.2950    0.0060    0.2510    3.9520 -999.0000   11.0000 
 947.4708    8.5000    8.6640   -0.5975   26.4250   41.5470   26.4250    2.2030    2.5010   64.6000    2.2740    0.0060    0.2510    4.0890   27.0000   11.0000 
 947.6232    8.5000    8.6640   -0.5975   26.4180   41.5470   26.4180    2.9900    3.3350   64.6000    2.2860    0.0030    0.2510    4.2990 -999.0000   11.0000 
 947.7756    8.5000    8.6600   -0.5975   26.4030   41.5470   26.4030    4.7290    5.0360   64.6000    2.3580    0.0070    0.2510    5.4180   18.0000   11.0000 
 947.9280    8.5000    8.6410   -0.5975   26.3840   41.5470   26.3840    6.3950    6.7050   64.6000    2.4390    0.0200    0.2520    6.0490 -999.0000   11.0000 
 948.0804    8.5000    8.6440   -0.5975   26.3740   41.5470   26.3740    7.4680    7.8470   64.6000    2.4650    0.0260    0.2510    6.1250 -999.0000   11.0000 
 948.2328    8.5000    8.6640   -0.5975   26.3490   41.5470   26.3490    7.7030    8.1560   64.6000    2.5030    0.0260    0.2510    6.1290 -999.0000   11.0000 
 948.3852    8.5000    8.6620   -0.5975   26.3350   41.5470   26.3350    7.7380    8.1620   64.6000    2.5310    0.0290    0.2510    6.0260 -999.0000   11.0000 
 948.5376    8.5000    8.6310   -0.5975   26.2970   41.5470   26.2970    7.7590    8.1670   64.6000    2.5620    0.0240    0.2520    5.8710 -999.0000   11.0000 
 948.6900    8.5000    8.6120   -0.5975   26.2710   41.5470   26.2710    7.7730    8.1600   64.6000    2.5590    0.0160    0.2520    5.7450 -999.0000   11.0000 
 948.8424    8.5000    8.5310 -999.0000   26.2150   41.5490   26.2150 -999.0000 -999.0000 -999.0000    2.5090    0.0080    0.2530    5.2850 -999.0000   11.0000 
 948.9948    8.5000    8.5310 -999.0000   26.1860   41.5500   26.1860 -999.0000 -999.0000 -999.0000    2.4820    0.0050    0.2530    5.0970 -999.0000   11.0000 
 949.1472    8.5000    8.5310 -999.0000   26.1350   41.5730   26.1350 -999.0000 -999.0000 -999.0000    2.4450    0.0090    0.2530    5.0440 -999.0000   11.0000 
 949.2996    8.5000    8.5310 -999.0000   26.3450   41.8560   26.3450 -999.0000 -999.0000 -999.0000    2.4330    0.0100    0.2530    4.9740 -999.0000   11.0000 
 949.4520    8.5000    8.5310 -999.0000  112.7190  140.0680  112.7190 -999.0000 -999.0000 -999.0000    2.4350    0.0160    0.2530    5.4300 -999.0000   11.0000 
 949.6044    8.5000    8.5310 -999.0000  112.6860  140.0680  112.6860 -999.0000 -999.0000 -999.0000    2.4430    0.0150    0.2530    5.4630 -999.0000   11.0000 
 949.7568    8.5000    8.1990 -999.0000  112.6280  140.0660  112.6280 -999.0000 -999.0000 -999.0000    2.4930    0.0250    0.2570    5.6570 -999.0000   11.0000 
 949.9092    8.5000    7.8810 -999.0000  112.6030  140.0660  112.6030 -999.0000 -999.0000 -999.0000    2.5170    0.0280    0.2610    5.5960 -999.0000   11.0000 
 950.0616    8.5000    7.8500 -999.0000  112.5590  140.0610  112.5590 -999.0000 -999.0000 -999.0000    2.5090    0.0280    0.2610    5.6880 -999.0000   11.0000 
 950.2140    8.5000    7.8860 -999.0000  112.5410  140.0570  112.5410 -999.0000 -999.0000 -999.0000    2.4890    0.0240    0.2610    5.9450 -999.0000   11.0000 
 950.3664    8.5000    8.1080 -999.0000    0.0000    0.0000    0.0000 -999.0000 -999.0000 -999.0000    2.4660    0.0390    0.2580    6.1220 -999.0000   11.0000 
 950.5188    8.5000    8.1750 -999.0000    0.0000    0.0000    0.0000 -999.0000 -999.0000 -999.0000    2.4540    0.0520    0.2570    6.1480 -999.0000   11.0000 
 950.6712    8.5000    8.1860 -999.0000    0.0000    0.0000    0.0000 -999.0000 -999.0000 -999.0000    2.4350    0.0740    0.2570    6.3930 -999.0000   11.0000 
 950.8236    8.5000    8.1810 -999.0000    0.0000    0.0000    0.0000 -999.0000 -999.0000 -999.0000    2.4290    0.0850    0.2570    6.4950 -999.0000   11.0000 
 950.9760    8.5000    8.1910 -999.0000    0.0000    0.0000    0.0000 -999.0000 -999.0000 -999.0000    2.4370    0.1060    0.2570    6.7800 -999.0000   11.0000 
 951.1284    8.5000    8.2110 -999.0000    0.0000    0.0000    0.0000 -999.0000 -999.0000 -999.0000    2.4330    0.1080    0.2570    6.5790 -999.0000   11.0000 
 951.2808    8.5000    8.2130 -999.0000    0.0000    0.0000    0.0000 -999.0000 -999.0000 -999.0000    2.4270    0.1060    0.2570    6.4170 -999.0000   11.0000 
 951.4332    8.5000    8.2270 -999.0000    0.0000    0.0000    0.0000 -999.0000 -999.0000 -999.0000    2.4320    0.1090    0.2570    6.1780 -999.0000   11.0000 
 951.5856    8.5000    8.2270 -999.0000    0.0000    0.0000    0.0000 -999.0000 -999.0000 -999.0000    2.4340    0.1100    0.2570    6.2400 -999.0000   11.0000 
 951.7380    8.5000    8.2380 -999.0000    0.0000    0.0000    0.0000 -999.0000 -999.0000 -999.0000    2.4420    0.1120    0.2560    6.3310 -999.0000   11.0000 
 951.8904    8.5000    8.2410 -999.0000    0.0000    0.0000    0.0000 -999.0000 -999.0000 -999.0000    2.4430    0.1130    0.2560    6.3050 -999.0000   11.0000 
 952.0428    8.5000    8.2240 -999.0000    0.0000    0.0000    0.0000 -999.0000 -999.0000 -999.0000    2.4470    0.1190    0.2570    5.9790 -999.0000   11.0000 
 952.1952    8.5000    8.2190 -999.0000    0.0000    0.0000    0.0000 -999.0000 -999.0000 -999.0000    2.4470    0.1220    0.2570    5.9060 -999.0000   11.0000 
 952.3476    8.5000    8.2190 -999.0000    0.0000    0.0000    0.0000 -999.0000 -999.0000 -999.0000    2.4510    0.1260    0.2570    5.9060 -999.0000   11.0000 
 952.5000    8.5000    8.2190 -999.0000    0.0000    0.0000    0.0000 -999.0000 -999.0000 -999.0000    2.4500    0.1270    0.2570    5.9060 -999.0000   11.0000 
