~VERSION INFORMATION
 VERS.                 2.0:   CWLS LOG ASCII STANDARD - VERSION 2.0
 WRAP.                  NO:   SINGLE LINE PER DEPTH STEP
 CREA.                 19/01/2018 11:58:16
#CREATED USING DSPetro VERSION 5000.10.1.3 BY H191660 ON 19/01/2018 11:58:16
~WELL INFORMATION
#MNEM.UNIT       DATA                          DESCRIPTION MNEMONIC
#---------      ---------------------------   --------------------------
 STRT    .M         0.1524                    : START DEPTH
 STOP    .M         1199.9976                 : STOP DEPTH
 STEP    .M         0.1524                    : STEP VALUE
 NULL    .      -999.0000                     : NULL VALUE
 DATE    .      19/01/2018                    : LAS file Creation Date
 WELL .      2930_Spider-1               : Well Name
 COMP .      Neftex Exploration Insights : Company
 FLD  .                                  : Field
 UWI  .      ZAUWL_006180                : Unique Well Identifier (UWI)
 LOC  .                                  : Location
 RWS  .      -999                        : Def_Rw
 WST  .      -999                        : Def_Rwt
 SRVC .                                  : Contractor
~CURVE INFORMATION
#MNEM              UNIT       API CODE   Curve Type Comments
#----------  --------------- ----------  ---------- -----------
 DEPTH      .M                         : Depth       
 Bitsize    .in                        : BitSize     
 CAL_INCH   .inch                      :             Caliper Log - A representation of the measured diameter of a borehole along its depth
 SP_Corr    .mv                        : SP          Spontaneous Potential - Records the electrical potential produced by the interaction of formation water, conductive drilling mud, and certain ion-sele
 GR_API     .API                       : GammaRay    gammaRay    Corrected / Computed Gamma Ray - Radiation with the Uranium component removed. Also known as a 'carbonate gamma ray'
 SGR_API    .API                       : gammaRay    Spectral Gamma Ray - Total gamma calibrated to API, measured using a spectoral gamma array tool
 CGR_API    .API                       : gammaRay    Corrected / Computed Gamma Ray - Radiation with the Uranium component removed. Also known as a 'carbonate gamma ray'
 LLD_OHMM   .ohmm                      : deepRes     Laterlog Deep Resistivity - Measurement made several feet into the formation; generally considered a measurement of the undisturbed formation
 LLS_OHMM   .ohmm                      : shalRes     Laterlog Shallow Resistivity - one to two feet into the formation; generally considered to measure the formation
 DT_US_FT   .us/ft                     : sonic       Interval Transit Time: Compressional Wave - Evaluates the time it takes for a compressional wave to traverse a fixed distance
 RHOB_G_CC  .g/cc                      : density     Bulk Density - Measures the density of bulk material, including any void space or other materials contained in the subject volume
 DRHO_G_CC  .g/cc                      : drho        Density Correction - Investigates the correction to the Bulk Density log; used as an indication of hole condition to validate the Bulk Density measure
 NPHI_v_v   .usl                       : neutron     Neutron Porosity - Measured with an neutron logging device calibrated to a given matrix (limestone, sandstone and dolomite) - unscaled
 PEF_B_E    .b/e-                      : PEF         Photoelectric Factor - A log of photoelectric absorption properties. Often expressed in an approximation unit barns/electron (b/e-)
 LITH       .                          : LITH        Lithology Curve
 LITH_v2    .                          : LITH        Lithology Curve
~A  DEPTH  Bitsize   CAL_INCH  SP_Corr    GR_API   SGR_API   CGR_API   LLD_OHMM  LLS_OHMM  DT_US_FT RHOB_G_C  DRHO_G_C   NPHI_v_v  PEF_B_E     LITH    LITH_v2  
# ...
 823.1124    8.5000    8.9730    0.0443  116.9030  140.1050  116.9030    2.2460    2.3200  111.5000    2.3330    0.0110    0.3700    3.0570   37.0000   37.0000 
 823.2648    8.5000    9.1580    0.0544  116.6570  140.0430  116.6570    2.1810    2.2590  114.0000    2.3040    0.0120    0.3720    3.0650   37.0000   37.0000 
 823.4172    8.5000    9.0300    0.3145  116.6200  140.0940  116.6200    1.9640    2.0750  117.5000    2.2900    0.0100    0.3780    3.1430   37.0000   37.0000 
 823.5696    8.5000    9.0690    0.3246  117.2180  141.1230  117.2180    1.8240    1.8880  123.7000    2.2900    0.0100    0.4010    3.0250   37.0000   37.0000 
 823.7220    8.5000    9.0890    0.3347  116.7150  140.4530  116.7150    1.7990    1.8400  126.0000    2.2960    0.0100    0.3920    3.0160   37.0000   37.0000 
 823.8744    8.5000    8.9300    0.3448  117.0020  141.2730  117.0020    1.8040    1.8540  123.8000    2.2960    0.0060    0.3990    2.9360   37.0000   37.0000 
 824.0268    8.5000    8.9370    0.3549  113.2760  136.3710  113.2760    1.8190    1.8430  123.8000    2.2880   -0.0020    0.3810    2.9720   37.0000   37.0000 
 824.1792    8.5000    8.9430    0.1151  114.2660  137.7210  114.2660    1.8080    1.8220  108.9000    2.2980   -0.0020    0.3780    3.1220   37.0000   37.0000 
 824.3316    8.5000    8.9400    0.1252  111.4740  127.0810  111.4740    1.7760    1.8470  122.9000    2.4080    0.0010    0.3730    4.2550   23.0000   23.0000 
 824.4840    8.5000    8.9450   -0.1147  110.2560  117.3220  110.2560    1.8550    1.9260  122.8000    2.4770    0.0070    0.3780    4.7280   23.0000   23.0000 
 824.6364    8.5000    8.9080   -0.1046  113.6070  121.8750  113.6070    1.9600    2.0040  117.3000    2.5290    0.0080    0.3780    5.5300   23.0000   23.0000 
 824.7888    8.5000    8.9510    0.1555  116.4620  125.7740  116.4620    2.0200    2.0810  117.5000    2.4910    0.0000    0.3690    4.9860   23.0000   23.0000 
 824.9412    8.5000    8.9300    0.1656  119.6600  130.4090  119.6600    2.1020    2.1740  112.3000    2.4060    0.0010    0.3620    3.8050   37.0000   37.0000 
 825.0936    8.5000    8.9310    0.1757  123.5470  135.8630  123.5470    2.0710    2.1080  121.3000    2.3670    0.0040    0.3560    3.2790   37.0000   37.0000 
 825.2460    8.5000    8.9500    0.1858  122.8970  135.1480  122.8970    2.0450    2.1300  129.0000    2.3060    0.0000    0.3780    2.9190   37.0000   37.0000 
 825.3984    8.5000    8.9300    0.4459  124.6340  137.7770  124.6340    1.9840    2.0080  129.7000    2.2840    0.0010    0.3740    2.9920   37.0000   37.0000 
 825.5508    8.5000    8.9760    0.4560  127.8310  143.1420  127.8310    1.9210    2.0040  116.9000    2.2830    0.0120    0.3790    3.0090   37.0000   37.0000 
 825.7032    8.5000    9.0220    0.4661  129.2300  145.4470  129.2300    1.9120    1.9570  121.2000    2.2760    0.0100    0.3730    3.0460   37.0000   37.0000 
 825.8556    8.5000    9.0520    0.4762  128.9540  145.6440  128.9540    1.8250    1.9060  121.0000    2.2710    0.0080    0.3850    3.0760   37.0000   37.0000 
 826.0080    8.5000    9.0470    0.7363  129.8850  147.0120  129.8850    1.7830    1.8310  121.9000    2.2770    0.0120    0.3930    3.0730   37.0000   37.0000 
 826.1604    8.5000    9.0280    0.4964  129.4740  147.5010  129.4740    1.7840    1.8240  127.3000    2.2680    0.0070    0.4220    3.0710   37.0000   37.0000 
 826.3128    8.5000    8.9620    0.2565  129.9380  148.4800  129.9380    1.8000    1.8520  127.0000    2.2640    0.0070    0.4190    3.0320   37.0000   37.0000 
 826.4652    8.5000    8.9600    0.2667  131.9190  151.3990  131.9190    1.8040    1.8840  127.6000    2.2540    0.0090    0.4030    3.0330   37.0000   37.0000 
 826.6176    8.5000    9.0010    0.2768  130.7290  149.8120  130.7290    1.8000    1.8600  127.8000    2.2510    0.0090    0.3890    3.0380   37.0000   37.0000 
 826.7700    8.5000    9.0330    0.0369  128.8490  147.3760  128.8490    1.7900    1.8210  127.8000    2.2520    0.0110    0.3940    3.0130   37.0000   37.0000 
 826.9224    8.5000    9.0120    0.0470  129.4250  148.5010  129.4250    1.7750    1.8480  127.4000    2.2540    0.0110    0.3880    3.0120   37.0000   37.0000 
 827.0748    8.5000    8.9300   -0.4429  133.8730  155.3830  133.8730    1.7970    1.8290  126.6000    2.2560    0.0060    0.3780    2.9120   37.0000   37.0000 
 827.2272    8.5000    8.9300   -0.1828  132.3010  152.4780  132.3010    1.7970    1.8560  127.0000    2.2690    0.0050    0.3870    2.9120   37.0000   37.0000 
 827.3796    8.5000    8.9300   -0.1727  132.1160  151.7430  132.1160    1.7970    1.8470  126.4000    2.2710    0.0060    0.4040    2.9780   37.0000   37.0000 
 827.5320    8.5000    8.9300   -0.4126  132.5740  151.7250  132.5740    1.7990    1.8130  130.1000    2.2870    0.0000    0.3980    3.5230   37.0000   37.0000 
 827.6844    8.5000    8.9300   -0.1525  127.4150  145.5680  127.4150    1.7770    1.8470  119.6000    2.3240   -0.0030    0.3790    4.2580   37.0000   37.0000 
 827.8368    8.5000    8.9300   -0.1424  106.5710  122.9640  106.5710    1.8770    1.9260  113.7000    2.5290    0.0060    0.3600    5.6080   23.0000   23.0000 
 827.9892    8.5000    8.9340   -0.1323  104.7320  120.7140  104.7320    2.0290    2.0870  107.0000    2.6580    0.0220    0.3660    4.8270   23.0000   23.0000 
 828.1416    8.5000    8.9990   -0.1222  110.1790  130.2460  110.1790    2.0290    2.0920   97.3000    2.5880    0.0030    0.3860    3.7550   23.0000   23.0000 
 828.2940    8.5000    9.0200   -0.1121  108.9780  128.7090  108.9780    2.0240    2.0960  107.6000    2.4980   -0.0130    0.3870    3.6900   23.0000   23.0000 
 828.4464    8.5000    8.9350   -0.3520  111.5740  133.3290  111.5740    2.1740    2.2360  113.2000    2.4010   -0.0090    0.3730    3.6450   37.0000   37.0000 
 828.5988    8.5000    8.9450   -0.3419  113.5010  136.4610  113.5010    2.0480    2.1060  114.6000    2.3910    0.0010    0.3740    3.6030   37.0000   37.0000 
 828.7512    8.5000    8.9350   -0.5818  119.3570  144.8980  119.3570    2.0300    2.0780  118.4000    2.3220   -0.0070    0.3660    3.0850   37.0000   37.0000 
 828.9036    8.5000    8.9300   -0.5716  118.2590  143.0720  118.2590    2.0740    2.1260  118.8000    2.2840   -0.0110    0.3700    3.0540   37.0000   37.0000 
 829.0560    8.5000    8.9300   -0.5615  114.0330  137.0010  114.0330    1.9710    2.0110  120.5000    2.2870   -0.0050    0.3660    3.4120   37.0000   37.0000 
 829.2084    8.5000    8.9300   -0.8014  109.9890  130.9110  109.9890    2.0240    2.0580  123.4000    2.3130   -0.0010    0.3640    3.5350   37.0000   37.0000 
 829.3608    8.5000    8.9300   -0.5413  115.9290  138.3430  115.9290    2.2200    2.2820  120.3000    2.3480   -0.0010    0.3320    3.4330   37.0000   37.0000 
 829.5132    8.5000    8.9300   -0.5312  119.6000  142.9860  119.6000    2.2610    2.3090  119.7000    2.3460   -0.0030    0.3290    3.2230   37.0000   37.0000 
 829.6656    8.5000    8.9300   -0.5211  121.4040  144.9800  121.4040    2.2820    2.3000  119.2000    2.3070   -0.0050    0.3330    2.9910   37.0000   37.0000 
 829.8180    8.5000    8.9300   -0.5110  121.0870  144.1840  121.0870    2.1620    2.2210  119.3000    2.2960   -0.0030    0.3480    2.9610   37.0000   37.0000 
 829.9704    8.5000    8.9300   -0.5009  121.4850  144.5260  121.4850    2.0190    2.0620  125.6000    2.2870   -0.0020    0.3690    2.8480   37.0000   37.0000 
 830.1228    8.5000    8.9300   -0.4908  122.5930  145.7880  122.5930    1.9890    2.0600  124.0000    2.2900   -0.0020    0.3800    2.8180   37.0000   37.0000 
 830.2752    8.5000    8.9300   -0.7307  120.1140  141.9920  120.1140    1.9960    2.0380  123.1000    2.3010    0.0010    0.3780    2.8390   37.0000   37.0000 
 830.4276    8.5000    8.9300   -0.7206  118.2280  138.6350  118.2280    2.0020    2.0490  122.9000    2.3090   -0.0010    0.3570    2.9680   37.0000   37.0000 
 830.5800    8.5000    8.9300   -0.7104  120.2110  141.3420  120.2110    2.0030    2.0580  123.0000    2.3110   -0.0020    0.3510    3.0910   37.0000   37.0000 
