~VERSION INFORMATION
 VERS.                 2.0:   CWLS LOG ASCII STANDARD - VERSION 2.0
 WRAP.                  NO:   SINGLE LINE PER DEPTH STEP
 CREA.                 19/01/2018 11:58:16
#CREATED USING DSPetro VERSION 5000.10.1.3 BY H191660 ON 19/01/2018 11:58:16
~WELL INFORMATION
#MNEM.UNIT       DATA                          DESCRIPTION MNEMONIC
#---------      ---------------------------   --------------------------
 STRT    .M         0.1524                    : START DEPTH
 STOP    .M         1199.9976                 : STOP DEPTH
 STEP    .M         0.1524                    : STEP VALUE
 NULL    .      -999.0000                     : NULL VALUE
 DATE    .      19/01/2018                    : LAS file Creation Date
 WELL .      2930_Spider-1               : Well Name
 COMP .      Neftex Exploration Insights : Company
 FLD  .                                  : Field
 UWI  .      ZAUWL_006180                : Unique Well Identifier (UWI)
 LOC  .                                  : Location
 RWS  .      -999                        : Def_Rw
 WST  .      -999                        : Def_Rwt
 SRVC .                                  : Contractor
~CURVE INFORMATION
#MNEM              UNIT       API CODE   Curve Type Comments
#----------  --------------- ----------  ---------- -----------
 DEPTH      .M                         : Depth       
 Bitsize    .in                        : BitSize     
 CAL_INCH   .inch                      :             Caliper Log - A representation of the measured diameter of a borehole along its depth
 SP_Corr    .mv                        : SP          Spontaneous Potential - Records the electrical potential produced by the interaction of formation water, conductive drilling mud, and certain ion-sele
 GR_API     .API                       : GammaRay    gammaRay    Corrected / Computed Gamma Ray - Radiation with the Uranium component removed. Also known as a 'carbonate gamma ray'
 SGR_API    .API                       : gammaRay    Spectral Gamma Ray - Total gamma calibrated to API, measured using a spectoral gamma array tool
 CGR_API    .API                       : gammaRay    Corrected / Computed Gamma Ray - Radiation with the Uranium component removed. Also known as a 'carbonate gamma ray'
 LLD_OHMM   .ohmm                      : deepRes     Laterlog Deep Resistivity - Measurement made several feet into the formation; generally considered a measurement of the undisturbed formation
 LLS_OHMM   .ohmm                      : shalRes     Laterlog Shallow Resistivity - one to two feet into the formation; generally considered to measure the formation
 DT_US_FT   .us/ft                     : sonic       Interval Transit Time: Compressional Wave - Evaluates the time it takes for a compressional wave to traverse a fixed distance
 RHOB_G_CC  .g/cc                      : density     Bulk Density - Measures the density of bulk material, including any void space or other materials contained in the subject volume
 DRHO_G_CC  .g/cc                      : drho        Density Correction - Investigates the correction to the Bulk Density log; used as an indication of hole condition to validate the Bulk Density measure
 NPHI_v_v   .usl                       : neutron     Neutron Porosity - Measured with an neutron logging device calibrated to a given matrix (limestone, sandstone and dolomite) - unscaled
 PEF_B_E    .b/e-                      : PEF         Photoelectric Factor - A log of photoelectric absorption properties. Often expressed in an approximation unit barns/electron (b/e-)
 LITH       .                          : LITH        Lithology Curve
 LITH_v2    .                          : LITH        Lithology Curve
~A  DEPTH  Bitsize   CAL_INCH  SP_Corr    GR_API   SGR_API   CGR_API   LLD_OHMM  LLS_OHMM  DT_US_FT RHOB_G_C  DRHO_G_C   NPHI_v_v  PEF_B_E     LITH    LITH_v2  
# ...
 640.2324    8.5000    8.9470    1.1559   88.4160   96.5380   88.4160    0.8650    0.8410  150.5000    1.9280    0.0200    0.4570    4.0300   36.0000   37.0000 
 640.3848    8.5000    8.9160    0.9005   88.8920   97.6900   88.8920    0.8640    0.8430  152.8000    1.9180    0.0250    0.4630    3.9630   36.0000   37.0000 
 640.5372    8.5000    8.8030    1.1450   86.0520   93.6570   86.0520    0.8400    0.8210  152.3000    1.9500    0.0390    0.4560    3.7510   36.0000   37.0000 
 640.6896    8.5000    8.8110    1.1396   84.8360   91.7420   84.8360    0.8520    0.8350  152.1000    1.9740    0.0360    0.4650    3.5400   36.0000   37.0000 
 640.8420    8.5000    8.8210    1.1341   85.7800   92.8420   85.7800    0.8550    0.8300  151.6000    1.9920    0.0160    0.4760    3.4030   36.0000   37.0000 
 640.9944    8.5000    8.8570    1.1287   84.9330   92.3730   84.9330    0.8370    0.8230  151.1000    2.0140    0.0090    0.4590    3.1890   36.0000   37.0000 
 641.1468    8.5000    8.7970    1.1232   86.3000   93.4990   86.3000    0.8670    0.8520  151.2000    2.0380    0.0020    0.4100    3.1570   36.0000   37.0000 
 641.2992    8.5000    8.7970    1.3678   85.9810   93.0260   85.9810    0.8490    0.8190  150.4000    2.0480   -0.0010    0.3910    3.2070   36.0000   37.0000 
 641.4516    8.5000    8.7940    1.1123   87.4420   95.2160   87.4420    0.8540    0.8400  151.2000    2.0500    0.0030    0.4230    3.2340   36.0000   37.0000 
 641.6040    8.5000    8.8040    1.1069   87.4670   95.8300   87.4670    0.8620    0.8340  150.7000    2.0410   -0.0020    0.4350    3.1970   36.0000   37.0000 
 641.7564    8.5000    8.8200    1.1014   87.5450   95.4710   87.5450    0.8540    0.8410  150.3000    2.0410    0.0010    0.4600    3.1760   36.0000   37.0000 
 641.9088    8.5000    8.8200    1.3459   84.2120   90.9140   84.2120    0.8560    0.8240  150.8000    2.0420    0.0050    0.4570    3.1960   36.0000   37.0000 
 642.0612    8.5000    8.9920    1.0905   85.5200   92.5560   85.5200    0.8580    0.8520  150.7000    2.0240    0.0040    0.4510    3.3130   36.0000   37.0000 
 642.2136    8.5000    9.0130    1.3351   83.6550   89.9750   83.6550    0.8510    0.8300  150.6000    2.0070    0.0040    0.4350    3.3450   36.0000   37.0000 
 642.3660    8.5000    8.8380    1.3296   82.0360   88.1580   82.0360    0.8560    0.8410  150.5000    2.0040    0.0060    0.4440    3.3960   36.0000   37.0000 
 642.5184    8.5000    8.8890    1.3242   82.9690   89.6670   82.9690    0.8760    0.8490  149.8000    2.0060    0.0070    0.4430    3.4570   36.0000   37.0000 
 642.6708    8.5000    8.8100    1.3187   87.1160   95.4140   87.1160    0.8620    0.8410  150.0000    1.9920    0.0070    0.4680    3.5900   36.0000   37.0000 
 642.8232    8.5000    8.7990    1.3133   84.7650   91.9420   84.7650    0.8760    0.8590  152.3000    1.9740    0.0010    0.4830    3.5580   36.0000   37.0000 
 642.9756    8.5000    8.8560    1.5578   84.9620   91.8280   84.9620    0.8720    0.8620  152.7000    1.9480   -0.0040    0.4860    3.4490   36.0000   37.0000 
 643.1280    8.5000    8.8510    1.8023   85.9100   93.0150   85.9100    0.8920    0.8750  150.6000    1.9930   -0.0040    0.4280    3.1870   36.0000   37.0000 
 643.2804    8.5000    8.8580    1.5469   86.7720   94.1340   86.7720    0.9090    0.8930  149.6000    2.0140   -0.0040    0.3980    3.1600   36.0000   37.0000 
 643.4328    8.5000    8.8140    1.7914   87.3470   93.9860   87.3470    0.9260    0.9150  147.5000    2.0620   -0.0040    0.3860    3.1380   36.0000   37.0000 
 643.5852    8.5000    8.8320    1.5360   88.0530   94.4260   88.0530    0.9410    0.9180  147.9000    2.0650   -0.0020    0.3830    3.2190   36.0000   37.0000 
 643.7376    8.5000    8.8060    1.5305   88.5560   94.9900   88.5560    0.9360    0.9240  147.6000    2.0210    0.0010    0.4110    3.6840   36.0000   37.0000 
 643.8900    8.5000    8.8350    1.2751   88.7070   95.4920   88.7070    0.9270    0.9240  148.8000    1.9920    0.0050    0.4150    3.8240   36.0000   37.0000 
 644.0424    8.5000    9.0540    0.7697   87.2030   93.9070   87.2030    0.9070    0.8810  150.2000    1.9460    0.0110    0.4330    3.9910   36.0000   37.0000 
 644.1948    8.5000    9.0730    0.5142   88.5730   95.7380   88.5730    0.9000    0.8630  150.4000    1.9520    0.0140    0.4260    3.7640   36.0000   37.0000 
 644.3472    8.5000    8.8820    0.2587   86.9720   94.1910   86.9720    0.8980    0.8930  151.4000    1.9760    0.0450    0.4530    3.7420   36.0000   37.0000 
 644.4996    8.5000    8.8210    0.2533   87.7220   95.9710   87.7220    0.8750    0.8630  150.7000    1.9850    0.0480    0.4840    3.6900   36.0000   37.0000 
 644.6520    8.5000    8.9940    0.2478   83.3170   91.6710   83.3170    0.8710    0.8810  151.5000    1.9780    0.0260    0.4820    4.1760   36.0000   37.0000 
 644.8044    8.5000    9.0150    0.4924   73.4600   81.7780   73.4600    1.0250    1.0080  144.9000    2.0140    0.0110    0.4640    4.7410   23.0000   23.0000 
 644.9568    8.5000    8.7970    0.7369   71.6540   79.7670   71.6540    1.1330    1.1050  136.8000    2.1890    0.0160    0.4380    5.4670   23.0000   23.0000 
 645.1092    8.5000    8.7970    0.7315   73.2070   81.8120   73.2070    1.2130    1.1790  131.7000    2.2810    0.0250    0.4350    5.2290   23.0000   23.0000 
 645.2616    8.5000    8.8200    0.4760   75.6300   85.2590   75.6300    1.2610    1.2390  129.4000    2.2520    0.0040    0.4400    3.9630   23.0000   23.0000 
 645.4140    8.5000    8.8000    0.4706   77.0860   87.2380   77.0860    1.0550    1.0780  141.0000    2.1850    0.0010    0.4220    3.6430   23.0000   23.0000 
 645.5664    8.5000    8.9570    0.4651   75.9590   85.3950   75.9590    0.9140    0.9120  147.1000    2.0640    0.0130    0.4610    3.7600   36.0000   37.0000 
 645.7188    8.5000    9.0850    0.4597   78.9250   89.6430   78.9250    0.8860    0.8830  149.1000    2.0080    0.0240    0.4590    3.8320   36.0000   37.0000 
 645.8712    8.5000    8.9640    0.4542   80.4290   91.9150   80.4290    0.8430    0.8440  151.8000    1.9320    0.0180    0.4550    3.8960   36.0000   37.0000 
 646.0236    8.5000    8.9490    0.1988   80.7750   92.1710   80.7750    0.8520    0.8450  152.5000    1.9440    0.0320    0.4280    3.6520   36.0000   37.0000 
 646.1760    8.5000    8.8840    0.1933   79.2410   89.7320   79.2410    0.8850    0.8710  150.2000    1.9870    0.0320    0.4270    3.3620   36.0000   37.0000 
 646.3284    8.5000    8.8410   -0.0621   81.1190   91.8690   81.1190    0.8970    0.8820  150.9000    2.0220    0.0240    0.4370    3.2750   36.0000   37.0000 
 646.4808    8.5000    8.8770   -0.3176   82.4900   93.7190   82.4900    0.8850    0.8760  150.6000    2.0220    0.0220    0.4370    3.3340   36.0000   37.0000 
 646.6332    8.5000    8.8670   -0.3230   83.3190   94.5940   83.3190    0.8950    0.8960  150.8000    2.0120    0.0150    0.4500    3.4610   36.0000   37.0000 
 646.7856    8.5000    8.8970   -0.3285   84.2130   96.0340   84.2130    0.8740    0.8630  151.4000    2.0040    0.0130    0.4500    3.5020   36.0000   37.0000 
 646.9380    8.5000    8.8130   -0.0839   84.2000   96.1430   84.2000    0.8630    0.8350  151.3000    2.0270    0.0130    0.4330    3.2730   36.0000   37.0000 
 647.0904    8.5000    8.8140   -0.0894   83.0050   94.9510   83.0050    0.8720    0.8730  150.1000    2.0370    0.0110    0.4180    3.1440   36.0000   37.0000 
 647.2428    8.5000    8.8210    0.4052   82.5600   94.4050   82.5600    0.8580    0.8530  150.9000    2.0480    0.0020    0.4130    3.0700   36.0000   37.0000 
 647.3952    8.5000    8.7970    0.1497   79.8360   90.4220   79.8360    0.8620    0.8510  150.5000    2.0440   -0.0020    0.4230    3.1090   36.0000   37.0000 
 647.5476    8.5000    8.8160    0.1443   81.1810   92.4110   81.1810    0.8610    0.8520  150.2000    2.0360   -0.0070    0.4290    3.2230   36.0000   37.0000 
 647.7000    8.5000    8.8520    0.1388   81.2210   92.6340   81.2210    0.8580    0.8520  149.8000    2.0370   -0.0060    0.4180    3.2230   36.0000   37.0000 
