~VERSION INFORMATION
 VERS.                 2.0:   CWLS LOG ASCII STANDARD - VERSION 2.0
 WRAP.                  NO:   SINGLE LINE PER DEPTH STEP
 CREA.                 19/01/2018 11:58:16
#CREATED USING DSPetro VERSION 5000.10.1.3 BY H191660 ON 19/01/2018 11:58:16
~WELL INFORMATION
#MNEM.UNIT       DATA                          DESCRIPTION MNEMONIC
#---------      ---------------------------   --------------------------
 STRT    .M         0.1524                    : START DEPTH
 STOP    .M         1199.9976                 : STOP DEPTH
 STEP    .M         0.1524                    : STEP VALUE
 NULL    .      -999.0000                     : NULL VALUE
 DATE    .      19/01/2018                    : LAS file Creation Date
 WELL .      2930_Spider-1               : Well Name
 COMP .      Neftex Exploration Insights : Company
 FLD  .                                  : Field
 UWI  .      ZAUWL_006180                : Unique Well Identifier (UWI)
 LOC  .                                  : Location
 RWS  .      -999                        : Def_Rw
 WST  .      -999                        : Def_Rwt
 SRVC .                                  : Contractor
~CURVE INFORMATION
#MNEM              UNIT       API CODE   Curve Type Comments
#----------  --------------- ----------  ---------- -----------
 DEPTH      .M                         : Depth       
 Bitsize    .in                        : BitSize     
 CAL_INCH   .inch                      :             Caliper Log - A representation of the measured diameter of a borehole along its depth
 SP_Corr    .mv                        : SP          Spontaneous Potential - Records the electrical potential produced by the interaction of formation water, conductive drilling mud, and certain ion-sele
 GR_API     .API                       : GammaRay    gammaRay    Corrected / Computed Gamma Ray - Radiation with the Uranium component removed. Also known as a 'carbonate gamma ray'
 SGR_API    .API                       : gammaRay    Spectral Gamma Ray - Total gamma calibrated to API, measured using a spectoral gamma array tool
 CGR_API    .API                       : gammaRay    Corrected / Computed Gamma Ray - Radiation with the Uranium component removed. Also known as a 'carbonate gamma ray'
 LLD_OHMM   .ohmm                      : deepRes     Laterlog Deep Resistivity - Measurement made several feet into the formation; generally considered a measurement of the undisturbed formation
 LLS_OHMM   .ohmm                      : shalRes     Laterlog Shallow Resistivity - one to two feet into the formation; generally considered to measure the formation
 DT_US_FT   .us/ft                     : sonic       Interval Transit Time: Compressional Wave - Evaluates the time it takes for a compressional wave to traverse a fixed distance
 RHOB_G_CC  .g/cc                      : density     Bulk Density - Measures the density of bulk material, including any void space or other materials contained in the subject volume
 DRHO_G_CC  .g/cc                      : drho        Density Correction - Investigates the correction to the Bulk Density log; used as an indication of hole condition to validate the Bulk Density measure
 NPHI_v_v   .usl                       : neutron     Neutron Porosity - Measured with an neutron logging device calibrated to a given matrix (limestone, sandstone and dolomite) - unscaled
 PEF_B_E    .b/e-                      : PEF         Photoelectric Factor - A log of photoelectric absorption properties. Often expressed in an approximation unit barns/electron (b/e-)
 LITH       .                          : LITH        Lithology Curve
 LITH_v2    .                          : LITH        Lithology Curve
~A  DEPTH  Bitsize   CAL_INCH  SP_Corr    GR_API   SGR_API   CGR_API   LLD_OHMM  LLS_OHMM  DT_US_FT RHOB_G_C  DRHO_G_C   NPHI_v_v  PEF_B_E     LITH    LITH_v2  
# ...
 396.3924   12.2500    3.5960 -999.0000   38.9290   41.6130   38.9290 -999.0000 -999.0000 -999.0000    1.8770   -0.9350    0.5090   45.3190 -999.0000    3.0000 
 396.5448   12.2500    3.5960 -999.0000   38.8670   42.2630   38.8670 -999.0000 -999.0000 -999.0000    1.8930   -0.9300    0.5110   50.5410 -999.0000    3.0000 
 396.6972   12.2500    3.5960 -999.0000   40.3530   44.3580   40.3530 -999.0000 -999.0000 -999.0000    1.8910   -0.9270    0.5330   38.3920 -999.0000    3.0000 
 396.8496   12.2500    3.5960 -999.0000   41.7780   46.7970   41.7780 -999.0000 -999.0000 -999.0000    1.8440   -0.9340    0.5640   28.0250 -999.0000    3.0000 
 397.0020   12.2500    3.5960 -999.0000   42.7830   48.2670   42.7830 -999.0000 -999.0000 -999.0000    1.8320   -0.9370    0.5560   25.5650 -999.0000    3.0000 
 397.1544   12.2500    3.5960 -999.0000   41.9890   47.6590   41.9890 -999.0000 -999.0000 -999.0000    1.8220   -0.9400    0.5870   25.8670 -999.0000    3.0000 
 397.3068   12.2500    3.5960 -999.0000   40.7780   45.9350   40.7780 -999.0000 -999.0000 -999.0000    1.8290   -0.9360    0.5620   27.6300 -999.0000    3.0000 
 397.4592   12.2500    3.5960 -999.0000   41.4510   46.4410   41.4510 -999.0000 -999.0000 -999.0000    1.8240   -0.9460    0.5710   22.2160 -999.0000    3.0000 
 397.6116   12.2500    3.5960 -999.0000   41.2690   46.2570   41.2690 -999.0000 -999.0000 -999.0000    1.8350   -0.9490    0.5400   23.8570 -999.0000    3.0000 
 397.7640   12.2500    3.5960 -999.0000   42.5470   47.7040   42.5470 -999.0000 -999.0000 -999.0000    1.8230   -0.9580    0.5640   24.6380 -999.0000    3.0000 
 397.9164   12.2500    3.5960 -999.0000   44.1280   49.8120   44.1280 -999.0000 -999.0000 -999.0000    1.7940   -0.9680    0.5640   28.4930 -999.0000    3.0000 
 398.0688   12.2500    3.5960 -999.0000   45.8350   50.8760   45.8350 -999.0000 -999.0000 -999.0000    1.7320   -0.9880    0.5610   28.4970 -999.0000    3.0000 
 398.2212   12.2500    3.5960 -999.0000   45.4210   49.8470   45.4210 -999.0000 -999.0000 -999.0000    1.7150   -0.9960    0.5680   28.1390 -999.0000    3.0000 
 398.3736   12.2500    3.5960 -999.0000   44.5430   47.4930   44.5430 -999.0000 -999.0000 -999.0000    1.7150   -0.9990    0.5940   37.3720 -999.0000    3.0000 
 398.5260   12.2500    3.5960 -999.0000   46.9640   50.0360   46.9640 -999.0000 -999.0000 -999.0000    1.7240   -0.9930    0.6190   43.1070 -999.0000    3.0000 
 398.6784   12.2500    3.5960 -999.0000   46.9890   49.6550   46.9890 -999.0000 -999.0000 -999.0000    1.7160   -1.0030    0.6320   43.4490 -999.0000    3.0000 
 398.8308   12.2500    3.5960 -999.0000   45.6690   47.2840   45.6690 -999.0000 -999.0000 -999.0000    1.7290   -1.0270    0.6440   28.3800 -999.0000    3.0000 
 398.9832   12.2500    3.5960 -999.0000   44.9030   45.9140   44.9030 -999.0000 -999.0000 -999.0000    1.7610   -1.0340    0.6300   25.9750 -999.0000    3.0000 
 399.1356   12.2500    3.5960 -999.0000   43.7080   43.3700   43.7080 -999.0000 -999.0000 -999.0000    1.9170   -1.0800    0.5680   38.5160 -999.0000    3.0000 
 399.2880   12.2500    3.5960 -999.0000   44.4820   44.1340   44.4820 -999.0000 -999.0000 -999.0000    1.9840   -1.1160    0.5520   39.5870 -999.0000    3.0000 
 399.4404   12.2500    3.5960 -999.0000   42.7210   41.8880   42.7210 -999.0000 -999.0000 -999.0000    2.0840   -1.1030    0.5840   36.7710 -999.0000    3.0000 
 399.5928   12.2500    3.5960 -999.0000   43.5360   42.9360   43.5360 -999.0000 -999.0000 -999.0000    1.9860   -1.1140    0.5850   31.7400 -999.0000    3.0000 
 399.7452   12.2500    3.5960 -999.0000   52.7930   50.9700   52.7930 -999.0000 -999.0000 -999.0000    1.6610   -1.1600    0.5680   26.3000 -999.0000    3.0000 
 399.8976   12.2500    3.5960 -999.0000   52.5120   50.6440   52.5120 -999.0000 -999.0000 -999.0000    1.5850   -1.1390    0.5740   23.7200 -999.0000    3.0000 
 400.0500   12.2500    3.5960 -999.0000   51.1630   49.0760   51.1630 -999.0000 -999.0000 -999.0000    1.6060   -1.0560    0.5920   25.8830 -999.0000    3.0000 
 400.2024   12.2500    3.5960 -999.0000   50.7500   48.7370   50.7500 -999.0000 -999.0000 -999.0000    1.6340   -1.0340    0.6260   30.0870 -999.0000    3.0000 
 400.3548   12.2500    3.5960 -999.0000   50.1920   47.6260   50.1920 -999.0000 -999.0000 -999.0000    1.6060   -1.0430    0.6860   50.2420 -999.0000    3.0000 
 400.5072   12.2500    3.5960 -999.0000   50.7370   48.1910   50.7370 -999.0000 -999.0000 -999.0000    1.5710   -1.0480    0.7060   56.5170 -999.0000    3.0000 
 400.6596   12.2500    3.5960 -999.0000   49.6590   46.7150   49.6590 -999.0000 -999.0000 -999.0000    1.5790   -1.0360    0.6900   69.5440 -999.0000    3.0000 
 400.8120   12.2500    3.5960 -999.0000   49.2270   46.0020   49.2270 -999.0000 -999.0000 -999.0000    1.6040   -1.0310    0.6490   54.8000 -999.0000    3.0000 
 400.9644   12.2500    3.5960 -999.0000   50.3040   47.7740   50.3040 -999.0000 -999.0000 -999.0000    1.6970   -1.0040    0.6590   53.5580 -999.0000    3.0000 
 401.1168   12.2500    3.5960 -999.0000   52.4610   51.0550   52.4610 -999.0000 -999.0000 -999.0000    1.7310   -0.9880    0.6330   44.0640 -999.0000    3.0000 
 401.2692   12.2500    3.5960 -999.0000   51.7620   50.5160   51.7620 -999.0000 -999.0000 -999.0000    1.7250   -0.9830    0.6320   39.8450 -999.0000    3.0000 
 401.4216   12.2500    3.5960 -999.0000   49.8290   48.0730   49.8290 -999.0000 -999.0000 -999.0000    1.7040   -0.9960    0.6160   33.3550 -999.0000    3.0000 
 401.5740   12.2500    3.5960 -999.0000   50.8520   49.8860   50.8520 -999.0000 -999.0000 -999.0000    1.7010   -1.0050    0.6370   38.5430 -999.0000    3.0000 
 401.7264   12.2500    3.5960 -999.0000   51.2430   50.6680   51.2430 -999.0000 -999.0000 -999.0000    1.7230   -1.0120    0.6400   38.0760 -999.0000    3.0000 
 401.8788   12.2500    3.5960 -999.0000   50.7700   49.9870   50.7700 -999.0000 -999.0000 -999.0000    1.7210   -1.0220    0.6370   36.5180 -999.0000    3.0000 
 402.0312   12.2500    3.5960 -999.0000   48.9890   47.5340   48.9890 -999.0000 -999.0000 -999.0000    1.6950   -1.0310    0.6480   32.3330 -999.0000    3.0000 
 402.1836   12.2500    3.5960 -999.0000   48.4080   46.7120   48.4080 -999.0000 -999.0000 -999.0000    1.6790   -1.0320    0.6490   32.5470 -999.0000    3.0000 
 402.3360   12.2500    3.5960 -999.0000   51.8450   51.5220   51.8450 -999.0000 -999.0000 -999.0000    1.6430   -1.0300    0.6680   35.1040 -999.0000    3.0000 
 402.4884   12.2500    3.5960 -999.0000   51.3770   51.1660   51.3770 -999.0000 -999.0000 -999.0000    1.6360   -1.0170    0.6480   36.2220 -999.0000    3.0000 
 402.6408   12.2500    3.5960 -999.0000   52.8350   53.2450   52.8350 -999.0000 -999.0000 -999.0000    1.6280   -0.9900    0.6160   49.5610 -999.0000    3.0000 
 402.7932   12.2500    3.5960 -999.0000   53.0370   53.6850   53.0370 -999.0000 -999.0000 -999.0000    1.6160   -0.9870    0.6210   59.0620 -999.0000    3.0000 
 402.9456   12.2500    3.5960 -999.0000   50.6570   51.2670   50.6570 -999.0000 -999.0000 -999.0000    1.5800   -0.9850    0.6240   69.9510 -999.0000    3.0000 
 403.0980   12.2500    3.5960 -999.0000   49.7310   50.3080   49.7310 -999.0000 -999.0000 -999.0000    1.5480   -0.9900    0.6550   69.9890 -999.0000    3.0000 
 403.2504   12.2500    3.5960 -999.0000   50.6230   51.9990   50.6230 -999.0000 -999.0000 -999.0000    1.5240   -1.0070    0.6010   44.8320 -999.0000    3.0000 
 403.4028   12.2500    3.5960 -999.0000   51.2360   52.9840   51.2360 -999.0000 -999.0000 -999.0000    1.5350   -1.0060    0.6070   43.1720 -999.0000    3.0000 
 403.5552   12.2500    3.5960 -999.0000   52.5310   54.7960   52.5310 -999.0000 -999.0000 -999.0000    1.6230   -0.9850    0.6200   34.0070 -999.0000    3.0000 
 403.7076   12.2500    3.5960 -999.0000   51.5330   53.8710   51.5330 -999.0000 -999.0000 -999.0000    1.6350   -0.9850    0.6380   34.5810 -999.0000    3.0000 
 403.8600   12.2500    3.5960 -999.0000   48.9160   50.2480   48.9160 -999.0000 -999.0000 -999.0000    1.5930   -0.9980    0.6530   27.3310 -999.0000    3.0000 
