~VERSION INFORMATION
 VERS.                 2.0:   CWLS LOG ASCII STANDARD - VERSION 2.0
 WRAP.                  NO:   SINGLE LINE PER DEPTH STEP
 CREA.                 19/01/2018 11:58:16
#CREATED USING DSPetro VERSION 5000.10.1.3 BY H191660 ON 19/01/2018 11:58:16
~WELL INFORMATION
#MNEM.UNIT       DATA                          DESCRIPTION MNEMONIC
#---------      ---------------------------   --------------------------
 STRT    .M         0.1524                    : START DEPTH
 STOP    .M         1199.9976                 : STOP DEPTH
 STEP    .M         0.1524                    : STEP VALUE
 NULL    .      -999.0000                     : NULL VALUE
 DATE    .      19/01/2018                    : LAS file Creation Date
 WELL .      2930_Spider-1               : Well Name
 COMP .      Neftex Exploration Insights : Company
 FLD  .                                  : Field
 UWI  .      ZAUWL_006180                : Unique Well Identifier (UWI)
 LOC  .                                  : Location
 RWS  .      -999                        : Def_Rw
 WST  .      -999                        : Def_Rwt
 SRVC .                                  : Contractor
~CURVE INFORMATION
#MNEM              UNIT       API CODE   Curve Type Comments
#----------  --------------- ----------  ---------- -----------
 DEPTH      .M                         : Depth       
 Bitsize    .in                        : BitSize     
 CAL_INCH   .inch                      :             Caliper Log - A representation of the measured diameter of a borehole along its depth
 SP_Corr    .mv                        : SP          Spontaneous Potential - Records the electrical potential produced by the interaction of formation water, conductive drilling mud, and certain ion-sele
 GR_API     .API                       : GammaRay    gammaRay    Corrected / Computed Gamma Ray - Radiation with the Uranium component removed. Also known as a 'carbonate gamma ray'
 SGR_API    .API                       : gammaRay    Spectral Gamma Ray - Total gamma calibrated to API, measured using a spectoral gamma array tool
 CGR_API    .API                       : gammaRay    Corrected / Computed Gamma Ray - Radiation with the Uranium component removed. Also known as a 'carbonate gamma ray'
 LLD_OHMM   .ohmm                      : deepRes     Laterlog Deep Resistivity - Measurement made several feet into the formation; generally considered a measurement of the undisturbed formation
 LLS_OHMM   .ohmm                      : shalRes     Laterlog Shallow Resistivity - one to two feet into the formation; generally considered to measure the formation
 DT_US_FT   .us/ft                     : sonic       Interval Transit Time: Compressional Wave - Evaluates the time it takes for a compressional wave to traverse a fixed distance
 RHOB_G_CC  .g/cc                      : density     Bulk Density - Measures the density of bulk material, including any void space or other materials contained in the subject volume
 DRHO_G_CC  .g/cc                      : drho        Density Correction - Investigates the correction to the Bulk Density log; used as an indication of hole condition to validate the Bulk Density measure
 NPHI_v_v   .usl                       : neutron     Neutron Porosity - Measured with an neutron logging device calibrated to a given matrix (limestone, sandstone and dolomite) - unscaled
 PEF_B_E    .b/e-                      : PEF         Photoelectric Factor - A log of photoelectric absorption properties. Often expressed in an approximation unit barns/electron (b/e-)
 LITH       .                          : LITH        Lithology Curve
 LITH_v2    .                          : LITH        Lithology Curve
~A  DEPTH  Bitsize   CAL_INCH  SP_Corr    GR_API   SGR_API   CGR_API   LLD_OHMM  LLS_OHMM  DT_US_FT RHOB_G_C  DRHO_G_C   NPHI_v_v  PEF_B_E     LITH    LITH_v2  
# ...
  30.6324 -999.0000    3.5960 -999.0000   21.0140   13.9980   21.0140 -999.0000 -999.0000 -999.0000    0.7560   -1.2650    0.7190   33.5400 -999.0000    3.0000 
  30.7848 -999.0000    3.5960 -999.0000   21.3100   14.1030   21.3100 -999.0000 -999.0000 -999.0000    0.7590   -1.2660    0.7750   36.0650 -999.0000    3.0000 
  30.9372 -999.0000    3.5960 -999.0000   22.6740   14.8350   22.6740 -999.0000 -999.0000 -999.0000    0.7780   -1.2580    0.8420   42.2630 -999.0000    3.0000 
  31.0896 -999.0000    3.5960 -999.0000   22.3720   14.0480   22.3720 -999.0000 -999.0000 -999.0000    0.7750   -1.2610    0.8620   46.1860 -999.0000    3.0000 
  31.2420 -999.0000    3.5960 -999.0000   23.1230   14.9480   23.1230 -999.0000 -999.0000 -999.0000    0.7590   -1.2710    0.7990   46.6560 -999.0000    3.0000 
  31.3944 -999.0000    3.5960 -999.0000   23.1760   15.2490   23.1760 -999.0000 -999.0000 -999.0000    0.7590   -1.2700    0.7950   48.5520 -999.0000    3.0000 
  31.5468 -999.0000    3.5960 -999.0000   21.0530   13.0770   21.0530 -999.0000 -999.0000 -999.0000    0.7740   -1.2600    0.8270   40.9610 -999.0000    3.0000 
  31.6992 -999.0000    3.5960 -999.0000   21.2530   13.5190   21.2530 -999.0000 -999.0000 -999.0000    0.7690   -1.2640    0.8640   41.0220 -999.0000    3.0000 
  31.8516 -999.0000    3.5960 -999.0000   21.7370   13.9680   21.7370 -999.0000 -999.0000 -999.0000    0.7720   -1.2610    0.7910   34.2500 -999.0000    3.0000 
  32.0040 -999.0000    3.5960 -999.0000   20.6560   12.5130   20.6560 -999.0000 -999.0000 -999.0000    0.7670   -1.2610    0.7650   35.9930 -999.0000    3.0000 
  32.1564 -999.0000    3.5960 -999.0000   21.0620   13.3530   21.0620 -999.0000 -999.0000 -999.0000    0.7880   -1.2610    0.7290   38.0950 -999.0000    3.0000 
  32.3088 -999.0000    3.5960 -999.0000   20.0480   12.1770   20.0480 -999.0000 -999.0000 -999.0000    0.8030   -1.2530    0.7640   40.2480 -999.0000    3.0000 
  32.4612 -999.0000    3.5960 -999.0000   21.1120   13.3300   21.1120 -999.0000 -999.0000 -999.0000    0.8360   -1.2300    0.7830   36.0680 -999.0000    3.0000 
  32.6136 -999.0000    3.5960 -999.0000   21.0470   12.8540   21.0470 -999.0000 -999.0000 -999.0000    0.8340   -1.2240    0.7900   36.8880 -999.0000    3.0000 
  32.7660 -999.0000    3.5960 -999.0000   23.4990   15.1950   23.4990 -999.0000 -999.0000 -999.0000    0.8270   -1.2160    0.8000   37.5120 -999.0000    3.0000 
  32.9184 -999.0000    3.5960 -999.0000   23.5410   14.9340   23.5410 -999.0000 -999.0000 -999.0000    0.8240   -1.2110    0.8280   41.0390 -999.0000    3.0000 
  33.0708 -999.0000    3.5960 -999.0000   22.5270   13.4970   22.5270 -999.0000 -999.0000 -999.0000    0.8220   -1.2100    0.8300   36.9590 -999.0000    3.0000 
  33.2232 -999.0000    3.5960 -999.0000   22.7370   13.7570   22.7370 -999.0000 -999.0000 -999.0000    0.8160   -1.2110    0.8300   38.2100 -999.0000    3.0000 
  33.3756 -999.0000    3.5960 -999.0000   22.7170   14.2710   22.7170 -999.0000 -999.0000 -999.0000    0.8110   -1.2110    0.7510   37.5840 -999.0000    3.0000 
  33.5280 -999.0000    3.5960 -999.0000   21.8260   13.1390   21.8260 -999.0000 -999.0000 -999.0000    0.8160   -1.2050    0.7530   36.7620 -999.0000    3.0000 
  33.6804 -999.0000    3.5960 -999.0000   22.2320   13.9490   22.2320 -999.0000 -999.0000 -999.0000    0.8180   -1.2050    0.7570   34.4580 -999.0000    3.0000 
  33.8328 -999.0000    3.5960 -999.0000   23.3480   15.4190   23.3480 -999.0000 -999.0000 -999.0000    0.8320   -1.1950    0.8030   35.7370 -999.0000    3.0000 
  33.9852 -999.0000    3.5960 -999.0000   23.0170   14.4890   23.0170 -999.0000 -999.0000 -999.0000    0.8430   -1.1890    0.7960   37.6880 -999.0000    3.0000 
  34.1376 -999.0000    3.5960 -999.0000   23.2950   14.0670   23.2950 -999.0000 -999.0000 -999.0000    0.8570   -1.1770    0.7390   42.1650 -999.0000    3.0000 
  34.2900 -999.0000    3.5960 -999.0000   23.5600   14.0630   23.5600 -999.0000 -999.0000 -999.0000    0.8620   -1.1740    0.6940   41.5370 -999.0000    3.0000 
  34.4424 -999.0000    3.5960 -999.0000   25.4410   16.9400   25.4410 -999.0000 -999.0000 -999.0000    0.8940   -1.1520    0.6770   35.5370 -999.0000    3.0000 
  34.5948 -999.0000    3.5960 -999.0000   26.6900   19.6730   26.6900 -999.0000 -999.0000 -999.0000    0.9050   -1.1480    0.6700   34.1760 -999.0000    3.0000 
  34.7472 -999.0000    3.5960 -999.0000   26.2700   18.9320   26.2700 -999.0000 -999.0000 -999.0000    0.9080   -1.1570    0.6920   31.1460 -999.0000    3.0000 
  34.8996 -999.0000    3.5960 -999.0000   26.2910   19.0040   26.2910 -999.0000 -999.0000 -999.0000    0.8930   -1.1710    0.7010   32.7170 -999.0000    3.0000 
  35.0520 -999.0000    3.5960 -999.0000   26.7550   20.2040   26.7550 -999.0000 -999.0000 -999.0000    0.8990   -1.1750    0.7230   33.3680 -999.0000    3.0000 
  35.2044 -999.0000    3.5960 -999.0000   24.6490   17.7860   24.6490 -999.0000 -999.0000 -999.0000    0.8930   -1.1830    0.7430   36.2180 -999.0000    3.0000 
  35.3568 -999.0000    3.5960 -999.0000   25.5080   19.2450   25.5080 -999.0000 -999.0000 -999.0000    0.9030   -1.1850    0.7030   40.4390 -999.0000    3.0000 
  35.5092 -999.0000    3.5960 -999.0000   24.5680   17.8280   24.5680 -999.0000 -999.0000 -999.0000    0.9030   -1.1850    0.7530   41.3820 -999.0000    3.0000 
  35.6616 -999.0000    3.5960 -999.0000   25.8700   19.8610   25.8700 -999.0000 -999.0000 -999.0000    0.9150   -1.1780    0.7580   38.6000 -999.0000    3.0000 
  35.8140 -999.0000    3.5960 -999.0000   26.5360   20.9830   26.5360 -999.0000 -999.0000 -999.0000    0.9190   -1.1750    0.8220   38.2110 -999.0000    3.0000 
  35.9664 -999.0000    3.5960 -999.0000   25.1870   19.7410   25.1870 -999.0000 -999.0000 -999.0000    0.9240   -1.1740    0.8260   46.0940 -999.0000    3.0000 
  36.1188 -999.0000    3.5960 -999.0000   25.3450   20.3980   25.3450 -999.0000 -999.0000 -999.0000    0.9230   -1.1760    0.8700   48.5140 -999.0000    3.0000 
  36.2712 -999.0000    3.5960 -999.0000   23.7540   18.9900   23.7540 -999.0000 -999.0000 -999.0000    0.9210   -1.1800    0.7950   43.5310 -999.0000    3.0000 
  36.4236 -999.0000    3.5960 -999.0000   22.9440   17.9510   22.9440 -999.0000 -999.0000 -999.0000    0.9240   -1.1800    0.7430   39.0810 -999.0000    3.0000 
  36.5760 -999.0000    3.5960 -999.0000   23.1820   17.8530   23.1820 -999.0000 -999.0000 -999.0000    0.9170   -1.1920    0.6360   33.5300 -999.0000    3.0000 
  36.7284 -999.0000    3.5960 -999.0000   24.6120   19.2290   24.6120 -999.0000 -999.0000 -999.0000    0.9160   -1.1990    0.7270   33.1090 -999.0000    3.0000 
  36.8808 -999.0000    3.5960 -999.0000   24.9260   19.3430   24.9260 -999.0000 -999.0000 -999.0000    0.9150   -1.2030    0.7590   34.7650 -999.0000    3.0000 
  37.0332 -999.0000    3.5960 -999.0000   25.9210   20.3670   25.9210 -999.0000 -999.0000 -999.0000    0.9260   -1.2020    0.7870   34.6850 -999.0000    3.0000 
  37.1856 -999.0000    3.5960 -999.0000   27.4480   22.1610   27.4480 -999.0000 -999.0000 -999.0000    0.9310   -1.2010    0.7310   35.3650 -999.0000    3.0000 
  37.3380 -999.0000    3.5960 -999.0000   26.5060   20.9150   26.5060 -999.0000 -999.0000 -999.0000    0.9400   -1.2010    0.7520   31.7730 -999.0000    3.0000 
  37.4904 -999.0000    3.5960 -999.0000   26.0910   20.4020   26.0910 -999.0000 -999.0000 -999.0000    0.9380   -1.2080    0.7230   33.2540 -999.0000    3.0000 
  37.6428 -999.0000    3.5960 -999.0000   26.3440   20.9970   26.3440 -999.0000 -999.0000 -999.0000    0.9470   -1.2030    0.7120   33.3360 -999.0000    3.0000 
  37.7952 -999.0000    3.5960 -999.0000   28.2280   23.5660   28.2280 -999.0000 -999.0000 -999.0000    0.9510   -1.2000    0.6830   32.7060 -999.0000    3.0000 
  37.9476 -999.0000    3.5960 -999.0000   25.7650   20.8800   25.7650 -999.0000 -999.0000 -999.0000    0.9570   -1.1970    0.6940   36.6720 -999.0000    3.0000 
  38.1000 -999.0000    3.5960 -999.0000   25.1040   20.3020   25.1040 -999.0000 -999.0000 -999.0000    0.9570   -1.2010    0.7320   37.6560 -999.0000    3.0000 
