~VERSION INFORMATION
 VERS.                 2.0:   CWLS LOG ASCII STANDARD - VERSION 2.0
 WRAP.                  NO:   SINGLE LINE PER DEPTH STEP
 CREA.                 19/01/2018 11:58:16
#CREATED USING DSPetro VERSION 5000.10.1.3 BY H191660 ON 19/01/2018 11:58:16
~WELL INFORMATION
#MNEM.UNIT       DATA                          DESCRIPTION MNEMONIC
#---------      ---------------------------   --------------------------
 STRT    .M         0.1524                    : START DEPTH
 STOP    .M         1199.9976                 : STOP DEPTH
 STEP    .M         0.1524                    : STEP VALUE
 NULL    .      -999.0000                     : NULL VALUE
 DATE    .      19/01/2018                    : LAS file Creation Date
 WELL .      2930_Spider-1               : Well Name
 COMP .      Neftex Exploration Insights : Company
 FLD  .                                  : Field
 UWI  .      ZAUWL_006180                : Unique Well Identifier (UWI)
 LOC  .                                  : Location
 RWS  .      -999                        : Def_Rw
 WST  .      -999                        : Def_Rwt
 SRVC .                                  : Contractor
~CURVE INFORMATION
#MNEM              UNIT       API CODE   Curve Type Comments
#----------  --------------- ----------  ---------- -----------
 DEPTH      .M                         : Depth       
 Bitsize    .in                        : BitSize     
 CAL_INCH   .inch                      :             Caliper Log - A representation of the measured diameter of a borehole along its depth
 SP_Corr    .mv                        : SP          Spontaneous Potential - Records the electrical potential produced by the interaction of formation water, conductive drilling mud, and certain ion-sele
 GR_API     .API                       : GammaRay    gammaRay    Corrected / Computed Gamma Ray - Radiation with the Uranium component removed. Also known as a 'carbonate gamma ray'
 SGR_API    .API                       : gammaRay    Spectral Gamma Ray - Total gamma calibrated to API, measured using a spectoral gamma array tool
 CGR_API    .API                       : gammaRay    Corrected / Computed Gamma Ray - Radiation with the Uranium component removed. Also known as a 'carbonate gamma ray'
 LLD_OHMM   .ohmm                      : deepRes     Laterlog Deep Resistivity - Measurement made several feet into the formation; generally considered a measurement of the undisturbed formation
 LLS_OHMM   .ohmm                      : shalRes     Laterlog Shallow Resistivity - one to two feet into the formation; generally considered to measure the formation
 DT_US_FT   .us/ft                     : sonic       Interval Transit Time: Compressional Wave - Evaluates the time it takes for a compressional wave to traverse a fixed distance
 RHOB_G_CC  .g/cc                      : density     Bulk Density - Measures the density of bulk material, including any void space or other materials contained in the subject volume
 DRHO_G_CC  .g/cc                      : drho        Density Correction - Investigates the correction to the Bulk Density log; used as an indication of hole condition to validate the Bulk Density measure
 NPHI_v_v   .usl                       : neutron     Neutron Porosity - Measured with an neutron logging device calibrated to a given matrix (limestone, sandstone and dolomite) - unscaled
 PEF_B_E    .b/e-                      : PEF         Photoelectric Factor - A log of photoelectric absorption properties. Often expressed in an approximation unit barns/electron (b/e-)
 LITH       .                          : LITH        Lithology Curve
 LITH_v2    .                          : LITH        Lithology Curve
~A  DEPTH  Bitsize   CAL_INCH  SP_Corr    GR_API   SGR_API   CGR_API   LLD_OHMM  LLS_OHMM  DT_US_FT RHOB_G_C  DRHO_G_C   NPHI_v_v  PEF_B_E     LITH    LITH_v2  
# ...
 579.2724    8.5000    8.7970   -0.9684   81.5050   92.3410   81.5050    0.7290    0.7120  154.7000    2.0370   -0.0120    0.4500    3.0700   36.0000   37.0000 
 579.4248    8.5000    8.7970   -0.9709   80.6910   92.0130   80.6910    0.7190    0.7130  155.3000    2.0360   -0.0100    0.4560    3.0340   36.0000   37.0000 
 579.5772    8.5000    8.7970   -0.7234   80.6330   92.2780   80.6330    0.7250    0.7090  155.3000    2.0390   -0.0080    0.4480    3.0010   36.0000   37.0000 
 579.7296    8.5000    8.7970   -0.4760   79.9830   92.2300   79.9830    0.7190    0.7120  155.6000    2.0520   -0.0060    0.4500    2.9550   36.0000   37.0000 
 579.8820    8.5000    8.7970   -0.2285   79.3980   91.8520   79.3980    0.7200    0.6940  155.4000    2.0530   -0.0070    0.4520    3.0060   36.0000   37.0000 
 580.0344    8.5000    8.7970   -0.4810   77.7900   90.0460   77.7900    0.7190    0.7190  155.4000    2.0500   -0.0100    0.4710    3.0920   36.0000   37.0000 
 580.1868    8.5000    8.7970   -0.4835   77.3690   89.6600   77.3690    0.7210    0.6790  155.5000    2.0420   -0.0140    0.4810    3.1420   36.0000   37.0000 
 580.3392    8.5000    8.7970   -0.4860   77.4130   90.0430   77.4130    0.7170    0.7190  155.5000    2.0300   -0.0150    0.4410    3.0650   36.0000   37.0000 
 580.4916    8.5000    8.7970   -0.7385   77.5530   90.6660   77.5530    0.7210    0.6920  155.1000    2.0230   -0.0150    0.4280    3.0430   36.0000   37.0000 
 580.6440    8.5000    8.7970   -0.7410   78.2630   91.3530   78.2630    0.7180    0.7170  155.7000    2.0180   -0.0170    0.4000    3.0010   36.0000   36.0000 
 580.7964    8.5000    8.7970   -0.9935   78.7000   91.8870   78.7000    0.7170    0.6960  155.5000    2.0190   -0.0160    0.4060    2.9860   36.0000   36.0000 
 580.9488    8.5000    8.7970   -0.9961   80.5360   94.2860   80.5360    0.7170    0.6970  155.7000    2.0260   -0.0140    0.4160    2.8700   36.0000   36.0000 
 581.1012    8.5000    8.7970   -0.4986   79.3210   92.7500   79.3210    0.7210    0.7000  155.7000    2.0270   -0.0160    0.4120    2.8650   36.0000   36.0000 
 581.2536    8.5000    8.7970   -0.7511   77.6260   90.5800   77.6260    0.7190    0.6930  155.4000    2.0330   -0.0150    0.4420    2.8940   36.0000   37.0000 
 581.4060    8.5000    8.7970   -0.7536   77.2420   90.3050   77.2420    0.7200    0.7000  155.4000    2.0390   -0.0120    0.4460    2.9060   36.0000   37.0000 
 581.5584    8.5000    8.7970   -0.7561   75.2590   87.4310   75.2590    0.7230    0.7060  155.4000    2.0410   -0.0130    0.4500    2.8950   36.0000   37.0000 
 581.7108    8.5000    8.7970   -0.7586   75.0990   87.5970   75.0990    0.7210    0.6950  155.3000    2.0420   -0.0130    0.4350    2.8770   36.0000   37.0000 
 581.8632    8.5000    8.8180   -0.5111   78.0950   92.0790   78.0950    0.7260    0.7030  155.4000    2.0380   -0.0140    0.4090    2.9680   36.0000   36.0000 
 582.0156    8.5000    8.8740   -0.7636   79.3000   93.8610   79.3000    0.7220    0.7000  155.2000    2.0400   -0.0150    0.4230    2.9850   36.0000   37.0000 
 582.1680    8.5000    8.9030   -0.7662   78.2470   91.8130   78.2470    0.7190    0.6780  155.5000    2.0360   -0.0170    0.4410    3.0200   36.0000   37.0000 
 582.3204    8.5000    8.8930   -0.7687   76.8840   89.5800   76.8840    0.7250    0.7140  154.9000    2.0360   -0.0180    0.4540    3.0160   36.0000   37.0000 
 582.4728    8.5000    8.9060   -0.7712   75.4800   86.2890   75.4800    0.7260    0.7050  155.1000    2.0290   -0.0200    0.4480    2.9240   36.0000   37.0000 
 582.6252    8.5000    8.9100   -0.7737   77.0390   87.4340   77.0390    0.7200    0.7070  155.0000    2.0320   -0.0190    0.4560    2.9280   36.0000   37.0000 
 582.7776    8.5000    8.9160   -0.7762   79.3520   89.6620   79.3520    0.7230    0.7160  155.1000    2.0350   -0.0190    0.4650    2.9540   36.0000   37.0000 
 582.9300    8.5000    8.9230   -0.5287   78.9410   87.9990   78.9410    0.7280    0.7010  155.1000    2.0450   -0.0160    0.4800    3.0790   36.0000   37.0000 
 583.0824    8.5000    8.9030   -0.7813   80.4990   89.9370   80.4990    0.7260    0.7170  155.1000    2.0520   -0.0140    0.4760    3.0790   36.0000   37.0000 
 583.2348    8.5000    8.8100   -0.7838   81.5160   90.9390   81.5160    0.7300    0.7120  154.6000    2.0550   -0.0100    0.4540    3.0730   36.0000   37.0000 
 583.3872    8.5000    8.7970   -0.2863   81.5280   90.0920   81.5280    0.7310    0.7300  154.0000    2.0550   -0.0090    0.4450    3.0140   36.0000   37.0000 
 583.5396    8.5000    8.7970   -0.2888   82.1640   89.7150   82.1640    0.7310    0.7190  154.1000    2.0530   -0.0060    0.4520    2.9540   36.0000   37.0000 
 583.6920    8.5000    8.7970   -0.5413   83.4810   91.1940   83.4810    0.7370    0.7080  153.8000    2.0560   -0.0060    0.4650    2.9240   36.0000   37.0000 
 583.8444    8.5000    8.7970   -0.5438   84.3500   90.8140   84.3500    0.7400    0.7480  153.6000    2.0620   -0.0060    0.4610    2.9830   36.0000   37.0000 
 583.9968    8.5000    8.7970   -0.7963   84.7870   90.8410   84.7870    0.7460    0.7250  153.7000    2.0690   -0.0050    0.4640    3.0030   36.0000   37.0000 
 584.1492    8.5000    8.8020   -0.7988   85.5730   91.3900   85.5730    0.7440    0.7260  154.2000    2.0570   -0.0080    0.4320    2.9110   36.0000   37.0000 
 584.3016    8.5000    8.8120   -0.8014   86.3050   92.2980   86.3050    0.7370    0.7170  154.2000    2.0520   -0.0100    0.4280    2.8370   36.0000   37.0000 
 584.4540    8.5000    8.8490   -0.8039   86.3960   91.9390   86.3960    0.7370    0.7280  154.2000    2.0510   -0.0110    0.4280    2.9090   36.0000   37.0000 
 584.6064    8.5000    8.8440   -1.0564   85.5590   90.3140   85.5590    0.7390    0.7200  154.5000    2.0630   -0.0090    0.4430    2.9160   36.0000   37.0000 
 584.7588    8.5000    8.8140   -0.8089   86.3780   91.5270   86.3780    0.7410    0.7560  154.0000    2.0680   -0.0100    0.4630    3.0810   36.0000   37.0000 
 584.9112    8.5000    8.7990   -0.5614   83.7530   87.8110   83.7530    0.7500    0.7190  153.3000    2.0730   -0.0090    0.4620    3.0420   36.0000   37.0000 
 585.0636    8.5000    8.7970   -0.8139   88.5890   94.2190   88.5890    0.7480    0.7500  153.4000    2.0650   -0.0090    0.4280    3.0530   36.0000   37.0000 
 585.2160    8.5000    8.7970   -0.8164   89.1050   94.8670   89.1050    0.7430    0.7190  153.3000    2.0670   -0.0090    0.4220    2.9850   36.0000   37.0000 
 585.3684    8.5000    8.7970   -0.8189   85.6900   89.1330   85.6900    0.7430    0.7510  153.6000    2.0600   -0.0110    0.4170    2.9150   36.0000   37.0000 
 585.5208    8.5000    8.7970   -0.8215   86.5520   90.0490   86.5520    0.7370    0.7260  153.5000    2.0610   -0.0100    0.4370    2.8950   36.0000   37.0000 
 585.6732    8.5000    8.7970   -0.8240   87.0200   90.8160   87.0200    0.7360    0.7260  153.6000    2.0550   -0.0140    0.4390    2.9530   36.0000   37.0000 
 585.8256    8.5000    8.7970   -0.8265   87.2960   90.3140   87.2960    0.7420    0.7280  153.9000    2.0560   -0.0150    0.4330    3.0470   36.0000   37.0000 
 585.9780    8.5000    8.7970   -0.8290   87.8070   90.4900   87.8070    0.7360    0.7330  153.9000    2.0570   -0.0150    0.4230    3.0700   36.0000   37.0000 
 586.1304    8.5000    8.7970   -0.8315   91.0590   94.2830   91.0590    0.7410    0.7350  153.9000    2.0510   -0.0160    0.4110    3.0170   36.0000   37.0000 
 586.2828    8.5000    8.7970   -0.8340   89.6980   92.5320   89.6980    0.7440    0.7420  153.8000    2.0490   -0.0170    0.4150    2.9680   36.0000   37.0000 
 586.4352    8.5000    8.7870   -0.5865   90.7740   93.0990   90.7740    0.7360    0.7160  153.8000    2.0490   -0.0150    0.4210    2.9260   36.0000   37.0000 
 586.5876    8.5000    8.7750   -0.5891   91.0770   93.3200   91.0770    0.7370    0.7280  153.8000    2.0480   -0.0140    0.4240    2.9250   36.0000   37.0000 
 586.7400    8.5000    8.7970   -0.0916   91.0240   92.6660   91.0240    0.7350    0.7240  154.0000    2.0470   -0.0120    0.4390    2.9990   36.0000   37.0000 
