~VERSION INFORMATION
 VERS.                 2.0:   CWLS LOG ASCII STANDARD - VERSION 2.0
 WRAP.                  NO:   SINGLE LINE PER DEPTH STEP
 CREA.                 19/01/2018 11:58:16
#CREATED USING DSPetro VERSION 5000.10.1.3 BY H191660 ON 19/01/2018 11:58:16
~WELL INFORMATION
#MNEM.UNIT       DATA                          DESCRIPTION MNEMONIC
#---------      ---------------------------   --------------------------
 STRT    .M         0.1524                    : START DEPTH
 STOP    .M         1199.9976                 : STOP DEPTH
 STEP    .M         0.1524                    : STEP VALUE
 NULL    .      -999.0000                     : NULL VALUE
 DATE    .      19/01/2018                    : LAS file Creation Date
 WELL .      2930_Spider-1               : Well Name
 COMP .      Neftex Exploration Insights : Company
 FLD  .                                  : Field
 UWI  .      ZAUWL_006180                : Unique Well Identifier (UWI)
 LOC  .                                  : Location
 RWS  .      -999                        : Def_Rw
 WST  .      -999                        : Def_Rwt
 SRVC .                                  : Contractor
~CURVE INFORMATION
#MNEM              UNIT       API CODE   Curve Type Comments
#----------  --------------- ----------  ---------- -----------
 DEPTH      .M                         : Depth       
 Bitsize    .in                        : BitSize     
 CAL_INCH   .inch                      :             Caliper Log - A representation of the measured diameter of a borehole along its depth
 SP_Corr    .mv                        : SP          Spontaneous Potential - Records the electrical potential produced by the interaction of formation water, conductive drilling mud, and certain ion-sele
 GR_API     .API                       : GammaRay    gammaRay    Corrected / Computed Gamma Ray - Radiation with the Uranium component removed. Also known as a 'carbonate gamma ray'
 SGR_API    .API                       : gammaRay    Spectral Gamma Ray - Total gamma calibrated to API, measured using a spectoral gamma array tool
 CGR_API    .API                       : gammaRay    Corrected / Computed Gamma Ray - Radiation with the Uranium component removed. Also known as a 'carbonate gamma ray'
 LLD_OHMM   .ohmm                      : deepRes     Laterlog Deep Resistivity - Measurement made several feet into the formation; generally considered a measurement of the undisturbed formation
 LLS_OHMM   .ohmm                      : shalRes     Laterlog Shallow Resistivity - one to two feet into the formation; generally considered to measure the formation
 DT_US_FT   .us/ft                     : sonic       Interval Transit Time: Compressional Wave - Evaluates the time it takes for a compressional wave to traverse a fixed distance
 RHOB_G_CC  .g/cc                      : density     Bulk Density - Measures the density of bulk material, including any void space or other materials contained in the subject volume
 DRHO_G_CC  .g/cc                      : drho        Density Correction - Investigates the correction to the Bulk Density log; used as an indication of hole condition to validate the Bulk Density measure
 NPHI_v_v   .usl                       : neutron     Neutron Porosity - Measured with an neutron logging device calibrated to a given matrix (limestone, sandstone and dolomite) - unscaled
 PEF_B_E    .b/e-                      : PEF         Photoelectric Factor - A log of photoelectric absorption properties. Often expressed in an approximation unit barns/electron (b/e-)
 LITH       .                          : LITH        Lithology Curve
 LITH_v2    .                          : LITH        Lithology Curve
~A  DEPTH  Bitsize   CAL_INCH  SP_Corr    GR_API   SGR_API   CGR_API   LLD_OHMM  LLS_OHMM  DT_US_FT RHOB_G_C  DRHO_G_C   NPHI_v_v  PEF_B_E     LITH    LITH_v2  
# ...
 152.5524   12.2500    3.5960 -999.0000   29.5220   31.3670   29.5220 -999.0000 -999.0000 -999.0000    2.0350   -0.9220    0.3510   31.8240 -999.0000    3.0000 
 152.7048   12.2500    3.5960 -999.0000   30.1060   31.9660   30.1060 -999.0000 -999.0000 -999.0000    2.0290   -0.9240    0.3530   25.6110 -999.0000    3.0000 
 152.8572   12.2500    3.5960 -999.0000   37.1670   36.9150   37.1670 -999.0000 -999.0000 -999.0000    2.0220   -0.9180    0.3670   33.5320 -999.0000    3.0000 
 153.0096   12.2500    3.5960 -999.0000   35.2010   33.5660   35.2010 -999.0000 -999.0000 -999.0000    2.0430   -0.9070    0.3610   39.3760 -999.0000    3.0000 
 153.1620   12.2500    3.5960 -999.0000   35.7700   33.7050   35.7700 -999.0000 -999.0000 -999.0000    2.0820   -0.8880    0.3660   42.8980 -999.0000    3.0000 
 153.3144   12.2500    3.5960 -999.0000   38.9230   37.1950   38.9230 -999.0000 -999.0000 -999.0000    2.0730   -0.8930    0.3670   43.4520 -999.0000    3.0000 
 153.4668   12.2500    3.5960 -999.0000   41.9990   41.3710   41.9990 -999.0000 -999.0000 -999.0000    2.0300   -0.9030    0.3800   53.5160 -999.0000    3.0000 
 153.6192   12.2500    3.5960 -999.0000   42.8090   42.5170   42.8090 -999.0000 -999.0000 -999.0000    2.0110   -0.9090    0.3820   56.3860 -999.0000    3.0000 
 153.7716   12.2500    3.5960 -999.0000   41.0540   39.7500   41.0540 -999.0000 -999.0000 -999.0000    2.0300   -0.9040    0.3930   35.6010 -999.0000    3.0000 
 153.9240   12.2500    3.5960 -999.0000   38.7570   36.2730   38.7570 -999.0000 -999.0000 -999.0000    2.0370   -0.8990    0.4070   31.8060 -999.0000    3.0000 
 154.0764   12.2500    3.5960 -999.0000   39.3160   36.9210   39.3160 -999.0000 -999.0000 -999.0000    2.0450   -0.8930    0.4150   35.2920 -999.0000    3.0000 
 154.2288   12.2500    3.5960 -999.0000   40.8530   38.5990   40.8530 -999.0000 -999.0000 -999.0000    2.0430   -0.8920    0.4090   45.0450 -999.0000    3.0000 
 154.3812   12.2500    3.5960 -999.0000   41.6080   39.4700   41.6080 -999.0000 -999.0000 -999.0000    2.0360   -0.8960    0.4060   49.1570 -999.0000    3.0000 
 154.5336   12.2500    3.5960 -999.0000   43.9160   42.4470   43.9160 -999.0000 -999.0000 -999.0000    1.9860   -0.9130    0.4300   41.5090 -999.0000    3.0000 
 154.6860   12.2500    3.5960 -999.0000   44.1280   42.7630   44.1280 -999.0000 -999.0000 -999.0000    1.9470   -0.9250    0.4430   44.2520 -999.0000    3.0000 
 154.8384   12.2500    3.5960 -999.0000   44.4070   42.9530   44.4070 -999.0000 -999.0000 -999.0000    1.8990   -0.9420    0.4610   34.9030 -999.0000    3.0000 
 154.9908   12.2500    3.5960 -999.0000   43.4530   41.4630   43.4530 -999.0000 -999.0000 -999.0000    1.8920   -0.9440    0.4620   38.4790 -999.0000    3.0000 
 155.1432   12.2500    3.5960 -999.0000   43.7900   42.0280   43.7900 -999.0000 -999.0000 -999.0000    1.9090   -0.9350    0.4610   50.3070 -999.0000    3.0000 
 155.2956   12.2500    3.5960 -999.0000   42.6400   40.4700   42.6400 -999.0000 -999.0000 -999.0000    1.9060   -0.9340    0.4770   55.6200 -999.0000    3.0000 
 155.4480   12.2500    3.5960 -999.0000   41.9590   39.6330   41.9590 -999.0000 -999.0000 -999.0000    1.8550   -0.9480    0.4810   40.6940 -999.0000    3.0000 
 155.6004   12.2500    3.5960 -999.0000   42.4100   40.5300   42.4100 -999.0000 -999.0000 -999.0000    1.8330   -0.9580    0.4860   38.6020 -999.0000    3.0000 
 155.7528   12.2500    3.5960 -999.0000   42.9280   41.3360   42.9280 -999.0000 -999.0000 -999.0000    1.8090   -0.9660    0.4650   60.6630 -999.0000    3.0000 
 155.9052   12.2500    3.5960 -999.0000   42.0880   40.0220   42.0880 -999.0000 -999.0000 -999.0000    1.7990   -0.9710    0.4610   70.0140 -999.0000    3.0000 
 156.0576   12.2500    3.5960 -999.0000   42.3480   40.4050   42.3480 -999.0000 -999.0000 -999.0000    1.7950   -0.9750    0.4830   54.4070 -999.0000    3.0000 
 156.2100   12.2500    3.5960 -999.0000   42.0420   40.0530   42.0420 -999.0000 -999.0000 -999.0000    1.8010   -0.9770    0.4780   37.1620 -999.0000    3.0000 
 156.3624   12.2500    3.5960 -999.0000   39.7630   36.5060   39.7630 -999.0000 -999.0000 -999.0000    1.8370   -0.9630    0.4450   34.6190 -999.0000    3.0000 
 156.5148   12.2500    3.5960 -999.0000   41.5250   39.3530   41.5250 -999.0000 -999.0000 -999.0000    1.8490   -0.9610    0.4080   35.7680 -999.0000    3.0000 
 156.6672   12.2500    3.5960 -999.0000   42.4600   40.4380   42.4600 -999.0000 -999.0000 -999.0000    1.8660   -0.9580    0.4340   54.2950 -999.0000    3.0000 
 156.8196   12.2500    3.5960 -999.0000   43.3900   41.7790   43.3900 -999.0000 -999.0000 -999.0000    1.8630   -0.9680    0.4460   65.3880 -999.0000    3.0000 
 156.9720   12.2500    3.5960 -999.0000   40.4780   38.7040   40.4780 -999.0000 -999.0000 -999.0000    1.8530   -0.9790    0.4820   51.9190 -999.0000    3.0000 
 157.1244   12.2500    3.5960 -999.0000   42.2890   44.4830   42.2890 -999.0000 -999.0000 -999.0000    1.8430   -0.9830    0.4680   44.2010 -999.0000    3.0000 
 157.2768   12.2500    3.5960 -999.0000   41.9170   43.9600   41.9170 -999.0000 -999.0000 -999.0000    1.8420   -0.9870    0.4660   39.0450 -999.0000    3.0000 
 157.4292   12.2500    3.5960 -999.0000   39.8960   40.3520   39.8960 -999.0000 -999.0000 -999.0000    1.8550   -0.9820    0.4350   27.9850 -999.0000    3.0000 
 157.5816   12.2500    3.5960 -999.0000   38.5670   38.0310   38.5670 -999.0000 -999.0000 -999.0000    1.8820   -0.9720    0.4170   24.9930 -999.0000    3.0000 
 157.7340   12.2500    3.5960 -999.0000   39.3170   39.0370   39.3170 -999.0000 -999.0000 -999.0000    1.9560   -0.9520    0.4060   28.2770 -999.0000    3.0000 
 157.8864   12.2500    3.5960 -999.0000   40.0970   40.0950   40.0970 -999.0000 -999.0000 -999.0000    1.9970   -0.9430    0.4190   30.6990 -999.0000    3.0000 
 158.0388   12.2500    3.5960 -999.0000   41.2860   42.2460   41.2860 -999.0000 -999.0000 -999.0000    2.0570   -0.9180    0.4640   34.9170 -999.0000    3.0000 
 158.1912   12.2500    3.5960 -999.0000   40.5090   41.2760   40.5090 -999.0000 -999.0000 -999.0000    2.0480   -0.9220    0.4970   39.2010 -999.0000    3.0000 
 158.3436   12.2500    3.5960 -999.0000   36.1650   35.3580   36.1650 -999.0000 -999.0000 -999.0000    2.0190   -0.9290    0.4820   39.7780 -999.0000    3.0000 
 158.4960   12.2500    3.5960 -999.0000   34.4230   32.9490   34.4230 -999.0000 -999.0000 -999.0000    2.0020   -0.9360    0.4640   38.6260 -999.0000    3.0000 
 158.6484   12.2500    3.5960 -999.0000   28.9330   25.6380   28.9330 -999.0000 -999.0000 -999.0000    1.9220   -1.0340    0.4300   47.2130 -999.0000    3.0000 
 158.8008   12.2500    3.5960 -999.0000   26.5370   21.4020   26.5370 -999.0000 -999.0000 -999.0000    1.7820   -1.1210    0.4410   66.0370 -999.0000    3.0000 
 158.9532   12.2500    3.5960 -999.0000   27.6060   22.7030   27.6060 -999.0000 -999.0000 -999.0000    1.5320   -1.1690    0.4850   68.4210 -999.0000    3.0000 
 159.1056   12.2500    3.5960 -999.0000   27.9910   23.3410   27.9910 -999.0000 -999.0000 -999.0000    1.3310   -1.2130    0.5020   49.8230 -999.0000    3.0000 
 159.2580   12.2500    3.5960 -999.0000   27.5010   22.6590   27.5010 -999.0000 -999.0000 -999.0000    1.0290   -1.2400    0.5490   36.5260 -999.0000    3.0000 
 159.4104   12.2500    3.5960 -999.0000   26.9290   22.1120   26.9290 -999.0000 -999.0000 -999.0000    0.9480   -1.2060    0.5740   33.3890 -999.0000    3.0000 
 159.5628   12.2500    3.5960 -999.0000   25.8890   21.5690   25.8890 -999.0000 -999.0000 -999.0000    0.8850   -1.1330    0.5710   34.8680 -999.0000    3.0000 
 159.7152   12.2500    3.5960 -999.0000   27.0930   23.9470   27.0930 -999.0000 -999.0000 -999.0000    0.8510   -1.1380    0.5640   35.6070 -999.0000    3.0000 
 159.8676   12.2500    3.5960 -999.0000   28.2990   26.4750   28.2990 -999.0000 -999.0000 -999.0000    0.8560   -1.1300    0.6680   33.5970 -999.0000    3.0000 
 160.0200   12.2500    3.5960 -999.0000   27.3180   25.5070   27.3180 -999.0000 -999.0000 -999.0000    0.8560   -1.1360    0.6990   31.9670 -999.0000    3.0000 
