~VERSION INFORMATION
 VERS.                 2.0:   CWLS LOG ASCII STANDARD - VERSION 2.0
 WRAP.                  NO:   SINGLE LINE PER DEPTH STEP
 CREA.                 19/01/2018 11:58:16
#CREATED USING DSPetro VERSION 5000.10.1.3 BY H191660 ON 19/01/2018 11:58:16
~WELL INFORMATION
#MNEM.UNIT       DATA                          DESCRIPTION MNEMONIC
#---------      ---------------------------   --------------------------
 STRT    .M         0.1524                    : START DEPTH
 STOP    .M         1199.9976                 : STOP DEPTH
 STEP    .M         0.1524                    : STEP VALUE
 NULL    .      -999.0000                     : NULL VALUE
 DATE    .      19/01/2018                    : LAS file Creation Date
 WELL .      2930_Spider-1               : Well Name
 COMP .      Neftex Exploration Insights : Company
 FLD  .                                  : Field
 UWI  .      ZAUWL_006180                : Unique Well Identifier (UWI)
 LOC  .                                  : Location
 RWS  .      -999                        : Def_Rw
 WST  .      -999                        : Def_Rwt
 SRVC .                                  : Contractor
~CURVE INFORMATION
#MNEM              UNIT       API CODE   Curve Type Comments
#----------  --------------- ----------  ---------- -----------
 DEPTH      .M                         : Depth       
 Bitsize    .in                        : BitSize     
 CAL_INCH   .inch                      :             Caliper Log - A representation of the measured diameter of a borehole along its depth
 SP_Corr    .mv                        : SP          Spontaneous Potential - Records the electrical potential produced by the interaction of formation water, conductive drilling mud, and certain ion-sele
 GR_API     .API                       : GammaRay    gammaRay    Corrected / Computed Gamma Ray - Radiation with the Uranium component removed. Also known as a 'carbonate gamma ray'
 SGR_API    .API                       : gammaRay    Spectral Gamma Ray - Total gamma calibrated to API, measured using a spectoral gamma array tool
 CGR_API    .API                       : gammaRay    Corrected / Computed Gamma Ray - Radiation with the Uranium component removed. Also known as a 'carbonate gamma ray'
 LLD_OHMM   .ohmm                      : deepRes     Laterlog Deep Resistivity - Measurement made several feet into the formation; generally considered a measurement of the undisturbed formation
 LLS_OHMM   .ohmm                      : shalRes     Laterlog Shallow Resistivity - one to two feet into the formation; generally considered to measure the formation
 DT_US_FT   .us/ft                     : sonic       Interval Transit Time: Compressional Wave - Evaluates the time it takes for a compressional wave to traverse a fixed distance
 RHOB_G_CC  .g/cc                      : density     Bulk Density - Measures the density of bulk material, including any void space or other materials contained in the subject volume
 DRHO_G_CC  .g/cc                      : drho        Density Correction - Investigates the correction to the Bulk Density log; used as an indication of hole condition to validate the Bulk Density measure
 NPHI_v_v   .usl                       : neutron     Neutron Porosity - Measured with an neutron logging device calibrated to a given matrix (limestone, sandstone and dolomite) - unscaled
 PEF_B_E    .b/e-                      : PEF         Photoelectric Factor - A log of photoelectric absorption properties. Often expressed in an approximation unit barns/electron (b/e-)
 LITH       .                          : LITH        Lithology Curve
 LITH_v2    .                          : LITH        Lithology Curve
~A  DEPTH  Bitsize   CAL_INCH  SP_Corr    GR_API   SGR_API   CGR_API   LLD_OHMM  LLS_OHMM  DT_US_FT RHOB_G_C  DRHO_G_C   NPHI_v_v  PEF_B_E     LITH    LITH_v2  
# ...
 213.5124   12.2500    3.5960 -999.0000   43.3040   39.0250   43.3040 -999.0000 -999.0000 -999.0000    1.0700   -1.1610    0.6030   37.5410 -999.0000    3.0000 
 213.6648   12.2500    3.5960 -999.0000   41.9670   37.3130   41.9670 -999.0000 -999.0000 -999.0000    1.0730   -1.1500    0.5850   35.0400 -999.0000    3.0000 
 213.8172   12.2500    3.5960 -999.0000   38.9460   33.1040   38.9460 -999.0000 -999.0000 -999.0000    1.0830   -1.1420    0.5660   32.8460 -999.0000    3.0000 
 213.9696   12.2500    3.5960 -999.0000   39.8100   34.7170   39.8100 -999.0000 -999.0000 -999.0000    1.0940   -1.1210    0.5630   42.5650 -999.0000    3.0000 
 214.1220   12.2500    3.5960 -999.0000   38.5890   33.2860   38.5890 -999.0000 -999.0000 -999.0000    1.0950   -1.1160    0.5800   47.6090 -999.0000    3.0000 
 214.2744   12.2500    3.5960 -999.0000   41.2300   37.4130   41.2300 -999.0000 -999.0000 -999.0000    1.0960   -1.1080    0.6290   43.2380 -999.0000    3.0000 
 214.4268   12.2500    3.5960 -999.0000   41.1670   37.5630   41.1670 -999.0000 -999.0000 -999.0000    1.0990   -1.1060    0.6490   38.3240 -999.0000    3.0000 
 214.5792   12.2500    3.5960 -999.0000   41.6980   38.6600   41.6980 -999.0000 -999.0000 -999.0000    1.0960   -1.1100    0.6420   34.4350 -999.0000    3.0000 
 214.7316   12.2500    3.5960 -999.0000   38.5620   35.2400   38.5620 -999.0000 -999.0000 -999.0000    1.0850   -1.1160    0.5970   35.1090 -999.0000    3.0000 
 214.8840   12.2500    3.5960 -999.0000   38.9030   35.9840   38.9030 -999.0000 -999.0000 -999.0000    1.0720   -1.1230    0.5820   32.1710 -999.0000    3.0000 
 215.0364   12.2500    3.5960 -999.0000   36.8450   33.9640   36.8450 -999.0000 -999.0000 -999.0000    1.0640   -1.1170    0.6140   35.6410 -999.0000    3.0000 
 215.1888   12.2500    3.5960 -999.0000   36.8060   34.3740   36.8060 -999.0000 -999.0000 -999.0000    1.0670   -1.1100    0.6260   36.6060 -999.0000    3.0000 
 215.3412   12.2500    3.5960 -999.0000   34.0630   30.8000   34.0630 -999.0000 -999.0000 -999.0000    1.0710   -1.1040    0.6320   37.9550 -999.0000    3.0000 
 215.4936   12.2500    3.5960 -999.0000   33.1350   29.7190   33.1350 -999.0000 -999.0000 -999.0000    1.0770   -1.0980    0.6180   35.8070 -999.0000    3.0000 
 215.6460   12.2500    3.5960 -999.0000   31.8170   28.5310   31.8170 -999.0000 -999.0000 -999.0000    1.0910   -1.0850    0.5960   29.1000 -999.0000    3.0000 
 215.7984   12.2500    3.5960 -999.0000   32.8310   30.4330   32.8310 -999.0000 -999.0000 -999.0000    1.0870   -1.0870    0.5890   28.8060 -999.0000    3.0000 
 215.9508   12.2500    3.5960 -999.0000   34.9730   32.9370   34.9730 -999.0000 -999.0000 -999.0000    1.0930   -1.0830    0.5810   32.5730 -999.0000    3.0000 
 216.1032   12.2500    3.5960 -999.0000   32.7690   28.5090   32.7690 -999.0000 -999.0000 -999.0000    1.1010   -1.0740    0.6040   38.4070 -999.0000    3.0000 
 216.2556   12.2500    3.5960 -999.0000   35.5210   31.0460   35.5210 -999.0000 -999.0000 -999.0000    1.0870   -1.0840    0.6190   39.6870 -999.0000    3.0000 
 216.4080   12.2500    3.5960 -999.0000   39.0460   33.9650   39.0460 -999.0000 -999.0000 -999.0000    1.0720   -1.0900    0.6390   38.0670 -999.0000    3.0000 
 216.5604   12.2500    3.5960 -999.0000   39.6910   34.5590   39.6910 -999.0000 -999.0000 -999.0000    1.0600   -1.1000    0.6450   40.2770 -999.0000    3.0000 
 216.7128   12.2500    3.5960 -999.0000   41.0610   37.6090   41.0610 -999.0000 -999.0000 -999.0000    1.0490   -1.1110    0.6360   40.5020 -999.0000    3.0000 
 216.8652   12.2500    3.5960 -999.0000   42.4880   40.3620   42.4880 -999.0000 -999.0000 -999.0000    1.0560   -1.1220    0.5940   52.3710 -999.0000    3.0000 
 217.0176   12.2500    3.5960 -999.0000   41.6350   39.4170   41.6350 -999.0000 -999.0000 -999.0000    1.0670   -1.1170    0.5640   44.9070 -999.0000    3.0000 
 217.1700   12.2500    3.5960 -999.0000   42.5360   41.4300   42.5360 -999.0000 -999.0000 -999.0000    1.0830   -1.1110    0.5860   37.4510 -999.0000    3.0000 
 217.3224   12.2500    3.5960 -999.0000   44.5350   45.9990   44.5350 -999.0000 -999.0000 -999.0000    1.0830   -1.1160    0.5960   34.6830 -999.0000    3.0000 
 217.4748   12.2500    3.5960 -999.0000   45.5870   48.3710   45.5870 -999.0000 -999.0000 -999.0000    1.0930   -1.1150    0.5750   34.9430 -999.0000    3.0000 
 217.6272   12.2500    3.5960 -999.0000   42.0180   43.3950   42.0180 -999.0000 -999.0000 -999.0000    1.1050   -1.1170    0.5340   33.9250 -999.0000    3.0000 
 217.7796   12.2500    3.5960 -999.0000   38.9290   38.9150   38.9290 -999.0000 -999.0000 -999.0000    1.1050   -1.1220    0.5300   33.3720 -999.0000    3.0000 
 217.9320   12.2500    3.5960 -999.0000   37.4140   36.7010   37.4140 -999.0000 -999.0000 -999.0000    1.1020   -1.1300    0.6070   37.1160 -999.0000    3.0000 
 218.0844   12.2500    3.5960 -999.0000   37.9670   37.5730   37.9670 -999.0000 -999.0000 -999.0000    1.1000   -1.1320    0.6320   40.5360 -999.0000    3.0000 
 218.2368   12.2500    3.5960 -999.0000   44.9660   46.3450   44.9660 -999.0000 -999.0000 -999.0000    1.0980   -1.1290    0.7040   48.1150 -999.0000    3.0000 
 218.3892   12.2500    3.5960 -999.0000   48.3250   50.2880   48.3250 -999.0000 -999.0000 -999.0000    1.0980   -1.1260    0.7100   49.7280 -999.0000    3.0000 
 218.5416   12.2500    3.5960 -999.0000   51.1310   53.8220   51.1310 -999.0000 -999.0000 -999.0000    1.0920   -1.1330    0.6630   51.1010 -999.0000    3.0000 
 218.6940   12.2500    3.5960 -999.0000   51.3030   53.7820   51.3030 -999.0000 -999.0000 -999.0000    1.0920   -1.1370    0.6430   47.9090 -999.0000    3.0000 
 218.8464   12.2500    3.5960 -999.0000   51.5110   53.4020   51.5110 -999.0000 -999.0000 -999.0000    1.0810   -1.1430    0.6600   47.8950 -999.0000    3.0000 
 218.9988   12.2500    3.5960 -999.0000   51.0260   52.2710   51.0260 -999.0000 -999.0000 -999.0000    1.0750   -1.1500    0.7110   44.8910 -999.0000    3.0000 
 219.1512   12.2500    3.5960 -999.0000   50.7880   51.3450   50.7880 -999.0000 -999.0000 -999.0000    1.0570   -1.1650    0.7540   38.0320 -999.0000    3.0000 
 219.3036   12.2500    3.5960 -999.0000   49.7150   49.8400   49.7150 -999.0000 -999.0000 -999.0000    1.0540   -1.1690    0.7540   35.9200 -999.0000    3.0000 
 219.4560   12.2500    3.5960 -999.0000   53.1990   54.8330   53.1990 -999.0000 -999.0000 -999.0000    1.0550   -1.1730    0.7290   40.3440 -999.0000    3.0000 
 219.6084   12.2500    3.5960 -999.0000   49.5330   49.7600   49.5330 -999.0000 -999.0000 -999.0000    1.0700   -1.1650    0.6730   45.2450 -999.0000    3.0000 
 219.7608   12.2500    3.5960 -999.0000   49.8320   50.4140   49.8320 -999.0000 -999.0000 -999.0000    1.0830   -1.1590    0.6730   45.6970 -999.0000    3.0000 
 219.9132   12.2500    3.5960 -999.0000   48.6260   48.7640   48.6260 -999.0000 -999.0000 -999.0000    1.0870   -1.1560    0.6270   40.8580 -999.0000    3.0000 
 220.0656   12.2500    3.5960 -999.0000   47.4580   47.2350   47.4580 -999.0000 -999.0000 -999.0000    1.0880   -1.1490    0.6410   37.3040 -999.0000    3.0000 
 220.2180   12.2500    3.5960 -999.0000   47.8120   47.5230   47.8120 -999.0000 -999.0000 -999.0000    1.0920   -1.1430    0.6110   36.2780 -999.0000    3.0000 
 220.3704   12.2500    3.5960 -999.0000   45.4190   43.9900   45.4190 -999.0000 -999.0000 -999.0000    1.0690   -1.1550    0.6350   40.0470 -999.0000    3.0000 
 220.5228   12.2500    3.5960 -999.0000   45.7490   44.4860   45.7490 -999.0000 -999.0000 -999.0000    1.0660   -1.1540    0.6380   38.3040 -999.0000    3.0000 
 220.6752   12.2500    3.5960 -999.0000   43.5100   41.0960   43.5100 -999.0000 -999.0000 -999.0000    1.0620   -1.1460    0.6550   36.9000 -999.0000    3.0000 
 220.8276   12.2500    3.5960 -999.0000   43.0910   40.2980   43.0910 -999.0000 -999.0000 -999.0000    1.0630   -1.1370    0.6430   34.9520 -999.0000    3.0000 
 220.9800   12.2500    3.5960 -999.0000   41.9720   38.3110   41.9720 -999.0000 -999.0000 -999.0000    1.0630   -1.1330    0.6420   34.9240 -999.0000    3.0000 
