~VERSION INFORMATION
 VERS.                 2.0:   CWLS LOG ASCII STANDARD - VERSION 2.0
 WRAP.                  NO:   SINGLE LINE PER DEPTH STEP
 CREA.                 19/01/2018 11:58:16
#CREATED USING DSPetro VERSION 5000.10.1.3 BY H191660 ON 19/01/2018 11:58:16
~WELL INFORMATION
#MNEM.UNIT       DATA                          DESCRIPTION MNEMONIC
#---------      ---------------------------   --------------------------
 STRT    .M         0.1524                    : START DEPTH
 STOP    .M         1199.9976                 : STOP DEPTH
 STEP    .M         0.1524                    : STEP VALUE
 NULL    .      -999.0000                     : NULL VALUE
 DATE    .      19/01/2018                    : LAS file Creation Date
 WELL .      2930_Spider-1               : Well Name
 COMP .      Neftex Exploration Insights : Company
 FLD  .                                  : Field
 UWI  .      ZAUWL_006180                : Unique Well Identifier (UWI)
 LOC  .                                  : Location
 RWS  .      -999                        : Def_Rw
 WST  .      -999                        : Def_Rwt
 SRVC .                                  : Contractor
~CURVE INFORMATION
#MNEM              UNIT       API CODE   Curve Type Comments
#----------  --------------- ----------  ---------- -----------
 DEPTH      .M                         : Depth       
 Bitsize    .in                        : BitSize     
 CAL_INCH   .inch                      :             Caliper Log - A representation of the measured diameter of a borehole along its depth
 SP_Corr    .mv                        : SP          Spontaneous Potential - Records the electrical potential produced by the interaction of formation water, conductive drilling mud, and certain ion-sele
 GR_API     .API                       : GammaRay    gammaRay    Corrected / Computed Gamma Ray - Radiation with the Uranium component removed. Also known as a 'carbonate gamma ray'
 SGR_API    .API                       : gammaRay    Spectral Gamma Ray - Total gamma calibrated to API, measured using a spectoral gamma array tool
 CGR_API    .API                       : gammaRay    Corrected / Computed Gamma Ray - Radiation with the Uranium component removed. Also known as a 'carbonate gamma ray'
 LLD_OHMM   .ohmm                      : deepRes     Laterlog Deep Resistivity - Measurement made several feet into the formation; generally considered a measurement of the undisturbed formation
 LLS_OHMM   .ohmm                      : shalRes     Laterlog Shallow Resistivity - one to two feet into the formation; generally considered to measure the formation
 DT_US_FT   .us/ft                     : sonic       Interval Transit Time: Compressional Wave - Evaluates the time it takes for a compressional wave to traverse a fixed distance
 RHOB_G_CC  .g/cc                      : density     Bulk Density - Measures the density of bulk material, including any void space or other materials contained in the subject volume
 DRHO_G_CC  .g/cc                      : drho        Density Correction - Investigates the correction to the Bulk Density log; used as an indication of hole condition to validate the Bulk Density measure
 NPHI_v_v   .usl                       : neutron     Neutron Porosity - Measured with an neutron logging device calibrated to a given matrix (limestone, sandstone and dolomite) - unscaled
 PEF_B_E    .b/e-                      : PEF         Photoelectric Factor - A log of photoelectric absorption properties. Often expressed in an approximation unit barns/electron (b/e-)
 LITH       .                          : LITH        Lithology Curve
 LITH_v2    .                          : LITH        Lithology Curve
~A  DEPTH  Bitsize   CAL_INCH  SP_Corr    GR_API   SGR_API   CGR_API   LLD_OHMM  LLS_OHMM  DT_US_FT RHOB_G_C  DRHO_G_C   NPHI_v_v  PEF_B_E     LITH    LITH_v2  
# ...
 884.0724    8.5000    8.7320   17.6598   85.5200  102.7590   85.5200    1.2450    1.1340   93.4000    2.2140   -0.0130    0.2360    2.9980   36.0000   36.0000 
 884.2248    8.5000    8.7580   17.6353   88.0520  106.3830   88.0520    1.2790    1.1580   92.3000    2.2170   -0.0140    0.2670    3.0780   36.0000   36.0000 
 884.3772    8.5000    8.7550   17.6108   88.9780  107.8330   88.9780    1.3420    1.2190   91.8000    2.2150   -0.0160    0.2800    3.0900   36.0000   36.0000 
 884.5296    8.5000    8.7390   17.5863   88.5870  106.8650   88.5870    1.3440    1.2050   92.1000    2.2030   -0.0170    0.2840    2.7780   36.0000   36.0000 
 884.6820    8.5000    8.7340   17.5618   86.8700  103.8630   86.8700    1.3030    1.1810   93.6000    2.1890   -0.0190    0.2800    2.7180   36.0000   36.0000 
 884.8344    8.5000    8.7380   17.2873   86.2310  102.7600   86.2310    1.2580    1.1310   95.0000    2.1790   -0.0200    0.2970    3.1510   36.0000   36.0000 
 884.9868    8.5000    8.7420   17.2628   84.6720   99.9390   84.6720    1.2010    1.0810   96.0000    2.1830   -0.0190    0.3040    3.5640   36.0000   36.0000 
 885.1392    8.5000    8.7480   17.2383   77.5480   91.6690   77.5480    1.2030    1.1080   96.1000    2.2330   -0.0130    0.2860    3.9480   36.0000   36.0000 
 885.2916    8.5000    8.7570   17.2137   69.5700   84.0670   69.5700    1.2460    1.1420   95.6000    2.2550   -0.0130    0.2630    3.7930   36.0000   36.0000 
 885.4440    8.5000    8.7450   17.1892   71.6070   87.2820   71.6070    1.3240    1.2060   93.6000    2.2750   -0.0110    0.2380    3.4520   36.0000   36.0000 
 885.5964    8.5000    8.7500   16.9147   72.1860   88.2670   72.1860    1.4130    1.2860   89.4000    2.2780   -0.0100    0.2570    3.5420   36.0000   36.0000 
 885.7488    8.5000    8.7270   16.8902   76.0270   92.8140   76.0270    1.5230    1.4050   86.6000    2.2620   -0.0130    0.2830    3.4190   36.0000   36.0000 
 885.9012    8.5000    8.7110   16.8657   86.5200  102.8030   86.5200    1.6460    1.4690   86.9000    2.2440   -0.0160    0.2960    3.2940   36.0000   36.0000 
 886.0536    8.5000    8.7420   16.8412   95.0820  112.3570   95.0820    1.5800    1.4560   87.6000    2.2310   -0.0150    0.2710    3.3420   36.0000   36.0000 
 886.2060    8.5000    8.7420   16.8167  106.7400  123.7450  106.7400    1.5070    1.3930   89.2000    2.2370   -0.0150    0.2750    3.4910   37.0000   37.0000 
 886.3584    8.5000    8.7600   16.7922  109.7880  128.1820  109.7880    1.4480    1.3150   89.7000    2.2850   -0.0130    0.2720    3.8630   37.0000   37.0000 
 886.5108    8.5000    8.7650   16.5177  110.5740  129.3680  110.5740    1.3190    1.2290   88.6000    2.3140   -0.0120    0.2710    4.0080   37.0000   37.0000 
 886.6632    8.5000    8.7640   16.4931  113.5690  133.6370  113.5690    1.3700    1.2520   86.8000    2.3120   -0.0120    0.2670    3.5840   37.0000   37.0000 
 886.8156    8.5000    8.7590   16.4686  114.7870  135.7160  114.7870    1.3110    1.2130   87.1000    2.2920   -0.0120    0.2750    3.5570   37.0000   37.0000 
 886.9680    8.5000    8.7470   16.4441  114.1880  134.4210  114.1880    1.2440    1.1390   89.2000    2.2380   -0.0160    0.3010    3.4920   37.0000   37.0000 
 887.1204    8.5000    8.7360   16.4196  107.1370  123.7840  107.1370    1.3480    1.2480   91.0000    2.2280   -0.0190    0.3090    3.4110   37.0000   37.0000 
 887.2728    8.5000    8.7230   16.1451   73.8180   89.7190   73.8180    1.3410    1.2180   96.8000    2.2430   -0.0140    0.3010    3.2320   37.0000   37.0000 
 887.4252    8.5000    8.7380   16.3706   63.1690   74.9920   63.1690    1.4180    1.3140   98.7000    2.2410   -0.0100    0.2870    2.9860   27.0000   27.0000 
 887.5776    8.5000    8.7340   16.3461   56.8130   67.5970   56.8130    1.5080    1.3690  101.1000    2.2270   -0.0100    0.2740    3.0590   27.0000   27.0000 
 887.7300    8.5000    8.7450   16.3216   57.3890   68.7400   57.3890    1.3850    1.2710  101.2000    2.2100   -0.0060    0.2740    3.1680   27.0000   27.0000 
 887.8824    8.5000    8.7620   16.2971   57.9900   69.7940   57.9900    1.2940    1.1880  101.8000    2.2090   -0.0050    0.2650    3.2010   27.0000   27.0000 
 888.0348    8.5000    8.8100   16.5226   70.0510   99.8830   70.0510    1.3000    1.1930  106.1000    2.2130   -0.0080    0.2620    3.3340   27.0000   27.0000 
 888.1872    8.5000    8.8230   16.4980   75.5480  121.4910   75.5480    1.2800    1.1460  105.5000    2.2210   -0.0110    0.2620    3.4070   27.0000   27.0000 
 888.3396    8.5000    8.7530   16.4735  138.9630  185.5760  138.9630    1.3250    1.2040  104.6000    2.2340   -0.0180    0.2710    3.9830   37.0000   37.0000 
 888.4920    8.5000    8.7350   16.4490  173.8210  220.9170  173.8210    1.4090    1.2970  102.8000    2.2450   -0.0210    0.2880    4.3560   37.0000   37.0000 
 888.6444    8.5000    8.7510   16.4245  163.8520  210.9040  163.8520    1.4620    1.3110  101.4000    2.2550   -0.0200    0.3090    4.1060   37.0000   37.0000 
 888.7968    8.5000    8.7660   16.4000  134.6690  176.8860  134.6690    1.4950    1.3690  101.1000    2.2530   -0.0190    0.3210    3.6490   37.0000   37.0000 
 888.9492    8.5000    8.7710   16.3755   87.3880  101.6590   87.3880    1.4480    1.3090  105.1000    2.2160   -0.0190    0.2910    2.7530   37.0000   37.0000 
 889.1016    8.5000    8.7660   16.1010   71.2710   77.6180   71.2710    1.3470    1.2160  106.2000    2.1960   -0.0170    0.2720    2.5460   27.0000   27.0000 
 889.2540    8.5000    8.7060   16.3265   47.3240   51.4750   47.3240    1.2690    1.1580  105.6000    2.1760   -0.0120    0.2720    2.5480   27.0000   27.0000 
 889.4064    8.5000    8.6960   16.3020   45.9560   49.5430   45.9560    1.2120    1.1010  104.3000    2.1710   -0.0120    0.2670    2.5070   27.0000   27.0000 
 889.5588    8.5000    8.7090   16.0275   47.1530   51.1920   47.1530    1.1780    1.0780  101.4000    2.1560   -0.0110    0.2740    2.5300   27.0000   27.0000 
 889.7112    8.5000    8.7040   16.2530   48.0170   52.3520   48.0170    1.1440    1.0370  100.8000    2.1540   -0.0100    0.2640    2.5470   27.0000   27.0000 
 889.8636    8.5000    8.7070   16.2285   48.2890   52.3730   48.2890    1.1390    1.0270  102.0000    2.1530   -0.0120    0.2690    2.5920   27.0000   27.0000 
 890.0160    8.5000    8.7170   16.4539   49.1550   53.3570   49.1550    1.1000    0.9970  103.9000    2.1620   -0.0130    0.2640    2.6100   27.0000   27.0000 
 890.1684    8.5000    8.7330   16.4294   50.5120   55.1660   50.5120    1.0880    0.9800  107.5000    2.1620   -0.0160    0.2590    2.4750   27.0000   27.0000 
 890.3208    8.5000    8.7280   16.4049   51.4160   56.4730   51.4160    1.1160    0.9920  106.3000    2.1590   -0.0160    0.2510    2.4810   27.0000   27.0000 
 890.4732    8.5000    8.7080   16.3804   55.6860   61.6550   55.6860    1.1260    1.0140  104.0000    2.1540   -0.0170    0.2360    2.5670   27.0000   27.0000 
 890.6256    8.5000    8.7030   16.3559   71.3780   79.2980   71.3780    1.1140    1.0090  103.4000    2.1650   -0.0150    0.2520    2.8750   36.0000   36.0000 
 890.7780    8.5000    8.7120   16.3314   77.2780   86.6910   77.2780    1.1300    1.0330  105.1000    2.1740   -0.0140    0.2710    3.1170   36.0000   36.0000 
 890.9304    8.5000    8.7010   16.0569   76.7510   85.6110   76.7510    1.1410    1.0330  105.1000    2.2000   -0.0100    0.2910    3.1660   36.0000   36.0000 
 891.0828    8.5000    8.6810   16.2823   74.6020   82.2560   74.6020    1.1740    1.0790  106.9000    2.2060   -0.0100    0.2910    3.1140   36.0000   36.0000 
 891.2352    8.5000    8.6840   16.0078   68.6850   71.2250   68.6850    1.2550    1.0880  105.5000    2.2140   -0.0110    0.2770    2.7160   36.0000   36.0000 
 891.3876    8.5000    8.6810   15.7333   66.0600   64.8140   66.0600    1.2760    1.1550  103.5000    2.2130   -0.0120    0.2710    2.6220   36.0000   36.0000 
 891.5400    8.5000    8.6980   15.7088   66.6240   65.2580   66.6240    1.2950    1.1510  103.0000    2.2020   -0.0180    0.2760    2.5310   36.0000   36.0000 
