~VERSION INFORMATION
 VERS.                 2.0:   CWLS LOG ASCII STANDARD - VERSION 2.0
 WRAP.                  NO:   SINGLE LINE PER DEPTH STEP
 CREA.                 19/01/2018 12:03:00
#CREATED USING DSPetro VERSION 5000.10.1.3 BY H191660 ON 19/01/2018 12:03:00
~WELL INFORMATION
#MNEM.UNIT       DATA                          DESCRIPTION MNEMONIC
#---------      ---------------------------   --------------------------
 STRT    .M         0.0000                    : START DEPTH
 STOP    .M         4299.9660                 : STOP DEPTH
 STEP    .M         0.1524                    : STEP VALUE
 NULL    .      -999.0000                     : NULL VALUE
 DATE    .      19/01/2018                    : LAS file Creation Date
 WELL .      14_3274_Wanaea-1            : Well Name
 COMP .      Neftex Exploration Insights : Company
 FLD  .      WANEA                       : Field
 UWI  .      ZAUWL_005664                : Unique Well Identifier (UWI)
 LOC  .                                  : Location
 RWS  .      -999                        : Def_Rw
 WST  .      -999                        : Def_Rwt
 SRVC .                                  : Contractor
~CURVE INFORMATION
#MNEM              UNIT       API CODE   Curve Type Comments
#----------  --------------- ----------  ---------- -----------
 DEPTH      .M                         : Depth       
 BitSize2   .in                        : bitSize     
 CAL_INCH   .inch                      : caliper     Caliper Log - A representation of the measured diameter of a borehole along its depth
 SP_MV1     .mv                        : SP          Spontaneous Potential - Records the electrical potential produced by the interaction of formation water, conductive drilling mud, and certain ion-sele
 GR_API     .API                       : gammaRay    Gamma Ray (API) - Measures the intensity of natural gamma-ray radiation emitted from formations containing radioactive elements, such as K, Th and U
 LLD_OHMM   .ohmm                      : deepRes     Laterlog Deep Resistivity - Measurement made several feet into the formation; generally considered a measurement of the undisturbed formation
 LLS_OHMM   .ohmm                      : shalRes     Laterlog Shallow Resistivity - one to two feet into the formation; generally considered to measure the formation
 MSFL_OHMM  .ohmm                      : microRes    Micro-Spherically Focused Log - Measurement involves only the first few inches of the formation immediately adjacent to the borehole
 RHOB_G_CC  .g/cc                      : density     Bulk Density - Measures the density of bulk material, including any void space or other materials contained in the subject volume
 DRHO_G_CC  .g/cc                      : drho        Density Correction - Investigates the correction to the Bulk Density log; used as an indication of hole condition to validate the Bulk Density measure
 NPHI_v_v   .dec                       : Neutron     
 PEF_B_E    .b/e-                      : PEF         Photoelectric Factor - A log of photoelectric absorption properties. Often expressed in an approximation unit barns/electron (b/e-)
 LITH       .                          : LITH        Lithology Curve
 LITH_v2    .                          : LITH        Lithology Curve
~A  DEPTH  BitSize   CAL_INCH   SP_MV1    GR_API   LLD_OHMM  LLS_OHMM MSFL_OHM  RHOB_G_C  DRHO_G_C   NPHI_v_v  PEF_B_E     LITH    LITH_v2  
# ...
2319.3756   12.2500   12.5400    2.4806   47.2200 -999.0000 -999.0000 -999.0000    2.3400    0.1160 -999.0000    9.4700 -999.0000 -999.0000 
2319.5280   12.2500   13.9700    2.4528   47.1600 -999.0000 -999.0000 -999.0000    2.3500    0.1060 -999.0000    7.2300 -999.0000 -999.0000 
2319.6804   12.2500   14.6300    2.2079   42.7500 -999.0000 -999.0000 -999.0000    2.3900    0.0808 -999.0000    5.8300 -999.0000 -999.0000 
2319.8328   12.2500   12.3800    1.4291   41.9700 -999.0000 -999.0000 -999.0000    2.4400    0.0564 -999.0000    5.8300 -999.0000 -999.0000 
2319.9852   12.2500   12.6700    3.3992   43.4100 -999.0000 -999.0000 -999.0000    2.4200    0.0230 -999.0000    6.1900 -999.0000 -999.0000 
2320.1376   12.2500   12.5200    2.6424   44.6300 -999.0000 -999.0000 -999.0000    2.3700    0.0111 -999.0000    6.1700 -999.0000 -999.0000 
2320.2900   12.2500   12.5200    1.8985   45.0600 -999.0000 -999.0000 -999.0000    2.3600    0.0200 -999.0000    7.1700 -999.0000 -999.0000 
2320.4424   12.2500   12.5900    0.9007   40.6900 -999.0000 -999.0000 -999.0000    2.3400    0.0363 -999.0000   11.7500 -999.0000 -999.0000 
2320.5948   12.2500   12.6300    0.6539   42.7200 -999.0000 -999.0000 -999.0000    2.2400    0.0219 -999.0000   18.4700 -999.0000 -999.0000 
2320.7472   12.2500   12.6800    0.8730   41.5000 -999.0000 -999.0000 -999.0000    2.0400    0.0036 -999.0000   27.8300 -999.0000 -999.0000 
2320.8996   12.2500   12.7300    1.0882   47.9400 -999.0000 -999.0000 -999.0000    1.9000   -0.0101 -999.0000   28.3600 -999.0000 -999.0000 
2321.0520   12.2500   13.1000    2.3363   48.7500 -999.0000 -999.0000 -999.0000    1.8200   -0.0136 -999.0000   27.7000 -999.0000 -999.0000 
2321.2044   12.2500   14.0600    2.3345   51.2800 -999.0000 -999.0000 -999.0000    1.8200   -0.0175 -999.0000   24.5600 -999.0000 -999.0000 
2321.3568   12.2500   17.0200    2.8276   48.7500 -999.0000 -999.0000 -999.0000    1.8100   -0.0195 -999.0000   24.2000 -999.0000 -999.0000 
2321.5092   12.2500   18.1600    3.3308   47.3400 -999.0000 -999.0000 -999.0000    1.8100   -0.0221 -999.0000   23.6100 -999.0000 -999.0000 
2321.6616   12.2500   19.8100    2.8340   50.9100 -999.0000 -999.0000 -999.0000    1.8000   -0.0225 -999.0000   25.4700 -999.0000 -999.0000 
2321.8140   12.2500   20.9400    2.3351   51.7800 -999.0000 -999.0000 -999.0000    1.8000   -0.0259 -999.0000   24.6300 -999.0000 -999.0000 
2321.9664   12.2500   21.6900    2.3023   53.5600 -999.0000 -999.0000 -999.0000    1.7900   -0.0264 -999.0000   25.8000 -999.0000 -999.0000 
2322.1188   12.2500   22.4800    2.8034   53.7500 -999.0000 -999.0000 -999.0000    1.8100   -0.0165 -999.0000   23.9400 -999.0000 -999.0000 
2322.2712   12.2500   23.2800    3.2966   55.5300 -999.0000 -999.0000 -999.0000    1.8200   -0.0097 -999.0000   24.0200 -999.0000 -999.0000 
2322.4236   12.2500   18.2800    3.0497   52.6900 -999.0000 -999.0000 -999.0000    1.9000    0.0021 -999.0000   23.0800 -999.0000 -999.0000 
2322.5760   12.2500   16.9500    3.0229   50.6900 -999.0000 -999.0000 -999.0000    1.9400    0.0069 -999.0000   23.8600 -999.0000 -999.0000 
2322.7284   12.2500   16.7800    2.7361   52.3800 -999.0000 -999.0000 -999.0000    2.0000    0.0119 -999.0000   23.4800 -999.0000 -999.0000 
2322.8808   12.2500   17.5500    1.9762   53.5900 -999.0000 -999.0000 -999.0000    1.9800    0.0110 -999.0000   25.1400 -999.0000 -999.0000 
2323.0332   12.2500   18.6300    1.7204   53.6600 -999.0000 -999.0000 -999.0000    1.9800    0.0079 -999.0000   25.3600 -999.0000 -999.0000 
2323.1856   12.2500   17.5600    1.7145   48.2200 -999.0000 -999.0000 -999.0000    1.9700   -0.0012 -999.0000   26.5900 -999.0000 -999.0000 
2323.3380   12.2500   16.5500    2.7087   47.5000 -999.0000 -999.0000 -999.0000    2.0200   -0.0027 -999.0000   24.2000 -999.0000 -999.0000 
2323.4904   12.2500   16.7000    2.4519   45.5900 -999.0000 -999.0000 -999.0000    2.0900   -0.0077 -999.0000   23.3800 -999.0000 -999.0000 
2323.6428   12.2500   17.6700    1.4482   46.6600 -999.0000 -999.0000 -999.0000    2.1800   -0.0087 -999.0000   21.5500 -999.0000 -999.0000 
2323.7952   12.2500   18.7800    0.9432   45.8100 -999.0000 -999.0000 -999.0000    2.1800   -0.0109 -999.0000   20.4500 -999.0000 -999.0000 
2323.9476   12.2500   18.5000    1.4389   49.1900 -999.0000 -999.0000 -999.0000    2.1500   -0.0012 -999.0000   18.1100 -999.0000 -999.0000 
2324.1000   12.2500   16.9500    1.9345   50.3400 -999.0000 -999.0000 -999.0000    2.1400    0.0077 -999.0000   18.0500 -999.0000 -999.0000 
2324.2524   12.2500   15.8800    0.9306   49.9400 -999.0000 -999.0000 -999.0000    2.1700    0.0213 -999.0000   18.2000 -999.0000 -999.0000 
2324.4048   12.2500   15.8800    1.1768   47.4700 -999.0000 -999.0000 -999.0000    2.2200    0.0447 -999.0000   20.8300 -999.0000 -999.0000 
2324.5572   12.2500   17.3100    1.9240   47.9100 -999.0000 -999.0000 -999.0000    2.2300    0.0590 -999.0000   21.8400 -999.0000 -999.0000 
2324.7096   12.2500   17.9700    2.1711   48.9400 -999.0000 -999.0000 -999.0000    2.2100    0.0521 -999.0000   22.3800 -999.0000 -999.0000 
2324.8620   12.2500   19.2800    2.1693   47.9700 -999.0000 -999.0000 -999.0000    2.1400    0.0293 -999.0000   24.1100 -999.0000 -999.0000 
2325.0144   12.2500   18.9500    1.6674   48.8400 -999.0000 -999.0000 -999.0000    2.0300    0.0172 -999.0000   25.8800 -999.0000 -999.0000 
2325.1668   12.2500   19.1700    1.6676   50.6300 -999.0000 -999.0000 -999.0000    1.9600    0.0115 -999.0000   28.2000 -999.0000 -999.0000 
2325.3192   12.2500   17.1700    1.6677   51.3100 -999.0000 -999.0000 -999.0000    1.9700    0.0040 -999.0000   29.3300 -999.0000 -999.0000 
2325.4716   12.2500   16.1900    1.4193   51.6600 -999.0000 -999.0000 -999.0000    2.0600    0.0048 -999.0000   20.0800 -999.0000 -999.0000 
2325.6240   12.2500   15.0200    2.4261   49.2500 -999.0000 -999.0000 -999.0000    2.1300    0.0112 -999.0000   18.9800 -999.0000 -999.0000 
2325.7764   12.2500   15.4600    2.1402   49.6600 -999.0000 -999.0000 -999.0000    2.1200    0.0100 -999.0000   20.5000 -999.0000 -999.0000 
2325.9288   12.2500   18.0300    1.8554   49.2800 -999.0000 -999.0000 -999.0000    2.1000    0.0121 -999.0000   26.6900 -999.0000 -999.0000 
2326.0812   12.2500   19.4200    1.6015   48.4100 -999.0000 -999.0000 -999.0000    2.0700    0.0143 -999.0000   28.4100 -999.0000 -999.0000 
2326.2336   12.2500   19.2500    1.5987   49.6600 -999.0000 -999.0000 -999.0000    2.0300    0.0090 -999.0000   26.3300 -999.0000 -999.0000 
2326.3860   12.2500   20.0000    1.5958   50.1900 -999.0000 -999.0000 -999.0000    1.9900    0.0087 -999.0000   28.1400 -999.0000 -999.0000 
2326.5384   12.2500   20.3300    2.0940   52.7500 -999.0000 -999.0000 -999.0000    1.9800    0.0099 -999.0000   28.8100 -999.0000 -999.0000 
2326.6908   12.2500   20.1400    1.0932   53.5900 -999.0000 -999.0000 -999.0000    1.9500    0.0022 -999.0000   26.5000 -999.0000 -999.0000 
2326.8432   12.2500   19.7000    1.0573   51.5600 -999.0000 -999.0000 -999.0000    1.9000   -0.0056 -999.0000   24.0300 -999.0000 -999.0000 
2326.9956   12.2500   18.2200    1.5525   52.2800 -999.0000 -999.0000 -999.0000    1.9700    0.0054 -999.0000   18.7300 -999.0000 -999.0000 
2327.1480   12.2500   17.4700    1.7986   50.1900 -999.0000 -999.0000 -999.0000    2.1200    0.0362 -999.0000   18.5500 -999.0000 -999.0000 
2327.3004   12.2500   18.3400    1.5438   50.5600 -999.0000 -999.0000 -999.0000    2.3200    0.0846 -999.0000   18.7300 -999.0000 -999.0000 
2327.4528   12.2500   18.9700    1.2909   50.1900 -999.0000 -999.0000 -999.0000    2.3700    0.1180 -999.0000   23.0900 -999.0000 -999.0000 
2327.6052   12.2500   19.8100    1.2879   52.5000 -999.0000 -999.0000 -999.0000    2.3900    0.1460 -999.0000   23.1300 -999.0000 -999.0000 
2327.7576   12.2500   20.8600    2.0353   55.9700 -999.0000 -999.0000 -999.0000    2.2300    0.1190 -999.0000   19.8300 -999.0000 -999.0000 
2327.9100   12.2500   18.7800    2.2834   52.7500 -999.0000 -999.0000 -999.0000    2.1400    0.0951 -999.0000   17.7700 -999.0000 -999.0000 
