~VERSION INFORMATION
 VERS.                 2.0:   CWLS LOG ASCII STANDARD - VERSION 2.0
 WRAP.                  NO:   SINGLE LINE PER DEPTH STEP
 CREA.                 19/01/2018 12:03:00
#CREATED USING DSPetro VERSION 5000.10.1.3 BY H191660 ON 19/01/2018 12:03:00
~WELL INFORMATION
#MNEM.UNIT       DATA                          DESCRIPTION MNEMONIC
#---------      ---------------------------   --------------------------
 STRT    .M         0.0000                    : START DEPTH
 STOP    .M         4299.9660                 : STOP DEPTH
 STEP    .M         0.1524                    : STEP VALUE
 NULL    .      -999.0000                     : NULL VALUE
 DATE    .      19/01/2018                    : LAS file Creation Date
 WELL .      14_3274_Wanaea-1            : Well Name
 COMP .      Neftex Exploration Insights : Company
 FLD  .      WANEA                       : Field
 UWI  .      ZAUWL_005664                : Unique Well Identifier (UWI)
 LOC  .                                  : Location
 RWS  .      -999                        : Def_Rw
 WST  .      -999                        : Def_Rwt
 SRVC .                                  : Contractor
~CURVE INFORMATION
#MNEM              UNIT       API CODE   Curve Type Comments
#----------  --------------- ----------  ---------- -----------
 DEPTH      .M                         : Depth       
 BitSize2   .in                        : bitSize     
 CAL_INCH   .inch                      : caliper     Caliper Log - A representation of the measured diameter of a borehole along its depth
 SP_MV1     .mv                        : SP          Spontaneous Potential - Records the electrical potential produced by the interaction of formation water, conductive drilling mud, and certain ion-sele
 GR_API     .API                       : gammaRay    Gamma Ray (API) - Measures the intensity of natural gamma-ray radiation emitted from formations containing radioactive elements, such as K, Th and U
 LLD_OHMM   .ohmm                      : deepRes     Laterlog Deep Resistivity - Measurement made several feet into the formation; generally considered a measurement of the undisturbed formation
 LLS_OHMM   .ohmm                      : shalRes     Laterlog Shallow Resistivity - one to two feet into the formation; generally considered to measure the formation
 MSFL_OHMM  .ohmm                      : microRes    Micro-Spherically Focused Log - Measurement involves only the first few inches of the formation immediately adjacent to the borehole
 RHOB_G_CC  .g/cc                      : density     Bulk Density - Measures the density of bulk material, including any void space or other materials contained in the subject volume
 DRHO_G_CC  .g/cc                      : drho        Density Correction - Investigates the correction to the Bulk Density log; used as an indication of hole condition to validate the Bulk Density measure
 NPHI_v_v   .dec                       : Neutron     
 PEF_B_E    .b/e-                      : PEF         Photoelectric Factor - A log of photoelectric absorption properties. Often expressed in an approximation unit barns/electron (b/e-)
 LITH       .                          : LITH        Lithology Curve
 LITH_v2    .                          : LITH        Lithology Curve
~A  DEPTH  BitSize   CAL_INCH   SP_MV1    GR_API   LLD_OHMM  LLS_OHMM MSFL_OHM  RHOB_G_C  DRHO_G_C   NPHI_v_v  PEF_B_E     LITH    LITH_v2  
# ...
1815.5412   12.2500   13.2500    0.6882   46.2500 -999.0000 -999.0000 -999.0000    2.4200   -0.0117 -999.0000    4.7700 -999.0000 -999.0000 
1815.6936   12.2500   13.6600    0.6982   48.1900 -999.0000 -999.0000 -999.0000    2.4100   -0.0011 -999.0000    5.8300 -999.0000 -999.0000 
1815.8460   12.2500   14.5000    1.4582   40.9400 -999.0000 -999.0000 -999.0000    2.3500    0.0080 -999.0000    6.0200 -999.0000 -999.0000 
1815.9984   12.2500   15.0100    0.4682   45.9100 -999.0000 -999.0000 -999.0000    2.3000    0.0117 -999.0000    5.6900 -999.0000 -999.0000 
1816.1508   12.2500   14.0700    0.4482   47.2800 -999.0000 -999.0000 -999.0000    2.3200    0.0192 -999.0000    4.3700 -999.0000 -999.0000 
1816.3032   12.2500   13.7700    0.9582   52.5600 -999.0000 -999.0000 -999.0000    2.3800    0.0194 -999.0000    3.8900 -999.0000 -999.0000 
1816.4556   12.2500   13.7700    3.1882   49.4100 -999.0000 -999.0000 -999.0000    2.4300    0.0111 -999.0000    3.7500 -999.0000 -999.0000 
1816.6080   12.2500   13.3300    1.6882   48.9400 -999.0000 -999.0000 -999.0000    2.4300   -0.0024 -999.0000    3.7900 -999.0000 -999.0000 
1816.7604   12.2500   13.3000    0.6982   43.1900 -999.0000 -999.0000 -999.0000    2.4200   -0.0115 -999.0000    3.7900 -999.0000 -999.0000 
1816.9128   12.2500   13.3000    0.7082   47.3100 -999.0000 -999.0000 -999.0000    2.4100   -0.0152 -999.0000    3.8300 -999.0000 -999.0000 
1817.0652   12.2500   13.3000    0.7182   45.9400 -999.0000 -999.0000 -999.0000    2.4300   -0.0157 -999.0000    4.0200 -999.0000 -999.0000 
1817.2176   12.2500   13.2700    1.1982   47.1300 -999.0000 -999.0000 -999.0000    2.4400   -0.0146 -999.0000    4.2900 -999.0000 -999.0000 
1817.3700   12.2500   13.2000    1.2182   43.4100 -999.0000 -999.0000 -999.0000    2.4400   -0.0145 -999.0000    4.6400 -999.0000 -999.0000 
1817.5224   12.2500   13.1400    0.6882   47.1900 -999.0000 -999.0000 -999.0000    2.4200   -0.0137 -999.0000    5.1300 -999.0000 -999.0000 
1817.6748   12.2500   13.2600    1.1982   48.7800 -999.0000 -999.0000 -999.0000    2.4000   -0.0148 -999.0000    5.0400 -999.0000 -999.0000 
1817.8272   12.2500   13.0100    0.9182   51.6300 -999.0000 -999.0000 -999.0000    2.3700   -0.0179 -999.0000    5.0900 -999.0000 -999.0000 
1817.9796   12.2500   13.1900    0.1782   51.1300 -999.0000 -999.0000 -999.0000    2.3800   -0.0173 -999.0000    4.4400 -999.0000 -999.0000 
1818.1320   12.2500   13.5200    0.6882   52.3400 -999.0000 -999.0000 -999.0000    2.4000   -0.0144 -999.0000    4.5300 -999.0000 -999.0000 
1818.2844   12.2500   13.5600    0.4477   51.5000 -999.0000 -999.0000 -999.0000    2.4300   -0.0137 -999.0000    4.1900 -999.0000 -999.0000 
1818.4368   12.2500   14.3100    0.9556   48.7200 -999.0000 -999.0000 -999.0000    2.4100   -0.0158 -999.0000    4.3000 -999.0000 -999.0000 
1818.5892   12.2500   13.9600    1.7136   47.2500 -999.0000 -999.0000 -999.0000    2.3900   -0.0166 -999.0000    4.2300 -999.0000 -999.0000 
1818.7416   12.2500   14.1300    1.2216   45.6900 -999.0000 -999.0000 -999.0000    2.3800   -0.0130 -999.0000    4.5000 -999.0000 -999.0000 
1818.8940   12.2500   13.9600    1.6995   48.7500 -999.0000 -999.0000 -999.0000    2.3900   -0.0100 -999.0000    4.5700 -999.0000 -999.0000 
1819.0464   12.2500   13.7100    1.1775   48.8100 -999.0000 -999.0000 -999.0000    2.4000   -0.0073 -999.0000    4.6700 -999.0000 -999.0000 
1819.1988   12.2500   13.9600    2.1455   48.3800 -999.0000 -999.0000 -999.0000    2.3900   -0.0074 -999.0000    4.5100 -999.0000 -999.0000 
1819.3512   12.2500   14.3000    0.6534   49.2200 -999.0000 -999.0000 -999.0000    2.3800   -0.0084 -999.0000    4.6300 -999.0000 -999.0000 
1819.5036   12.2500   13.4500    0.9014   47.3800 -999.0000 -999.0000 -999.0000    2.3800   -0.0103 -999.0000    4.9700 -999.0000 -999.0000 
1819.6560   12.2500   12.5700    1.6494   46.1300 -999.0000 -999.0000 -999.0000    2.4100   -0.0100 -999.0000    5.5000 -999.0000 -999.0000 
1819.8084   12.2500   13.0200    2.1573   43.4400 -999.0000 -999.0000 -999.0000    2.4400   -0.0076 -999.0000    5.2200 -999.0000 -999.0000 
1819.9608   12.2500   13.6700    1.4153   44.4700 -999.0000 -999.0000 -999.0000    2.4500   -0.0017 -999.0000    5.0400 -999.0000 -999.0000 
1820.1132   12.2500   14.2600    1.3833   45.0000 -999.0000 -999.0000 -999.0000    2.4000    0.0038 -999.0000    5.2800 -999.0000 -999.0000 
1820.2656   12.2500   14.7300    1.3912   45.6600 -999.0000 -999.0000 -999.0000    2.3600    0.0008 -999.0000    5.0200 -999.0000 -999.0000 
1820.4180   12.2500   14.2300    1.3892   44.7200 -999.0000 -999.0000 -999.0000    2.3400   -0.0010 -999.0000    4.7700 -999.0000 -999.0000 
1820.5704   12.2500   14.8700    1.6472   45.4400 -999.0000 -999.0000 -999.0000    2.3600   -0.0030 -999.0000    4.1000 -999.0000 -999.0000 
1820.7228   12.2500   14.5100    1.6551   42.7500 -999.0000 -999.0000 -999.0000    2.3800   -0.0049 -999.0000    4.1400 -999.0000 -999.0000 
1820.8752   12.2500   14.1300    1.9131   43.0600 -999.0000 -999.0000 -999.0000    2.3700   -0.0156 -999.0000    4.1800 -999.0000 -999.0000 
1821.0276   12.2500   14.3700    1.9111   46.0600 -999.0000 -999.0000 -999.0000    2.3300   -0.0139 -999.0000    5.0200 -999.0000 -999.0000 
1821.1800   12.2500   14.8400    1.8890   50.0900 -999.0000 -999.0000 -999.0000    2.3100   -0.0129 -999.0000    5.3400 -999.0000 -999.0000 
1821.3324   12.2500   13.5000    0.8970   53.0300 -999.0000 -999.0000 -999.0000    2.3200   -0.0116 -999.0000    6.4200 -999.0000 -999.0000 
1821.4848   12.2500   13.2100    0.1150   51.3100 -999.0000 -999.0000 -999.0000    2.3400   -0.0102 -999.0000    6.2700 -999.0000 -999.0000 
1821.6372   12.2500   12.9000    1.8729   48.8400 -999.0000 -999.0000 -999.0000    2.3500   -0.0069 -999.0000    7.4700 -999.0000 -999.0000 
1821.7896   12.2500   12.3700   -0.1291   43.2500 -999.0000 -999.0000 -999.0000    2.3300   -0.0012 -999.0000    8.6900 -999.0000 -999.0000 
1821.9420   12.2500   12.8000    0.6189   43.2500 -999.0000 -999.0000 -999.0000    2.2300   -0.0034 -999.0000   10.5900 -999.0000 -999.0000 
1822.0944   12.2500   12.7200    1.1268   44.4700 -999.0000 -999.0000 -999.0000    2.1500    0.0042 -999.0000   12.0200 -999.0000 -999.0000 
1822.2468   12.2500   12.8400    1.3848   52.1300 -999.0000 -999.0000 -999.0000    2.1100    0.0088 -999.0000   10.6300 -999.0000 -999.0000 
1822.3992   12.2500   13.5500    1.3528   51.7200 -999.0000 -999.0000 -999.0000    2.1300    0.0229 -999.0000    9.8800 -999.0000 -999.0000 
1822.5516   12.2500   13.6300    0.3607   51.9100 -999.0000 -999.0000 -999.0000    2.1800    0.0441 -999.0000   10.1300 -999.0000 -999.0000 
1822.7040   12.2500   14.1500    0.3587   47.7500 -999.0000 -999.0000 -999.0000    2.2300    0.0677 -999.0000   14.2000 -999.0000 -999.0000 
1822.8564   12.2500   15.2300    0.6167   46.5600 -999.0000 -999.0000 -999.0000    2.2400    0.0852 -999.0000   16.6600 -999.0000 -999.0000 
1823.0088   12.2500   14.2900    0.8646   43.0900 -999.0000 -999.0000 -999.0000    2.1600    0.0825 -999.0000   17.9500 -999.0000 -999.0000 
1823.1612   12.2500   14.2000    0.8726   44.4400 -999.0000 -999.0000 -999.0000    2.1600    0.0876 -999.0000   15.7100 -999.0000 -999.0000 
1823.3136   12.2500   14.8000    1.8806   46.5900 -999.0000 -999.0000 -999.0000    2.1600    0.0754 -999.0000   13.9600 -999.0000 -999.0000 
1823.4660   12.2500   13.8300    1.3585   49.6600 -999.0000 -999.0000 -999.0000    2.2400    0.0846 -999.0000   14.3400 -999.0000 -999.0000 
1823.6184   12.2500   13.9400    1.1165   46.0000 -999.0000 -999.0000 -999.0000    2.2800    0.0818 -999.0000   12.0500 -999.0000 -999.0000 
1823.7708   12.2500   13.8400    0.6144   47.8100 -999.0000 -999.0000 -999.0000    2.3200    0.0968 -999.0000   11.7200 -999.0000 -999.0000 
1823.9232   12.2500   13.8800    3.3824   43.2800 -999.0000 -999.0000 -999.0000    2.3600    0.1130 -999.0000   12.1300 -999.0000 -999.0000 
1824.0756   12.2500   14.6400    1.8504   47.2500 -999.0000 -999.0000 -999.0000    2.3100    0.1090 -999.0000   12.2300 -999.0000 -999.0000 
