~VERSION INFORMATION
 VERS.                 2.0:   CWLS LOG ASCII STANDARD - VERSION 2.0
 WRAP.                  NO:   SINGLE LINE PER DEPTH STEP
 CREA.                 19/01/2018 12:03:00
#CREATED USING DSPetro VERSION 5000.10.1.3 BY H191660 ON 19/01/2018 12:03:00
~WELL INFORMATION
#MNEM.UNIT       DATA                          DESCRIPTION MNEMONIC
#---------      ---------------------------   --------------------------
 STRT    .M         0.0000                    : START DEPTH
 STOP    .M         4299.9660                 : STOP DEPTH
 STEP    .M         0.1524                    : STEP VALUE
 NULL    .      -999.0000                     : NULL VALUE
 DATE    .      19/01/2018                    : LAS file Creation Date
 WELL .      14_3274_Wanaea-1            : Well Name
 COMP .      Neftex Exploration Insights : Company
 FLD  .      WANEA                       : Field
 UWI  .      ZAUWL_005664                : Unique Well Identifier (UWI)
 LOC  .                                  : Location
 RWS  .      -999                        : Def_Rw
 WST  .      -999                        : Def_Rwt
 SRVC .                                  : Contractor
~CURVE INFORMATION
#MNEM              UNIT       API CODE   Curve Type Comments
#----------  --------------- ----------  ---------- -----------
 DEPTH      .M                         : Depth       
 BitSize2   .in                        : bitSize     
 CAL_INCH   .inch                      : caliper     Caliper Log - A representation of the measured diameter of a borehole along its depth
 SP_MV1     .mv                        : SP          Spontaneous Potential - Records the electrical potential produced by the interaction of formation water, conductive drilling mud, and certain ion-sele
 GR_API     .API                       : gammaRay    Gamma Ray (API) - Measures the intensity of natural gamma-ray radiation emitted from formations containing radioactive elements, such as K, Th and U
 LLD_OHMM   .ohmm                      : deepRes     Laterlog Deep Resistivity - Measurement made several feet into the formation; generally considered a measurement of the undisturbed formation
 LLS_OHMM   .ohmm                      : shalRes     Laterlog Shallow Resistivity - one to two feet into the formation; generally considered to measure the formation
 MSFL_OHMM  .ohmm                      : microRes    Micro-Spherically Focused Log - Measurement involves only the first few inches of the formation immediately adjacent to the borehole
 RHOB_G_CC  .g/cc                      : density     Bulk Density - Measures the density of bulk material, including any void space or other materials contained in the subject volume
 DRHO_G_CC  .g/cc                      : drho        Density Correction - Investigates the correction to the Bulk Density log; used as an indication of hole condition to validate the Bulk Density measure
 NPHI_v_v   .dec                       : Neutron     
 PEF_B_E    .b/e-                      : PEF         Photoelectric Factor - A log of photoelectric absorption properties. Often expressed in an approximation unit barns/electron (b/e-)
 LITH       .                          : LITH        Lithology Curve
 LITH_v2    .                          : LITH        Lithology Curve
~A  DEPTH  BitSize   CAL_INCH   SP_MV1    GR_API   LLD_OHMM  LLS_OHMM MSFL_OHM  RHOB_G_C  DRHO_G_C   NPHI_v_v  PEF_B_E     LITH    LITH_v2  
# ...
2649.4740   12.2500   12.7300    1.4811   97.4400    5.5000    3.0300    0.1350    2.6000   -0.0074    0.2967    3.8600   37.0000   37.0000 
2649.6264   12.2500   12.6900    1.9863  100.0600    5.5300    2.8300    0.1350    2.6100   -0.0036    0.2906    4.0400   37.0000   37.0000 
2649.7788   12.2500   12.7200    2.2415  101.5600    5.4200    2.6800    0.1400    2.6300    0.0003    0.2856    4.0000   37.0000   37.0000 
2649.9312   12.2500   12.7300    1.2167  100.8800    5.2400    2.4900    0.1400    2.6200   -0.0006    0.2848    4.3000   37.0000   37.0000 
2650.0836   12.2500   12.7300    0.9619   99.1300    5.5000    2.4600    0.1270    2.6200   -0.0017    0.2717    4.1200   37.0000   37.0000 
2650.2360   12.2500   12.7300    1.7171   95.1300    5.5400    2.4500    0.1260    2.6000   -0.0048    0.2901    4.3100   37.0000   37.0000 
2650.3884   12.2500   12.7300    2.2223   93.1900    5.0400    2.5200    0.1250    2.6000   -0.0110    0.3033    4.1800   37.0000   37.0000 
2650.5408   12.2500   12.7300    1.9775   92.5000    5.2400    2.4200    0.1250    2.5900   -0.0151    0.2854    4.3500   37.0000   37.0000 
2650.6932   12.2500   12.7300    1.9827   93.2500    5.1700    2.4300    0.1250    2.5900   -0.0155    0.3086    4.2900   37.0000   37.0000 
2650.8456   12.2500   12.7300    2.2079   95.8800    5.2600    2.3200    0.1250    2.5800   -0.0155    0.3016    4.3100   37.0000   37.0000 
2650.9980   12.2500   12.7300    2.4631  101.3800    5.1500    2.2000    0.1250    2.5900   -0.0133    0.3088    4.3600   37.0000   37.0000 
2651.1504   12.2500   12.7400    2.2183  108.7500    5.1800    2.2500    0.1250    2.6000   -0.0087    0.2818    4.4300   37.0000   37.0000 
2651.3028   12.2500   12.7300    1.6835  108.3800    5.1600    2.2100    0.1250    2.6000   -0.0055    0.2798    4.3400   37.0000   37.0000 
2651.4552   12.2500   12.7300    1.6587  108.5000    4.8900    2.1700    0.1280    2.5800   -0.0086    0.2944    4.1400   37.0000   37.0000 
2651.6076   12.2500   12.7300    1.6539  108.5000    5.0500    2.2200    0.1620    2.5700   -0.0094    0.3247    3.9700   37.0000   37.0000 
2651.7600   12.2500   12.7300    1.1591  104.8800    2.0100    2.6300    0.1510    2.5800   -0.0051    0.4054    3.9000   37.0000   37.0000 
2651.9124   12.2500   12.6400    0.8743  105.6300    4.8200    2.3600    0.1700    2.5900   -0.0016    0.4676    3.7800   37.0000   37.0000 
2652.0648   12.2500   12.7300    1.1195  104.6300    4.9900    2.5000    0.2660    2.5900   -0.0058    0.4903    3.6900   37.0000   37.0000 
2652.2172   12.2500   12.7500    1.3647  105.1300    5.0400    2.4400    1.8200    2.5900   -0.0073    0.5047    3.8800   37.0000   37.0000 
2652.3696   12.2500   12.8100    2.1199  101.9400    4.9000    2.4100    0.2310    2.5900   -0.0063    0.4487    4.0100   37.0000   37.0000 
2652.5220   12.2500   12.8200    1.3651  101.5600    4.7600    2.3700    0.1350    2.5700   -0.0103    0.4141    4.1100   37.0000   37.0000 
2652.6744   12.2500   12.8000    1.3702  100.2500    5.0700    2.2300    0.1370    2.5700   -0.0124    0.3410    3.9900   37.0000   37.0000 
2652.8268   12.2500   12.7300    1.5854  105.0600    4.4100    2.2700    0.1370    2.5700   -0.0078    0.3350    3.8500   37.0000   37.0000 
2652.9792   12.2500   12.7300    2.0906  105.5000    4.6900    2.1700    0.1390    2.5700   -0.0058    0.3112    3.6900   37.0000   37.0000 
2653.1316   12.2500   12.7300    1.5858  106.8100    4.8900    2.3500    0.1380    2.5800   -0.0062    0.3048    3.5800   37.0000   37.0000 
2653.2840   12.2500   12.7300    1.5810  103.5000    4.8100    2.3000    0.1280    2.5800   -0.0069    0.3175    3.5700   37.0000   37.0000 
2653.4364   12.2500   12.7300    2.5762   99.1900    4.6800    2.2500    0.1250    2.5800   -0.0100    0.3376    3.7200   37.0000   37.0000 
2653.5888   12.2500   12.7300    2.5714   96.1900    4.5300    2.0200    0.1250    2.5700   -0.0115    0.3601    3.9000   37.0000   37.0000 
2653.7412   12.2500   12.7500    1.3266   93.7500    3.8600    2.1500    0.1250    2.5600   -0.0145    0.3341    3.8900   37.0000   37.0000 
2653.8936   12.2500   12.7300    1.0718  101.3800    4.0500    2.4000    0.1250    2.5500   -0.0164    0.3280    3.8300   37.0000   37.0000 
2654.0460   12.2500   12.7300    1.3270   98.0600    4.3400    2.5600    0.1250    2.5500   -0.0164    0.3178    3.6200   37.0000   37.0000 
2654.1984   12.2500   12.7300    1.2922  101.2500    4.4700    2.6300    0.1280    2.5500   -0.0141    0.3220    3.6200   37.0000   37.0000 
2654.3508   12.2500   12.7300    1.2874   96.1300    4.6000    2.6100    0.1260    2.5600   -0.0149    0.3496    3.6700   37.0000   37.0000 
2654.5032   12.2500   12.7000    1.7826   98.8800    4.4100    2.5400    0.1300    2.5700   -0.0086    0.3693    3.7700   37.0000   37.0000 
2654.6556   12.2500   12.6800    1.7878   98.4400    4.4500    2.4900    0.1290    2.5700   -0.0076    0.3546    3.9700   37.0000   37.0000 
2654.8080   12.2500   12.6600    1.5330   97.1300    4.5700    2.5100    0.1250    2.5700   -0.0079    0.3313    3.9800   37.0000   37.0000 
2654.9604   12.2500   12.6800    1.5282   98.8800    4.6800    2.5500    0.1250    2.5600   -0.0106    0.3132    4.0800   37.0000   37.0000 
2655.1128   12.2500   12.7000    1.5234  100.8800    4.7500    2.5900    0.1250    2.5700   -0.0103    0.3228    4.2200   37.0000   37.0000 
2655.2652   12.2500   12.8000    3.7686  101.2500    4.8600    2.6300    0.1250    2.5800   -0.0138    0.3196    4.4800   37.0000   37.0000 
2655.4176   12.2500   12.8500    1.2738   98.3800    4.9000    2.6600    0.1270    2.5800   -0.0115    0.3198    4.6000   37.0000   37.0000 
2655.5700   12.2500   12.8800    2.2690   97.3800    4.5800    2.6100    0.1280    2.5600   -0.0126    0.3505    4.5300   37.0000   37.0000 
2655.7224   12.2500   12.7500    2.0242   94.8800    4.3900    2.5900    0.1300    2.5500   -0.0109    0.3319    4.8600   37.0000   37.0000 
2655.8748   12.2500   12.6900    1.5294  103.3100    3.8800    2.4800    0.1270    2.5700   -0.0060    0.3437    4.7700   37.0000   37.0000 
2656.0272   12.2500   12.6300    1.2746  103.5000    3.3900    2.5900    0.1250    2.6000    0.0020    0.3490    4.9200   37.0000   37.0000 
2656.1796   12.2500   12.6600    1.2798  105.6300    4.5900    2.6100    0.1270    2.6300    0.0025    0.3932    4.5300   37.0000   37.0000 
2656.3320   12.2500   12.6700    2.0349   97.6300    4.5200    2.6600    0.1270    2.6200    0.0011    0.3998    4.3300   37.0000   37.0000 
2656.4844   12.2500   12.6400    2.0401   97.6300    4.4800    2.6200    0.1260    2.6000   -0.0045    0.3627    4.1400   37.0000   37.0000 
2656.6368   12.2500   12.6600    1.0453   98.2500    4.3000    2.7300    0.1710    2.6000   -0.0073    0.3622    3.9300   37.0000   37.0000 
2656.7892   12.2500   12.6800    0.5505  100.4400    4.5300    2.7200    0.1250    2.5800   -0.0166    0.3650    3.8700   37.0000   37.0000 
2656.9416   12.2500   12.6300    1.0357   99.6300    4.7700    2.7300    0.1250    2.5900   -0.0167    0.3748    3.9800   37.0000   37.0000 
2657.0940   12.2500   12.6300    1.5009  100.1300    4.3400    2.7700    0.1250    2.5900   -0.0176    0.3852    4.3400   37.0000   37.0000 
2657.2464   12.2500   12.6800    1.5061  100.4400    4.3400    2.8700    0.1250    2.5900   -0.0123    0.3645    5.2100   37.0000   37.0000 
2657.3988   12.2500   12.6100    1.7613   97.5600    4.6300    2.9700    0.1250    2.5700   -0.0041    0.3747    5.5900   37.0000   37.0000 
2657.5512   12.2500   12.2700    1.9765   92.6300    4.7400    3.0200    0.1250    2.5500    0.0086    0.3334    7.2900   37.0000   37.0000 
2657.7036   12.2500   12.2300    1.4817   92.8800    5.1000    3.0700    0.1280    2.5400    0.0440    0.3297    8.0600   37.0000   37.0000 
2657.8560   12.2500   12.2300    0.7369   94.5600    5.0100    2.9600    0.1390    2.5100    0.0725    0.2874    8.3800   37.0000   37.0000 
2658.0084   12.2500   12.2900    0.7121  102.1300    5.1500    2.8700    0.1480    2.5000    0.0984    0.2819    7.0200   37.0000   37.0000 
