~VERSION INFORMATION
 VERS.                 2.0:   CWLS LOG ASCII STANDARD - VERSION 2.0
 WRAP.                  NO:   SINGLE LINE PER DEPTH STEP
 CREA.                 19/01/2018 12:03:00
#CREATED USING DSPetro VERSION 5000.10.1.3 BY H191660 ON 19/01/2018 12:03:00
~WELL INFORMATION
#MNEM.UNIT       DATA                          DESCRIPTION MNEMONIC
#---------      ---------------------------   --------------------------
 STRT    .M         0.0000                    : START DEPTH
 STOP    .M         4299.9660                 : STOP DEPTH
 STEP    .M         0.1524                    : STEP VALUE
 NULL    .      -999.0000                     : NULL VALUE
 DATE    .      19/01/2018                    : LAS file Creation Date
 WELL .      14_3274_Wanaea-1            : Well Name
 COMP .      Neftex Exploration Insights : Company
 FLD  .      WANEA                       : Field
 UWI  .      ZAUWL_005664                : Unique Well Identifier (UWI)
 LOC  .                                  : Location
 RWS  .      -999                        : Def_Rw
 WST  .      -999                        : Def_Rwt
 SRVC .                                  : Contractor
~CURVE INFORMATION
#MNEM              UNIT       API CODE   Curve Type Comments
#----------  --------------- ----------  ---------- -----------
 DEPTH      .M                         : Depth       
 BitSize2   .in                        : bitSize     
 CAL_INCH   .inch                      : caliper     Caliper Log - A representation of the measured diameter of a borehole along its depth
 SP_MV1     .mv                        : SP          Spontaneous Potential - Records the electrical potential produced by the interaction of formation water, conductive drilling mud, and certain ion-sele
 GR_API     .API                       : gammaRay    Gamma Ray (API) - Measures the intensity of natural gamma-ray radiation emitted from formations containing radioactive elements, such as K, Th and U
 LLD_OHMM   .ohmm                      : deepRes     Laterlog Deep Resistivity - Measurement made several feet into the formation; generally considered a measurement of the undisturbed formation
 LLS_OHMM   .ohmm                      : shalRes     Laterlog Shallow Resistivity - one to two feet into the formation; generally considered to measure the formation
 MSFL_OHMM  .ohmm                      : microRes    Micro-Spherically Focused Log - Measurement involves only the first few inches of the formation immediately adjacent to the borehole
 RHOB_G_CC  .g/cc                      : density     Bulk Density - Measures the density of bulk material, including any void space or other materials contained in the subject volume
 DRHO_G_CC  .g/cc                      : drho        Density Correction - Investigates the correction to the Bulk Density log; used as an indication of hole condition to validate the Bulk Density measure
 NPHI_v_v   .dec                       : Neutron     
 PEF_B_E    .b/e-                      : PEF         Photoelectric Factor - A log of photoelectric absorption properties. Often expressed in an approximation unit barns/electron (b/e-)
 LITH       .                          : LITH        Lithology Curve
 LITH_v2    .                          : LITH        Lithology Curve
~A  DEPTH  BitSize   CAL_INCH   SP_MV1    GR_API   LLD_OHMM  LLS_OHMM MSFL_OHM  RHOB_G_C  DRHO_G_C   NPHI_v_v  PEF_B_E     LITH    LITH_v2  
# ...
3474.7200    8.5000    9.3600   -1.8520  112.8100    4.4300    4.5300    1.8300    2.4600    0.0226    0.2893 -999.0000   37.0000 -999.0000 
3474.8724    8.5000    9.7600   -0.0168  113.8800    4.8000    4.8400    0.8950    2.4600    0.0040    0.2667 -999.0000   37.0000 -999.0000 
3475.0248    8.5000    8.9700   -1.3116  115.1300    5.0600    5.1300    0.7340    2.4700   -0.0061    0.2786 -999.0000   37.0000 -999.0000 
3475.1772    8.5000    8.8800   -2.4664  116.8800    5.2200    5.2500    1.2300    2.4800   -0.0092    0.2719 -999.0000   37.0000 -999.0000 
3475.3296    8.5000    9.1800   -2.9812  109.1300    5.2500    5.2700    1.3200    2.4700   -0.0036    0.2933 -999.0000   37.0000 -999.0000 
3475.4820    8.5000    9.2300   -3.2460  106.8100    5.2100    5.2900    1.6800    2.4200    0.0127    0.2994 -999.0000   37.0000 -999.0000 
3475.6344    8.5000    9.4900   -2.9808  107.3800    5.2000    5.2700    1.0700    2.3800    0.0316    0.3135 -999.0000   37.0000 -999.0000 
3475.7868    8.5000   10.1900   -2.4856  108.8800    5.2100    5.2300    0.7680    2.3900    0.0537    0.3112 -999.0000   37.0000 -999.0000 
3475.9392    8.5000    9.8800   -2.4004  106.6300    4.9800    5.0800    0.9130    2.3900    0.0648    0.3055 -999.0000   37.0000 -999.0000 
3476.0916    8.5000   10.1400   -2.6552  110.6300    4.7800    4.8900    1.3900    2.4000    0.0768    0.2887 -999.0000   37.0000 -999.0000 
3476.2440    8.5000    9.9600   -2.9200  116.2500    4.6200    4.6800    1.3600    2.3700    0.0706    0.2913 -999.0000   37.0000 -999.0000 
3476.3964    8.5000   10.3500   -3.3349  115.8100    4.4900    4.6100    0.9120    2.3800    0.0744    0.2858 -999.0000   37.0000 -999.0000 
3476.5488    8.5000   10.8300   -3.0897  111.6900    4.5000    4.5500    0.7260    2.3800    0.0788    0.2899 -999.0000   37.0000 -999.0000 
3476.7012    8.5000   11.0900   -2.8845  110.0600    4.5100    4.6100    1.0600    2.4000    0.0932    0.2852 -999.0000   37.0000 -999.0000 
3476.8536    8.5000   10.4800   -2.0293  107.6900    4.4300    4.5500    1.2800    2.4100    0.0980    0.2869 -999.0000   37.0000 -999.0000 
3477.0060    8.5000   10.4000   -2.1641  108.5000    4.4600    4.5900    0.9730    2.4300    0.0972    0.2906 -999.0000   37.0000 -999.0000 
3477.1584    8.5000   10.6200   -1.8989  106.5000    4.4000    4.4700    0.9240    2.4600    0.0958    0.2822 -999.0000   37.0000 -999.0000 
3477.3108    8.5000   10.3700   -2.0337  109.6300    4.4000    4.5400    0.8900    2.4700    0.1000    0.2900 -999.0000   37.0000 -999.0000 
3477.4632    8.5000   10.0000   -1.7885  110.0000    4.6600    4.6900    0.9030    2.4600    0.0901    0.2998 -999.0000   37.0000 -999.0000 
3477.6156    8.5000   10.2300   -1.7733  113.7500    4.8000    4.9000    1.2400    2.4500    0.0905    0.3132 -999.0000   37.0000 -999.0000 
3477.7680    8.5000   10.1600   -2.1781  111.6300    5.1200    5.1900    1.9500    2.4600    0.0975    0.3034 -999.0000   37.0000 -999.0000 
3477.9204    8.5000   10.4700   -1.6729  109.5600    5.0300    5.0500    2.8000    2.4600    0.1080    0.2930 -999.0000   37.0000 -999.0000 
3478.0728    8.5000   10.6600   -1.9377  109.1300    4.5700    4.6900    1.1500    2.4500    0.1140    0.2982 -999.0000   37.0000 -999.0000 
3478.2252    8.5000   10.9400   -2.1925  111.5600    4.4400    4.4800    1.0900    2.4400    0.1170    0.2961 -999.0000   37.0000 -999.0000 
3478.3776    8.5000   11.0200   -2.5273  114.5000    4.4300    4.4700    1.5500    2.4400    0.1170    0.3088 -999.0000   37.0000 -999.0000 
3478.5300    8.5000   11.0200   -2.7221  114.6300    4.2100    4.3300    1.9200    2.4100    0.1080    0.2969 -999.0000   37.0000 -999.0000 
3478.6824    8.5000   11.0500   -2.6269  114.8100    4.2900    4.4100    0.9570    2.3800    0.0955    0.2955 -999.0000   37.0000 -999.0000 
3478.8348    8.5000   10.8600   -2.7618  110.5000    4.5700    4.5800    0.7740    2.3600    0.0950    0.2975 -999.0000   37.0000 -999.0000 
3478.9872    8.5000   10.6600   -2.3866  111.5600    4.5600    4.6700    2.0600    2.3800    0.0962    0.3084 -999.0000   37.0000 -999.0000 
3479.1396    8.5000   10.6500   -2.4214  110.4400    4.6800    4.7300    1.1700    2.3900    0.0960    0.3386 -999.0000   37.0000 -999.0000 
3479.2920    8.5000   10.5100   -2.3662  112.8100    4.8600    4.9300    0.9740    2.3800    0.0911    0.3351 -999.0000   37.0000 -999.0000 
3479.4444    8.5000   10.1700   -2.1310  108.8100    4.7200    4.8400    0.6420    2.3600    0.0846    0.3406 -999.0000   37.0000 -999.0000 
3479.5968    8.5000   10.4700   -1.7558  111.3100    4.6400    4.7800    0.6750    2.3400    0.0717    0.3306 -999.0000   37.0000 -999.0000 
3479.7492    8.5000   10.5800   -2.1506  111.0000    4.4100    4.5600    0.7690    2.3400    0.0759    0.3283 -999.0000   37.0000 -999.0000 
3479.9016    8.5000   10.7700   -2.2854  116.9400    4.3200    4.4300    0.8150    2.3400    0.0715    0.3429 -999.0000   37.0000 -999.0000 
3480.0540    8.5000   11.0500   -1.7102  115.6900    4.3300    4.4100    0.7250    2.3700    0.0836    0.3244 -999.0000   37.0000 -999.0000 
3480.2064    8.5000   10.5100   -1.7050  110.2500    4.3400    4.4900    0.8130    2.4000    0.0952    0.3130 -999.0000   37.0000 -999.0000 
3480.3588    8.5000   10.1100   -1.7198  110.7500    4.5500    4.6200    0.7010    2.4300    0.1080    0.3030 -999.0000   37.0000 -999.0000 
3480.5112    8.5000    9.5600   -1.7346  112.6300    4.8100    4.8300    0.8160    2.4400    0.1020    0.3084 -999.0000   37.0000 -999.0000 
3480.6636    8.5000    9.7500   -1.1294  114.9400    5.1300    5.1900    1.3200    2.4500    0.1010    0.3199 -999.0000   37.0000 -999.0000 
3480.8160    8.5000   10.1600   -1.8042  109.0000    5.2900    5.3900    1.6500    2.4400    0.0943    0.3088 -999.0000   37.0000 -999.0000 
3480.9684    8.5000   10.1900   -2.5290  107.5000    4.9100    4.9800    1.3600    2.4100    0.0780    0.3052 -999.0000   37.0000 -999.0000 
3481.1208    8.5000   10.2900   -2.2938  109.6900    4.4500    4.5800    0.9900    2.3600    0.0603    0.2942 -999.0000   37.0000 -999.0000 
3481.2732    8.5000   10.6200   -1.5987  109.6300    4.2300    4.2800    1.0500    2.3400    0.0559    0.3106 -999.0000   37.0000 -999.0000 
3481.4256    8.5000   10.1600   -1.0635  107.1900    4.1700    4.2300    0.8820    2.3600    0.0640    0.3076 -999.0000   37.0000 -999.0000 
3481.5780    8.5000    9.7200   -2.3283  100.1300    4.1600    4.3100    0.5460    2.4000    0.0813    0.3086 -999.0000   37.0000 -999.0000 
3481.7304    8.5000    9.8400   -2.4631   99.5000    4.6100    4.6500    0.3770    2.4200    0.0956    0.3026 -999.0000   37.0000 -999.0000 
3481.8828    8.5000    9.9500   -2.1379   99.7500    4.7400    4.8500    0.5350    2.4300    0.1050    0.3023 -999.0000   37.0000 -999.0000 
3482.0352    8.5000   10.4100   -2.2327  104.5600    4.5400    4.7200    0.4470    2.4400    0.1150    0.3233 -999.0000   37.0000 -999.0000 
3482.1876    8.5000   10.5600   -2.1475  107.8800    4.5200    4.5000    0.5010    2.4400    0.1190    0.3268 -999.0000   37.0000 -999.0000 
3482.3400    8.5000   10.5800   -1.9123  104.6300    4.0700    4.2100    0.6150    2.4300    0.1130    0.3286 -999.0000   37.0000 -999.0000 
3482.4924    8.5000   10.5500   -1.7871  112.0000    3.7900    3.8900    0.8970    2.4200    0.1080    0.3055 -999.0000   37.0000 -999.0000 
3482.6448    8.5000   10.7100   -2.0219  108.9400    3.8000    3.8600    0.9730    2.4200    0.1110    0.2946 -999.0000   37.0000 -999.0000 
3482.7972    8.5000   10.9400   -1.7767  112.4400    3.7400    3.9100    0.6710    2.4300    0.1150    0.3060 -999.0000   37.0000 -999.0000 
3482.9496    8.5000   11.1600   -1.5715  105.3100    3.8500    3.9700    0.6480    2.4200    0.1080    0.3088 -999.0000   37.0000 -999.0000 
3483.1020    8.5000   10.9400   -1.9463  107.8100    3.9300    3.9700    1.1900    2.4200    0.1000    0.3102 -999.0000   37.0000 -999.0000 
3483.2544    8.5000   10.3600   -2.0811  105.7500    4.0000    4.1000    1.1100    2.4300    0.1000    0.2865 -999.0000   37.0000 -999.0000 
