~VERSION INFORMATION
 VERS.                 2.0:   CWLS LOG ASCII STANDARD - VERSION 2.0
 WRAP.                  NO:   SINGLE LINE PER DEPTH STEP
 CREA.                 19/01/2018 12:03:00
#CREATED USING DSPetro VERSION 5000.10.1.3 BY H191660 ON 19/01/2018 12:03:00
~WELL INFORMATION
#MNEM.UNIT       DATA                          DESCRIPTION MNEMONIC
#---------      ---------------------------   --------------------------
 STRT    .M         0.0000                    : START DEPTH
 STOP    .M         4299.9660                 : STOP DEPTH
 STEP    .M         0.1524                    : STEP VALUE
 NULL    .      -999.0000                     : NULL VALUE
 DATE    .      19/01/2018                    : LAS file Creation Date
 WELL .      14_3274_Wanaea-1            : Well Name
 COMP .      Neftex Exploration Insights : Company
 FLD  .      WANEA                       : Field
 UWI  .      ZAUWL_005664                : Unique Well Identifier (UWI)
 LOC  .                                  : Location
 RWS  .      -999                        : Def_Rw
 WST  .      -999                        : Def_Rwt
 SRVC .                                  : Contractor
~CURVE INFORMATION
#MNEM              UNIT       API CODE   Curve Type Comments
#----------  --------------- ----------  ---------- -----------
 DEPTH      .M                         : Depth       
 BitSize2   .in                        : bitSize     
 CAL_INCH   .inch                      : caliper     Caliper Log - A representation of the measured diameter of a borehole along its depth
 SP_MV1     .mv                        : SP          Spontaneous Potential - Records the electrical potential produced by the interaction of formation water, conductive drilling mud, and certain ion-sele
 GR_API     .API                       : gammaRay    Gamma Ray (API) - Measures the intensity of natural gamma-ray radiation emitted from formations containing radioactive elements, such as K, Th and U
 LLD_OHMM   .ohmm                      : deepRes     Laterlog Deep Resistivity - Measurement made several feet into the formation; generally considered a measurement of the undisturbed formation
 LLS_OHMM   .ohmm                      : shalRes     Laterlog Shallow Resistivity - one to two feet into the formation; generally considered to measure the formation
 MSFL_OHMM  .ohmm                      : microRes    Micro-Spherically Focused Log - Measurement involves only the first few inches of the formation immediately adjacent to the borehole
 RHOB_G_CC  .g/cc                      : density     Bulk Density - Measures the density of bulk material, including any void space or other materials contained in the subject volume
 DRHO_G_CC  .g/cc                      : drho        Density Correction - Investigates the correction to the Bulk Density log; used as an indication of hole condition to validate the Bulk Density measure
 NPHI_v_v   .dec                       : Neutron     
 PEF_B_E    .b/e-                      : PEF         Photoelectric Factor - A log of photoelectric absorption properties. Often expressed in an approximation unit barns/electron (b/e-)
 LITH       .                          : LITH        Lithology Curve
 LITH_v2    .                          : LITH        Lithology Curve
~A  DEPTH  BitSize   CAL_INCH   SP_MV1    GR_API   LLD_OHMM  LLS_OHMM MSFL_OHM  RHOB_G_C  DRHO_G_C   NPHI_v_v  PEF_B_E     LITH    LITH_v2  
# ...
2145.6396   12.2500   23.8400    0.8134   58.5300 -999.0000 -999.0000 -999.0000    1.7300   -0.0250 -999.0000   25.9400 -999.0000 -999.0000 
2145.7920   12.2500   23.0600    1.3192   54.4400 -999.0000 -999.0000 -999.0000    1.8200   -0.0055 -999.0000   26.6100 -999.0000 -999.0000 
2145.9444   12.2500   20.1700    1.2901   51.1600 -999.0000 -999.0000 -999.0000    1.8800    0.0074 -999.0000   31.6700 -999.0000 -999.0000 
2146.0968   12.2500   20.5500    1.0081   52.0300 -999.0000 -999.0000 -999.0000    1.9100    0.0139 -999.0000   25.2200 -999.0000 -999.0000 
2146.2492   12.2500   22.1700    0.2561   53.6900 -999.0000 -999.0000 -999.0000    1.9100    0.0183 -999.0000   22.8300 -999.0000 -999.0000 
2146.4016   12.2500   23.3300   -0.9920   56.8400 -999.0000 -999.0000 -999.0000    1.9600    0.0326 -999.0000   19.6700 -999.0000 -999.0000 
2146.5540   12.2500   21.9800    0.0050   55.6600 -999.0000 -999.0000 -999.0000    2.0600    0.0396 -999.0000   24.0200 -999.0000 -999.0000 
2146.7064   12.2500   23.2200    0.0040   56.0300 -999.0000 -999.0000 -999.0000    2.1700    0.0342 -999.0000   18.1400 -999.0000 -999.0000 
2146.8588   12.2500   23.5300   -0.2471   55.1300 -999.0000 -999.0000 -999.0000    2.2800    0.0271 -999.0000   17.7700 -999.0000 -999.0000 
2147.0112   12.2500   22.3900   -0.2471   54.2200 -999.0000 -999.0000 -999.0000    2.2200    0.0052 -999.0000   20.3600 -999.0000 -999.0000 
2147.1636   12.2500   23.8300    0.7525   52.1900 -999.0000 -999.0000 -999.0000    2.0200   -0.0135 -999.0000   24.8300 -999.0000 -999.0000 
2147.3160   12.2500   23.7000    0.0028   48.1600 -999.0000 -999.0000 -999.0000    1.8600   -0.0335 -999.0000   31.2800 -999.0000 -999.0000 
2147.4684   12.2500   23.8400   -0.2462   46.2500 -999.0000 -999.0000 -999.0000    1.8300   -0.0250 -999.0000   30.8300 -999.0000 -999.0000 
2147.6208   12.2500   22.7200   -0.4982   47.8800 -999.0000 -999.0000 -999.0000    1.9600   -0.0024 -999.0000   33.3400 -999.0000 -999.0000 
2147.7732   12.2500   22.3600    2.2597   50.5600 -999.0000 -999.0000 -999.0000    2.0000    0.0022 -999.0000   30.0200 -999.0000 -999.0000 
2147.9256   12.2500   23.3800    1.7577   52.4400 -999.0000 -999.0000 -999.0000    1.9100   -0.0015 -999.0000   29.4200 -999.0000 -999.0000 
2148.0780   12.2500   23.6600   -0.2403   55.1900 -999.0000 -999.0000 -999.0000    1.8800   -0.0013 -999.0000   21.7200 -999.0000 -999.0000 
2148.2304   12.2500   22.8400    0.2616   61.6300 -999.0000 -999.0000 -999.0000    1.9600    0.0029 -999.0000   21.8100 -999.0000 -999.0000 
2148.3828   12.2500   21.2500    1.5156   64.4400 -999.0000 -999.0000 -999.0000    2.0800    0.0074 -999.0000   24.3900 -999.0000 -999.0000 
2148.5352   12.2500   22.0800    1.2696   62.8800 -999.0000 -999.0000 -999.0000    1.9500   -0.0041 -999.0000   26.0600 -999.0000 -999.0000 
2148.6876   12.2500   23.8600    0.7746   63.1900 -999.0000 -999.0000 -999.0000    1.7900   -0.0266 -999.0000   19.7300 -999.0000 -999.0000 
2148.8400   12.2500   23.7200    0.0305   61.0000 -999.0000 -999.0000 -999.0000    1.8000   -0.0247 -999.0000   13.8300 -999.0000 -999.0000 
2148.9924   12.2500   20.2200    0.7882   59.3100 -999.0000 -999.0000 -999.0000    1.8400   -0.0237 -999.0000   15.5900 -999.0000 -999.0000 
2149.1448   12.2500   20.8400    1.2964   51.7800 -999.0000 -999.0000 -999.0000    1.8600   -0.0249 -999.0000   18.4100 -999.0000 -999.0000 
2149.2972   12.2500   23.0000    1.0574   50.7200 -999.0000 -999.0000 -999.0000    1.7400   -0.0434 -999.0000   24.6900 -999.0000 -999.0000 
2149.4496   12.2500   23.7800    1.3194   48.5300 -999.0000 -999.0000 -999.0000    1.8200   -0.0358 -999.0000   19.3000 -999.0000 -999.0000 
2149.6020   12.2500   20.4100    1.0833   50.4700 -999.0000 -999.0000 -999.0000    1.9900   -0.0174 -999.0000   15.8900 -999.0000 -999.0000 
2149.7544   12.2500   20.7700    0.5993   55.0900 -999.0000 -999.0000 -999.0000    2.1700   -0.0060 -999.0000   19.4200 -999.0000 -999.0000 
2149.9068   12.2500   22.5600    0.0823   56.2500 -999.0000 -999.0000 -999.0000    2.0800   -0.0182 -999.0000   21.5000 -999.0000 -999.0000 
2150.0592   12.2500   23.6400   -0.4408   56.6600 -999.0000 -999.0000 -999.0000    1.8900   -0.0381 -999.0000   24.3100 -999.0000 -999.0000 
2150.2116   12.2500   23.8600   -0.4628   54.5000 -999.0000 -999.0000 -999.0000    1.8700   -0.0378 -999.0000   19.3800 -999.0000 -999.0000 
2150.3640   12.2500   21.3600    0.0182   53.7800 -999.0000 -999.0000 -999.0000    1.9400   -0.0289 -999.0000   21.6700 -999.0000 -999.0000 
2150.5164   12.2500   21.5200    0.2411   58.4700 -999.0000 -999.0000 -999.0000    2.0900   -0.0025 -999.0000   23.4500 -999.0000 -999.0000 
2150.6688   12.2500   23.1100    0.2461   57.3400 -999.0000 -999.0000 -999.0000    2.0700    0.0037 -999.0000   27.1100 -999.0000 -999.0000 
2150.8212   12.2500   23.1300    0.9661   55.5000 -999.0000 -999.0000 -999.0000    2.0200   -0.0024 -999.0000   23.5300 -999.0000 -999.0000 
2150.9736   12.2500   23.2500    1.7170   52.2800 -999.0000 -999.0000 -999.0000    1.9600   -0.0121 -999.0000   27.1700 -999.0000 -999.0000 
2151.1260   12.2500   22.5900    0.9700   50.7500 -999.0000 -999.0000 -999.0000    1.8500   -0.0213 -999.0000   31.1600 -999.0000 -999.0000 
2151.2784   12.2500   21.7300   -0.0260   54.9100 -999.0000 -999.0000 -999.0000    1.7700   -0.0275 -999.0000   35.7500 -999.0000 -999.0000 
2151.4308   12.2500   22.5500    0.2269   53.0300 -999.0000 -999.0000 -999.0000    1.7300   -0.0377 -999.0000   32.7500 -999.0000 -999.0000 
2151.5832   12.2500   23.8300    0.6960   49.7500 -999.0000 -999.0000 -999.0000    1.7300   -0.0383 -999.0000   31.7800 -999.0000 -999.0000 
2151.7356   12.2500   23.8800    0.4469   46.6900 -999.0000 -999.0000 -999.0000    1.7400   -0.0373 -999.0000   25.7700 -999.0000 -999.0000 
2151.8880   12.2500   23.8400    0.4468   47.1300 -999.0000 -999.0000 -999.0000    1.7500   -0.0364 -999.0000   22.2000 -999.0000 -999.0000 
2152.0404   12.2500   20.3300    0.4478   52.2800 -999.0000 -999.0000 -999.0000    1.8200   -0.0295 -999.0000   20.5800 -999.0000 -999.0000 
2152.1928   12.2500   21.6900    0.4497   58.0000 -999.0000 -999.0000 -999.0000    1.8900   -0.0151 -999.0000   21.3800 -999.0000 -999.0000 
2152.3452   12.2500   20.0200   -0.0473   55.5900 -999.0000 -999.0000 -999.0000    1.9700   -0.0061 -999.0000   21.4500 -999.0000 -999.0000 
2152.4976   12.2500   17.6300    0.1687   55.2500 -999.0000 -999.0000 -999.0000    1.9900   -0.0056 -999.0000   15.6900 -999.0000 -999.0000 
2152.6500   12.2500   18.5500    1.1676   53.9400 -999.0000 -999.0000 -999.0000    2.0100   -0.0086 -999.0000   14.9400 -999.0000 -999.0000 
2152.8024   12.2500   18.8000    2.1626   55.2500 -999.0000 -999.0000 -999.0000    1.9600   -0.0175 -999.0000   18.1900 -999.0000 -999.0000 
2152.9548   12.2500   17.3900    0.9146   51.6300 -999.0000 -999.0000 -999.0000    1.8600   -0.0337 -999.0000   24.7000 -999.0000 -999.0000 
2153.1072   12.2500   18.7000    0.1625   51.0000 -999.0000 -999.0000 -999.0000    1.7500   -0.0491 -999.0000   29.9700 -999.0000 -999.0000 
2153.2596   12.2500   20.5200    0.1615   46.9700 -999.0000 -999.0000 -999.0000    1.7900   -0.0508 -999.0000   23.9400 -999.0000 -999.0000 
2153.4120   12.2500   21.8000    0.1605   50.2200 -999.0000 -999.0000 -999.0000    1.8800   -0.0426 -999.0000   17.2300 -999.0000 -999.0000 
2153.5644   12.2500   23.8400    0.1594   50.3100 -999.0000 -999.0000 -999.0000    2.1100   -0.0070 -999.0000   18.5000 -999.0000 -999.0000 
2153.7168   12.2500   23.6900    0.1584   53.4400 -999.0000 -999.0000 -999.0000    2.0800   -0.0063 -999.0000   21.3900 -999.0000 -999.0000 
2153.8692   12.2500   21.4700    0.6577   50.0900 -999.0000 -999.0000 -999.0000    1.9600   -0.0179 -999.0000   28.5300 -999.0000 -999.0000 
2154.0216   12.2500   19.0900    0.6566   49.1300 -999.0000 -999.0000 -999.0000    1.8300   -0.0297 -999.0000   34.5300 -999.0000 -999.0000 
2154.1740   12.2500   20.4200    0.4063   50.6900 -999.0000 -999.0000 -999.0000    1.7700   -0.0296 -999.0000   36.9100 -999.0000 -999.0000 
