~VERSION INFORMATION
 VERS.                 2.0:   CWLS LOG ASCII STANDARD - VERSION 2.0
 WRAP.                  NO:   SINGLE LINE PER DEPTH STEP
 CREA.                 19/01/2018 12:03:00
#CREATED USING DSPetro VERSION 5000.10.1.3 BY H191660 ON 19/01/2018 12:03:00
~WELL INFORMATION
#MNEM.UNIT       DATA                          DESCRIPTION MNEMONIC
#---------      ---------------------------   --------------------------
 STRT    .M         0.0000                    : START DEPTH
 STOP    .M         4299.9660                 : STOP DEPTH
 STEP    .M         0.1524                    : STEP VALUE
 NULL    .      -999.0000                     : NULL VALUE
 DATE    .      19/01/2018                    : LAS file Creation Date
 WELL .      14_3274_Wanaea-1            : Well Name
 COMP .      Neftex Exploration Insights : Company
 FLD  .      WANEA                       : Field
 UWI  .      ZAUWL_005664                : Unique Well Identifier (UWI)
 LOC  .                                  : Location
 RWS  .      -999                        : Def_Rw
 WST  .      -999                        : Def_Rwt
 SRVC .                                  : Contractor
~CURVE INFORMATION
#MNEM              UNIT       API CODE   Curve Type Comments
#----------  --------------- ----------  ---------- -----------
 DEPTH      .M                         : Depth       
 BitSize2   .in                        : bitSize     
 CAL_INCH   .inch                      : caliper     Caliper Log - A representation of the measured diameter of a borehole along its depth
 SP_MV1     .mv                        : SP          Spontaneous Potential - Records the electrical potential produced by the interaction of formation water, conductive drilling mud, and certain ion-sele
 GR_API     .API                       : gammaRay    Gamma Ray (API) - Measures the intensity of natural gamma-ray radiation emitted from formations containing radioactive elements, such as K, Th and U
 LLD_OHMM   .ohmm                      : deepRes     Laterlog Deep Resistivity - Measurement made several feet into the formation; generally considered a measurement of the undisturbed formation
 LLS_OHMM   .ohmm                      : shalRes     Laterlog Shallow Resistivity - one to two feet into the formation; generally considered to measure the formation
 MSFL_OHMM  .ohmm                      : microRes    Micro-Spherically Focused Log - Measurement involves only the first few inches of the formation immediately adjacent to the borehole
 RHOB_G_CC  .g/cc                      : density     Bulk Density - Measures the density of bulk material, including any void space or other materials contained in the subject volume
 DRHO_G_CC  .g/cc                      : drho        Density Correction - Investigates the correction to the Bulk Density log; used as an indication of hole condition to validate the Bulk Density measure
 NPHI_v_v   .dec                       : Neutron     
 PEF_B_E    .b/e-                      : PEF         Photoelectric Factor - A log of photoelectric absorption properties. Often expressed in an approximation unit barns/electron (b/e-)
 LITH       .                          : LITH        Lithology Curve
 LITH_v2    .                          : LITH        Lithology Curve
~A  DEPTH  BitSize   CAL_INCH   SP_MV1    GR_API   LLD_OHMM  LLS_OHMM MSFL_OHM  RHOB_G_C  DRHO_G_C   NPHI_v_v  PEF_B_E     LITH    LITH_v2  
# ...
3309.6708   12.2500   14.0200   -1.9243  119.8100    8.0700    6.8900    0.5830    2.3600    0.1250    0.3343    3.5500   11.0000   11.0000 
3309.8232   12.2500   14.4800   -1.7076  117.8100    7.8400    6.8700    0.5590    2.2400    0.1230    0.3283    3.4900   11.0000   11.0000 
3309.9756   12.2500   15.3400   -1.9308  118.6300    7.4600    6.5600    0.5630    2.1300    0.0935    0.3315    3.6300   11.0000   11.0000 
3310.1280   12.2500   14.9200   -4.1841  119.8100    7.5100    6.7700    0.3860    1.9700    0.0513    0.3389    3.6000   10.0000   11.0000 
3310.2804   12.2500   14.4100   -5.8174  118.0000    7.5800    6.9500    0.3330    1.9000    0.0203    0.3467    3.6300   10.0000   11.0000 
3310.4328   12.2500   14.2400   -5.1607  118.8100    7.8500    7.0400    0.4120    1.8300    0.0035    0.3672    3.6000   10.0000   11.0000 
3310.5852   12.2500   14.1300   -5.5039  113.8100    8.3300    7.2600    0.3850    1.8100   -0.0058    0.3655    3.6400   10.0000   11.0000 
3310.7376   12.2500   14.1100   -5.0372  119.5600    8.2700    6.7600    0.4030    1.7900   -0.0115    0.3731    3.4700   10.0000   11.0000 
3310.8900   12.2500   14.4200   -3.5405  121.8800    7.6400    6.1800    0.2530    1.7800   -0.0131    0.3874    3.4600   10.0000   11.0000 
3311.0424   12.2500   15.1000   -1.5438  124.0600    7.4200    5.9900    0.1930    1.7000   -0.0119    0.3994    3.5200   10.0000   11.0000 
3311.1948   12.2500   16.0300   -1.8370  116.1900    7.2500    5.9900    0.1530    1.6800   -0.0011    0.4098    3.7500   10.0000   11.0000 
3311.3472   12.2500   16.5300   -2.0903  113.9400    6.9900    5.9500    0.2150    1.6900    0.0109    0.3808    3.6900   10.0000   11.0000 
3311.4996   12.2500   16.9700   -2.4636  111.0600    7.0800    6.2000    0.5290    1.7800    0.0420    0.3761    3.4400   10.0000   11.0000 
3311.6520   12.2500   17.2200   -2.8468  119.1900    7.2500    6.4500    0.2710    1.8700    0.0788    0.3678    3.1800   10.0000   11.0000 
3311.8044   12.2500   16.6700   -3.8501  118.1900    7.3300    6.3900    0.3600    1.8500    0.0873    0.3928    3.1200   10.0000   11.0000 
3311.9568   12.2500   16.5800   -7.4434  123.8100    7.3900    6.4200    0.4810    1.7800    0.0818    0.4003    3.0600   10.0000   11.0000 
3312.1092   12.2500   16.7800   -7.2867  123.9400    7.6300    6.4900    0.6330    1.7800    0.0676    0.3833    3.0300   10.0000   11.0000 
3312.2616   12.2500   14.7200   -7.0699  128.5000    7.9500    6.5600    0.6460    1.8900    0.0486    0.3537    3.0800   10.0000   11.0000 
3312.4140   12.2500   14.8500   -7.7032  127.1300    7.9600    6.5700    0.4400    2.1600    0.0523    0.3124    3.1800   37.0000   11.0000 
3312.5664   12.2500   14.1300   -7.4565  128.3800    8.1200    6.6500    0.6080    2.2700    0.0759    0.3041    3.3100   37.0000   11.0000 
3312.7188   12.2500   14.6100   -4.3697  124.6900    8.3600    6.7400    0.5130    2.2500    0.0816    0.2964    3.1700   37.0000   11.0000 
3312.8712   12.2500   15.2900   -3.7130  121.2500    8.4100    6.8900    0.4460    2.2100    0.0967    0.3082    2.9900   37.0000   11.0000 
3313.0236   12.2500   15.8800   -3.2163  121.0000    8.4900    6.9700    0.3490    2.1500    0.1070    0.3201    2.9200   37.0000   11.0000 
3313.1760   12.2500   16.2500   -3.0596  120.1900    8.6600    7.3100    0.2920    2.1000    0.0990    0.3194    2.8500   37.0000   11.0000 
3313.3284   12.2500   16.4100   -2.9728  119.5000    8.8200    7.4000    0.4890    2.0500    0.0702    0.3330    3.0100   37.0000   11.0000 
3313.4808   12.2500   16.7200   -4.9761  113.2500    8.9000    7.5500    0.5480    2.0600    0.0447    0.3248    3.1000   37.0000   11.0000 
3313.6332   12.2500   14.3300   -6.5994  108.3100    8.7900    7.4800    0.5470    2.0000    0.0168    0.3310    3.3300   37.0000   11.0000 
3313.7856   12.2500   15.2200   -6.1427  107.0000    8.7100    7.3500    0.4150    1.9700    0.0110    0.3295    3.4300   37.0000   11.0000 
3313.9380   12.2500   14.8600   -5.2359  109.6900    8.4900    7.0800    0.4900    1.9000    0.0175    0.3186    3.5600   10.0000   11.0000 
3314.0904   12.2500   14.8800   -5.6492  115.5600    8.6000    7.0200    0.3470    1.9000    0.0397    0.3229    3.6100   10.0000   11.0000 
3314.2428   12.2500   15.1000   -5.2725  120.4400    8.7200    7.1500    0.2710    1.8500    0.0426    0.3390    3.5700   10.0000   11.0000 
3314.3952   12.2500   15.5400   -5.3657  119.6900    8.7300    7.2800    0.2360    1.8600    0.0402    0.3700    3.4900   10.0000   11.0000 
3314.5476   12.2500   15.7300   -4.6590  118.3100    8.9000    7.4300    0.2750    1.8600    0.0448    0.3579    3.4200   10.0000   11.0000 
3314.7000   12.2500   15.1200   -3.9123  109.1900    9.0900    7.4300    0.4290    1.9100    0.0591    0.3372    3.5000   10.0000   11.0000 
3314.8524   12.2500   15.5200   -5.4156  113.2500    8.9300    7.3300    0.6880    1.9400    0.0801    0.3313    3.4600   10.0000   11.0000 
3315.0048   12.2500   15.9000   -5.1688  112.4400    8.6500    7.1100    0.4730    1.9900    0.1130    0.3658    3.3700   10.0000   11.0000 
3315.1572   12.2500   16.9400   -3.1721  120.0000    8.2300    6.8400    0.3330    2.0400    0.1420    0.3756    3.3100   10.0000   11.0000 
3315.3096   12.2500   17.2500   -4.9254  122.9400    8.1700    6.7600    0.3560    1.9500    0.1230    0.3688    3.3900   10.0000   11.0000 
3315.4620   12.2500   17.6400   -4.5187  124.7500    8.0600    6.6000    0.3430    1.8700    0.1120    0.3513    3.4900   11.0000   11.0000 
3315.6144   12.2500   17.9100   -5.8919  123.0000    7.9600    6.5400    0.3300    1.7900    0.0989    0.3590    3.4900   11.0000   11.0000 
3315.7668   12.2500   18.0900   -6.1452  121.3100    7.7600    6.5300    0.3120    1.7800    0.0900    0.3545    3.4500   11.0000   11.0000 
3315.9192   12.2500   18.0900   -5.8985  121.2500    7.9300    6.4500    0.2950    1.7900    0.0905    0.3300    3.4400   11.0000   11.0000 
3316.0716   12.2500   18.0600   -5.9417  119.6300    7.8200    6.3700    0.2920    1.8300    0.1220    0.2969    3.4500   11.0000   11.0000 
3316.2240   12.2500   17.8600   -5.7850  114.9400    7.8000    6.3500    0.2760    1.8900    0.1470    0.3062    3.4000   11.0000   11.0000 
3316.3764   12.2500   16.8800   -1.8183  115.1900    7.8900    6.6000    0.2510    1.9400    0.1610    0.3172    3.3600   11.0000   11.0000 
3316.5288   12.2500   16.5000   -4.8216  115.5600    8.4500    7.1500    0.6420    2.0400    0.1750    0.3499    3.2900   11.0000   11.0000 
3316.6812   12.2500   15.1300   -5.3248  121.3800    8.4800    7.3500    0.4220    2.0800    0.1580    0.3342    3.3300   11.0000   11.0000 
3316.8336   12.2500   15.1700   -5.6081  122.1900    8.7300    7.4200    0.4120    2.2400    0.1720    0.3282    3.3400   11.0000   11.0000 
3316.9860   12.2500   15.6800   -6.2414  126.2500    8.8200    7.5300    0.8550    2.2800    0.1640    0.3040    3.4600   11.0000   11.0000 
3317.1384   12.2500   15.0000   -5.9646  120.8100    8.8300    7.5500    0.7580    2.4000    0.1750    0.3092    3.4100   11.0000   11.0000 
3317.2908   12.2500   15.1600   -6.7179  122.1300    8.9100    7.5900    0.4230    2.3700    0.1550    0.3101    3.4200   11.0000   11.0000 
3317.4432   12.2500   13.4100   -3.5012  124.8800    8.9600    7.5500    0.4110    2.2600    0.1410    0.2998    3.3100   11.0000   11.0000 
3317.5956   12.2500   13.6300   -2.1245  127.0000    9.0200    7.4200    0.4240    2.1900    0.1260    0.3093    3.2200   11.0000   11.0000 
3317.7480   12.2500   14.5900   -3.8477  124.1900    8.9300    7.2600    0.4930    2.1200    0.1110    0.3098    3.2000   11.0000   11.0000 
3317.9004   12.2500   15.4100   -6.5710  114.5600    8.6500    6.9000    0.3500    2.1200    0.1040    0.3132    3.2200   11.0000   11.0000 
3318.0528   12.2500   12.8700   -3.9443  107.6900    8.4400    6.7900    0.3460    2.0600    0.0819    0.3187    3.3200   11.0000   11.0000 
3318.2052   12.2500   14.4800   -6.1676  108.6300    8.2500    6.8200    0.5390    1.9600    0.0505    0.3140    3.3000   10.0000   11.0000 
