~VERSION INFORMATION
 VERS.                 2.0:   CWLS LOG ASCII STANDARD - VERSION 2.0
 WRAP.                  NO:   SINGLE LINE PER DEPTH STEP
 CREA.                 19/01/2018 12:03:00
#CREATED USING DSPetro VERSION 5000.10.1.3 BY H191660 ON 19/01/2018 12:03:00
~WELL INFORMATION
#MNEM.UNIT       DATA                          DESCRIPTION MNEMONIC
#---------      ---------------------------   --------------------------
 STRT    .M         0.0000                    : START DEPTH
 STOP    .M         4299.9660                 : STOP DEPTH
 STEP    .M         0.1524                    : STEP VALUE
 NULL    .      -999.0000                     : NULL VALUE
 DATE    .      19/01/2018                    : LAS file Creation Date
 WELL .      14_3274_Wanaea-1            : Well Name
 COMP .      Neftex Exploration Insights : Company
 FLD  .      WANEA                       : Field
 UWI  .      ZAUWL_005664                : Unique Well Identifier (UWI)
 LOC  .                                  : Location
 RWS  .      -999                        : Def_Rw
 WST  .      -999                        : Def_Rwt
 SRVC .                                  : Contractor
~CURVE INFORMATION
#MNEM              UNIT       API CODE   Curve Type Comments
#----------  --------------- ----------  ---------- -----------
 DEPTH      .M                         : Depth       
 BitSize2   .in                        : bitSize     
 CAL_INCH   .inch                      : caliper     Caliper Log - A representation of the measured diameter of a borehole along its depth
 SP_MV1     .mv                        : SP          Spontaneous Potential - Records the electrical potential produced by the interaction of formation water, conductive drilling mud, and certain ion-sele
 GR_API     .API                       : gammaRay    Gamma Ray (API) - Measures the intensity of natural gamma-ray radiation emitted from formations containing radioactive elements, such as K, Th and U
 LLD_OHMM   .ohmm                      : deepRes     Laterlog Deep Resistivity - Measurement made several feet into the formation; generally considered a measurement of the undisturbed formation
 LLS_OHMM   .ohmm                      : shalRes     Laterlog Shallow Resistivity - one to two feet into the formation; generally considered to measure the formation
 MSFL_OHMM  .ohmm                      : microRes    Micro-Spherically Focused Log - Measurement involves only the first few inches of the formation immediately adjacent to the borehole
 RHOB_G_CC  .g/cc                      : density     Bulk Density - Measures the density of bulk material, including any void space or other materials contained in the subject volume
 DRHO_G_CC  .g/cc                      : drho        Density Correction - Investigates the correction to the Bulk Density log; used as an indication of hole condition to validate the Bulk Density measure
 NPHI_v_v   .dec                       : Neutron     
 PEF_B_E    .b/e-                      : PEF         Photoelectric Factor - A log of photoelectric absorption properties. Often expressed in an approximation unit barns/electron (b/e-)
 LITH       .                          : LITH        Lithology Curve
 LITH_v2    .                          : LITH        Lithology Curve
~A  DEPTH  BitSize   CAL_INCH   SP_MV1    GR_API   LLD_OHMM  LLS_OHMM MSFL_OHM  RHOB_G_C  DRHO_G_C   NPHI_v_v  PEF_B_E     LITH    LITH_v2  
# ...
2814.5232   12.2500   12.6800    0.2317  116.5000    5.4400    3.8400    8.4800    1.9600    0.0525    0.2756    5.0500   11.0000   11.0000 
2814.6756   12.2500   12.9000   -1.3998  116.3100    6.1100    4.3500    8.2600    1.8200    0.0321    0.2473    4.9000   11.0000   11.0000 
2814.8280   12.2500   13.1000    2.7288  112.5000    6.4600    4.6900    8.7400    1.7100    0.0117    0.2271    4.7500   11.0000   11.0000 
2814.9804   12.2500   13.0600    4.3473  112.5000    6.4100    4.6600    8.6100    1.6900    0.0139    0.2375    4.6800   11.0000   11.0000 
2815.1328   12.2500   12.5500   -0.0241  111.4400    6.6400    4.8900    6.5200    1.7300    0.0153    0.2250    4.5900   11.0000   11.0000 
2815.2852   12.2500   12.4800    0.0944  112.5000    6.5300    4.5900    8.0000    1.8300    0.0456    0.2262    4.5900   11.0000   11.0000 
2815.4376   12.2500   12.4500    0.7230  116.8100    6.6100    4.7900    7.6100    1.8800    0.0635    0.2158    4.7100   11.0000   11.0000 
2815.5900   12.2500   12.4500   -0.4084  117.1900    6.9300    5.0500    8.4700    1.9000    0.0719    0.2219    4.9000   11.0000   11.0000 
2815.7424   12.2500   12.4500   -0.4099  114.4400    6.9900    5.1700    9.0500    1.8700    0.0802    0.2017    4.9200   11.0000   11.0000 
2815.8948   12.2500   12.4500   -0.5313  113.8100    7.1900    5.3900   12.2300    1.8600    0.0905    0.1946    4.9400   11.0000   11.0000 
2816.0472   12.2500   12.4500   -0.1628  110.7500    7.3300    5.6100    9.7500    1.8100    0.0632    0.1777    4.9800   11.0000   11.0000 
2816.1996   12.2500   12.4500    0.0858  110.5000    7.2500    5.6200    6.6400    1.7400    0.0395    0.1763    5.1300   11.0000   11.0000 
2816.3520   12.2500   12.5400   -0.1657  105.5600    6.9000    5.6100    9.7100    1.6700    0.0159    0.1731    5.1600   11.0000   11.0000 
2816.5044   12.2500   12.4400    1.2129  110.4400    6.5400    5.5400    9.0900    1.7100    0.0247    0.1867    5.0200   11.0000   11.0000 
2816.6568   12.2500   12.4500    1.2114  113.0000    6.3700    5.4400    9.9100    1.7000    0.0098    0.1965    4.8700   11.0000   11.0000 
2816.8092   12.2500   12.4100    1.2100  112.5600    6.1600    5.4000    9.9700    1.8100    0.0205    0.2192    4.6400   11.0000   11.0000 
2816.9616   12.2500   12.4300    1.2085  115.6900    6.1700    5.4400    6.5200    1.8500    0.0447    0.2255    4.8000   11.0000   11.0000 
2817.1140   12.2500   12.4300    0.7071  119.0600    6.2600    5.6400    9.6600    1.9700    0.0768    0.2328    4.8900   11.0000   11.0000 
2817.2664   12.2500   12.4300    1.7056  127.4400    6.4900    5.7200    9.4700    1.9700    0.0673    0.2323    4.8600   11.0000   11.0000 
2817.4188   12.2500   12.4500    1.3242  125.6300    6.7100    5.9400   10.1000    1.9700    0.0704    0.2259    4.6600   11.0000   11.0000 
2817.5712   12.2500   12.4300    0.5727  130.7500    6.8200    6.0100   10.4000    1.8900    0.0528    0.2158    4.5800   11.0000   11.0000 
2817.7236   12.2500   12.4200    0.3213  125.2500    6.8900    5.9800    9.7900    1.8000    0.0286    0.2214    4.6500   11.0000   11.0000 
2817.8760   12.2500   12.3700    0.3198  124.1900    7.0200    6.0400    7.8000    1.8100    0.0307    0.2184    4.7900   11.0000   11.0000 
2818.0284   12.2500   12.4300    0.6984  116.0000    7.4400    6.4000    2.9600    1.9700    0.0613    0.2178    4.8600   11.0000   11.0000 
2818.1808   12.2500   12.4100   -0.0531  117.3800    8.6700    7.4100   13.4100    2.0400    0.0902    0.2091    4.7300   11.0000   11.0000 
2818.3332   12.2500   12.4000   -0.5545  114.5000    8.4600    7.3000    9.9900    2.0200    0.1190    0.1998    4.7700   11.0000   11.0000 
2818.4856   12.2500   12.4100    0.6941  116.3800    7.5300    6.6300   10.8800    1.9800    0.1560    0.2014    4.6600   11.0000   11.0000 
2818.6380   12.2500   12.4100    4.6926  118.5000    7.0600    6.2100    9.9300    2.0100    0.1650    0.2015    4.6100   11.0000   11.0000 
2818.7904   12.2500   12.4000    5.1912  118.1300    6.9800    6.1800    9.6900    1.9600    0.1330    0.2179    4.3000   11.0000   11.0000 
2818.9428   12.2500   12.4100    5.8097  113.7500    7.1000    6.3200    9.8500    1.9700    0.1180    0.2190    3.9300   11.0000   11.0000 
2819.0952   12.2500   12.4100    7.4383  112.5000    7.2600    6.4600    8.7500    2.0000    0.0742    0.2365    3.4200   11.0000   11.0000 
2819.2476   12.2500   12.4100    5.0568  114.5000    7.2900    6.5300   11.7300    2.1600    0.0285    0.2469    3.1800   11.0000   11.0000 
2819.4000   12.2500   12.4400    2.9354  118.6300    7.1900    6.4300   10.4500    2.3400    0.0128    0.2588    3.1000   37.0000   37.0000 
2819.5524   12.2500   12.4400    3.1839  123.2500    7.1900    6.4200    8.7300    2.4400    0.0114    0.2344    2.9900   37.0000   37.0000 
2819.7048   12.2500   12.4500    3.4325  125.6300    7.4000    6.5600    9.6700    2.4600   -0.0088    0.2226    3.0000   37.0000   37.0000 
2819.8572   12.2500   12.4300    3.5510  127.6300    7.5400    6.6300   10.1600    2.4800   -0.0149    0.2065    2.9900   37.0000   37.0000 
2820.0096   12.2500   12.4400    3.1796  129.1300    7.6200    6.6500   10.2400    2.5000   -0.0156    0.2049    2.9600   37.0000   37.0000 
2820.1620   12.2500   12.4400    3.6781  125.0600    7.9100    6.7600    4.7000    2.5100   -0.0129    0.1855    2.9900   37.0000   37.0000 
2820.3144   12.2500   12.4400    4.4267  125.0000    8.0800    6.9700    8.9300    2.5100   -0.0151    0.1730    3.0200   37.0000   37.0000 
2820.4668   12.2500   12.4400    3.6752  127.2500    8.3400    7.0700   10.0100    2.5200   -0.0083    0.1678    3.5100   37.0000   37.0000 
2820.6192   12.2500   12.4400    3.5438  133.3800    8.8800    7.4300   10.4200    2.5400   -0.0001    0.1755    3.9500   37.0000   37.0000 
2820.7716   12.2500   12.4000    3.9223  130.6300    8.9800    7.4100   10.0800    2.5600   -0.0013    0.1847    4.5100   37.0000   37.0000 
2820.9240   12.2500   12.3700    4.0409  123.0000    9.1900    7.6000    9.9300    2.6000    0.0008    0.1938    3.7800   37.0000   37.0000 
2821.0764   12.2500   12.3700    4.7894  116.3100    9.3500    7.8500    9.0700    2.5900    0.0014    0.2035    3.3900   37.0000   37.0000 
2821.2288   12.2500   12.3800    3.0380  119.9400    9.5700    8.0500    9.4700    2.5700    0.0040    0.2030    3.0400   37.0000   37.0000 
2821.3812   12.2500   12.4500    9.7866  120.8100    9.6200    8.2500   10.3900    2.5500   -0.0002    0.1948    3.2600   37.0000   37.0000 
2821.5336   12.2500   12.4800    7.5351  126.1300    9.3800    7.9700   11.2200    2.5700    0.0050    0.2036    3.1700   37.0000   37.0000 
2821.6860   12.2500   12.5100    8.7837  124.9400    9.2300    7.7000   10.0200    2.5800    0.0078    0.2153    3.1300   37.0000   37.0000 
2821.8384   12.2500   12.5100   11.1622  123.0000    9.0700    7.6000   10.3400    2.5800    0.0066    0.2137    2.9700   37.0000   37.0000 
2821.9908   12.2500   12.5000   11.7808  120.4400    9.0400    7.6100    8.7600    2.5700   -0.0022    0.1989    3.1200   37.0000   37.0000 
2822.1432   12.2500   12.5000    9.0293  121.6900    9.0300    7.6900    9.0100    2.5800   -0.0064    0.1822    3.1700   37.0000   37.0000 
2822.2956   12.2500   12.4900    9.9079  129.7500    9.1100    7.6000    9.9300    2.5900   -0.0091    0.1865    3.2300   37.0000   37.0000 
2822.4480   12.2500   12.4900   10.4064  128.8800    9.2900    7.6900   11.1900    2.6000   -0.0128    0.1838    3.2600   37.0000   37.0000 
2822.6004   12.2500   12.4600   10.9050  131.8800    9.9500    8.1200   11.2200    2.5900   -0.0161    0.1944    3.2000   37.0000   37.0000 
2822.7528   12.2500   12.4500   11.1535  127.1300   10.7200    8.4300   11.2600    2.5900   -0.0164    0.1911    3.2900   37.0000   37.0000 
2822.9052   12.2500   12.4500   12.7721  128.2500   10.9000    8.7500   10.8100    2.5700   -0.0029    0.2166    3.5700   37.0000   37.0000 
2823.0576   12.2500   12.4300   11.7706  122.6300   10.8200    8.6100    7.2700    2.5400    0.0125    0.2499    3.6800   37.0000   37.0000 
