~VERSION INFORMATION
 VERS.                 2.0:   CWLS LOG ASCII STANDARD - VERSION 2.0
 WRAP.                  NO:   SINGLE LINE PER DEPTH STEP
 CREA.                 19/01/2018 12:03:00
#CREATED USING DSPetro VERSION 5000.10.1.3 BY H191660 ON 19/01/2018 12:03:00
~WELL INFORMATION
#MNEM.UNIT       DATA                          DESCRIPTION MNEMONIC
#---------      ---------------------------   --------------------------
 STRT    .M         0.0000                    : START DEPTH
 STOP    .M         4299.9660                 : STOP DEPTH
 STEP    .M         0.1524                    : STEP VALUE
 NULL    .      -999.0000                     : NULL VALUE
 DATE    .      19/01/2018                    : LAS file Creation Date
 WELL .      14_3274_Wanaea-1            : Well Name
 COMP .      Neftex Exploration Insights : Company
 FLD  .      WANEA                       : Field
 UWI  .      ZAUWL_005664                : Unique Well Identifier (UWI)
 LOC  .                                  : Location
 RWS  .      -999                        : Def_Rw
 WST  .      -999                        : Def_Rwt
 SRVC .                                  : Contractor
~CURVE INFORMATION
#MNEM              UNIT       API CODE   Curve Type Comments
#----------  --------------- ----------  ---------- -----------
 DEPTH      .M                         : Depth       
 BitSize2   .in                        : bitSize     
 CAL_INCH   .inch                      : caliper     Caliper Log - A representation of the measured diameter of a borehole along its depth
 SP_MV1     .mv                        : SP          Spontaneous Potential - Records the electrical potential produced by the interaction of formation water, conductive drilling mud, and certain ion-sele
 GR_API     .API                       : gammaRay    Gamma Ray (API) - Measures the intensity of natural gamma-ray radiation emitted from formations containing radioactive elements, such as K, Th and U
 LLD_OHMM   .ohmm                      : deepRes     Laterlog Deep Resistivity - Measurement made several feet into the formation; generally considered a measurement of the undisturbed formation
 LLS_OHMM   .ohmm                      : shalRes     Laterlog Shallow Resistivity - one to two feet into the formation; generally considered to measure the formation
 MSFL_OHMM  .ohmm                      : microRes    Micro-Spherically Focused Log - Measurement involves only the first few inches of the formation immediately adjacent to the borehole
 RHOB_G_CC  .g/cc                      : density     Bulk Density - Measures the density of bulk material, including any void space or other materials contained in the subject volume
 DRHO_G_CC  .g/cc                      : drho        Density Correction - Investigates the correction to the Bulk Density log; used as an indication of hole condition to validate the Bulk Density measure
 NPHI_v_v   .dec                       : Neutron     
 PEF_B_E    .b/e-                      : PEF         Photoelectric Factor - A log of photoelectric absorption properties. Often expressed in an approximation unit barns/electron (b/e-)
 LITH       .                          : LITH        Lithology Curve
 LITH_v2    .                          : LITH        Lithology Curve
~A  DEPTH  BitSize   CAL_INCH   SP_MV1    GR_API   LLD_OHMM  LLS_OHMM MSFL_OHM  RHOB_G_C  DRHO_G_C   NPHI_v_v  PEF_B_E     LITH    LITH_v2  
# ...
4143.6036    8.5000   11.5800    8.0879  119.6300   14.9700   14.6100    0.2530    2.6400   -0.0229    0.3105 -999.0000   37.0000 -999.0000 
4143.7560    8.5000   11.7700    8.0879  119.8800   14.9900   14.5900    0.2520    2.6400   -0.0218    0.3253 -999.0000   37.0000 -999.0000 
4143.9084    8.5000   11.9700    8.0879  124.1900   15.4300   14.9900    0.2580    2.6400   -0.0229    0.3199 -999.0000   37.0000 -999.0000 
4144.0608    8.5000   11.8000    8.0879  121.5600   15.7200   15.0800    0.2960    2.6400   -0.0221    0.3277 -999.0000   37.0000 -999.0000 
4144.2132    8.5000   10.5100    8.0879  116.0000   19.2700   18.2200    0.1970    2.6400   -0.0196    0.3225 -999.0000   37.0000 -999.0000 
4144.3656    8.5000    9.7500    8.0879  109.7500   20.3000   19.6300    0.1740    2.6500   -0.0166    0.3146 -999.0000   37.0000 -999.0000 
4144.5180    8.5000    9.4600    8.0879  114.3100   22.7400   21.3300    0.2140    2.6400   -0.0160    0.3074 -999.0000   37.0000 -999.0000 
4144.6704    8.5000    9.9800    8.0879  117.1900   26.3400   25.4500    0.3000    2.6300   -0.0174    0.3079 -999.0000   37.0000 -999.0000 
4144.8228    8.5000 -999.0000 -999.0000 -999.0000 -999.0000 -999.0000 -999.0000 -999.0000 -999.0000 -999.0000 -999.0000   37.0000 -999.0000 
4144.9752    8.5000    8.8000    8.0879  122.7500   26.5900   25.5700    0.3420    2.6300   -0.0142    0.3157 -999.0000   37.0000 -999.0000 
4145.1276    8.5000    8.7000    8.0879  123.3800   26.5900   25.6500    0.3110    2.6300   -0.0149    0.3243 -999.0000   37.0000 -999.0000 
4145.2800    8.5000    8.0200    8.0879  123.3800   26.5200   25.6400    0.3020    2.6300   -0.0179    0.3150 -999.0000   37.0000 -999.0000 
4145.4324    8.5000    7.1200    8.0879  121.0000   26.5600   25.6700    0.2760    2.6400   -0.0161    0.3071 -999.0000   37.0000 -999.0000 
4145.5848    8.5000    6.0000    8.0879  118.9400   26.5500   25.6200    0.1490    2.6500   -0.0159    0.2969 -999.0000   37.0000 -999.0000 
4145.7372    8.5000    6.0000    8.0879  119.9400   26.5800   25.6400    0.1460    2.6400   -0.0212    0.3047 -999.0000   37.0000 -999.0000 
4145.8896    8.5000    5.9700    8.0879  119.9400   26.5800   25.6900    0.1290    2.6400   -0.0194    0.3095 -999.0000   37.0000 -999.0000 
4146.0420    8.5000    6.0100    8.0879  119.9400   26.6000   25.6600    0.1550    2.6600   -0.0140    0.3064 -999.0000   37.0000 -999.0000 
4146.1944    8.5000    6.0100    8.0879  119.9400   26.6000   25.5700    0.1780    2.6600   -0.0161    0.3069 -999.0000   37.0000 -999.0000 
4146.3468    8.5000    6.0300    8.0879  119.9400   26.1700   25.4400    0.1910    2.6600   -0.0139    0.3104 -999.0000   37.0000 -999.0000 
4146.4992    8.5000    6.0300    8.0779  119.9400   27.3500   26.4800    0.2150    2.6600   -0.0108    0.3200 -999.0000   37.0000 -999.0000 
4146.6516    8.5000    6.0300    8.0779  119.9400   29.1400   28.3900    0.2360    2.6400   -0.0110    0.3259 -999.0000   37.0000 -999.0000 
4146.8040    8.5000    6.0400    8.0779  119.9400   28.5000   28.0500    0.2500    2.6400   -0.0119    0.3226 -999.0000   37.0000 -999.0000 
4146.9564    8.5000    6.0400    8.0779  119.9400   27.6600   27.2500    0.2620    2.6500   -0.0068    0.3202 -999.0000   37.0000 -999.0000 
4147.1088    8.5000    6.0400    8.0679  119.9400   29.9900   29.4700    0.2820    2.6400   -0.0109    0.3075 -999.0000   37.0000 -999.0000 
4147.2612    8.5000 -999.0000 -999.0000 -999.0000 -999.0000 -999.0000 -999.0000 -999.0000 -999.0000 -999.0000 -999.0000   37.0000 -999.0000 
4147.4136    8.5000    6.0400    8.0679  119.9400   32.3900   31.6700    0.2930    2.6500   -0.0105    0.3453 -999.0000   37.0000 -999.0000 
4147.5660    8.5000 -999.0000 -999.0000 -999.0000 -999.0000 -999.0000 -999.0000 -999.0000 -999.0000 -999.0000 -999.0000   37.0000 -999.0000 
4147.7184    8.5000    6.0600    8.0579  119.9400   32.5300   31.9600    0.2990    2.6500   -0.0137    0.3648 -999.0000   37.0000 -999.0000 
4147.8708    8.5000    6.0600    8.0579  119.9400   32.4200   31.9300    0.3030    2.6300   -0.0169    0.3612 -999.0000   37.0000 -999.0000 
4148.0232    8.5000    6.0700    8.0979  119.9400   31.2500   30.8200    0.3050    2.6400   -0.0158    0.3800 -999.0000   37.0000 -999.0000 
4148.1756    8.5000    6.0600    8.0979  119.9400   28.9600   28.8600    0.3070    2.6200   -0.0222    0.3757 -999.0000   37.0000 -999.0000 
4148.3280    8.5000    6.0600    8.0979  119.9400   23.2900   23.6400    0.3090    2.6300   -0.0215    0.3786 -999.0000   37.0000 -999.0000 
4148.4804    8.5000    6.0600    8.0979  119.9400   22.1800   22.4700    0.3110    2.6300   -0.0206    0.3641 -999.0000   37.0000 -999.0000 
4148.6328    8.5000    6.0600    8.0979  119.9400   22.0600   22.3900    0.3120    2.6400   -0.0194    0.3673 -999.0000   37.0000 -999.0000 
4148.7852    8.5000    6.0600    8.0979  119.9400   22.0800   22.4400    0.3120    2.6500   -0.0201    0.3675 -999.0000   37.0000 -999.0000 
4148.9376    8.5000    6.0500    8.0979  119.9400   21.9300   22.2700    0.3130    2.6500   -0.0183    0.3778 -999.0000   37.0000 -999.0000 
4149.0900    8.5000    6.0400    8.0979  119.9400   21.8500   22.2100    0.3130    2.6400   -0.0194    0.3799 -999.0000   37.0000 -999.0000 
4149.2424    8.5000    6.0400    8.0979  119.9400   21.8100   22.1400    0.3130    2.6400   -0.0147    0.3742 -999.0000   37.0000 -999.0000 
4149.3948    8.5000    6.0400    8.0979  119.9400   21.8300   22.1400    0.3130    2.6400   -0.0094    0.3648 -999.0000   37.0000 -999.0000 
4149.5472    8.5000    6.0400    8.0979  119.9400   21.4200   21.7700    0.3130    2.6300   -0.0073    0.3605 -999.0000   37.0000 -999.0000 
4149.6996    8.5000    6.0400    8.0979  119.9400   20.3100   20.8000    0.3130    2.6300   -0.0066    0.3678 -999.0000   37.0000 -999.0000 
4149.8520    8.5000    6.0400    8.0979  119.9400   19.8600   20.5300    0.3130    2.6400   -0.0036    0.3696 -999.0000   37.0000 -999.0000 
4150.0044    8.5000    6.0400    8.0979  119.9400   19.4300   20.0700    0.3130    2.6400   -0.0019    0.3751 -999.0000   37.0000 -999.0000 
4150.1568    8.5000    6.0400    8.0979  119.9400   18.8200   19.6500    0.3130    2.6500   -0.0043    0.3763 -999.0000   37.0000 -999.0000 
4150.3092    8.5000    6.0400    8.0979  119.9400   18.8100   19.7300    0.3140    2.6600   -0.0018    0.3750 -999.0000   37.0000 -999.0000 
4150.4616    8.5000    6.0400    8.0979  119.9400   18.8200   19.7500    0.3130    2.6700    0.0026    0.3713 -999.0000   37.0000 -999.0000 
4150.6140    8.5000    6.0400    8.0979  119.9400   18.5100   19.5000    0.3130    2.6600    0.0049    0.3781 -999.0000   37.0000 -999.0000 
4150.7664    8.5000    6.0400    8.0979  119.9400   18.3400   19.3300    0.3130    2.6600    0.0078    0.3712 -999.0000   37.0000 -999.0000 
4150.9188    8.5000    6.0300    8.0979  119.9400   18.4300   19.4100    0.3200    2.6700    0.0127    0.3734 -999.0000   37.0000 -999.0000 
4151.0712    8.5000    6.0300    8.0979  119.9400   17.8700   18.9000    0.3350    2.6900    0.0189    0.3699 -999.0000 -999.0000 -999.0000 
4151.2236    8.5000    6.0300    8.0979  119.9400   17.1800   18.1200    0.3350    2.6700    0.0146    0.3647 -999.0000 -999.0000 -999.0000 
4151.3760    8.5000    6.0300    8.0979  119.9400   16.7200   17.5300    0.3350    2.6700    0.0143    0.3668 -999.0000 -999.0000 -999.0000 
4151.5284    8.5000    6.0300    8.0979  119.9400   16.3900   17.2300    0.3350    2.6600    0.0117    0.3606 -999.0000 -999.0000 -999.0000 
4151.6808    8.5000    6.0300    8.0979  119.9400   16.4100   17.1700    0.3350    2.6500    0.0303    0.3680 -999.0000 -999.0000 -999.0000 
4151.8332    8.5000    6.0300    8.0979  119.9400   16.4100   17.1500    0.3350    2.6100    0.0256    0.3725 -999.0000 -999.0000 -999.0000 
4151.9856    8.5000    6.0300    8.0979  119.9400   16.4000   17.2000    0.3350    2.5800    0.0141    0.3689 -999.0000 -999.0000 -999.0000 
4152.1380    8.5000    6.0300   14.8479  119.9400   16.3300   17.1000    0.3350    2.6100    0.0143    0.3768 -999.0000 -999.0000 -999.0000 
