~VERSION INFORMATION
 VERS.                 2.0:   CWLS LOG ASCII STANDARD - VERSION 2.0
 WRAP.                  NO:   SINGLE LINE PER DEPTH STEP
 CREA.                 19/01/2018 12:03:00
#CREATED USING DSPetro VERSION 5000.10.1.3 BY H191660 ON 19/01/2018 12:03:00
~WELL INFORMATION
#MNEM.UNIT       DATA                          DESCRIPTION MNEMONIC
#---------      ---------------------------   --------------------------
 STRT    .M         0.0000                    : START DEPTH
 STOP    .M         4299.9660                 : STOP DEPTH
 STEP    .M         0.1524                    : STEP VALUE
 NULL    .      -999.0000                     : NULL VALUE
 DATE    .      19/01/2018                    : LAS file Creation Date
 WELL .      14_3274_Wanaea-1            : Well Name
 COMP .      Neftex Exploration Insights : Company
 FLD  .      WANEA                       : Field
 UWI  .      ZAUWL_005664                : Unique Well Identifier (UWI)
 LOC  .                                  : Location
 RWS  .      -999                        : Def_Rw
 WST  .      -999                        : Def_Rwt
 SRVC .                                  : Contractor
~CURVE INFORMATION
#MNEM              UNIT       API CODE   Curve Type Comments
#----------  --------------- ----------  ---------- -----------
 DEPTH      .M                         : Depth       
 BitSize2   .in                        : bitSize     
 CAL_INCH   .inch                      : caliper     Caliper Log - A representation of the measured diameter of a borehole along its depth
 SP_MV1     .mv                        : SP          Spontaneous Potential - Records the electrical potential produced by the interaction of formation water, conductive drilling mud, and certain ion-sele
 GR_API     .API                       : gammaRay    Gamma Ray (API) - Measures the intensity of natural gamma-ray radiation emitted from formations containing radioactive elements, such as K, Th and U
 LLD_OHMM   .ohmm                      : deepRes     Laterlog Deep Resistivity - Measurement made several feet into the formation; generally considered a measurement of the undisturbed formation
 LLS_OHMM   .ohmm                      : shalRes     Laterlog Shallow Resistivity - one to two feet into the formation; generally considered to measure the formation
 MSFL_OHMM  .ohmm                      : microRes    Micro-Spherically Focused Log - Measurement involves only the first few inches of the formation immediately adjacent to the borehole
 RHOB_G_CC  .g/cc                      : density     Bulk Density - Measures the density of bulk material, including any void space or other materials contained in the subject volume
 DRHO_G_CC  .g/cc                      : drho        Density Correction - Investigates the correction to the Bulk Density log; used as an indication of hole condition to validate the Bulk Density measure
 NPHI_v_v   .dec                       : Neutron     
 PEF_B_E    .b/e-                      : PEF         Photoelectric Factor - A log of photoelectric absorption properties. Often expressed in an approximation unit barns/electron (b/e-)
 LITH       .                          : LITH        Lithology Curve
 LITH_v2    .                          : LITH        Lithology Curve
~A  DEPTH  BitSize   CAL_INCH   SP_MV1    GR_API   LLD_OHMM  LLS_OHMM MSFL_OHM  RHOB_G_C  DRHO_G_C   NPHI_v_v  PEF_B_E     LITH    LITH_v2  
# ...
2484.4248   12.2500   23.8400   -3.4836   59.4700 -999.0000 -999.0000 -999.0000    1.5600   -0.0411 -999.0000   39.2200 -999.0000 -999.0000 
2484.5772   12.2500   23.8400   -2.2305   55.0000 -999.0000 -999.0000 -999.0000    1.5100   -0.0615 -999.0000   40.1300 -999.0000 -999.0000 
2484.7296   12.2500   23.8400   -2.7373   50.6600 -999.0000 -999.0000 -999.0000    1.4700   -0.0674 -999.0000   38.0000 -999.0000 -999.0000 
2484.8820   12.2500   23.8300   -2.0142   50.1300 -999.0000 -999.0000 -999.0000    1.4500   -0.0747 -999.0000   36.0600 -999.0000 -999.0000 
2485.0344   12.2500   23.8600   -2.2710   50.9400 -999.0000 -999.0000 -999.0000    1.4400   -0.0752 -999.0000   36.0900 -999.0000 -999.0000 
2485.1868   12.2500   23.8600   -1.7678   53.6300 -999.0000 -999.0000 -999.0000    1.4400   -0.0773 -999.0000   35.7500 -999.0000 -999.0000 
2485.3392   12.2500   23.8600   -1.8047   58.7200 -999.0000 -999.0000 -999.0000    1.4400   -0.0738 -999.0000   39.1600 -999.0000 -999.0000 
2485.4916   12.2500   23.8600   -2.3015   58.6600 -999.0000 -999.0000 -999.0000    1.4500   -0.0726 -999.0000   37.5900 -999.0000 -999.0000 
2485.6440   12.2500   23.8600   -2.3084   61.3800 -999.0000 -999.0000 -999.0000    1.4500   -0.0712 -999.0000   38.0300 -999.0000 -999.0000 
2485.7964   12.2500   23.8600   -2.5652   62.1900 -999.0000 -999.0000 -999.0000    1.4700   -0.0673 -999.0000   29.0300 -999.0000 -999.0000 
2485.9488   12.2500   23.8600   -3.0620   62.2800 -999.0000 -999.0000 -999.0000    1.5300   -0.0590 -999.0000   24.1700 -999.0000 -999.0000 
2486.1012   12.2500   23.8600   -3.3489   63.6300 -999.0000 -999.0000 -999.0000    1.5900   -0.0547 -999.0000   23.0200 -999.0000 -999.0000 
2486.2536   12.2500   22.8900   -2.8557   62.8100 -999.0000 -999.0000 -999.0000    1.5900   -0.0556 -999.0000   26.0600 -999.0000 -999.0000 
2486.4060   12.2500   22.5800   -2.6126   60.7500 -999.0000 -999.0000 -999.0000    1.5300   -0.0663 -999.0000   30.2300 -999.0000 -999.0000 
2486.5584   12.2500   23.7700   -3.1194   57.1600 -999.0000 -999.0000 -999.0000    1.4700   -0.0766 -999.0000   34.9100 -999.0000 -999.0000 
2486.7108   12.2500   23.8600   -2.8763   53.7500 -999.0000 -999.0000 -999.0000    1.4500   -0.0782 -999.0000   35.5600 -999.0000 -999.0000 
2486.8632   12.2500   23.8400   -1.6231   53.7800 -999.0000 -999.0000 -999.0000    1.4700   -0.0753 -999.0000   35.4700 -999.0000 -999.0000 
2487.0156   12.2500   23.8400   -3.1299   51.0000 -999.0000 -999.0000 -999.0000    1.4800   -0.0761 -999.0000   32.4400 -999.0000 -999.0000 
2487.1680   12.2500   23.8600   -3.3868   51.9400 -999.0000 -999.0000 -999.0000    1.4800   -0.0743 -999.0000   33.2500 -999.0000 -999.0000 
2487.3204   12.2500   23.8400   -3.8936   53.9400 -999.0000 -999.0000 -999.0000    1.4700   -0.0719 -999.0000   32.6300 -999.0000 -999.0000 
2487.4728   12.2500   23.8600   -2.8905   57.3800 -999.0000 -999.0000 -999.0000    1.4900   -0.0703 -999.0000   33.6600 -999.0000 -999.0000 
2487.6252   12.2500   23.7700   -2.3973   56.1300 -999.0000 -999.0000 -999.0000    1.5600   -0.0567 -999.0000   30.9500 -999.0000 -999.0000 
2487.7776   12.2500   18.9800   -2.1442   58.5000 -999.0000 -999.0000 -999.0000    1.5600   -0.0530 -999.0000   31.9100 -999.0000 -999.0000 
2487.9300   12.2500   20.1700   -2.6510   59.6900 -999.0000 -999.0000 -999.0000    1.5500   -0.0541 -999.0000   31.3100 -999.0000 -999.0000 
2488.0824   12.2500   21.2700   -2.6878   66.0000 -999.0000 -999.0000 -999.0000    1.5200   -0.0575 -999.0000   32.5900 -999.0000 -999.0000 
2488.2348   12.2500   21.9800   -2.4447   64.6900 -999.0000 -999.0000 -999.0000    1.5700   -0.0561 -999.0000   32.0000 -999.0000 -999.0000 
2488.3872   12.2500   22.9100   -2.2015   64.6900 -999.0000 -999.0000 -999.0000    1.6200   -0.0646 -999.0000   30.7700 -999.0000 -999.0000 
2488.5396   12.2500   23.8400   -2.4484   61.3800 -999.0000 -999.0000 -999.0000    1.6600   -0.0625 -999.0000   30.3900 -999.0000 -999.0000 
2488.6920   12.2500   23.8600   -2.9552   65.3100 -999.0000 -999.0000 -999.0000    1.6800   -0.0608 -999.0000   29.5200 -999.0000 -999.0000 
2488.8444   12.2500   23.8400   -3.2121   61.4700 -999.0000 -999.0000 -999.0000    1.6700   -0.0743 -999.0000   32.1300 -999.0000 -999.0000 
2488.9968   12.2500   23.8400   -3.4589   60.8100 -999.0000 -999.0000 -999.0000    1.6800   -0.0758 -999.0000   30.3000 -999.0000 -999.0000 
2489.1492   12.2500   23.8400   -2.9657   58.3100 -999.0000 -999.0000 -999.0000    1.6300   -0.0737 -999.0000   29.5600 -999.0000 -999.0000 
2489.3016   12.2500   23.5300   -3.2226   59.7800 -999.0000 -999.0000 -999.0000    1.5800   -0.0796 -999.0000   26.2000 -999.0000 -999.0000 
2489.4540   12.2500   23.8400   -3.2594   62.3400 -999.0000 -999.0000 -999.0000    1.5100   -0.0824 -999.0000   26.2300 -999.0000 -999.0000 
2489.6064   12.2500   23.8400   -3.2663   60.1900 -999.0000 -999.0000 -999.0000    1.5100   -0.0742 -999.0000   26.5000 -999.0000 -999.0000 
2489.7588   12.2500   22.7500   -3.0231   64.5000 -999.0000 -999.0000 -999.0000    1.4900   -0.0678 -999.0000   27.0500 -999.0000 -999.0000 
2489.9112   12.2500   23.8600   -2.5299   60.3400 -999.0000 -999.0000 -999.0000    1.4800   -0.0719 -999.0000   26.7000 -999.0000 -999.0000 
2490.0636   12.2500   23.8600   -2.5368   63.9700 -999.0000 -999.0000 -999.0000    1.4800   -0.0707 -999.0000   27.5900 -999.0000 -999.0000 
2490.2160   12.2500   23.8600   -3.0436   60.3400 -999.0000 -999.0000 -999.0000    1.4800   -0.0721 -999.0000   27.9500 -999.0000 -999.0000 
2490.3684   12.2500   22.5800   -3.5405   63.5300 -999.0000 -999.0000 -999.0000    1.4800   -0.0709 -999.0000   29.2000 -999.0000 -999.0000 
2490.5208   12.2500   22.6100   -3.2973   64.9400 -999.0000 -999.0000 -999.0000    1.4800   -0.0733 -999.0000   30.3600 -999.0000 -999.0000 
2490.6732   12.2500   23.8600   -2.5542   66.6900 -999.0000 -999.0000 -999.0000    1.4900   -0.0717 -999.0000   32.6900 -999.0000 -999.0000 
2490.8256   12.2500   23.8600   -2.5610   68.9400 -999.0000 -999.0000 -999.0000    1.4900   -0.0682 -999.0000   37.0000 -999.0000 -999.0000 
2490.9780   12.2500   23.1900   -3.0678   67.6900 -999.0000 -999.0000 -999.0000    1.4900   -0.0694 -999.0000   35.1300 -999.0000 -999.0000 
2491.1304   12.2500   23.1100   -3.0747   67.5600 -999.0000 -999.0000 -999.0000    1.5000   -0.0696 -999.0000   33.3800 -999.0000 -999.0000 
2491.2828   12.2500   23.7300   -2.5815   62.2200 -999.0000 -999.0000 -999.0000    1.5200   -0.0633 -999.0000   32.0300 -999.0000 -999.0000 
2491.4352   12.2500   17.7700   -2.5884   67.6900 -999.0000 -999.0000 -999.0000    1.5700   -0.0541 -999.0000   34.5300 -999.0000 -999.0000 
2491.5876   12.2500   20.0300   -2.8352   66.8800 -999.0000 -999.0000 -999.0000    1.5900   -0.0561 -999.0000   36.4400 -999.0000 -999.0000 
2491.7400   12.2500   19.1400   -3.0921   70.8800 -999.0000 -999.0000 -999.0000    1.5800   -0.0550 -999.0000   33.7200 -999.0000 -999.0000 
2491.8924   12.2500   19.5600   -3.5989   64.5000 -999.0000 -999.0000 -999.0000    1.5500   -0.0589 -999.0000   29.4100 -999.0000 -999.0000 
2492.0448   12.2500   20.3600   -3.8457   66.5000 -999.0000 -999.0000 -999.0000    1.5500   -0.0590 -999.0000   28.0000 -999.0000 -999.0000 
2492.1972   12.2500   22.6300   -2.8526   65.0600 -999.0000 -999.0000 -999.0000    1.5500   -0.0602 -999.0000   28.6400 -999.0000 -999.0000 
2492.3496   12.2500   23.8300   -2.3594   62.6600 -999.0000 -999.0000 -999.0000    1.5400   -0.0616 -999.0000   29.1300 -999.0000 -999.0000 
2492.5020   12.2500   23.7300   -3.3963   60.6300 -999.0000 -999.0000 -999.0000    1.5200   -0.0637 -999.0000   30.3900 -999.0000 -999.0000 
2492.6544   12.2500   20.4800   -3.9031   59.2500 -999.0000 -999.0000 -999.0000    1.5300   -0.0603 -999.0000   32.8400 -999.0000 -999.0000 
2492.8068   12.2500   23.1900   -3.9100   60.0300 -999.0000 -999.0000 -999.0000    1.5400   -0.0605 -999.0000   31.5800 -999.0000 -999.0000 
2492.9592   12.2500   23.8400   -3.4168   61.1600 -999.0000 -999.0000 -999.0000    1.5300   -0.0676 -999.0000   23.9800 -999.0000 -999.0000 
