~VERSION INFORMATION
 VERS.                 2.0:   CWLS LOG ASCII STANDARD - VERSION 2.0
 WRAP.                  NO:   SINGLE LINE PER DEPTH STEP
 CREA.                 19/01/2018 12:03:00
#CREATED USING DSPetro VERSION 5000.10.1.3 BY H191660 ON 19/01/2018 12:03:00
~WELL INFORMATION
#MNEM.UNIT       DATA                          DESCRIPTION MNEMONIC
#---------      ---------------------------   --------------------------
 STRT    .M         0.0000                    : START DEPTH
 STOP    .M         4299.9660                 : STOP DEPTH
 STEP    .M         0.1524                    : STEP VALUE
 NULL    .      -999.0000                     : NULL VALUE
 DATE    .      19/01/2018                    : LAS file Creation Date
 WELL .      14_3274_Wanaea-1            : Well Name
 COMP .      Neftex Exploration Insights : Company
 FLD  .      WANEA                       : Field
 UWI  .      ZAUWL_005664                : Unique Well Identifier (UWI)
 LOC  .                                  : Location
 RWS  .      -999                        : Def_Rw
 WST  .      -999                        : Def_Rwt
 SRVC .                                  : Contractor
~CURVE INFORMATION
#MNEM              UNIT       API CODE   Curve Type Comments
#----------  --------------- ----------  ---------- -----------
 DEPTH      .M                         : Depth       
 BitSize2   .in                        : bitSize     
 CAL_INCH   .inch                      : caliper     Caliper Log - A representation of the measured diameter of a borehole along its depth
 SP_MV1     .mv                        : SP          Spontaneous Potential - Records the electrical potential produced by the interaction of formation water, conductive drilling mud, and certain ion-sele
 GR_API     .API                       : gammaRay    Gamma Ray (API) - Measures the intensity of natural gamma-ray radiation emitted from formations containing radioactive elements, such as K, Th and U
 LLD_OHMM   .ohmm                      : deepRes     Laterlog Deep Resistivity - Measurement made several feet into the formation; generally considered a measurement of the undisturbed formation
 LLS_OHMM   .ohmm                      : shalRes     Laterlog Shallow Resistivity - one to two feet into the formation; generally considered to measure the formation
 MSFL_OHMM  .ohmm                      : microRes    Micro-Spherically Focused Log - Measurement involves only the first few inches of the formation immediately adjacent to the borehole
 RHOB_G_CC  .g/cc                      : density     Bulk Density - Measures the density of bulk material, including any void space or other materials contained in the subject volume
 DRHO_G_CC  .g/cc                      : drho        Density Correction - Investigates the correction to the Bulk Density log; used as an indication of hole condition to validate the Bulk Density measure
 NPHI_v_v   .dec                       : Neutron     
 PEF_B_E    .b/e-                      : PEF         Photoelectric Factor - A log of photoelectric absorption properties. Often expressed in an approximation unit barns/electron (b/e-)
 LITH       .                          : LITH        Lithology Curve
 LITH_v2    .                          : LITH        Lithology Curve
~A  DEPTH  BitSize   CAL_INCH   SP_MV1    GR_API   LLD_OHMM  LLS_OHMM MSFL_OHM  RHOB_G_C  DRHO_G_C   NPHI_v_v  PEF_B_E     LITH    LITH_v2  
# ...
3648.4560    8.5000   10.2900    0.4534  119.7500    2.5300    2.4400    0.7790    2.5000   -0.0119    0.3113 -999.0000   37.0000 -999.0000 
3648.6084    8.5000    9.6900    1.0198  124.5000    2.5400    2.4400    1.2000    2.5000   -0.0130    0.3001 -999.0000   37.0000 -999.0000 
3648.7608    8.5000    9.0900    1.5161  129.1300    2.5600    2.4300    0.6510    2.5400   -0.0073    0.3076 -999.0000   37.0000 -999.0000 
3648.9132    8.5000    9.8900    0.7624  132.0000    2.4800    2.4600    0.3600    2.5600   -0.0092    0.3170 -999.0000   37.0000 -999.0000 
3649.0656    8.5000    9.4900    0.7687  135.2500    2.6600    2.5400    0.4590    2.5500   -0.0208    0.3084 -999.0000   37.0000 -999.0000 
3649.2180    8.5000    9.4900    0.8951  136.7500    2.7200    2.6700    1.3700    2.5400   -0.0195    0.3066 -999.0000   37.0000 -999.0000 
3649.3704    8.5000    9.5900    1.2714  131.6300    2.6600    2.6200    1.3900    2.5200   -0.0186    0.2938 -999.0000   37.0000 -999.0000 
3649.5228    8.5000    9.7000    1.5177  131.7500    2.5800    2.5100    1.4200    2.5400   -0.0177    0.3030 -999.0000   37.0000 -999.0000 
3649.6752    8.5000    9.9100    1.1441  131.0000    2.5000    2.4600    1.1000    2.5500   -0.0173    0.3222 -999.0000   37.0000 -999.0000 
3649.8276    8.5000    9.4000    1.3604  129.2500    2.5600    2.4700    0.3680    2.5800   -0.0118    0.3229 -999.0000   37.0000 -999.0000 
3649.9800    8.5000    9.7700    1.2367  124.8800    2.5600    2.4700    0.4830    2.5700   -0.0169    0.3134 -999.0000   37.0000 -999.0000 
3650.1324    8.5000    8.7800    0.9930  120.8800    2.5500    2.5100    0.4300    2.5600   -0.0220    0.2934 -999.0000   37.0000 -999.0000 
3650.2848    8.5000    8.8700    0.8294  128.6300    2.6500    2.5300    0.8200    2.5600   -0.0250    0.3162 -999.0000   37.0000 -999.0000 
3650.4372    8.5000    9.8900    1.0757  132.5000    2.6400    2.5700    0.7990    2.5600   -0.0215    0.3224 -999.0000   37.0000 -999.0000 
3650.5896    8.5000   10.2000    1.1920  136.7500    2.7500    2.6600    1.3200    2.5500   -0.0225    0.3240 -999.0000   37.0000 -999.0000 
3650.7420    8.5000   10.2800    0.8184  134.3800    2.8700    2.8400    1.2900    2.5400   -0.0203    0.3065 -999.0000   37.0000 -999.0000 
3650.8944    8.5000   10.3600    0.5647  130.1300    2.7600    2.7000    1.2600    2.5400   -0.0170    0.3007 -999.0000   37.0000 -999.0000 
3651.0468    8.5000   10.3400    0.6810  132.2500    2.7000    2.6400    1.3000    2.5400   -0.0133    0.3161 -999.0000   37.0000 -999.0000 
3651.1992    8.5000   10.2000    0.8373  130.6300    2.6300    2.6000    1.5400    2.5300   -0.0193    0.3308 -999.0000   37.0000 -999.0000 
3651.3516    8.5000    9.0500    0.7137  134.3800    2.6700    2.5800    0.7880    2.5200   -0.0224    0.3366 -999.0000   37.0000 -999.0000 
3651.5040    8.5000    8.8900    0.2100  137.7500    2.6300    2.6000    0.5630    2.5200   -0.0223    0.3140 -999.0000   37.0000 -999.0000 
3651.6564    8.5000    8.7700    0.4663  142.6300    2.5800    2.5700    0.6070    2.5100   -0.0249    0.2973 -999.0000   37.0000 -999.0000 
3651.8088    8.5000    9.4300    0.5927  140.3800    2.7000    2.6100    1.0900    2.5100   -0.0246    0.2929 -999.0000   37.0000 -999.0000 
3651.9612    8.5000    9.7300    0.5990  136.2500    2.7400    2.6900    0.9580    2.5200   -0.0227    0.2948 -999.0000   37.0000 -999.0000 
3652.1136    8.5000    9.6400    1.2253  135.0000    2.7400    2.6200    0.4920    2.5100   -0.0249    0.3089 -999.0000   37.0000 -999.0000 
3652.2660    8.5000   10.0000    1.1016  134.0000    2.7300    2.6400    0.4180    2.5100   -0.0260    0.2955 -999.0000   37.0000 -999.0000 
3652.4184    8.5000    9.8300    0.6980  135.0000    2.7300    2.6300    0.9060    2.5100   -0.0269    0.3054 -999.0000   37.0000 -999.0000 
3652.5708    8.5000    8.5800    0.6143  132.5000    2.7700    2.6100    0.4470    2.5000   -0.0252    0.2866 -999.0000   37.0000 -999.0000 
3652.7232    8.5000    8.6500    0.9606  131.3800    2.7300    2.6300    0.7690    2.5100   -0.0256    0.2973 -999.0000   37.0000 -999.0000 
3652.8756    8.5000    8.8400    0.7470  134.7500    2.8800    2.7500    2.7000    2.5000   -0.0267    0.2828 -999.0000   37.0000 -999.0000 
3653.0280    8.5000    9.0200    0.3533  133.8800    2.9300    2.8800    2.8800    2.5200   -0.0237    0.2910 -999.0000   37.0000 -999.0000 
3653.1804    8.5000    9.0300   -0.0204  138.7500    2.8600    2.8000    1.1400    2.5300   -0.0210    0.2944 -999.0000   37.0000 -999.0000 
3653.3328    8.5000    9.0800   -0.0441  137.1300    2.7100    2.7100    1.1900    2.5300   -0.0240    0.2990 -999.0000   37.0000 -999.0000 
3653.4852    8.5000    9.1200   -0.1677  139.0000    2.6500    2.6600    1.2600    2.5100   -0.0276    0.3087 -999.0000   37.0000 -999.0000 
3653.6376    8.5000    9.3900   -0.5714  137.7500    2.7000    2.6400    1.0800    2.5000   -0.0299    0.3024 -999.0000   37.0000 -999.0000 
3653.7900    8.5000    9.5500   -0.8551  133.2500    2.6300    2.6900    1.0400    2.5000   -0.0333    0.2993 -999.0000   37.0000 -999.0000 
3653.9424    8.5000    8.9400    0.8213  132.6300    2.6700    2.6900    0.5630    2.5100   -0.0316    0.2998 -999.0000   37.0000 -999.0000 
3654.0948    8.5000    9.3000    1.6076  136.5000    2.6900    2.6500    0.6470    2.4600   -0.0240    0.3084 -999.0000   37.0000 -999.0000 
3654.2472    8.5000    9.0000    0.8739  142.5000    2.6500    2.6600    0.7690    2.4200   -0.0150    0.3200 -999.0000   37.0000 -999.0000 
3654.3996    8.5000    9.0400    0.3502  143.6300    2.6200    2.6500    0.8470    2.3800   -0.0048    0.3038 -999.0000   37.0000 -999.0000 
3654.5520    8.5000    9.0500    0.4166  138.0000    2.5900    2.7000    0.8810    2.3800    0.0090    0.3004 -999.0000   37.0000 -999.0000 
3654.7044    8.5000    9.0500    0.0829  131.7500    2.6100    2.6500    0.8840    2.4000    0.0271    0.2775 -999.0000   37.0000 -999.0000 
3654.8568    8.5000    9.0500    0.9692  128.8800    2.6800    2.6400    0.8830    2.4100    0.0339    0.3016 -999.0000   37.0000 -999.0000 
3655.0092    8.5000    9.0500    1.4456  128.1300    2.6300    2.6800    0.8840    2.4100    0.0316    0.3229 -999.0000   37.0000 -999.0000 
3655.1616    8.5000    9.4200    0.9219  127.9400    2.6800    2.6900    1.0100    2.4100    0.0346    0.3196 -999.0000   37.0000 -999.0000 
3655.3140    8.5000    9.2400    0.6382  130.5000    2.6000    2.6700    0.9310    2.4100    0.0312    0.2914 -999.0000   37.0000 -999.0000 
3655.4664    8.5000    8.5100    0.7745  132.2500    2.5600    2.6200    0.6340    2.4100    0.0311    0.2804 -999.0000   37.0000 -999.0000 
3655.6188    8.5000    8.8000    0.6209  122.8800    3.3000    3.2900    3.5400    2.4100    0.0268    0.3004 -999.0000   37.0000 -999.0000 
3655.7712    8.5000    9.2700   -0.0128  101.5600    7.0300    6.6300    3.3200    2.4200    0.0326    0.3099 -999.0000   37.0000 -999.0000 
3655.9236    8.5000    9.2800   -0.3365   85.8100   12.4200   11.6200    2.4100    2.4100    0.0294    0.3066 -999.0000   37.0000 -999.0000 
3656.0760    8.5000    9.3000   -0.3401   87.7500    9.2700    9.1700    2.3200    2.4100    0.0291    0.2841 -999.0000   37.0000 -999.0000 
3656.2284    8.5000    9.3800   -0.3238  100.8100    5.6900    5.6400    2.2700    2.4000    0.0233    0.2781 -999.0000   37.0000 -999.0000 
3656.3808    8.5000    9.3700    0.1925  104.0600    5.3200    5.2700    1.2400    2.4100    0.0284    0.2722 -999.0000   37.0000 -999.0000 
3656.5332    8.5000    9.4100    0.8288  109.3800    5.2800    5.2100    0.6310    2.4100    0.0316    0.2742 -999.0000   37.0000 -999.0000 
3656.6856    8.5000    9.5100    1.0252  112.3800    5.0000    4.8900    0.7340    2.4100    0.0347    0.2753 -999.0000   37.0000 -999.0000 
3656.8380    8.5000    9.5300    0.5915  127.8100    3.7100    3.7600    0.6120    2.4200    0.0382    0.2792 -999.0000   37.0000 -999.0000 
3656.9904    8.5000   10.0300    0.6778  130.0000    3.0000    3.0800    0.4210    2.4300    0.0416    0.2764 -999.0000   37.0000 -999.0000 
