~VERSION INFORMATION
 VERS.                 2.0:   CWLS LOG ASCII STANDARD - VERSION 2.0
 WRAP.                  NO:   SINGLE LINE PER DEPTH STEP
 CREA.                 19/01/2018 12:03:00
#CREATED USING DSPetro VERSION 5000.10.1.3 BY H191660 ON 19/01/2018 12:03:00
~WELL INFORMATION
#MNEM.UNIT       DATA                          DESCRIPTION MNEMONIC
#---------      ---------------------------   --------------------------
 STRT    .M         0.0000                    : START DEPTH
 STOP    .M         4299.9660                 : STOP DEPTH
 STEP    .M         0.1524                    : STEP VALUE
 NULL    .      -999.0000                     : NULL VALUE
 DATE    .      19/01/2018                    : LAS file Creation Date
 WELL .      14_3274_Wanaea-1            : Well Name
 COMP .      Neftex Exploration Insights : Company
 FLD  .      WANEA                       : Field
 UWI  .      ZAUWL_005664                : Unique Well Identifier (UWI)
 LOC  .                                  : Location
 RWS  .      -999                        : Def_Rw
 WST  .      -999                        : Def_Rwt
 SRVC .                                  : Contractor
~CURVE INFORMATION
#MNEM              UNIT       API CODE   Curve Type Comments
#----------  --------------- ----------  ---------- -----------
 DEPTH      .M                         : Depth       
 BitSize2   .in                        : bitSize     
 CAL_INCH   .inch                      : caliper     Caliper Log - A representation of the measured diameter of a borehole along its depth
 SP_MV1     .mv                        : SP          Spontaneous Potential - Records the electrical potential produced by the interaction of formation water, conductive drilling mud, and certain ion-sele
 GR_API     .API                       : gammaRay    Gamma Ray (API) - Measures the intensity of natural gamma-ray radiation emitted from formations containing radioactive elements, such as K, Th and U
 LLD_OHMM   .ohmm                      : deepRes     Laterlog Deep Resistivity - Measurement made several feet into the formation; generally considered a measurement of the undisturbed formation
 LLS_OHMM   .ohmm                      : shalRes     Laterlog Shallow Resistivity - one to two feet into the formation; generally considered to measure the formation
 MSFL_OHMM  .ohmm                      : microRes    Micro-Spherically Focused Log - Measurement involves only the first few inches of the formation immediately adjacent to the borehole
 RHOB_G_CC  .g/cc                      : density     Bulk Density - Measures the density of bulk material, including any void space or other materials contained in the subject volume
 DRHO_G_CC  .g/cc                      : drho        Density Correction - Investigates the correction to the Bulk Density log; used as an indication of hole condition to validate the Bulk Density measure
 NPHI_v_v   .dec                       : Neutron     
 PEF_B_E    .b/e-                      : PEF         Photoelectric Factor - A log of photoelectric absorption properties. Often expressed in an approximation unit barns/electron (b/e-)
 LITH       .                          : LITH        Lithology Curve
 LITH_v2    .                          : LITH        Lithology Curve
~A  DEPTH  BitSize   CAL_INCH   SP_MV1    GR_API   LLD_OHMM  LLS_OHMM MSFL_OHM  RHOB_G_C  DRHO_G_C   NPHI_v_v  PEF_B_E     LITH    LITH_v2  
# ...
3978.5544    8.5000    8.6500    5.4473  119.6300   13.5500   13.7700   18.2000    2.6200   -0.0200    0.2218 -999.0000   37.0000 -999.0000 
3978.7068    8.5000    8.6400    5.3239  120.1300   13.4800   14.0100   18.6300    2.6300   -0.0187    0.2129 -999.0000   37.0000 -999.0000 
3978.8592    8.5000    8.6300    5.2004  119.8800   13.5700   13.9000   18.3300    2.6200   -0.0216    0.2160 -999.0000   37.0000 -999.0000 
3979.0116    8.5000    8.6300    5.0770  123.2500   14.0000   14.4300   16.9400    2.6200   -0.0210    0.2105 -999.0000   37.0000 -999.0000 
3979.1640    8.5000    8.6300    4.8276  123.9400   13.4800   14.0300   16.3900    2.6200   -0.0223    0.1989 -999.0000   37.0000 -999.0000 
3979.3164    8.5000    8.6400    3.9551  123.6900   14.2800   14.6200   15.8400    2.6300   -0.0215    0.1856 -999.0000   37.0000 -999.0000 
3979.4688    8.5000    8.6400    4.2067  124.0000   15.2600   15.5900   17.9500    2.6300   -0.0198    0.1844 -999.0000   37.0000 -999.0000 
3979.6212    8.5000    8.6400    4.4583  128.6300   16.3900   16.7000   16.5500    2.6500   -0.0157    0.1931 -999.0000   37.0000 -999.0000 
3979.7736    8.5000    8.6400    3.9598  129.5000   16.4700   16.8200   18.6900    2.6600   -0.0189    0.1934 -999.0000   37.0000 -999.0000 
3979.9260    8.5000    8.6400    4.2114  130.7500   16.4900   16.8400   19.2300    2.6600   -0.0208    0.1944 -999.0000   37.0000 -999.0000 
3980.0784    8.5000    8.6500    4.5875  126.3800   16.4700   16.8600   18.5900    2.6500   -0.0220    0.1946 -999.0000   37.0000 -999.0000 
3980.2308    8.5000    8.6700    4.2146  129.0000   16.4900   16.8400   19.0000    2.6500   -0.0247    0.1975 -999.0000   37.0000 -999.0000 
3980.3832    8.5000    8.7000    4.5906  127.5600   16.4300   16.8400   20.6300    2.6400   -0.0276    0.1965 -999.0000   37.0000 -999.0000 
3980.5356    8.5000    8.7000    4.5922  128.1300   16.5300   16.7900   16.9500    2.6400   -0.0248    0.1953 -999.0000   37.0000 -999.0000 
3980.6880    8.5000    8.7000    4.2193  124.8800   16.3800   16.7100   16.1600    2.6400   -0.0231    0.1893 -999.0000   37.0000 -999.0000 
3980.8404    8.5000    8.6900    3.5958  124.6900   16.3600   16.7200   14.9100    2.6400   -0.0245    0.1911 -999.0000   37.0000 -999.0000 
3980.9928    8.5000    8.6900    4.3474  125.6300   16.3700   16.7100   13.9700    2.6400   -0.0214    0.1823 -999.0000   37.0000 -999.0000 
3981.1452    8.5000    8.6900    4.2240  131.2500   16.3200   16.7400   14.1300    2.6500   -0.0168    0.1806 -999.0000   37.0000 -999.0000 
3981.2976    8.5000    8.6900    3.8505  137.2500   16.3600   16.7300   14.1400    2.6400   -0.0166    0.1760 -999.0000   37.0000 -999.0000 
3981.4500    8.5000    8.6900    4.2271  137.1300   16.3100   16.6600   14.1300    2.6500   -0.0147    0.1882 -999.0000   37.0000 -999.0000 
3981.6024    8.5000    8.6900    4.7287  137.0000   16.3400   16.6300   14.1500    2.6500   -0.0142    0.1927 -999.0000   37.0000 -999.0000 
3981.7548    8.5000    8.6900    4.3552  133.3800   13.8300   14.1000   14.1300    2.6500   -0.0125    0.2034 -999.0000   37.0000 -999.0000 
3981.9072    8.5000    8.6900    3.9818  133.1300   14.5400   14.9500   14.0500    2.6300   -0.0182    0.1907 -999.0000   37.0000 -999.0000 
3982.0596    8.5000    8.6900    4.1084  137.7500   16.4800   16.6300   15.5400    2.6300   -0.0178    0.1885 -999.0000   37.0000 -999.0000 
3982.2120    8.5000    8.6300    4.2349  138.2500   17.8200   18.1200   14.9800    2.6300   -0.0196    0.1883 -999.0000   37.0000 -999.0000 
3982.3644    8.5000    8.6100    3.8615  140.5000   17.0100   17.2700   15.8800    2.6400   -0.0212    0.1902 -999.0000   37.0000 -999.0000 
3982.5168    8.5000    8.6500    4.1131  134.3800   17.0500   17.1800   14.0700    2.6300   -0.0251    0.1899 -999.0000   37.0000 -999.0000 
3982.6692    8.5000    8.7000    3.6146  128.6300   17.0300   17.2200   15.8400    2.6400   -0.0244    0.1804 -999.0000   37.0000 -999.0000 
3982.8216    8.5000    8.7000    3.2362  124.9400   16.7500   17.0900   15.7900    2.6300   -0.0288    0.1771 -999.0000   37.0000 -999.0000 
3982.9740    8.5000    8.7000    2.9878  122.1300   16.8200   17.1200   15.8600    2.6200   -0.0300    0.1740 -999.0000   37.0000 -999.0000 
3983.1264    8.5000    8.7000    3.3693  120.1300   16.7100   16.9800   15.9200    2.6100   -0.0303    0.1645 -999.0000   37.0000 -999.0000 
3983.2788    8.5000    8.7000    3.4909  113.3800   16.5300   16.8600   15.9700    2.6100   -0.0293    0.1651 -999.0000   37.0000 -999.0000 
3983.4312    8.5000    8.7000    3.2425  109.0600   16.5100   16.8400   16.0300    2.6200   -0.0296    0.1587 -999.0000   37.0000 -999.0000 
3983.5836    8.5000    8.7000    3.4940  109.2500   16.5400   16.8800   16.0600    2.6200   -0.0288    0.1678 -999.0000   37.0000 -999.0000 
3983.7360    8.5000    8.7000    4.7506  110.1300   16.5700   16.8100   16.1600    2.6200   -0.0294    0.1725 -999.0000   37.0000 -999.0000 
3983.8884    8.5000    8.7000    5.5022  115.1900   16.5400   16.8000   16.2200    2.6200   -0.0311    0.1706 -999.0000   37.0000 -999.0000 
3984.0408    8.5000    8.7000    5.6278  117.5600   16.4400   16.7100   16.2800    2.6200   -0.0320    0.1621 -999.0000   37.0000 -999.0000 
3984.1932    8.5000    8.7000    5.6293  115.9400   16.3700   16.7300   16.3100    2.6200   -0.0302    0.1614 -999.0000   37.0000 -999.0000 
3984.3456    8.5000    8.6900    5.1319  111.3100   16.2100   16.6000   16.3100    2.6200   -0.0329    0.1717 -999.0000   37.0000 -999.0000 
3984.4980    8.5000    8.7000    4.8825  111.1300   16.2200   16.5700   16.4100    2.6300   -0.0290    0.1798 -999.0000   37.0000 -999.0000 
3984.6504    8.5000    8.7000    4.6345  113.5600   15.4100   15.8100   16.4700    2.6200   -0.0282    0.1836 -999.0000   37.0000 -999.0000 
3984.8028    8.5000    8.7000    5.3866  117.8100   15.2000   15.5600   16.5800    2.6200   -0.0258    0.1859 -999.0000   37.0000 -999.0000 
3984.9552    8.5000    8.7000    6.7582  116.1900   15.7900   16.2000   16.6300    2.6100   -0.0276    0.1853 -999.0000   37.0000 -999.0000 
3985.1076    8.5000    8.7000    4.6392  125.5600   16.3800   16.9800   16.6300    2.6200   -0.0243    0.1813 -999.0000   37.0000 -999.0000 
3985.2600    8.5000    8.7000    4.0163  124.7500   16.0700   16.7000   16.6600    2.6300   -0.0196    0.1738 -999.0000   37.0000 -999.0000 
3985.4124    8.5000    8.7000    3.7679  123.0600   15.3900   16.0000   16.7000    2.6400   -0.0196    0.1778 -999.0000   37.0000 -999.0000 
3985.5648    8.5000    8.7000    3.5144  113.3100   15.0100   15.5300   16.8800    2.6300   -0.0190    0.1766 -999.0000   37.0000 -999.0000 
3985.7172    8.5000    8.7000    4.2710  116.3800   15.0100   15.5100   17.4500    2.6300   -0.0174    0.1865 -999.0000   37.0000 -999.0000 
3985.8696    8.5000    8.7000    4.0226  119.7500   15.0600   15.4100   17.2800    2.6300   -0.0184    0.1909 -999.0000   37.0000 -999.0000 
3986.0220    8.5000    8.7000    3.8991  123.7500   14.9900   15.4800   16.7000    2.6400   -0.0199    0.1990 -999.0000   37.0000 -999.0000 
3986.1744    8.5000    8.7000    4.4007  125.1900   14.5900   14.9600   17.4400    2.6500   -0.0163    0.2011 -999.0000   37.0000 -999.0000 
3986.3268    8.5000    8.6700    4.5273  126.3100   14.4700   14.9700   18.2700    2.6600   -0.0178    0.1867 -999.0000   37.0000 -999.0000 
3986.4792    8.5000    8.5700    4.7788  124.7500   14.5800   14.9400   15.6900    2.6500   -0.0181    0.1778 -999.0000   37.0000 -999.0000 
3986.6316    8.5000    8.5700    4.9044  117.6900   14.5600   14.9900   16.8100    2.6300   -0.0177    0.1642 -999.0000   37.0000 -999.0000 
3986.7840    8.5000    8.6000    5.2820  122.9400   14.6200   15.0100   15.8400    2.6300   -0.0151    0.1644 -999.0000   37.0000 -999.0000 
3986.9364    8.5000    8.6900    6.0285  123.8100   14.5400   14.9900   17.6100    2.6400   -0.0121    0.1612 -999.0000   37.0000 -999.0000 
3987.0888    8.5000    8.7000    6.2801  124.1900   14.5100   15.0100   19.9700    2.6500   -0.0113    0.1621 -999.0000   37.0000 -999.0000 
