~VERSION INFORMATION
 VERS.                 2.0:   CWLS LOG ASCII STANDARD - VERSION 2.0
 WRAP.                  NO:   SINGLE LINE PER DEPTH STEP
 CREA.                 19/01/2018 12:03:00
#CREATED USING DSPetro VERSION 5000.10.1.3 BY H191660 ON 19/01/2018 12:03:00
~WELL INFORMATION
#MNEM.UNIT       DATA                          DESCRIPTION MNEMONIC
#---------      ---------------------------   --------------------------
 STRT    .M         0.0000                    : START DEPTH
 STOP    .M         4299.9660                 : STOP DEPTH
 STEP    .M         0.1524                    : STEP VALUE
 NULL    .      -999.0000                     : NULL VALUE
 DATE    .      19/01/2018                    : LAS file Creation Date
 WELL .      14_3274_Wanaea-1            : Well Name
 COMP .      Neftex Exploration Insights : Company
 FLD  .      WANEA                       : Field
 UWI  .      ZAUWL_005664                : Unique Well Identifier (UWI)
 LOC  .                                  : Location
 RWS  .      -999                        : Def_Rw
 WST  .      -999                        : Def_Rwt
 SRVC .                                  : Contractor
~CURVE INFORMATION
#MNEM              UNIT       API CODE   Curve Type Comments
#----------  --------------- ----------  ---------- -----------
 DEPTH      .M                         : Depth       
 BitSize2   .in                        : bitSize     
 CAL_INCH   .inch                      : caliper     Caliper Log - A representation of the measured diameter of a borehole along its depth
 SP_MV1     .mv                        : SP          Spontaneous Potential - Records the electrical potential produced by the interaction of formation water, conductive drilling mud, and certain ion-sele
 GR_API     .API                       : gammaRay    Gamma Ray (API) - Measures the intensity of natural gamma-ray radiation emitted from formations containing radioactive elements, such as K, Th and U
 LLD_OHMM   .ohmm                      : deepRes     Laterlog Deep Resistivity - Measurement made several feet into the formation; generally considered a measurement of the undisturbed formation
 LLS_OHMM   .ohmm                      : shalRes     Laterlog Shallow Resistivity - one to two feet into the formation; generally considered to measure the formation
 MSFL_OHMM  .ohmm                      : microRes    Micro-Spherically Focused Log - Measurement involves only the first few inches of the formation immediately adjacent to the borehole
 RHOB_G_CC  .g/cc                      : density     Bulk Density - Measures the density of bulk material, including any void space or other materials contained in the subject volume
 DRHO_G_CC  .g/cc                      : drho        Density Correction - Investigates the correction to the Bulk Density log; used as an indication of hole condition to validate the Bulk Density measure
 NPHI_v_v   .dec                       : Neutron     
 PEF_B_E    .b/e-                      : PEF         Photoelectric Factor - A log of photoelectric absorption properties. Often expressed in an approximation unit barns/electron (b/e-)
 LITH       .                          : LITH        Lithology Curve
 LITH_v2    .                          : LITH        Lithology Curve
~A  DEPTH  BitSize   CAL_INCH   SP_MV1    GR_API   LLD_OHMM  LLS_OHMM MSFL_OHM  RHOB_G_C  DRHO_G_C   NPHI_v_v  PEF_B_E     LITH    LITH_v2  
# ...
2979.5724   12.2500   12.4500   29.9541   47.5000    1.6300    1.1800    0.8260    2.2900   -0.0132    0.1678    3.2400   27.0000   27.0000 
2979.7248   12.2500   12.8300   29.4327   53.3100    1.6200    1.1900    0.9140    2.0800   -0.0219    0.1463    3.5400   10.0000   11.0000 
2979.8772   12.2500   14.4500   28.8012   72.3100    1.7500    1.2500    0.2360    1.8200   -0.0162    0.1473    3.6600   10.0000   11.0000 
2980.0296   12.2500   15.6700   32.3198   96.3100    2.1500    1.4300    0.1610    1.6600   -0.0039    0.2216    3.5800   10.0000   11.0000 
2980.1820   12.2500   16.0300   31.2083  110.3100    2.8200    1.7700    0.1440    1.6500    0.0066    0.3155    3.3800   10.0000   11.0000 
2980.3344   12.2500   15.9700   30.9869   97.6300    3.7300    2.2500    0.1740    1.7800    0.0138    0.3776    3.2400   10.0000   11.0000 
2980.4868   12.2500   15.3100   31.2355   72.6300    3.6700    2.2600    0.2010    1.9800    0.0237    0.3306    2.8300   27.0000   27.0000 
2980.6392   12.2500   12.3900   31.1040   55.4400    3.0100    1.9800    0.5500    2.1900    0.0185    0.2535    2.5600   27.0000   27.0000 
2980.7916   12.2500   12.3800   31.5926   45.7200    2.2400    1.6100    0.8770    2.2800    0.0068    0.1826    2.3500   27.0000   27.0000 
2980.9440   12.2500   12.3800   31.7011   45.8100    1.7500    1.4100    0.8330    2.3300    0.0010    0.1620    2.4400   27.0000   27.0000 
2981.0964   12.2500   12.4000   32.4397   46.0300    1.7000    1.4000    0.8430    2.3400   -0.0032    0.1533    2.3700   27.0000   27.0000 
2981.2488   12.2500   12.3700   35.3082   49.5600    1.7600    1.5000    1.0300    2.3400   -0.0048    0.1471    2.3000   27.0000   27.0000 
2981.4012   12.2500   12.4000   34.8268   48.5600    1.8300    1.5600    1.1600    2.3300   -0.0061    0.1380    2.2300   27.0000   27.0000 
2981.5536   12.2500   12.4000   35.0653   46.1900    1.8100    1.6000    1.0000    2.3300   -0.0077    0.1490    2.2700   27.0000   27.0000 
2981.7060   12.2500   12.3000   31.3439   43.2500    1.7000    1.5100    0.9130    2.3300   -0.0068    0.1529    2.3200   27.0000   27.0000 
2981.8584   12.2500   12.4000   30.5824   44.2500    1.5900    1.4100    0.9170    2.3300   -0.0091    0.1645    2.3400   27.0000   27.0000 
2982.0108   12.2500   12.5300   30.5710   43.8800    1.5200    1.3000    0.8750    2.3200   -0.0107    0.1587    2.3200   27.0000   27.0000 
2982.1632   12.2500   12.5400   30.5595   44.5000    1.5000    1.2900    0.8860    2.3300   -0.0078    0.1593    2.3500   27.0000   27.0000 
2982.3156   12.2500   12.5500   28.8381   46.9100    1.6200    1.3700    0.8680    2.3400   -0.0091    0.1510    2.3800   27.0000   27.0000 
2982.4680   12.2500   12.5400   31.7366   48.7200    1.8600    1.5400    0.9810    2.3800   -0.0071    0.1329    2.4800   27.0000   27.0000 
2982.6204   12.2500   12.6300   31.2252   45.7800    2.3200    1.8500    1.2600    2.4300   -0.0012    0.1040    2.9600   27.0000   27.0000 
2982.7728   12.2500   12.9800   30.7237   42.5600    3.7300    2.7200    1.5000    2.5100    0.0355    0.0676    3.4500   27.0000   27.0000 
2982.9252   12.2500   13.2100   27.7223   39.4100    8.0800    5.2600    6.6300    2.5300    0.0780    0.0468    3.7500   27.0000   27.0000 
2983.0776   12.2500   13.2300   26.5808   38.8100   17.5400   10.1300    3.4800    2.5000    0.0832    0.0397    3.6400   27.0000   27.0000 
2983.2300   12.2500   13.1100   24.9494   37.6900   25.0600   15.4700    2.0200    2.4800    0.0835    0.0435    3.3000   27.0000   27.0000 
2983.3824   12.2500   12.6500   28.1880   39.4700   15.7600   11.6200    2.5700    2.5200    0.0910    0.0543    3.7100   27.0000   27.0000 
2983.5348   12.2500   12.7100   25.8465   45.1600    6.6100    5.8100    3.9600    2.3800    0.0466    0.0746    3.8600   27.0000   27.0000 
2983.6872   12.2500   13.2000   23.7151   54.9400    3.0300    2.8100    1.2100    1.9400   -0.0101    0.0814    3.9200   11.0000   11.0000 
2983.8396   12.2500   15.5200   24.8336   68.8800    2.3100    2.1200    0.4430    1.6600   -0.0151    0.0997    3.8700   11.0000   11.0000 
2983.9920   12.2500   18.3100   24.3222   89.8800    2.1200    1.9100    0.1920    1.5100   -0.0117    0.1365    3.8300   11.0000   11.0000 
2984.1444   12.2500   20.2000   23.4807  105.8800    2.3800    2.0700    0.1680    1.5500    0.0083    0.1898    3.9400   11.0000   11.0000 
2984.2968   12.2500   20.8800   23.4693  114.1900    3.7700    3.0400    0.1420    1.6400    0.0216    0.2211    3.9500   11.0000   11.0000 
2984.4492   12.2500   21.3400   19.2078  112.2500    5.5900    4.3900    0.1810    1.7600    0.0448    0.2407    4.0000   11.0000   11.0000 
2984.6016   12.2500   22.1300   18.9564  108.0600    5.9700    4.7700    0.1850    1.8800    0.0902    0.2257    3.9800   11.0000   11.0000 
2984.7540   12.2500   20.9400   17.7049  110.7500    5.8000    4.6600    0.2930    1.9100    0.1160    0.2348    3.7700   11.0000   11.0000 
2984.9064   12.2500   21.6400   16.9535  110.3100    5.6800    4.5500    0.2080    1.8300    0.0886    0.2525    3.4500   11.0000   11.0000 
2985.0588   12.2500   21.4200   21.2020  113.5000    5.4100    4.2500    0.1600    1.6800    0.0631    0.3039    3.2500   11.0000   11.0000 
2985.2112   12.2500   22.5900   21.3106  107.4400    4.9700    3.9600    0.1640    1.6000    0.0425    0.3366    2.9800   11.0000   11.0000 
2985.3636   12.2500   22.8600   17.5591  102.7500    4.7300    3.9800    0.1410    1.6800    0.0046    0.3295    2.9000   11.0000   11.0000 
2985.5160   12.2500   19.2500   17.5577  100.5600    4.9000    4.2100    0.1280    1.9400   -0.0058    0.3228    2.6800   11.0000   11.0000 
2985.6684   12.2500   19.3800   19.9162  103.3100    5.1200    4.3200    0.1500    2.3900    0.0219    0.3259    2.7000   11.0000   11.0000 
2985.8208   12.2500   17.3800   17.5448  108.7500    5.3700    4.3700    0.1420    2.5500    0.0281    0.3142    2.7600   11.0000   37.0000 
2985.9732   12.2500   16.5200   17.6533  102.7500    5.4600    4.4600    0.1610    2.5400    0.0045    0.3107    2.9500   11.0000   37.0000 
2986.1256   12.2500   17.3100   20.7619  111.1300    5.5100    4.4900    0.2690    2.5500   -0.0016    0.2791    2.9500   11.0000   37.0000 
2986.2780   12.2500   14.1900   18.2605  112.1300    5.8000    4.6500    1.3700    2.5600   -0.0017    0.2802    2.9000   11.0000   37.0000 
2986.4304   12.2500   13.2000   18.7390  122.4400    6.5600    4.9800    7.8600    2.5700   -0.0039    0.2577    3.0400   11.0000   37.0000 
2986.5828   12.2500   13.1400   21.2176  123.5000    7.5600    5.5000    9.7700    2.5700    0.0078    0.2426    3.3600   37.0000   37.0000 
2986.7352   12.2500   13.2300   23.1161  126.0600    7.0800    5.1800   10.1100    2.5500    0.0119    0.2316    3.8600   37.0000   37.0000 
2986.8876   12.2500   13.2700   22.2547  119.2500    5.4000    4.1500    7.1300    2.5100    0.0253    0.2343    3.9500   37.0000   37.0000 
2987.0400   12.2500   13.0100   24.5032   98.1900    4.5700    3.6200    1.3700    2.4800    0.0350    0.2377    3.8200   37.0000   37.0000 
2987.1924   12.2500   12.7400   25.6418   78.2500    4.0600    3.3600    1.5100    2.4600    0.0419    0.2132    3.4100   37.0000   37.0000 
2987.3448   12.2500   12.6800   25.3803   61.1900    3.5900    3.0400    1.6700    2.4300    0.0220    0.1881    3.0700   37.0000   37.0000 
2987.4972   12.2500   12.6400   24.7789   55.0600    3.5300    2.9800    2.0400    2.4200    0.0189    0.1789    2.8300   37.0000   37.0000 
2987.6496   12.2500   12.7400   23.3874   53.6300    3.5000    2.9500    1.9200    2.4200    0.0069    0.1821    2.7800   37.0000   37.0000 
2987.8020   12.2500   12.7700   22.9160   58.8400    3.3500    2.8500    1.8900    2.4400    0.0034    0.1827    2.8600   37.0000   37.0000 
2987.9544   12.2500   12.9500   24.7845   64.1300    3.3300    2.8300    2.9400    2.4700    0.0035    0.1662    2.9800   37.0000   37.0000 
2988.1068   12.2500   12.8800   26.1531   66.9400    3.9700    3.2700    3.0800    2.4900    0.0005    0.1347    2.9900   37.0000   37.0000 
