~VERSION INFORMATION
 VERS.                 2.0:   CWLS LOG ASCII STANDARD - VERSION 2.0
 WRAP.                  NO:   SINGLE LINE PER DEPTH STEP
 CREA.                 19/01/2018 12:03:00
#CREATED USING DSPetro VERSION 5000.10.1.3 BY H191660 ON 19/01/2018 12:03:00
~WELL INFORMATION
#MNEM.UNIT       DATA                          DESCRIPTION MNEMONIC
#---------      ---------------------------   --------------------------
 STRT    .M         0.0000                    : START DEPTH
 STOP    .M         4299.9660                 : STOP DEPTH
 STEP    .M         0.1524                    : STEP VALUE
 NULL    .      -999.0000                     : NULL VALUE
 DATE    .      19/01/2018                    : LAS file Creation Date
 WELL .      14_3274_Wanaea-1            : Well Name
 COMP .      Neftex Exploration Insights : Company
 FLD  .      WANEA                       : Field
 UWI  .      ZAUWL_005664                : Unique Well Identifier (UWI)
 LOC  .                                  : Location
 RWS  .      -999                        : Def_Rw
 WST  .      -999                        : Def_Rwt
 SRVC .                                  : Contractor
~CURVE INFORMATION
#MNEM              UNIT       API CODE   Curve Type Comments
#----------  --------------- ----------  ---------- -----------
 DEPTH      .M                         : Depth       
 BitSize2   .in                        : bitSize     
 CAL_INCH   .inch                      : caliper     Caliper Log - A representation of the measured diameter of a borehole along its depth
 SP_MV1     .mv                        : SP          Spontaneous Potential - Records the electrical potential produced by the interaction of formation water, conductive drilling mud, and certain ion-sele
 GR_API     .API                       : gammaRay    Gamma Ray (API) - Measures the intensity of natural gamma-ray radiation emitted from formations containing radioactive elements, such as K, Th and U
 LLD_OHMM   .ohmm                      : deepRes     Laterlog Deep Resistivity - Measurement made several feet into the formation; generally considered a measurement of the undisturbed formation
 LLS_OHMM   .ohmm                      : shalRes     Laterlog Shallow Resistivity - one to two feet into the formation; generally considered to measure the formation
 MSFL_OHMM  .ohmm                      : microRes    Micro-Spherically Focused Log - Measurement involves only the first few inches of the formation immediately adjacent to the borehole
 RHOB_G_CC  .g/cc                      : density     Bulk Density - Measures the density of bulk material, including any void space or other materials contained in the subject volume
 DRHO_G_CC  .g/cc                      : drho        Density Correction - Investigates the correction to the Bulk Density log; used as an indication of hole condition to validate the Bulk Density measure
 NPHI_v_v   .dec                       : Neutron     
 PEF_B_E    .b/e-                      : PEF         Photoelectric Factor - A log of photoelectric absorption properties. Often expressed in an approximation unit barns/electron (b/e-)
 LITH       .                          : LITH        Lithology Curve
 LITH_v2    .                          : LITH        Lithology Curve
~A  DEPTH  BitSize   CAL_INCH   SP_MV1    GR_API   LLD_OHMM  LLS_OHMM MSFL_OHM  RHOB_G_C  DRHO_G_C   NPHI_v_v  PEF_B_E     LITH    LITH_v2  
# ...
1650.4920   17.5000 -999.0000 -999.0000 -999.0000 -999.0000 -999.0000 -999.0000 -999.0000 -999.0000 -999.0000 -999.0000 -999.0000 -999.0000 
1650.6444   17.5000   16.3000   -0.2236   31.3400 -999.0000 -999.0000 -999.0000    2.3000    0.0766 -999.0000    3.4200 -999.0000 -999.0000 
1650.7968   17.5000   19.4200   -0.2236   28.1300 -999.0000 -999.0000 -999.0000    2.4000    0.1020 -999.0000    3.4200 -999.0000 -999.0000 
1650.9492   17.5000   19.8300   -0.2236   31.7700 -999.0000 -999.0000 -999.0000    2.3900    0.0641 -999.0000    3.3800 -999.0000 -999.0000 
1651.1016   17.5000   20.5300    0.2764   38.9700 -999.0000 -999.0000 -999.0000    2.3800    0.0502 -999.0000    3.4000 -999.0000 -999.0000 
1651.2540   17.5000   22.1400    0.7864   40.2500 -999.0000 -999.0000 -999.0000    2.3800    0.0431 -999.0000    3.4800 -999.0000 -999.0000 
1651.4064   17.5000   20.7200    0.2864   40.5600 -999.0000 -999.0000 -999.0000    2.4000    0.0513 -999.0000    3.5100 -999.0000 -999.0000 
1651.5588   17.5000   20.3300    1.0464   35.3100 -999.0000 -999.0000 -999.0000    2.3200    0.0288 -999.0000    3.3600 -999.0000 -999.0000 
1651.7112   17.5000   20.6600    1.0564   35.3400 -999.0000 -999.0000 -999.0000    2.2700    0.0248 -999.0000    3.2600 -999.0000 -999.0000 
1651.8636   17.5000   23.0200    0.5564   34.2800 -999.0000 -999.0000 -999.0000    2.2800    0.0308 -999.0000    3.1900 -999.0000 -999.0000 
1652.0160   17.5000   21.5800    0.0664   37.1300 -999.0000 -999.0000 -999.0000    2.3400    0.0320 -999.0000    3.3300 -999.0000 -999.0000 
1652.1684   17.5000   21.3600   -0.1736   35.8100 -999.0000 -999.0000 -999.0000    2.4000    0.0359 -999.0000    3.4500 -999.0000 -999.0000 
1652.3208   17.5000   19.6700   -0.9436   34.1900 -999.0000 -999.0000 -999.0000    2.3800    0.0150 -999.0000    3.6200 -999.0000 -999.0000 
1652.4732   17.5000   19.9400    0.0564   31.7500 -999.0000 -999.0000 -999.0000    2.3700    0.0197 -999.0000    3.4000 -999.0000 -999.0000 
1652.6256   17.5000   20.0800    1.2764   34.5000 -999.0000 -999.0000 -999.0000    2.3100    0.0245 -999.0000    3.1300 -999.0000 -999.0000 
1652.7780   17.5000   21.3100    1.5264   38.8800 -999.0000 -999.0000 -999.0000    2.2700    0.0327 -999.0000    2.8900 -999.0000 -999.0000 
1652.9304   17.5000   21.3900    1.5364   41.2800 -999.0000 -999.0000 -999.0000    2.2100    0.0371 -999.0000    2.8100 -999.0000 -999.0000 
1653.0828   17.5000   22.9100    1.7964   42.0300 -999.0000 -999.0000 -999.0000    2.1800    0.0679 -999.0000    2.6300 -999.0000 -999.0000 
1653.2352   17.5000   23.8400    3.2964   39.2200 -999.0000 -999.0000 -999.0000    2.0100    0.0546 -999.0000    2.5400 -999.0000 -999.0000 
1653.3876   17.5000   23.8400    3.5564   38.5000 -999.0000 -999.0000 -999.0000    1.9500    0.0558 -999.0000    2.5500 -999.0000 -999.0000 
1653.5400   17.5000   23.8400    3.3164   34.5900 -999.0000 -999.0000 -999.0000    1.9900    0.0816 -999.0000    2.6400 -999.0000 -999.0000 
1653.6924   17.5000   23.8400    3.7864   34.0600 -999.0000 -999.0000 -999.0000    2.0800    0.1120 -999.0000    2.5200 -999.0000 -999.0000 
1653.8448   17.5000   23.8400    4.7964   34.0600 -999.0000 -999.0000 -999.0000    2.0300    0.0986 -999.0000    2.3500 -999.0000 -999.0000 
1653.9972   17.5000   23.8400    5.5464   36.1300 -999.0000 -999.0000 -999.0000    1.8900    0.0854 -999.0000    2.3300 -999.0000 -999.0000 
1654.1496   17.5000   23.8400    5.3064   35.2800 -999.0000 -999.0000 -999.0000    1.8500    0.0941 -999.0000    2.5200 -999.0000 -999.0000 
1654.3020   17.5000   23.8400    5.3064   38.5000 -999.0000 -999.0000 -999.0000    1.8700    0.1030 -999.0000    2.6600 -999.0000 -999.0000 
1654.4544   17.5000   23.8300    5.0264   41.4100 -999.0000 -999.0000 -999.0000    1.8900    0.0925 -999.0000    2.5800 -999.0000 -999.0000 
1654.6068   17.5000   21.5300    5.2864   43.5900 -999.0000 -999.0000 -999.0000    1.9100    0.1040 -999.0000    2.5700 -999.0000 -999.0000 
1654.7592   17.5000   21.1600    4.7864   43.3800 -999.0000 -999.0000 -999.0000    1.9000    0.1110 -999.0000    2.6300 -999.0000 -999.0000 
1654.9116   17.5000   22.2200    4.7964   40.4700 -999.0000 -999.0000 -999.0000    1.9100    0.1090 -999.0000    0.0000 -999.0000 -999.0000 
1655.0640   17.5000   23.5000    5.2664   37.5000 -999.0000 -999.0000 -999.0000    1.8300    0.0775 -999.0000    2.0500 -999.0000 -999.0000 
1655.2164   17.5000   23.8400    5.5164   34.8100 -999.0000 -999.0000 -999.0000    1.6800    0.0619 -999.0000    1.9000 -999.0000 -999.0000 
1655.3688   17.5000   23.8400    5.5164   37.9700 -999.0000 -999.0000 -999.0000    1.5900    0.0595 -999.0000    2.0200 -999.0000 -999.0000 
1655.5212   17.5000   23.8400    5.2664   41.1300 -999.0000 -999.0000 -999.0000    1.6200    0.0516 -999.0000    2.1700 -999.0000 -999.0000 
1655.6736   17.5000   23.8400    5.2664   41.1300 -999.0000 -999.0000 -999.0000    1.7000    0.0579 -999.0000    2.3200 -999.0000 -999.0000 
1655.8260   17.5000   23.8400    5.2764   36.4400 -999.0000 -999.0000 -999.0000    1.7000    0.0611 -999.0000    2.2200 -999.0000 -999.0000 
1655.9784   17.5000   23.8400    5.2764   37.8800 -999.0000 -999.0000 -999.0000    1.6200    0.0540 -999.0000    2.1700 -999.0000 -999.0000 
1656.1308   17.5000   23.8400    5.0264   34.1600 -999.0000 -999.0000 -999.0000    1.5800    0.0551 -999.0000    2.0000 -999.0000 -999.0000 
1656.2832   17.5000   23.8400    4.7764   33.4700 -999.0000 -999.0000 -999.0000    1.5700    0.0486 -999.0000    2.0500 -999.0000 -999.0000 
1656.4356   17.5000   23.8400    5.0364   31.5300 -999.0000 -999.0000 -999.0000    1.5700    0.0382 -999.0000    2.3000 -999.0000 -999.0000 
1656.5880   17.5000   23.8400    4.5364   37.1300 -999.0000 -999.0000 -999.0000    1.6000    0.0391 -999.0000    2.5500 -999.0000 -999.0000 
1656.7404   17.5000   23.8400    3.5464   38.6300 -999.0000 -999.0000 -999.0000    1.6600    0.0497 -999.0000    2.5200 -999.0000 -999.0000 
1656.8928   17.5000   23.8400    3.5464   38.9400 -999.0000 -999.0000 -999.0000    1.6400    0.0263 -999.0000    2.4900 -999.0000 -999.0000 
1657.0452   17.5000   23.8600    3.8064   37.3100 -999.0000 -999.0000 -999.0000    1.7100    0.0492 -999.0000    2.7700 -999.0000 -999.0000 
1657.1976   17.5000   23.8400    4.2764   37.5000 -999.0000 -999.0000 -999.0000    1.8400    0.0697 -999.0000    2.8700 -999.0000 -999.0000 
1657.3500   17.5000   23.8600    4.2764   36.4100 -999.0000 -999.0000 -999.0000    1.9000    0.0707 -999.0000    2.6200 -999.0000 -999.0000 
1657.5024   17.5000   23.8400    4.5364   33.9700 -999.0000 -999.0000 -999.0000    1.6900    0.0370 -999.0000    2.4300 -999.0000 -999.0000 
1657.6548   17.5000   23.8400    4.2864   37.7500 -999.0000 -999.0000 -999.0000    1.5500    0.0459 -999.0000    2.3000 -999.0000 -999.0000 
1657.8072   17.5000   23.8400    5.2964   39.2200 -999.0000 -999.0000 -999.0000    1.4900    0.0351 -999.0000    2.3200 -999.0000 -999.0000 
1657.9596   17.5000   23.8400    3.7964   41.2200 -999.0000 -999.0000 -999.0000    1.5200    0.0114 -999.0000    2.3600 -999.0000 -999.0000 
1658.1120   17.5000   23.8400    3.5564   35.3100 -999.0000 -999.0000 -999.0000    1.6100    0.0412 -999.0000    2.5400 -999.0000 -999.0000 
1658.2644   17.5000   23.8400    3.3064   32.6600 -999.0000 -999.0000 -999.0000    1.7600    0.0886 -999.0000    3.0400 -999.0000 -999.0000 
1658.4168   17.5000   23.1100    2.8164   30.6300 -999.0000 -999.0000 -999.0000    1.9500    0.1240 -999.0000    2.3600 -999.0000 -999.0000 
1658.5692   17.5000   23.4100    3.2964   33.3100 -999.0000 -999.0000 -999.0000    2.0600    0.1390 -999.0000    2.0000 -999.0000 -999.0000 
1658.7216   17.5000   23.8400    3.5464   33.1600 -999.0000 -999.0000 -999.0000    1.8000    0.1140 -999.0000    1.8400 -999.0000 -999.0000 
1658.8740   17.5000   23.8600    3.5564   37.7500 -999.0000 -999.0000 -999.0000    1.6000    0.0945 -999.0000    1.9400 -999.0000 -999.0000 
1659.0264   17.5000   23.8400    3.5564   36.5900 -999.0000 -999.0000 -999.0000    1.5300    0.0717 -999.0000    2.0600 -999.0000 -999.0000 
