~VERSION INFORMATION
 VERS.                 2.0:   CWLS LOG ASCII STANDARD - VERSION 2.0
 WRAP.                  NO:   SINGLE LINE PER DEPTH STEP
 CREA.                 19/01/2018 12:03:00
#CREATED USING DSPetro VERSION 5000.10.1.3 BY H191660 ON 19/01/2018 12:03:00
~WELL INFORMATION
#MNEM.UNIT       DATA                          DESCRIPTION MNEMONIC
#---------      ---------------------------   --------------------------
 STRT    .M         0.0000                    : START DEPTH
 STOP    .M         4299.9660                 : STOP DEPTH
 STEP    .M         0.1524                    : STEP VALUE
 NULL    .      -999.0000                     : NULL VALUE
 DATE    .      19/01/2018                    : LAS file Creation Date
 WELL .      14_3274_Wanaea-1            : Well Name
 COMP .      Neftex Exploration Insights : Company
 FLD  .      WANEA                       : Field
 UWI  .      ZAUWL_005664                : Unique Well Identifier (UWI)
 LOC  .                                  : Location
 RWS  .      -999                        : Def_Rw
 WST  .      -999                        : Def_Rwt
 SRVC .                                  : Contractor
~CURVE INFORMATION
#MNEM              UNIT       API CODE   Curve Type Comments
#----------  --------------- ----------  ---------- -----------
 DEPTH      .M                         : Depth       
 BitSize2   .in                        : bitSize     
 CAL_INCH   .inch                      : caliper     Caliper Log - A representation of the measured diameter of a borehole along its depth
 SP_MV1     .mv                        : SP          Spontaneous Potential - Records the electrical potential produced by the interaction of formation water, conductive drilling mud, and certain ion-sele
 GR_API     .API                       : gammaRay    Gamma Ray (API) - Measures the intensity of natural gamma-ray radiation emitted from formations containing radioactive elements, such as K, Th and U
 LLD_OHMM   .ohmm                      : deepRes     Laterlog Deep Resistivity - Measurement made several feet into the formation; generally considered a measurement of the undisturbed formation
 LLS_OHMM   .ohmm                      : shalRes     Laterlog Shallow Resistivity - one to two feet into the formation; generally considered to measure the formation
 MSFL_OHMM  .ohmm                      : microRes    Micro-Spherically Focused Log - Measurement involves only the first few inches of the formation immediately adjacent to the borehole
 RHOB_G_CC  .g/cc                      : density     Bulk Density - Measures the density of bulk material, including any void space or other materials contained in the subject volume
 DRHO_G_CC  .g/cc                      : drho        Density Correction - Investigates the correction to the Bulk Density log; used as an indication of hole condition to validate the Bulk Density measure
 NPHI_v_v   .dec                       : Neutron     
 PEF_B_E    .b/e-                      : PEF         Photoelectric Factor - A log of photoelectric absorption properties. Often expressed in an approximation unit barns/electron (b/e-)
 LITH       .                          : LITH        Lithology Curve
 LITH_v2    .                          : LITH        Lithology Curve
~A  DEPTH  BitSize   CAL_INCH   SP_MV1    GR_API   LLD_OHMM  LLS_OHMM MSFL_OHM  RHOB_G_C  DRHO_G_C   NPHI_v_v  PEF_B_E     LITH    LITH_v2  
# ...
3144.6216   12.2500   17.1300    0.7242   96.8100   12.8100    7.7400    1.0600    2.0800    0.1470    0.0961    3.7700   11.0000   11.0000 
3144.7740   12.2500   17.0900   -2.1557   77.0000   16.7000    8.7700    0.2600    2.0700    0.1240    0.0941    3.5300   11.0000   11.0000 
3144.9264   12.2500   16.6900   -3.2657   69.9400   20.0200   10.1000    0.4340    2.1000    0.1180    0.0894    3.4300   11.0000   11.0000 
3145.0788   12.2500   15.3900   -3.4757   79.6900   17.6200   10.3900    0.6950    2.2300    0.1430    0.0963    3.4000   11.0000   11.0000 
3145.2312   12.2500   15.7600   -3.4956   95.5000   14.1100    8.8500    0.4810    2.1800    0.1440    0.1299    3.6000   11.0000   11.0000 
3145.3836   12.2500   15.8800   -3.2056  112.8800   11.9600    7.8700    0.3790    2.0800    0.1330    0.1611    3.7000   11.0000   11.0000 
3145.5360   12.2500   16.0300   -0.0756  117.6900   10.9400    7.4800    0.4080    2.0100    0.1280    0.1745    3.7300   11.0000   11.0000 
3145.6884   12.2500   16.6300   -0.4355  120.4400   11.1300    7.4800    0.4800    2.0100    0.1300    0.1671    3.7300   11.0000   11.0000 
3145.8408   12.2500   15.8000   -2.8355  115.2500   10.9900    7.1600    0.3830    2.0600    0.1340    0.1881    3.5800   11.0000   11.0000 
3145.9932   12.2500   15.8400   -3.0754  113.3100   10.9300    6.9200    0.3960    2.1300    0.1390    0.1942    3.3400   11.0000   11.0000 
3146.1456   12.2500   16.0500   -3.4354  110.2500   11.4700    7.3100    0.8550    2.2100    0.1500    0.1956    3.2100   11.0000   11.0000 
3146.2980   12.2500   15.9500   -0.7154  105.9400   11.5600    7.1000    0.6690    2.1600    0.1400    0.1659    3.1200   11.0000   11.0000 
3146.4504   12.2500   17.2500   -2.4553  102.0000   11.3800    6.7900    0.4540    2.0900    0.1310    0.1780    3.3100   11.0000   11.0000 
3146.6028   12.2500   17.3900   -2.0653  104.7500   11.0300    6.5400    0.2960    2.0800    0.1310    0.1974    3.4900   11.0000   11.0000 
3146.7552   12.2500   17.7000   -2.5553  109.0000   10.5900    6.7800    0.6880    2.0800    0.1250    0.2193    3.6600   11.0000   11.0000 
3146.9076   12.2500   18.6600   -4.0452  114.4400   10.3800    7.0800    0.5490    1.9200    0.0915    0.2200    3.7100   11.0000   11.0000 
3147.0600   12.2500   17.6300   -1.6652  112.3100    9.8100    7.1800    0.3170    1.9000    0.1040    0.2029    3.8200   11.0000   11.0000 
3147.2124   12.2500   17.8900    1.2548  114.3100   11.9400    6.7000    0.4240    1.8800    0.0853    0.1962    3.8400   11.0000   11.0000 
3147.3648   12.2500   17.7300    1.3749  101.2500   11.0900    6.6300    1.2300    1.9600    0.0676    0.1847    3.6800   11.0000   11.0000 
3147.5172   12.2500   18.5200    0.1149   94.0600   11.9900    6.8100    0.8360    1.8200    0.0328    0.1699    3.5200   11.0000   11.0000 
3147.6696   12.2500   19.5900   -1.5251   91.7500   12.1500    6.6500    0.2620    1.7200    0.0295    0.1844    3.4100   11.0000   11.0000 
3147.8220   12.2500   17.8100   -1.6150  103.4400   11.8900    6.8500    0.2690    1.7400    0.0359    0.1917    3.4400   11.0000   11.0000 
3147.9744   12.2500   16.5600   -2.0050  111.8800   11.5000    7.0400    0.5670    1.8500    0.0673    0.2260    3.5700   11.0000   11.0000 
3148.1268   12.2500   17.6700   -1.9650  116.1300   11.5400    7.4300    0.5120    2.0600    0.1110    0.2085    3.6100   11.0000   11.0000 
3148.2792   12.2500   15.8800    0.3851  116.9400   11.9200    7.4500    0.4240    2.0700    0.1130    0.1984    3.5800   11.0000   11.0000 
3148.4316   12.2500   16.3100    3.1751  108.1900   12.2600    7.0600    0.2730    2.0800    0.1070    0.2054    3.6700   11.0000   11.0000 
3148.5840   12.2500   17.3600    1.0852   92.6900   11.0400    6.4000    0.5190    1.9200    0.0551    0.2319    3.5100   11.0000   11.0000 
3148.7364   12.2500   18.7500   -1.5548   75.5600   10.1300    6.2700    0.7240    1.7600    0.0118    0.2275    3.4800   11.0000   11.0000 
3148.8888   12.2500   18.8600   -0.4148   69.6300    9.8400    6.1100    0.2270    1.6700    0.0061    0.2013    3.4100   11.0000   11.0000 
3149.0412   12.2500   19.1400    1.8153   75.9400    9.8700    6.1800    0.2620    1.6900    0.0203    0.2020    3.5700   11.0000   11.0000 
3149.1936   12.2500   16.0200    2.4653   90.1900   10.1100    6.2600    0.2850    1.8000    0.0416    0.2220    3.6100   11.0000   11.0000 
3149.3460   12.2500   17.6900    0.4853  105.9400   10.8000    6.6000    0.5310    1.9300    0.0737    0.2377    3.6900   11.0000   11.0000 
3149.4984   12.2500   17.5200   -0.1246  111.8800   11.1400    6.3300    0.2950    2.0700    0.1140    0.2418    3.4800   11.0000   11.0000 
3149.6508   12.2500   17.5900   -2.2746  111.8100   11.0100    6.2100    0.3110    2.1700    0.1470    0.2526    3.5200   11.0000   11.0000 
3149.8032   12.2500   17.9700   -0.1346  104.5600   11.7700    6.6800    0.3130    2.1500    0.1370    0.2661    3.4900   11.0000   11.0000 
3149.9556   12.2500   18.5000    0.1555   97.5000   11.9500    6.6700    0.5170    2.0300    0.1150    0.2440    3.4800   11.0000   11.0000 
3150.1080   12.2500   19.3100   -1.0545   94.2500   11.9300    6.6000    0.4600    1.8600    0.1000    0.2467    3.4500   11.0000   11.0000 
3150.2604   12.2500   20.1900    3.2255   96.0000   11.6100    6.6100    0.5660    1.7900    0.0986    0.2495    3.3600   11.0000   11.0000 
3150.4128   12.2500   18.4100   -1.1544  100.6300   11.4400    6.7000    0.3790    1.8600    0.1120    0.2701    3.5200   11.0000   11.0000 
3150.5652   12.2500   16.6700    2.3556  105.8800   10.9400    6.3700    0.4230    2.0600    0.1520    0.2578    3.4700   11.0000   11.0000 
3150.7176   12.2500   15.8700    4.2257  113.3100   11.2200    6.4700    0.3290    2.2900    0.2190    0.2428    3.5100   11.0000   11.0000 
3150.8700   12.2500   15.6300    3.7157  120.6900   11.6800    6.5600    0.2990    2.3100    0.2350    0.2295    3.4400   11.0000   11.0000 
3151.0224   12.2500   16.3900    2.9957  124.5600   11.8200    6.8000    0.3520    2.1000    0.1700    0.2230    3.4500   11.0000   11.0000 
3151.1748   12.2500   17.2200    2.7358  126.5600   12.1800    7.1200    0.6680    1.9000    0.1240    0.2402    3.4600   11.0000   11.0000 
3151.3272   12.2500   16.7000    3.1558  126.6900   12.6000    6.9000    0.6020    1.8400    0.1140    0.2478    3.6100   11.0000   11.0000 
3151.4796   12.2500   15.8700    1.7758  127.3800   12.9600    7.2300    0.6050    1.9500    0.1250    0.2387    3.7500   11.0000   11.0000 
3151.6320   12.2500   16.0900    2.5459  128.3800   14.2700    7.8800    0.7250    2.1600    0.1590    0.2295    3.6900   11.0000   11.0000 
3151.7844   12.2500   15.1500    3.0459  126.6300   17.4400    7.7000    0.7580    2.2900    0.2070    0.2068    3.6300   11.0000   11.0000 
3151.9368   12.2500   15.3400    3.2059  122.5600   14.8300    7.2700    0.6690    2.2100    0.1750    0.2130    3.6000   11.0000   11.0000 
3152.0892   12.2500   15.8000    3.5760  114.3800   13.8100    6.7700    0.9240    2.0700    0.1310    0.2179    3.6600   11.0000   11.0000 
3152.2416   12.2500   17.3800    3.3260   98.5600   11.9800    6.1600    1.2600    1.9600    0.0853    0.2276    3.5000   11.0000   11.0000 
3152.3940   12.2500   17.9800   -0.8140   81.6900   10.1600    5.5800    0.6460    1.9000    0.0506    0.2114    3.4700   11.0000   11.0000 
3152.5464   12.2500   18.9700    1.5961   66.6300    8.3900    5.1800    0.3880    1.7700    0.0240    0.1833    3.3500   11.0000   11.0000 
3152.6988   12.2500   19.3600    3.1361   70.1300    7.7300    5.2600    0.3360    1.8400    0.0430    0.2003    3.5000   11.0000   11.0000 
3152.8512   12.2500   18.6400    3.3761   80.8100    8.4500    5.9200    0.1890    1.9500    0.0605    0.2190    3.6500   11.0000   11.0000 
3153.0036   12.2500   15.5700    0.5162   98.7500    9.3600    6.2100    0.1920    2.2300    0.1090    0.2328    3.8700   11.0000   11.0000 
3153.1560   12.2500   15.2900   -1.1338  108.3800   10.3800    6.6700    0.3050    2.2700    0.1140    0.2293    4.0100   11.0000   11.0000 
