~VERSION INFORMATION
 VERS.                 2.0:   CWLS LOG ASCII STANDARD - VERSION 2.0
 WRAP.                  NO:   SINGLE LINE PER DEPTH STEP
 CREA.                 19/01/2018 12:03:00
#CREATED USING DSPetro VERSION 5000.10.1.3 BY H191660 ON 19/01/2018 12:03:00
~WELL INFORMATION
#MNEM.UNIT       DATA                          DESCRIPTION MNEMONIC
#---------      ---------------------------   --------------------------
 STRT    .M         0.0000                    : START DEPTH
 STOP    .M         4299.9660                 : STOP DEPTH
 STEP    .M         0.1524                    : STEP VALUE
 NULL    .      -999.0000                     : NULL VALUE
 DATE    .      19/01/2018                    : LAS file Creation Date
 WELL .      14_3274_Wanaea-1            : Well Name
 COMP .      Neftex Exploration Insights : Company
 FLD  .      WANEA                       : Field
 UWI  .      ZAUWL_005664                : Unique Well Identifier (UWI)
 LOC  .                                  : Location
 RWS  .      -999                        : Def_Rw
 WST  .      -999                        : Def_Rwt
 SRVC .                                  : Contractor
~CURVE INFORMATION
#MNEM              UNIT       API CODE   Curve Type Comments
#----------  --------------- ----------  ---------- -----------
 DEPTH      .M                         : Depth       
 BitSize2   .in                        : bitSize     
 CAL_INCH   .inch                      : caliper     Caliper Log - A representation of the measured diameter of a borehole along its depth
 SP_MV1     .mv                        : SP          Spontaneous Potential - Records the electrical potential produced by the interaction of formation water, conductive drilling mud, and certain ion-sele
 GR_API     .API                       : gammaRay    Gamma Ray (API) - Measures the intensity of natural gamma-ray radiation emitted from formations containing radioactive elements, such as K, Th and U
 LLD_OHMM   .ohmm                      : deepRes     Laterlog Deep Resistivity - Measurement made several feet into the formation; generally considered a measurement of the undisturbed formation
 LLS_OHMM   .ohmm                      : shalRes     Laterlog Shallow Resistivity - one to two feet into the formation; generally considered to measure the formation
 MSFL_OHMM  .ohmm                      : microRes    Micro-Spherically Focused Log - Measurement involves only the first few inches of the formation immediately adjacent to the borehole
 RHOB_G_CC  .g/cc                      : density     Bulk Density - Measures the density of bulk material, including any void space or other materials contained in the subject volume
 DRHO_G_CC  .g/cc                      : drho        Density Correction - Investigates the correction to the Bulk Density log; used as an indication of hole condition to validate the Bulk Density measure
 NPHI_v_v   .dec                       : Neutron     
 PEF_B_E    .b/e-                      : PEF         Photoelectric Factor - A log of photoelectric absorption properties. Often expressed in an approximation unit barns/electron (b/e-)
 LITH       .                          : LITH        Lithology Curve
 LITH_v2    .                          : LITH        Lithology Curve
~A  DEPTH  BitSize   CAL_INCH   SP_MV1    GR_API   LLD_OHMM  LLS_OHMM MSFL_OHM  RHOB_G_C  DRHO_G_C   NPHI_v_v  PEF_B_E     LITH    LITH_v2  
# ...
3813.5052    8.5000    9.1000    0.6718  123.5000    5.2400    5.4200    6.8000    2.6800    0.0108    0.2767 -999.0000   23.0000 -999.0000 
3813.6576    8.5000    9.0900    0.7078  121.0600    5.3000    5.4400    5.9600    2.6000    0.0132    0.2796 -999.0000   37.0000 -999.0000 
3813.8100    8.5000    9.1600    0.6639  118.1900    5.3400    5.4600    5.5600    2.5200    0.0178    0.2823 -999.0000   37.0000 -999.0000 
3813.9624    8.5000    9.0000    0.5399  120.7500    5.3400    5.5100    5.4300    2.4700    0.0349    0.2695 -999.0000   37.0000 -999.0000 
3814.1148    8.5000    8.9900    0.4960  118.1900    5.2800    5.4800    5.1600    2.4800    0.0784    0.2766 -999.0000   37.0000 -999.0000 
3814.2672    8.5000    9.0000    0.6220  121.4400    5.4000    5.5500    2.5600    2.5000    0.1090    0.2871 -999.0000   37.0000 -999.0000 
3814.4196    8.5000    9.0300    0.5180  124.0000    5.5600    5.7300    2.8200    2.4900    0.1080    0.2992 -999.0000   37.0000 -999.0000 
3814.5720    8.5000    8.9500   -0.3259  129.1300    5.6900    5.9100    1.1500    2.4900    0.1030    0.2982 -999.0000   37.0000 -999.0000 
3814.7244    8.5000    9.0800    2.5501  123.0600    6.0700    6.3000    3.2300    2.4800    0.0989    0.2877 -999.0000   37.0000 -999.0000 
3814.8768    8.5000    9.5800    2.8061  112.6300    6.4000    6.6100    4.0800    2.4800    0.0848    0.2887 -999.0000   37.0000 -999.0000 
3815.0292    8.5000    9.6300    0.9222  108.0600    6.1600    6.4400    0.8800    2.4800    0.0891    0.2809 -999.0000   37.0000 -999.0000 
3815.1816    8.5000    9.6300    0.8382  108.3100    5.6500    5.8600    0.7460    2.4600    0.0838    0.2833 -999.0000   37.0000 -999.0000 
3815.3340    8.5000    9.5600    0.8443  111.1900    5.0700    5.2700    0.7210    2.4400    0.0730    0.2898 -999.0000   37.0000 -999.0000 
3815.4864    8.5000    9.5500    0.9503  113.3800    4.7800    5.0000    0.7880    2.4500    0.0709    0.2896 -999.0000   37.0000 -999.0000 
3815.6388    8.5000    9.5700    1.1663  117.3100    4.8600    5.0500    0.7470    2.4900    0.0768    0.2871 -999.0000   37.0000 -999.0000 
3815.7912    8.5000    9.5900    1.0424  119.5600    4.8700    5.0800    1.0500    2.5000    0.0757    0.2853 -999.0000   37.0000 -999.0000 
3815.9436    8.5000    9.7000    1.2984  116.6300    4.9000    5.1500    2.6200    2.4900    0.0664    0.2978 -999.0000   37.0000 -999.0000 
3816.0960    8.5000   10.4600    1.3945  118.7500    5.2100    5.3400    1.4500    2.4900    0.0792    0.2993 -999.0000   37.0000 -999.0000 
3816.2484    8.5000    9.3400    1.1405  117.5600    5.2300    5.3800    2.7500    2.4500    0.0735    0.3082 -999.0000   37.0000 -999.0000 
3816.4008    8.5000    9.2300    1.1465  117.1900    5.4700    5.6900    3.4200    2.4200    0.0691    0.3216 -999.0000   37.0000 -999.0000 
3816.5532    8.5000    9.3000    0.9826  108.3800    6.0100    6.1200    3.3200    2.4000    0.0613    0.3148 -999.0000   37.0000 -999.0000 
3816.7056    8.5000    9.3200    0.7286  102.9400    6.1400    6.2300    2.9700    2.4200    0.0603    0.2993 -999.0000   37.0000 -999.0000 
3816.8580    8.5000    9.3200    1.0147  101.8100    6.0900    6.2500    2.7200    2.4100    0.0286    0.2836 -999.0000   37.0000 -999.0000 
3817.0104    8.5000    9.3900    1.6407  106.8800    6.1100    6.2600    1.7800    2.4300    0.0125    0.2923 -999.0000   37.0000 -999.0000 
3817.1628    8.5000    8.9800    1.1167  111.1900    6.1800    6.2400    0.9810    2.4300    0.0054    0.3032 -999.0000   37.0000 -999.0000 
3817.3152    8.5000    8.9000    0.6128  111.5000    6.1600    6.3000    7.4900    2.4300   -0.0032    0.2932 -999.0000   37.0000 -999.0000 
3817.4676    8.5000    8.4500    1.4888  111.6300    6.3000    6.4200    7.2100    2.4400   -0.0114    0.3027 -999.0000   37.0000 -999.0000 
3817.6200    8.5000    8.5300    2.3648  117.5000    6.3000    6.4500    2.1700    2.4500   -0.0150    0.2992 -999.0000   37.0000 -999.0000 
3817.7724    8.5000    8.9900    1.4909  120.4400    6.0200    6.1800    2.1100    2.4500   -0.0213    0.3040 -999.0000   37.0000 -999.0000 
3817.9248    8.5000    9.3000    0.8769  119.2500    5.6300    5.7800    2.3100    2.4500   -0.0239    0.2958 -999.0000   37.0000 -999.0000 
3818.0772    8.5000    9.3000    1.2230  108.4400    5.4500    5.5400    2.1700    2.4400   -0.0271    0.2901 -999.0000   37.0000 -999.0000 
3818.2296    8.5000    9.2000    1.5990  102.7500    5.3800    5.5400    0.6680    2.4500   -0.0241    0.2825 -999.0000   37.0000 -999.0000 
3818.3820    8.5000    8.9500    1.5650  104.5000    5.3500    5.4900    1.1200    2.5000   -0.0145    0.2995 -999.0000   37.0000 -999.0000 
3818.5344    8.5000    8.8200    1.2811  114.3800    5.4900    5.6000    7.2000    2.5400   -0.0049    0.3122 -999.0000   37.0000 -999.0000 
3818.6868    8.5000    9.0400    1.2671  123.3800    5.5200    5.7000    7.9900    2.5800   -0.0050    0.3162 -999.0000   37.0000 -999.0000 
3818.8392    8.5000    9.2500    1.0532  123.8100    5.7100    5.8600    2.5700    2.6200   -0.0053    0.3087 -999.0000   37.0000 -999.0000 
3818.9916    8.5000    9.7300    1.6392  118.8100    6.0200    6.0900    2.7400    2.7000    0.0000    0.2867 -999.0000   23.0000 -999.0000 
3819.1440    8.5000    9.6300    1.9652  118.7500    6.1600    6.2800    1.9400    2.7200   -0.0030    0.2902 -999.0000   23.0000 -999.0000 
3819.2964    8.5000    9.6600    1.0813  118.8800    6.2000    6.4100    1.2100    2.7200   -0.0094    0.2855 -999.0000   23.0000 -999.0000 
3819.4488    8.5000    9.8300    0.6873  117.8800    6.2800    6.4000    0.9280    2.7100   -0.0088    0.2919 -999.0000   23.0000 -999.0000 
3819.6012    8.5000    9.9700    0.6233  113.1300    6.2600    6.4300    0.8810    2.7200   -0.0049    0.2853 -999.0000   23.0000 -999.0000 
3819.7536    8.5000    9.8300    0.3694  111.6900    6.3300    6.5000    1.0700    2.7200   -0.0064    0.2875 -999.0000   23.0000 -999.0000 
3819.9060    8.5000    9.9400    0.0154  113.8100    6.4500    6.5400    2.0800    2.7200   -0.0043    0.2921 -999.0000   23.0000 -999.0000 
3820.0584    8.5000   10.0000   -0.1985  113.0000    6.4700    6.6400    2.3300    2.7100   -0.0059    0.2987 -999.0000   23.0000 -999.0000 
3820.2108    8.5000    9.1200    0.3075  110.3100    6.6400    6.8000    2.2500    2.7000   -0.0099    0.2928 -999.0000   23.0000 -999.0000 
3820.3632    8.5000    9.4100    0.4335  110.2500    6.6600    6.7000    2.0200    2.7000   -0.0117    0.2952 -999.0000   23.0000 -999.0000 
3820.5156    8.5000    9.1400    0.1896  113.7500    5.9500    6.0400    6.8000    2.7000   -0.0117    0.2989 -999.0000   23.0000 -999.0000 
3820.6680    8.5000    8.8600    0.4156  120.1900    5.6500    5.7200    1.7000    2.7100   -0.0103    0.3037 -999.0000   23.0000 -999.0000 
3820.8204    8.5000    9.0300    0.4117  122.9400    5.8300    5.8800    1.3200    2.7100   -0.0093    0.3013 -999.0000   23.0000 -999.0000 
3820.9728    8.5000    8.9900   -0.5823  119.8100    5.8400    5.9800    1.4300    2.7100   -0.0044    0.3060 -999.0000   23.0000 -999.0000 
3821.1252    8.5000    9.0500   -0.1163  116.3800    5.8300    6.0000    1.4100    2.7200   -0.0046    0.3149 -999.0000   23.0000 -999.0000 
3821.2776    8.5000    8.8500    1.1398  113.2500    5.8700    6.0400    3.9700    2.7100   -0.0067    0.3211 -999.0000   23.0000 -999.0000 
3821.4300    8.5000    8.9300    1.8858  118.5600    5.8600    6.0400    7.1900    2.6800   -0.0120    0.3086 -999.0000   23.0000 -999.0000 
3821.5824    8.5000    8.8400    0.7719  116.6300    6.0000    6.1600    8.6300    2.6300   -0.0169    0.3049 -999.0000   37.0000 -999.0000 
3821.7348    8.5000    8.6600    2.1479  116.3800    6.1600    6.1900    7.2000    2.5900   -0.0236    0.2936 -999.0000   37.0000 -999.0000 
3821.8872    8.5000    8.7700   -0.3861  115.5000    6.1100    6.1800    7.9000    2.5800   -0.0239    0.2887 -999.0000   37.0000 -999.0000 
3822.0396    8.5000    8.8400   -0.7600  121.0600    5.8100    5.8300    8.9200    2.6000   -0.0190    0.2929 -999.0000   37.0000 -999.0000 
