~VERSION INFORMATION
 VERS.                 2.0:   CWLS LOG ASCII STANDARD - VERSION 2.0
 WRAP.                  NO:   SINGLE LINE PER DEPTH STEP
 CREA.                 19/01/2018 12:03:00
#CREATED USING DSPetro VERSION 5000.10.1.3 BY H191660 ON 19/01/2018 12:03:00
~WELL INFORMATION
#MNEM.UNIT       DATA                          DESCRIPTION MNEMONIC
#---------      ---------------------------   --------------------------
 STRT    .M         0.0000                    : START DEPTH
 STOP    .M         4299.9660                 : STOP DEPTH
 STEP    .M         0.1524                    : STEP VALUE
 NULL    .      -999.0000                     : NULL VALUE
 DATE    .      19/01/2018                    : LAS file Creation Date
 WELL .      14_3274_Wanaea-1            : Well Name
 COMP .      Neftex Exploration Insights : Company
 FLD  .      WANEA                       : Field
 UWI  .      ZAUWL_005664                : Unique Well Identifier (UWI)
 LOC  .                                  : Location
 RWS  .      -999                        : Def_Rw
 WST  .      -999                        : Def_Rwt
 SRVC .                                  : Contractor
~CURVE INFORMATION
#MNEM              UNIT       API CODE   Curve Type Comments
#----------  --------------- ----------  ---------- -----------
 DEPTH      .M                         : Depth       
 BitSize2   .in                        : bitSize     
 CAL_INCH   .inch                      : caliper     Caliper Log - A representation of the measured diameter of a borehole along its depth
 SP_MV1     .mv                        : SP          Spontaneous Potential - Records the electrical potential produced by the interaction of formation water, conductive drilling mud, and certain ion-sele
 GR_API     .API                       : gammaRay    Gamma Ray (API) - Measures the intensity of natural gamma-ray radiation emitted from formations containing radioactive elements, such as K, Th and U
 LLD_OHMM   .ohmm                      : deepRes     Laterlog Deep Resistivity - Measurement made several feet into the formation; generally considered a measurement of the undisturbed formation
 LLS_OHMM   .ohmm                      : shalRes     Laterlog Shallow Resistivity - one to two feet into the formation; generally considered to measure the formation
 MSFL_OHMM  .ohmm                      : microRes    Micro-Spherically Focused Log - Measurement involves only the first few inches of the formation immediately adjacent to the borehole
 RHOB_G_CC  .g/cc                      : density     Bulk Density - Measures the density of bulk material, including any void space or other materials contained in the subject volume
 DRHO_G_CC  .g/cc                      : drho        Density Correction - Investigates the correction to the Bulk Density log; used as an indication of hole condition to validate the Bulk Density measure
 NPHI_v_v   .dec                       : Neutron     
 PEF_B_E    .b/e-                      : PEF         Photoelectric Factor - A log of photoelectric absorption properties. Often expressed in an approximation unit barns/electron (b/e-)
 LITH       .                          : LITH        Lithology Curve
 LITH_v2    .                          : LITH        Lithology Curve
~A  DEPTH  BitSize   CAL_INCH   SP_MV1    GR_API   LLD_OHMM  LLS_OHMM MSFL_OHM  RHOB_G_C  DRHO_G_C   NPHI_v_v  PEF_B_E     LITH    LITH_v2  
# ...
1980.5904   12.2500   19.2800    1.0313   64.6300 -999.0000 -999.0000 -999.0000    1.8800   -0.0239 -999.0000   18.8000 -999.0000 -999.0000 
1980.7428   12.2500   20.0500    0.7492   64.6300 -999.0000 -999.0000 -999.0000    1.8800   -0.0287 -999.0000   20.7700 -999.0000 -999.0000 
1980.8952   12.2500   21.4700    0.0072   64.4400 -999.0000 -999.0000 -999.0000    1.8700   -0.0368 -999.0000   32.5600 -999.0000 -999.0000 
1981.0476   12.2500   20.8600   -0.0248   66.5600 -999.0000 -999.0000 -999.0000    1.8700   -0.0442 -999.0000   39.5600 -999.0000 -999.0000 
1981.2000   12.2500   21.2500    0.4831   61.7500 -999.0000 -999.0000 -999.0000    1.8700   -0.0501 -999.0000   44.2500 -999.0000 -999.0000 
1981.3524   12.2500   21.0600    0.2311   61.3800 -999.0000 -999.0000 -999.0000    1.8600   -0.0498 -999.0000   45.8100 -999.0000 -999.0000 
1981.5048   12.2500   21.5300    2.4851   55.5900 -999.0000 -999.0000 -999.0000    1.8100   -0.0552 -999.0000   45.8400 -999.0000 -999.0000 
1981.6572   12.2500   22.2800    2.2380   56.0600 -999.0000 -999.0000 -999.0000    1.7500   -0.0538 -999.0000   46.8800 -999.0000 -999.0000 
1981.8096   12.2500   21.8100    2.2420   57.7800 -999.0000 -999.0000 -999.0000    1.7000   -0.0535 -999.0000   43.5600 -999.0000 -999.0000 
1981.9620   12.2500   21.7500    0.9929   60.1600 -999.0000 -999.0000 -999.0000    1.6800   -0.0505 -999.0000   40.4700 -999.0000 -999.0000 
1982.1144   12.2500   21.0300    1.0009   58.9700 -999.0000 -999.0000 -999.0000    1.7000   -0.0437 -999.0000   30.2500 -999.0000 -999.0000 
1982.2668   12.2500   21.2000    0.2189   58.9700 -999.0000 -999.0000 -999.0000    1.7400   -0.0320 -999.0000   26.2200 -999.0000 -999.0000 
1982.4192   12.2500   21.3800    0.4768   57.7200 -999.0000 -999.0000 -999.0000    1.7500   -0.0301 -999.0000   25.1300 -999.0000 -999.0000 
1982.5716   12.2500   22.2200    0.7248   60.6600 -999.0000 -999.0000 -999.0000    1.7400   -0.0284 -999.0000   28.7500 -999.0000 -999.0000 
1982.7240   12.2500   22.9500    0.7328   58.0900 -999.0000 -999.0000 -999.0000    1.7400   -0.0349 -999.0000   37.1600 -999.0000 -999.0000 
1982.8764   12.2500   22.7300    0.9507   59.6300 -999.0000 -999.0000 -999.0000    1.7900   -0.0315 -999.0000   34.0600 -999.0000 -999.0000 
1983.0288   12.2500   22.7300    1.4587   60.9400 -999.0000 -999.0000 -999.0000    1.8600   -0.0277 -999.0000   33.8800 -999.0000 -999.0000 
1983.1812   12.2500   23.7300    1.4567   61.1900 -999.0000 -999.0000 -999.0000    1.9100   -0.0179 -999.0000   30.8400 -999.0000 -999.0000 
1983.3336   12.2500   23.8600    0.9246   59.3400 -999.0000 -999.0000 -999.0000    1.9100   -0.0168 -999.0000   34.5900 -999.0000 -999.0000 
1983.4860   12.2500   23.5500    0.1726   58.3400 -999.0000 -999.0000 -999.0000    1.8800   -0.0192 -999.0000   36.7500 -999.0000 -999.0000 
1983.6384   12.2500   22.7000   -0.3294   58.0000 -999.0000 -999.0000 -999.0000    1.8100   -0.0277 -999.0000   39.9400 -999.0000 -999.0000 
1983.7908   12.2500   23.8600    0.4185   55.4100 -999.0000 -999.0000 -999.0000    1.7100   -0.0370 -999.0000   38.8400 -999.0000 -999.0000 
1983.9432   12.2500   23.8600   -0.3335   54.2500 -999.0000 -999.0000 -999.0000    1.6400   -0.0472 -999.0000   36.1900 -999.0000 -999.0000 
1984.0956   12.2500   23.8600    0.4145   55.8400 -999.0000 -999.0000 -999.0000    1.6100   -0.0518 -999.0000   35.3100 -999.0000 -999.0000 
1984.2480   12.2500   23.8600   -0.8376   61.1600 -999.0000 -999.0000 -999.0000    1.6200   -0.0475 -999.0000   30.7500 -999.0000 -999.0000 
1984.4004   12.2500   23.8600   -0.0896   61.0300 -999.0000 -999.0000 -999.0000    1.6500   -0.0427 -999.0000   32.8800 -999.0000 -999.0000 
1984.5528   12.2500   23.8600    0.1584   59.9700 -999.0000 -999.0000 -999.0000    1.6700   -0.0405 -999.0000   27.9400 -999.0000 -999.0000 
1984.7052   12.2500   23.8600    0.1563   56.4700 -999.0000 -999.0000 -999.0000    1.6600   -0.0414 -999.0000   30.5500 -999.0000 -999.0000 
1984.8576   12.2500   23.7300    0.4043   53.2800 -999.0000 -999.0000 -999.0000    1.6800   -0.0428 -999.0000   28.3800 -999.0000 -999.0000 
1985.0100   12.2500   21.8400    0.6523   54.0300 -999.0000 -999.0000 -999.0000    1.6800   -0.0478 -999.0000   36.5600 -999.0000 -999.0000 
1985.1624   12.2500   18.8800    3.1512   52.4700 -999.0000 -999.0000 -999.0000    1.7000   -0.0465 -999.0000   40.1300 -999.0000 -999.0000 
1985.3148   12.2500   18.9800    1.8992   55.6600 -999.0000 -999.0000 -999.0000    1.6800   -0.0477 -999.0000   43.3400 -999.0000 -999.0000 
1985.4672   12.2500   20.7000   -0.6038   54.6600 -999.0000 -999.0000 -999.0000    1.6800   -0.0498 -999.0000   37.1600 -999.0000 -999.0000 
1985.6196   12.2500   22.4200   -0.6059   54.0000 -999.0000 -999.0000 -999.0000    1.6700   -0.0517 -999.0000   38.3400 -999.0000 -999.0000 
1985.7720   12.2500   22.8100    1.1421   52.8100 -999.0000 -999.0000 -999.0000    1.6700   -0.0508 -999.0000   35.8800 -999.0000 -999.0000 
1985.9244   12.2500   23.8100    0.8901   54.6600 -999.0000 -999.0000 -999.0000    1.6600   -0.0560 -999.0000   38.8400 -999.0000 -999.0000 
1986.0768   12.2500   23.8600    0.8880   59.6300 -999.0000 -999.0000 -999.0000    1.6700   -0.0625 -999.0000   39.8100 -999.0000 -999.0000 
1986.2292   12.2500   23.8600    0.6360   57.3400 -999.0000 -999.0000 -999.0000    1.6900   -0.0628 -999.0000   46.0300 -999.0000 -999.0000 
1986.3816   12.2500   23.4500    0.1340   53.6300 -999.0000 -999.0000 -999.0000    1.7000   -0.0617 -999.0000   49.0300 -999.0000 -999.0000 
1986.5340   12.2500   23.1900   -0.1181   53.8100 -999.0000 -999.0000 -999.0000    1.6900   -0.0628 -999.0000   45.8800 -999.0000 -999.0000 
1986.6864   12.2500   23.1900    0.1299   56.3100 -999.0000 -999.0000 -999.0000    1.7000   -0.0609 -999.0000   42.3800 -999.0000 -999.0000 
1986.8388   12.2500   22.9200    0.1279   58.2800 -999.0000 -999.0000 -999.0000    1.7100   -0.0571 -999.0000   42.2500 -999.0000 -999.0000 
1986.9912   12.2500   22.6700    0.3858   59.4400 -999.0000 -999.0000 -999.0000    1.7300   -0.0529 -999.0000   43.6600 -999.0000 -999.0000 
1987.1436   12.2500   22.6600   -0.3662   59.6300 -999.0000 -999.0000 -999.0000    1.7500   -0.0534 -999.0000   42.4100 -999.0000 -999.0000 
1987.2960   12.2500   21.9800   -1.1182   58.1600 -999.0000 -999.0000 -999.0000    1.7900   -0.0528 -999.0000   37.1300 -999.0000 -999.0000 
1987.4484   12.2500   22.6700   -0.6203   56.8100 -999.0000 -999.0000 -999.0000    1.8200   -0.0525 -999.0000   36.4400 -999.0000 -999.0000 
1987.6008   12.2500   23.7800    0.1277   56.2500 -999.0000 -999.0000 -999.0000    1.8300   -0.0516 -999.0000   39.0300 -999.0000 -999.0000 
1987.7532   12.2500   23.8800    0.1256   58.6600 -999.0000 -999.0000 -999.0000    1.8000   -0.0509 -999.0000   36.6900 -999.0000 -999.0000 
1987.9056   12.2500   23.8800   -0.6264   57.7200 -999.0000 -999.0000 -999.0000    1.7400   -0.0539 -999.0000   40.0000 -999.0000 -999.0000 
1988.0580   12.2500   23.8600   -0.1284   59.2500 -999.0000 -999.0000 -999.0000    1.7100   -0.0561 -999.0000   43.0600 -999.0000 -999.0000 
1988.2104   12.2500   23.8600    0.6295   56.8800 -999.0000 -999.0000 -999.0000    1.7100   -0.0511 -999.0000   47.1600 -999.0000 -999.0000 
1988.3628   12.2500   21.8000    1.8775   54.6600 -999.0000 -999.0000 -999.0000    1.7400   -0.0457 -999.0000   41.5300 -999.0000 -999.0000 
1988.5152   12.2500   21.6700    1.1255   50.9700 -999.0000 -999.0000 -999.0000    1.7400   -0.0542 -999.0000   38.7800 -999.0000 -999.0000 
1988.6676   12.2500   22.0300    0.6334   51.3100 -999.0000 -999.0000 -999.0000    1.7600   -0.0556 -999.0000   37.7500 -999.0000 -999.0000 
1988.8200   12.2500   22.7500    0.3814   54.4100 -999.0000 -999.0000 -999.0000    1.8200   -0.0540 -999.0000   37.7800 -999.0000 -999.0000 
1988.9724   12.2500   23.1600   -0.3706   58.3100 -999.0000 -999.0000 -999.0000    1.8500   -0.0518 -999.0000   36.5300 -999.0000 -999.0000 
1989.1248   12.2500   22.8000   -0.1127   56.1900 -999.0000 -999.0000 -999.0000    1.8500   -0.0586 -999.0000   35.1300 -999.0000 -999.0000 
