~VERSION INFORMATION
 VERS.                 2.0:   CWLS LOG ASCII STANDARD - VERSION 2.0
 WRAP.                  NO:   SINGLE LINE PER DEPTH STEP
 CREA.                 04/06/2018 10:59:30
#CREATED USING DSPetro VERSION 5000.10.1.3 BY H191660 ON 04/06/2018 10:59:30
~WELL INFORMATION
#MNEM.UNIT       DATA                          DESCRIPTION MNEMONIC
#---------      ---------------------------   --------------------------
 STRT    .M         2084.9844                 : START DEPTH
 STOP    .M         3339.9984                 : STOP DEPTH
 STEP    .M         0.1524                    : STEP VALUE
 NULL    .      -999.0000                     : NULL VALUE
 DATE    .      04/06/2018                    : LAS file Creation Date
 WELL .      6610_7_1                    : Well Name
 COMP .      Neftex Exploration Insights : Company
 FLD  .                                  : Field
 UWI  .      YNOWL_661071                : Unique Well Identifier (UWI)
 LOC  .                                  : Location
 RWS  .      -999                        : Def_Rw
 WST  .      -999                        : Def_Rwt
 SRVC .                                  : Contractor
~CURVE INFORMATION
#MNEM              UNIT       API CODE   Curve Type Comments
#----------  --------------- ----------  ---------- -----------
 DEPTH      .M                         : Depth       
 CAL_INCH   .inch                      :             Caliper Log - A representation of the measured diameter of a borehole along its depth
 GR_API     .API                       : GammaRay    Gamma Ray (API) - Measures the intensity of natural gamma-ray radiation emitted from formations containing radioactive elements, such as K, Th and U
 RD_OHMM    .ohmm                      :             Unspecified Deep Resistivity - No accroynm or method of attainment is specified - units of ohmm
 RM_OHMM    .ohm.m                     :             Unspecified Medium Resistivity - No accroynm or method of attainment is specified
 RS_OHMM    .ohmm                      :             Unspecified Shallow Resistivity - No accroynm or method of attainment is specified
 DT_US_FT   .us/ft                     :             Interval Transit Time: Compressional Wave - Evaluates the time it takes for a compressional wave to traverse a fixed distance
 RHOB_G_CC  .g/cc                      :             Bulk Density - Measures the density of bulk material, including any void space or other materials contained in the subject volume
 NEUT_P_%   .PC                        :             Unspecified Neutron Porosity Log - No accroynm or method of attainment is specified
 LITH       .                          : LITH        Lithology Curve
~A  DEPTH  CAL_INCH   GR_API   RD_OHMM   RM_OHMM   RS_OHMM   DT_US_FT RHOB_G_C~  NEUT_P_%    LITH   
# ...
2914.0404    8.4174  106.9152    6.2214    8.8098   16.2750   71.4838    2.5549    0.1780   37.0000 
2914.1928    8.4174   97.7318    6.1561    7.2331   15.6390   72.1233    2.5499    0.1775   37.0000 
2914.3452    8.4174   93.5525    6.1147    6.9955   12.2579   72.9463    2.5461    0.1843   37.0000 
2914.4976    8.4174   87.2690    6.1399    6.9208   12.1005   73.2816    2.5382    0.1911   37.0000 
2914.6500    8.4174   79.9072    6.2752    6.9797   13.8129   73.4336    2.5318    0.1960   37.0000 
2914.8024    8.4175   79.9073    6.3296    7.2487   14.4310   73.1904    2.5232    0.1970   37.0000 
2914.9548    8.4175   87.8712    6.3782    8.2736   14.9212   72.5434    2.5348    0.1836   37.0000 
2915.1072    8.4175   91.2320    6.4399   10.0623   18.0335   71.9230    2.5453    0.1770   37.0000 
2915.2596    8.4175   95.6961    7.4775   13.6147   19.1269   71.6430    2.5667    0.1750   37.0000 
2915.4120    8.4175  101.5783    7.6545   14.3641   19.5733   71.5699    2.5711    0.1786   37.0000 
2915.5644    8.4175  107.2721    7.9017   14.5910   19.9144   71.9855    2.5810    0.1916   37.0000 
2915.7168    8.4175  115.3228    8.7791   14.5909   20.6025   72.3701    2.5907    0.1990   37.0000 
2915.8692    8.4176  115.0993    9.2645   14.7599   21.0343   72.7494    2.5999    0.2092   37.0000 
2916.0216    8.4176  114.8742   10.0894   14.5949   21.0345   73.1735    2.5999    0.2130   37.0000 
2916.1740    8.4176  112.6522   10.2679   14.2545   20.7578   73.3539    2.5999    0.2168   37.0000 
2916.3264    8.4176  112.3041   10.2975   14.0082   20.0759   73.4068    2.5965    0.2220   37.0000 
2916.4788    8.4176  111.0564   10.2974   13.8638   18.6078   73.3474    2.5965    0.2264   37.0000 
2916.6312    8.4176  111.9796   10.2877   13.8136   18.4240   72.3440    2.6015    0.2352   37.0000 
2916.7836    8.4177  112.8537   10.2677   15.8137   18.4239   72.2399    2.6150    0.2379   37.0000 
2916.9360    8.4177  135.1489   10.2381   16.0708   19.1992   72.3620    2.6180    0.2407   37.0000 
2917.0884    8.4177  168.3863   10.2705   15.7701   24.7591   72.4908    2.6210    0.2425   37.0000 
2917.2408    8.4177  170.6326   10.3566   17.8861   25.2200   71.4535    2.6240    0.2430   37.0000 
2917.3932    8.4177  177.8719   10.2117   19.2144   26.0009   70.4375    2.6270    0.2420   37.0000 
2917.5456    8.4177  177.2733    9.6988   22.5380   26.4856   69.0923    2.6333    0.2401   37.0000 
2917.6980    8.4177  176.7477    8.4565   22.7341   38.5100   68.4088    2.6399    0.2310   37.0000 
2917.8504    8.4178  163.2511    7.2759   22.7340   38.5099   68.3216    2.6426    0.2270   37.0000 
2918.0028    8.4135  162.7027    6.4654   22.2802   27.6633   70.5982    2.6623    0.2287   37.0000 
2918.1552    8.3525  161.6552    5.2505    8.2188    9.1954   73.0893    2.6970    0.2393   37.0000 
2918.3076    8.2769  160.3031    4.6157    7.9488    8.9479   75.2172    2.5713    0.2448   37.0000 
2918.4600    8.2051   61.9201    4.5001    5.9499    8.6700   75.1428    2.5505    0.2550   37.0000 
2918.6124    8.1458   61.2218    4.2817    5.7548    8.4864   74.4664    2.5459    0.2695   36.0000 
2918.7648    8.1429   53.9531    4.0471    5.7880    8.4166   71.8764    2.6215    0.3022   36.0000 
2918.9172    8.1916   56.5704    3.8516    9.8045   16.8007   70.8481    2.6657    0.3029   36.0000 
2919.0696    8.3321   88.9913    3.6350   10.5668   16.6138   70.7850    2.6699    0.2946   36.0000 
2919.2220    8.3943   89.0199    3.5585   10.5972   15.5144   71.6920    2.6573    0.1703   36.0000 
2919.3744    8.4222   89.0200    3.3487    7.0699   14.2445   74.1636    2.6277    0.1690   36.0000 
2919.5268    8.1634   66.3079    3.3389    4.9287   12.7445   78.6923    2.6108    0.1690   36.0000 
2919.6792    8.0799   66.3080    3.3389    4.6474    4.7174   79.3355    2.5163    0.1703   36.0000 
2919.8316    8.0286   80.8393    3.3849    4.4079    4.7663   78.7055    2.5083    0.1739   36.0000 
2919.9840    8.0461   86.7969    3.5035    4.4552    4.9508   77.3210    2.3950    0.2200   36.0000 
2920.1364    8.0829   98.4442    3.6079    5.3086   19.3414   73.6143    2.3933    0.2059   37.0000 
2920.2888    8.1670  109.6176    4.1770   15.4616   35.2005   74.6656    2.5076    0.1777   37.0000 
2920.4412    8.4122  116.7990    5.2864   16.9623   35.4605   69.9794    2.5705    0.1580   37.0000 
2920.5936    8.4480  122.7146    6.2436   18.8481   34.7633   69.3446    2.6713    0.1599   37.0000 
2920.7460    8.4480  134.3893    6.8788   19.6012   25.7293   69.5250    2.6624    0.1670   37.0000 
2920.8984    8.4392  134.2328    8.5342   19.8973   28.1380   69.7054    2.6495    0.1766   37.0000 
2921.0508    8.4281  132.3052    9.6635   22.5185   38.9436   69.8858    2.6309    0.2573   37.0000 
2921.2032    8.4253  125.7295   10.6208   21.9893   38.9534   70.0662    2.6199    0.2810   37.0000 
2921.3556    8.4181   96.5087   12.4113   19.6231   24.2188   70.4959    2.7149    0.2810   37.0000 
2921.5080    8.4181  103.9284   12.7406   20.1152   24.2187   71.0612    2.7149    0.2740   37.0000 
2921.6604    8.4082  103.7469   13.7827   21.2315   26.0971   72.4087    2.7127    0.2680   37.0000 
2921.8128    8.4082  103.4798   14.3236   27.9856   40.7689   74.1074    2.6245    0.2812   37.0000 
2921.9652    8.4220   99.3794   15.1158   32.4693   41.5009   77.0915    2.4314    0.2920   37.0000 
2922.1176    8.5079  100.2959   16.6525   42.2242   41.9842   78.7727    2.4003    0.3040   37.0000 
2922.2700    8.5180  149.6707   16.8600   42.0124   42.2241   76.4333    2.2834    0.3136   37.0000 
2922.4224    8.5181  156.9088   17.0426   40.9746   42.5904   69.9505    2.5074    0.3238   37.0000 
2922.5748    8.5181  157.2998   17.0425   39.2207   39.3122   68.1035    2.5339    0.3302   37.0000 
2922.7272    8.5181  157.6491   17.0270   36.2261   35.2784   66.9970    2.5438    0.3339   37.0000 
2922.8796    8.5181  171.7931   16.1443   34.2179   35.1155   69.6306    2.6049    0.3387   37.0000 
2923.0320    8.5181  171.6346   15.7218   32.6055   37.4340   71.0769    2.6049    0.3393   37.0000 
2923.1844    8.5181  171.0542   15.7217   32.1075   39.5867   71.0425    2.6083    0.3305   37.0000 
2923.3368    8.5181  170.4962   15.7216   31.8394   46.2999   70.6501    2.6099    0.3159   37.0000 
2923.4892    8.5182  169.9168   15.8420   36.1513   46.2997   70.1923    2.6099    0.3319   37.0000 
2923.6416    8.4606  159.8146   15.9495   41.2612   45.3700   69.7255    2.6099    0.3377   37.0000 
2923.7940    8.3884  156.9096   15.8352   33.6300   34.5547   69.4255    2.6053    0.3929   37.0000 
2923.9464    8.4097  157.4881   15.4479   33.8416   34.4138   68.9996    2.5964    0.3572   37.0000 
2924.0988    8.4556  158.3114   14.9970   34.3700   37.9544   68.5011    2.5904    0.3417   37.0000 
2924.2512    8.4849  158.6570   14.1907   34.3146   37.9543   68.9999    2.5847    0.2819   37.0000 
2924.4036    8.4979  153.0414   13.3793   25.6569   37.0896   70.2667    2.5816    0.2763   37.0000 
2924.5560    8.5083  119.4114   13.1980   18.3666   13.7872   71.5002    2.5804    0.2756   37.0000 
2924.7084    8.5083  119.6359   13.0718   18.3721   14.5581   71.5048    2.5781    0.2750   37.0000 
2924.8608    8.5083  152.0434   11.9705   25.7244   18.4640   72.4153    2.5711    0.2740   37.0000 
2925.0132    8.5083  152.2813   11.4766   30.5844   30.2838   74.7957    2.5650    0.2449   37.0000 
2925.1656    8.4004  152.6675    9.2098   37.2481   33.5226   76.1158    2.5584    0.2370   37.0000 
2925.3180    8.3985  152.6676    8.0968   44.4684   40.8768   75.9682    2.5195    0.2435   37.0000 
2925.4704    8.4041  131.2410    6.1751   45.3996   54.5588   74.6992    2.5225    0.2512   37.0000 
2925.6228    8.4203  131.3970    5.0865   46.0320   53.9337   74.1788    2.5272    0.3778   37.0000 
2925.7752    8.4276  131.4533    4.1892   28.9507   53.7785   74.6786    2.5335    0.3750   37.0000 
2925.9276    8.3919   88.2754    2.6201    7.0263    8.1867   79.1209    2.5382    0.3722   37.0000 
2926.0800    8.2966   79.3535    2.4698    5.0672    7.1697   80.6529    2.4627    0.3684   36.0000 
