~VERSION INFORMATION
 VERS.                 2.0:   CWLS LOG ASCII STANDARD - VERSION 2.0
 WRAP.                  NO:   SINGLE LINE PER DEPTH STEP
 CREA.                 04/06/2018 10:59:30
#CREATED USING DSPetro VERSION 5000.10.1.3 BY H191660 ON 04/06/2018 10:59:30
~WELL INFORMATION
#MNEM.UNIT       DATA                          DESCRIPTION MNEMONIC
#---------      ---------------------------   --------------------------
 STRT    .M         2084.9844                 : START DEPTH
 STOP    .M         3339.9984                 : STOP DEPTH
 STEP    .M         0.1524                    : STEP VALUE
 NULL    .      -999.0000                     : NULL VALUE
 DATE    .      04/06/2018                    : LAS file Creation Date
 WELL .      6610_7_1                    : Well Name
 COMP .      Neftex Exploration Insights : Company
 FLD  .                                  : Field
 UWI  .      YNOWL_661071                : Unique Well Identifier (UWI)
 LOC  .                                  : Location
 RWS  .      -999                        : Def_Rw
 WST  .      -999                        : Def_Rwt
 SRVC .                                  : Contractor
~CURVE INFORMATION
#MNEM              UNIT       API CODE   Curve Type Comments
#----------  --------------- ----------  ---------- -----------
 DEPTH      .M                         : Depth       
 CAL_INCH   .inch                      :             Caliper Log - A representation of the measured diameter of a borehole along its depth
 GR_API     .API                       : GammaRay    Gamma Ray (API) - Measures the intensity of natural gamma-ray radiation emitted from formations containing radioactive elements, such as K, Th and U
 RD_OHMM    .ohmm                      :             Unspecified Deep Resistivity - No accroynm or method of attainment is specified - units of ohmm
 RM_OHMM    .ohm.m                     :             Unspecified Medium Resistivity - No accroynm or method of attainment is specified
 RS_OHMM    .ohmm                      :             Unspecified Shallow Resistivity - No accroynm or method of attainment is specified
 DT_US_FT   .us/ft                     :             Interval Transit Time: Compressional Wave - Evaluates the time it takes for a compressional wave to traverse a fixed distance
 RHOB_G_CC  .g/cc                      :             Bulk Density - Measures the density of bulk material, including any void space or other materials contained in the subject volume
 NEUT_P_%   .PC                        :             Unspecified Neutron Porosity Log - No accroynm or method of attainment is specified
 LITH       .                          : LITH        Lithology Curve
~A  DEPTH  CAL_INCH   GR_API   RD_OHMM   RM_OHMM   RS_OHMM   DT_US_FT RHOB_G_C~  NEUT_P_%    LITH   
# ...
2414.1684    9.4059   98.9191    2.1099    2.5888    2.5729   95.7863    2.1310    0.4073   37.0000 
2414.3208    9.4059   99.7774    2.1875    2.5953    1.5259   93.9765    2.1316    0.4107   37.0000 
2414.4732    9.4059  111.1586    2.2400    2.7800    2.7186   93.8153    2.1762    0.4516   37.0000 
2414.6256    9.4216  105.1800    2.2870    2.8585    2.7564   93.8530    2.1790    0.4192   37.0000 
2414.7780    9.5056  103.2700    2.3263    3.0380    3.2457   94.3032    2.0425    0.3886   37.0000 
2414.9304   10.2701  100.0343    2.3813    3.0420    1.7247   95.0259    1.6253    0.4136   37.0000 
2415.0828   13.6793   95.7847    2.3650    3.0419    1.6636   95.7486    1.6043    0.4252   37.0000 
2415.2352   13.7664  100.5418    2.3999    2.9780    1.6165   96.1194    1.5942    0.4746   37.0000 
2415.3876   13.6838  100.6594    2.4298    2.8552    1.5795   93.1078    1.8979    0.4437   37.0000 
2415.5400   13.1343  100.9094    2.4088    2.8469    3.4184   87.1922    1.9122    0.4347   37.0000 
2415.6924   11.9173  101.4543    2.4080    2.9066    3.3920   83.6613    1.9349    0.4147   37.0000 
2415.8448   10.4560  101.9999    2.3955    2.9641    1.4522   87.2343    1.9557    0.4054   37.0000 
2415.9972   10.0256   94.7490    2.3831    2.9726    1.5000   89.0453    2.2044    0.3740   37.0000 
2416.1496   10.1853   93.0298    2.3603    2.9298    1.5670   90.7596    2.2297    0.3798   37.0000 
2416.3020   10.3775   92.8714    2.3539    2.8580    3.3561   92.0142    2.2689    0.3816   37.0000 
2416.4544   10.5873   89.1604    2.3462    2.8284    0.7405   92.9177    2.2570    0.3664   37.0000 
2416.6068   10.7992   98.1598    2.3468    2.7911    0.7383   94.7137    1.7963    0.3692   37.0000 
2416.7592   11.2827   98.1599    2.3539    2.5443    2.2189   95.9237    2.0790    0.3726   37.0000 
2416.9116   11.3009   98.1599    2.3539    2.5443    3.8751   93.1924    2.0761    0.3756   37.0000 
2417.0640    9.4403   80.9608    2.3539    2.6751    4.4157   91.4271    2.0489    0.3546   37.0000 
2417.2164    9.4111   76.7283    2.3880    3.0331    0.9007   89.4377    2.0349    0.3506   37.0000 
2417.3688    9.4111   76.2866    2.3880    3.0418    4.3498   88.0584    1.9895    0.3506   37.0000 
2417.5212   10.1203   91.6203    2.3880    3.0199    0.9243   85.7837    1.9914    0.4050   37.0000 
2417.6736   10.1700  104.0346    2.4029    2.6036    0.9142   87.0238    1.9994    0.4056   37.0000 
2417.8260    9.5492  104.0347    2.5188    3.1307    2.4331   93.2588    2.2144    0.3946   37.0000 
2417.9784    9.4381   98.7851    2.4623    3.1853    4.6927   92.9984    2.2300    0.3926   37.0000 
2418.1308    9.4111   98.6194    2.4300    3.1853    4.6876   92.7980    2.2478    0.4013   37.0000 
2418.2832    9.4026   98.0192    2.3978    3.1711    4.6657   92.5237    2.2622    0.4066   37.0000 
2418.4356    9.4144   97.7939    2.3811    2.8114    3.2864   92.2231    2.3227    0.3994   37.0000 
2418.5880    9.4685   97.3186    2.3839    2.6582    1.8452   91.9225    2.3358    0.3936   37.0000 
2418.7404    9.7487   96.7854    2.3934    2.6261    1.8825   94.1552    2.3403    0.3858   37.0000 
2418.8928   10.0119   96.7854    2.3811    2.6223    1.9212   93.9749    2.4555    0.3710   37.0000 
2419.0452    9.4425  105.5548    2.3811    2.6285    2.0360   91.6710    2.4004    0.3711   37.0000 
2419.1976    9.3338  105.6598    2.3335    2.6796    2.1434   90.5807    2.3827    0.3919   37.0000 
2419.3500    9.3824  105.4389    2.4226    3.1852    3.7699   89.4688    2.2863    0.3997   37.0000 
2419.5024    9.5991   99.4104    2.4507    3.1374    3.7699   92.2934    2.2968    0.4017   37.0000 
2419.6548   10.0044  104.4800    2.3944    3.0153    1.4824   92.9250    2.3309    0.3866   37.0000 
2419.8072   10.0574  109.1713    2.3696    3.0681    3.6012   92.9137    2.3473    0.3237   37.0000 
2419.9596    9.9624  109.2840    2.3220    3.2995    3.6208   85.8220    2.4582    0.3203   37.0000 
2420.1120    9.8099  100.4104    2.3598    2.9520    1.4570   85.8457    2.4510    0.3507   37.0000 
2420.2644    9.6825  100.4104    2.3674    2.7818    1.4824   85.9962    2.4323    0.3646   37.0000 
2420.4168    9.5496  100.8335    2.4086    2.8229    3.0087   86.4788    2.3388    0.3752   37.0000 
2420.5692    9.4920  103.3094    2.3372    2.8606    2.9906   93.0963    2.3298    0.3890   37.0000 
2420.7216    9.4482  103.4103    2.1837    2.8796    1.5793   94.2803    2.3210    0.4106   37.0000 
2420.8740    9.5679  103.4103    2.1713    2.8147    1.5612   95.4598    2.2154    0.4044   37.0000 
2421.0264    9.8102  103.4103    2.1783    2.7180    1.7291   96.0620    2.1527    0.3956   37.0000 
2421.1788   10.0027  110.7317    2.1839    2.6260    3.8135   96.6071    2.1029    0.4005   37.0000 
2421.3312   10.2012  110.5348    2.1402    2.5922    1.5695   96.8403    2.0701    0.4014   37.0000 
2421.4836   10.0987  106.3332    2.2155    2.5368    1.5614   96.8953    2.0741    0.4156   37.0000 
2421.6360   10.0118  100.0681    2.2283    2.6334    1.5453   96.9330    2.0781    0.3971   37.0000 
2421.7884   10.4186   97.8001    2.2347    2.6994    3.8134   96.9586    2.0821    0.3957   37.0000 
2421.9408   10.5350   94.3337    2.2347    2.7276    1.3286   96.6804    2.1567    0.3786   37.0000 
2422.0932   10.4943   83.6546    2.3146    2.7578    3.7697   95.7127    2.2446    0.3971   37.0000 
2422.2456   10.2537   83.5795    2.2579    2.9585    2.7938   78.4595    2.3601    0.3949   37.0000 
2422.3980   10.0616   90.2817    2.2412    3.1215    1.8990   78.2157    2.3548    0.4196   37.0000 
2422.5504    9.7518   93.8504    2.2412    3.1214    1.7021   78.1180    2.3305    0.3720   37.0000 
2422.7028    9.6614  102.6748    2.2428    3.1196    1.1637   78.1181    2.2382    0.3587   37.0000 
2422.8552    9.7094  102.1300    2.4085    2.6487    2.7937   91.9107    2.1663    0.3587   37.0000 
2423.0076    9.8198   98.9059    2.4085    2.6690    2.9937   95.0607    2.1120    0.3607   37.0000 
2423.1600    9.9422   98.4112    2.4016    2.7817    2.9673   96.8765    2.0606    0.4216   37.0000 
2423.3124   10.0621   97.5805    2.3853    2.8192    2.9327   99.5087    2.0816    0.4032   37.0000 
2423.4648   10.1638   90.0371    2.3296    3.0266    1.4120  100.9949    2.0909    0.3257   37.0000 
2423.6172    9.7945   89.9122    2.3006    3.1877    3.8668   99.3867    2.1079    0.3257   37.0000 
2423.7696    9.5714   89.9122    2.3912    3.5946    3.8575   94.1561    2.1551    0.3259   37.0000 
2423.9220    9.6458   95.0367    2.4380    3.5946    3.8183   93.1615    2.2246    0.3625   37.0000 
2424.0744    9.9778   95.1191    2.5513    3.1152    1.4236   92.9108    2.2356    0.3877   37.0000 
2424.2268   10.1577   95.2196    2.6233    3.0476    1.0490   93.3624    2.2433    0.4119   37.0000 
2424.3792   10.0988   95.3201    2.6180    3.0327    1.0490   98.1215    2.2588    0.4476   37.0000 
2424.5316    9.6727  104.6609    2.5513    3.0812    1.9662   93.4177    2.2311    0.4283   37.0000 
2424.6840    9.5465  104.6609    2.5387    3.1205    2.1309   93.7879    2.2118    0.4226   37.0000 
2424.8364    9.4459  104.6609    2.5103    3.0963    3.0989   94.4042    2.2436    0.4141   37.0000 
2424.9888    9.4115  100.0682    2.5234    2.9407    3.0989   95.0854    2.3153    0.3977   37.0000 
2425.1412    9.5171   95.7513    2.5732    3.1570    3.0811   95.4190    2.1716    0.4101   37.0000 
2425.2936    9.8367   97.1618    2.5957    3.1575    1.5604   93.7360    2.1226    0.4181   37.0000 
2425.4460   10.1649   97.9477    2.4237    3.1575    4.1574   92.6038    2.0423    0.4207   37.0000 
2425.5984   10.0258   96.4120    2.4293    3.1575    4.1574   91.3922    2.0456    0.4286   37.0000 
2425.7508    9.9173  101.4115    2.4293    3.1055    1.6537   90.0243    2.0534    0.4426   37.0000 
2425.9032    9.9468  101.2865    2.4433    2.9296    1.6537   88.8875    2.1647    0.4248   37.0000 
2426.0556   10.2700  101.0215    2.3808    2.8007    1.6537   94.5928    2.2725    0.4077   37.0000 
2426.2080   10.3731  100.4117    2.3945    2.7479    4.0665   96.4781    2.2674    0.4159   37.0000 
