~VERSION INFORMATION
 VERS.                 2.0:   CWLS LOG ASCII STANDARD - VERSION 2.0
 WRAP.                  NO:   SINGLE LINE PER DEPTH STEP
 CREA.                 04/06/2018 10:59:30
#CREATED USING DSPetro VERSION 5000.10.1.3 BY H191660 ON 04/06/2018 10:59:30
~WELL INFORMATION
#MNEM.UNIT       DATA                          DESCRIPTION MNEMONIC
#---------      ---------------------------   --------------------------
 STRT    .M         2084.9844                 : START DEPTH
 STOP    .M         3339.9984                 : STOP DEPTH
 STEP    .M         0.1524                    : STEP VALUE
 NULL    .      -999.0000                     : NULL VALUE
 DATE    .      04/06/2018                    : LAS file Creation Date
 WELL .      6610_7_1                    : Well Name
 COMP .      Neftex Exploration Insights : Company
 FLD  .                                  : Field
 UWI  .      YNOWL_661071                : Unique Well Identifier (UWI)
 LOC  .                                  : Location
 RWS  .      -999                        : Def_Rw
 WST  .      -999                        : Def_Rwt
 SRVC .                                  : Contractor
~CURVE INFORMATION
#MNEM              UNIT       API CODE   Curve Type Comments
#----------  --------------- ----------  ---------- -----------
 DEPTH      .M                         : Depth       
 CAL_INCH   .inch                      :             Caliper Log - A representation of the measured diameter of a borehole along its depth
 GR_API     .API                       : GammaRay    Gamma Ray (API) - Measures the intensity of natural gamma-ray radiation emitted from formations containing radioactive elements, such as K, Th and U
 RD_OHMM    .ohmm                      :             Unspecified Deep Resistivity - No accroynm or method of attainment is specified - units of ohmm
 RM_OHMM    .ohm.m                     :             Unspecified Medium Resistivity - No accroynm or method of attainment is specified
 RS_OHMM    .ohmm                      :             Unspecified Shallow Resistivity - No accroynm or method of attainment is specified
 DT_US_FT   .us/ft                     :             Interval Transit Time: Compressional Wave - Evaluates the time it takes for a compressional wave to traverse a fixed distance
 RHOB_G_CC  .g/cc                      :             Bulk Density - Measures the density of bulk material, including any void space or other materials contained in the subject volume
 NEUT_P_%   .PC                        :             Unspecified Neutron Porosity Log - No accroynm or method of attainment is specified
 LITH       .                          : LITH        Lithology Curve
~A  DEPTH  CAL_INCH   GR_API   RD_OHMM   RM_OHMM   RS_OHMM   DT_US_FT RHOB_G_C~  NEUT_P_%    LITH   
# ...
2170.3284    9.4379   90.4384    3.6046    4.3096    5.1671   85.6771    2.4884    0.2571   37.0000 
2170.4808    9.4379   91.7072    3.6501    4.2687    5.8235   85.2036    2.4804    0.2571   37.0000 
2170.6332    9.4580   91.1324    3.7146    4.2358    4.1661   85.2296    2.4850    0.2719   37.0000 
2170.7856    9.4678   89.4389    3.7729    4.4870    3.6406   85.5302    2.5266    0.3262   37.0000 
2170.9380    9.4678   85.8425    3.8303    4.2480    4.0044   85.9424    2.4762    0.2731   37.0000 
2171.0904    9.4598   84.5664    3.8503    4.1873    6.0338   86.1456    2.4702    0.3047   37.0000 
2171.2428    9.4344   85.9406    3.9080    4.2035    6.2361   86.0411    2.4482    0.3212   37.0000 
2171.3952    9.4037   92.1224    3.9356    4.5233    6.4360   85.4109    2.5216    0.3055   37.0000 
2171.5476    9.3676   89.7102    3.8838    4.9067    6.7239   84.2586    2.5216    0.2739   37.0000 
2171.7000    9.3316   87.5646    3.8760    4.9631    5.2802   84.2063    2.5190    0.2711   37.0000 
2171.8524    9.2967   87.6895    3.7857    4.9631    7.6764   85.4270    2.5166    0.2711   37.0000 
2172.0048    9.3002   94.4367    3.8097    4.3131    5.9668   85.9354    2.5133    0.2808   37.0000 
2172.1572    9.3448   95.8101    3.8461    4.2846    4.7403   86.0806    2.5066    0.2926   37.0000 
2172.3096    9.4086   98.9528    3.8517    4.4247    5.7080   85.9923    2.5173    0.2971   37.0000 
2172.4620    9.4067   99.1787    3.7737    4.5522    5.9751   85.3151    2.5316    0.2930   37.0000 
2172.6144    9.3490   99.5580    3.7335    4.5522    6.0706   83.8562    2.5216    0.2824   37.0000 
2172.7668    9.2894   93.9360    3.5796    4.3588    6.2336   85.0219    2.5136    0.2721   37.0000 
2172.9192    9.2277   88.5993    3.5272    4.2546    6.4380   85.4730    2.5089    0.2891   37.0000 
2173.0716    9.2178   89.0870    3.4333    4.0692    6.5163   85.9239    2.4976    0.2898   37.0000 
2173.2240    9.2560   89.7778    3.3290    3.9492    6.4006   86.2574    2.4925    0.2851   37.0000 
2173.3764    9.3884   93.6344    3.1961    3.7316    5.5654   86.8357    2.4866    0.2851   37.0000 
2173.5288    9.4905   96.2266    3.0370    3.7102    5.5936   87.6114    2.4802    0.2858   37.0000 
2173.6812    9.4976  101.8066    2.9797    3.5628    5.4202   88.3039    2.4639    0.2896   37.0000 
2173.8336    9.5176  100.9132    2.9643    3.3314    3.1395   89.1540    2.4452    0.2981   37.0000 
2173.9860    9.5176   98.4317    2.9465    3.1483    3.3690   89.8792    2.4220    0.3092   37.0000 
2174.1384    9.5176   95.4143    2.9465    3.0065    3.8133   90.8047    2.4250    0.3101   37.0000 
2174.2908    9.5176   91.1871    2.9380    3.0590    5.5127   91.0471    2.4265    0.3054   37.0000 
2174.4432    9.5176   91.3576    2.9380    3.3255    5.6260   89.6252    2.4316    0.3001   37.0000 
2174.5956    9.5176   91.6867    2.9614    3.6299    5.6260   88.6895    2.3882    0.2908   37.0000 
2174.7480    9.5176   89.0146    3.0096    3.8187    5.4868   87.9525    2.3866    0.2880   37.0000 
2174.9004    9.5176   87.0641    3.0498    3.8187    5.8288   87.8597    2.4184    0.2501   37.0000 
2175.0528    9.5175   91.3118    3.0767    3.8077    5.9236   87.8972    2.4233    0.2641   37.0000 
2175.2052    9.5175   91.3118    3.0767    3.7726    5.8746   87.9346    2.4299    0.2681   37.0000 
2175.3576    9.5175   89.8125    3.0522    3.4791    5.4487   88.0303    2.4208    0.2607   37.0000 
2175.5100    9.5291   86.6148    3.0087    3.2256    4.6047   88.4232    2.4128    0.2591   37.0000 
2175.6624    9.5351   85.2490    2.9382    3.0775    3.0504   89.6938    2.4066    0.2601   37.0000 
2175.8148    9.5375   81.4355    2.8911    3.0276    3.1086   90.7558    2.4066    0.2631   37.0000 
2175.9672    9.5375   85.1678    2.8365    3.0153    3.2299   90.3389    2.4101    0.2797   37.0000 
2176.1196    9.5392   86.8986    2.7991    3.2592    4.1456   89.7378    2.4199    0.2874   37.0000 
2176.2720    9.5437   88.3787    2.7554    3.2686    4.1358   89.0192    2.4511    0.2913   37.0000 
2176.4244    9.5474   90.7596    2.6868    3.1214    4.0593   89.4929    2.4381    0.2951   37.0000 
2176.5768    9.5474   90.1537    2.6640    3.0013    3.0526   91.0418    2.4318    0.2821   37.0000 
2176.7292    9.5474   89.8826    2.6448    2.8383    2.9532   92.0937    2.4171    0.2821   37.0000 
2176.8816    9.5474   89.5623    2.6543    2.7362    2.4540   92.9768    2.3999    0.2947   37.0000 
2177.0340    9.5474  100.6877    2.7141    2.6339    2.3843   94.3558    2.3933    0.3049   37.0000 
2177.1864    9.5474  104.5545    2.7430    2.5587    2.9851   94.6045    2.3866    0.3111   37.0000 
2177.3388    9.4736  104.8044    2.7657    2.7657    2.3981   89.8344    2.3866    0.3321   37.0000 
2177.4912    9.3367   93.1017    2.7657    3.7126    5.4351   88.8718    2.3895    0.3271   37.0000 
2177.6436    9.2531   86.9081    2.7657    3.7730    5.4038   88.0832    2.3983    0.2831   37.0000 
2177.7960    9.2375   86.3137    2.8139    3.7970    5.3357   87.3345    2.4062    0.2864   37.0000 
2177.9484    9.2375   85.9582    3.0422    3.6364    4.6193   87.5300    2.4155    0.2891   37.0000 
2178.1008    9.2375   80.5655    3.0828    3.4963    4.9564   88.4452    2.4199    0.2891   37.0000 
2178.2532    9.2375   76.7720    3.0946    3.4927    5.0377   89.4972    2.4037    0.2874   37.0000 
2178.4056    9.2375   80.0807    3.1036    3.5504    5.3185   90.0925    2.3957    0.2801   37.0000 
2178.5580    9.2533   83.4734    3.0946    3.6335    5.5339   88.7954    2.3933    0.2924   37.0000 
2178.7104    9.2813   84.8363    3.0154    3.7320    5.7645   87.8810    2.4053    0.2890   37.0000 
2178.8628    9.3108   89.0620    3.0068    3.6961    5.9945   88.2356    2.4183    0.2812   37.0000 
2179.0152    9.3446   84.2384    3.0068    3.2220    2.8507   88.8723    2.4247    0.2631   37.0000 
2179.1676    9.3674   82.1370    3.0579    3.2678    3.2009   89.6982    2.4089    0.2706   37.0000 
2179.3200    9.3674   81.0659    3.0993    3.2688    3.4874   90.1839    2.4000    0.2741   37.0000 
2179.4724    9.2684   79.1918    3.1269    3.6285    3.8831   89.0147    2.3974    0.2741   37.0000 
2179.6248    9.2155   82.7420    3.1709    3.7213    5.4363   86.6269    2.4118    0.2750   37.0000 
2179.7772    9.2008   84.3128    3.2066    4.0137    5.8128   85.9739    2.4183    0.2848   37.0000 
2179.9296    9.2018   85.3173    3.2400    4.0908    6.3361   85.8958    2.4322    0.3076   37.0000 
2180.0820    9.2087   86.4710    3.2644    4.1518    6.4608   86.1535    2.4458    0.3124   37.0000 
2180.2344    9.2304   87.7077    3.4341    4.1758    5.5697   86.3856    2.4517    0.3059   37.0000 
2180.3868    9.2496   88.9367    3.5742    4.1438    5.3115   86.2273    2.4415    0.2752   37.0000 
2180.5392    9.2673   76.8857    3.5845    4.1128    5.9890   85.7659    2.4235    0.2643   37.0000 
2180.6916    9.2673   76.4107    3.5845    4.1043    6.1569   85.2769    2.4139    0.2461   37.0000 
2180.8440    9.2414   75.6862    3.5925    4.1043    8.0423   82.3783    2.4141    0.2385   37.0000 
2180.9964    9.2007   77.8978    3.8126    5.0504    3.1745   82.2034    2.4272    0.2235   37.0000 
2181.1488    9.1725   81.1198    3.9629    5.0074    3.1261   82.0038    2.4684    0.2256   37.0000 
2181.3012    9.1364   82.1314    4.1198    4.9175    5.9158   81.8111    2.4699    0.2270   37.0000 
2181.4536    9.1003   83.0643    4.2365    4.8798    6.3607   81.6907    2.4734    0.2500   37.0000 
2181.6060    9.0774   82.0112    4.3291    4.8648    7.3098   80.8620    2.4759    0.2550   37.0000 
2181.7584    9.0774   80.4570    4.5410    5.2868    7.6457   78.6898    2.4990    0.2146   37.0000 
2181.9108    9.0773   78.8292    4.8291    6.5001   10.9146   78.0019    2.5561    0.2110   37.0000 
2182.0632    9.0762   75.6928    5.3733    6.5642   10.9146   75.8323    2.5902    0.1740   22.0000 
2182.2156    9.0473   76.1537    5.4567    6.5983   11.1691   75.4534    2.5998    0.1740   22.0000 
2182.3680    9.0079   76.0531    5.7735    6.7495   11.6532   74.0314    2.6173    0.1755   22.0000 
