~VERSION INFORMATION
 VERS.                 2.0:   CWLS LOG ASCII STANDARD - VERSION 2.0
 WRAP.                  NO:   SINGLE LINE PER DEPTH STEP
 CREA.                 04/06/2018 10:59:30
#CREATED USING DSPetro VERSION 5000.10.1.3 BY H191660 ON 04/06/2018 10:59:30
~WELL INFORMATION
#MNEM.UNIT       DATA                          DESCRIPTION MNEMONIC
#---------      ---------------------------   --------------------------
 STRT    .M         2084.9844                 : START DEPTH
 STOP    .M         3339.9984                 : STOP DEPTH
 STEP    .M         0.1524                    : STEP VALUE
 NULL    .      -999.0000                     : NULL VALUE
 DATE    .      04/06/2018                    : LAS file Creation Date
 WELL .      6610_7_1                    : Well Name
 COMP .      Neftex Exploration Insights : Company
 FLD  .                                  : Field
 UWI  .      YNOWL_661071                : Unique Well Identifier (UWI)
 LOC  .                                  : Location
 RWS  .      -999                        : Def_Rw
 WST  .      -999                        : Def_Rwt
 SRVC .                                  : Contractor
~CURVE INFORMATION
#MNEM              UNIT       API CODE   Curve Type Comments
#----------  --------------- ----------  ---------- -----------
 DEPTH      .M                         : Depth       
 CAL_INCH   .inch                      :             Caliper Log - A representation of the measured diameter of a borehole along its depth
 GR_API     .API                       : GammaRay    Gamma Ray (API) - Measures the intensity of natural gamma-ray radiation emitted from formations containing radioactive elements, such as K, Th and U
 RD_OHMM    .ohmm                      :             Unspecified Deep Resistivity - No accroynm or method of attainment is specified - units of ohmm
 RM_OHMM    .ohm.m                     :             Unspecified Medium Resistivity - No accroynm or method of attainment is specified
 RS_OHMM    .ohmm                      :             Unspecified Shallow Resistivity - No accroynm or method of attainment is specified
 DT_US_FT   .us/ft                     :             Interval Transit Time: Compressional Wave - Evaluates the time it takes for a compressional wave to traverse a fixed distance
 RHOB_G_CC  .g/cc                      :             Bulk Density - Measures the density of bulk material, including any void space or other materials contained in the subject volume
 NEUT_P_%   .PC                        :             Unspecified Neutron Porosity Log - No accroynm or method of attainment is specified
 LITH       .                          : LITH        Lithology Curve
~A  DEPTH  CAL_INCH   GR_API   RD_OHMM   RM_OHMM   RS_OHMM   DT_US_FT RHOB_G_C~  NEUT_P_%    LITH   
# ...
2828.6964    8.6294   62.8547    2.6819    4.4988   13.6914   74.7035    2.4378    0.1715   36.0000 
2828.8488    8.6239   62.3806    2.5640    5.8538   13.6915   74.5718    2.4198    0.1661   36.0000 
2829.0012    8.5893   78.5637    2.3928    5.8538   13.6915   74.8778    2.4660    0.1724   36.0000 
2829.1536    8.4967   65.3021    2.3197    5.8538    9.7519   75.5900    2.4660    0.1820   36.0000 
2829.3060    8.4052   65.0575    2.1638    2.4813    9.1164   77.1193    2.3659    0.2194   37.0000 
2829.4584    8.3728   54.7150    1.9968    2.4884    3.7675   79.1019    2.3563    0.1967   36.0000 
2829.6108    8.3599   51.1841    1.9202    2.5146    3.6711   79.1019    2.3466    0.1664   36.0000 
2829.7632    8.3499   50.3451    1.7704    2.9324    5.7773   78.8647    2.3377    0.1784   36.0000 
2829.9156    8.3499   62.3158    1.5878    2.7695    5.0543   78.3959    2.3443    0.1937   36.0000 
2830.0680    8.3515   62.1663    1.5713    2.7061    4.8462   77.5636    2.3580    0.2035   36.0000 
2830.2204    8.3602   61.9835    1.5520    2.6278    4.8127   77.2389    2.3641    0.2044   37.0000 
2830.3728    8.4160   61.0844    1.5338    2.4467    4.8237   77.6181    2.3721    0.2028   37.0000 
2830.5252    8.4924   65.2819    1.4939    2.3492    4.8629   80.1982    2.3602    0.2005   36.0000 
2830.6776    8.5099   66.3805    1.4709    2.3302    3.7352   80.1150    2.3581    0.1972   36.0000 
2830.8300    8.5027   69.1849    1.4551    2.1923    3.7435   80.0314    2.3678    0.1904   36.0000 
2830.9824    8.4796   71.4489    1.4223    2.2050    4.8685   78.8311    2.3726    0.1874   36.0000 
2831.1348    8.4172   71.4491    1.3859    2.5319    4.8685   78.1315    2.3788    0.1854   36.0000 
2831.2872    8.3130   61.5360    1.3586    2.5465    4.2529   77.9054    2.3793    0.1859   36.0000 
2831.4396    8.2220   49.5984    1.3344    2.0636    4.0162   78.4469    2.3755    0.1897   36.0000 
2831.5920    8.1933   49.5986    1.3023    2.0720    3.7430   79.9985    2.3691    0.1945   36.0000 
2831.7444    8.1905   49.5988    1.2704    2.1923    6.3640   80.1978    2.3595    0.1984   36.0000 
2831.8968    8.1906   52.5762    1.2383    2.1987    6.3138   80.1978    2.3499    0.2061   36.0000 
2832.0492    8.1968   60.5871    1.2359    2.1987    5.7808   78.9889    2.3386    0.2279   37.0000 
2832.2016    8.2098   55.0606    1.2359    2.0898    5.1114   78.9469    2.3714    0.2384   37.0000 
2832.3540    8.2328   50.3489    1.2359    1.9821    3.3458   79.5307    2.3760    0.2194   36.0000 
2832.5064    8.2508   49.8793    1.2359    2.1273    3.4078   79.3639    2.3648    0.2176   36.0000 
2832.6588    8.2628   49.8499    1.2359    2.2370    3.6322   78.1033    2.3465    0.2061   36.0000 
2832.8112    8.2748   56.2731    1.2304    2.2435    4.9493   77.8215    2.3596    0.1807   36.0000 
2832.9636    8.2868   61.9384    1.3444    2.2610    4.7567   77.8643    2.3959    0.1814   37.0000 
2833.1160    8.2988   61.5907    1.4451    2.3254    4.5647   78.1647    2.4044    0.1814   37.0000 
2833.2684    8.3176   61.2666    1.4395    2.4535    4.6990   79.0678    2.3726    0.1814   36.0000 
2833.4208    8.3429   61.0154    1.8595    2.8946    4.9777   79.8638    2.3726    0.1655   36.0000 
2833.5732    8.3569   68.4820    1.8886    3.2101    5.3344   79.2916    2.3975    0.1739   36.0000 
2833.7256    8.3799   74.6586    1.9138    3.5434   10.8431   78.2248    2.4190    0.1897   37.0000 
2833.8780    8.3908   74.3211    2.2555    4.6045   10.6370   74.6531    2.4675    0.2085   37.0000 
2834.0304    8.3960   69.4302    2.6328    4.6846    8.7659   74.7670    2.4660    0.2124   37.0000 
2834.1828    8.4109   69.5800    2.8412    4.7169    7.9224   75.0211    2.4614    0.2191   37.0000 
2834.3352    8.4254   69.7051    3.2409    4.6495    8.9950   75.3963    2.4551    0.2254   37.0000 
2834.4876    8.6173   59.9088    3.9229    7.5648   18.2294   68.5854    2.4492    0.2019   36.0000 
2834.6400    8.6728   56.7619    3.9753   11.7832   20.9711   67.4773    2.5708    0.1573   36.0000 
2834.7924    8.6669   55.5580    4.0259   11.8218   22.2927   66.8160    2.5758    0.1476   36.0000 
2834.9448    8.5865   53.0293    4.0704   11.8195   28.9536   66.8993    2.5084    0.1448   36.0000 
2835.0972    8.4742   59.2511    4.3893    6.4831   17.7917   67.9174    2.5024    0.1445   37.0000 
2835.2496    8.3939   62.2832    4.3893    6.1716    9.4917   73.6272    2.4870    0.1481   37.0000 
2835.4020    8.4950   64.1977    4.3812    6.0652    9.2281   75.9256    2.4807    0.1915   37.0000 
2835.5544    8.6209   68.9208    4.2893    6.1361    9.2016   76.2848    2.4743    0.2083   37.0000 
2835.7068    8.6163   72.1574    4.2514    6.2553    9.8358   76.3198    2.4614    0.2095   37.0000 
2835.8592    8.5882   78.3223    4.2893    7.1737   10.3926   76.0792    2.4484    0.2115   37.0000 
2836.0116    8.5434   78.3225    4.7055    8.3722   11.7372   75.6061    2.4725    0.2125   37.0000 
2836.1640    8.5312   75.5758    5.1381    8.5378   13.3774   75.2002    2.4996    0.2054   37.0000 
2836.3164    8.5818   78.5726    5.2174    8.9364   13.4193   74.7787    2.5089    0.2005   37.0000 
2836.4688    8.7579   76.9496    5.9552    9.0963   11.9466   74.2619    2.5258    0.2105   37.0000 
2836.6212    8.7910   76.6949    6.0440    9.0963   11.6671   73.7842    2.5258    0.2115   37.0000 
2836.7736    8.7816   75.4517    6.1761    9.0441   11.5861   73.4014    2.5197    0.2072   37.0000 
2836.9260    8.6985   75.4525    6.4336    9.2773   14.8382   73.4906    2.5087    0.1955   37.0000 
2837.0784    8.6545   76.5758    6.5008    9.6358   15.4090   73.8592    2.5008    0.1905   37.0000 
2837.2308    8.6359   76.5760    6.5312    9.6636   13.5122   74.3476    2.5020    0.1905   37.0000 
2837.3832    8.6240   72.3310    6.5694    9.6455   12.6113   74.5683    2.5050    0.1929   37.0000 
2837.5356    8.6214   73.4550    6.6679    9.4435   11.4672   74.3320    2.5225    0.1985   37.0000 
2837.6880    8.6214   72.0817    6.7569    9.3395   11.4814   73.7216    2.5215    0.1985   37.0000 
2837.8404    8.6215   71.8322    6.7614    9.4015   14.5792   73.3381    2.5193    0.1985   37.0000 
2837.9928    8.6215   71.0833    6.7420    9.7195   16.6553   72.9692    2.5358    0.1985   37.0000 
2838.1452    8.6843   74.6296    6.6648    9.8039   16.4172   72.8172    2.5358    0.2075   37.0000 
2838.2976    8.7377   74.1558    6.5662    9.8039   14.4676   73.5048    2.5291    0.2105   37.0000 
2838.4500    8.7685   73.7069    6.4985    9.3932   12.5368   74.9014    2.5162    0.2075   37.0000 
2838.6024    8.7865   73.4819    6.3762    9.2551   11.9261   74.8027    2.5207    0.2065   37.0000 
2838.7548    8.8015   72.9338    6.1662    9.0828   13.2714   74.6157    2.5282    0.2055   37.0000 
2838.9072    8.7647   76.2035    5.9396    9.0014   13.5654   74.4233    2.5341    0.2055   37.0000 
2839.0596    8.5377   73.1351    5.4124    8.2824   12.9255   74.2021    2.5374    0.2075   37.0000 
2839.2120    8.4872   71.9679    5.3167    7.9275   12.0018   74.0674    2.5122    0.2115   37.0000 
2839.3644    8.4820   69.5868    5.2494    6.9591   11.6176   74.0673    2.5092    0.2153   37.0000 
2839.5168    8.4820   70.8053    5.2036    7.0602    9.5521   74.1506    2.5041    0.2175   37.0000 
2839.6692    8.4820   73.3055    4.9826    7.1752    9.4718   74.1506    2.5041    0.2185   37.0000 
2839.8216    8.4821   73.5054    4.8068    7.4787    9.8245   74.1137    2.5058    0.1805   37.0000 
2839.9740    8.5141   71.2106    4.8196    7.4787   11.3553   73.8806    2.4858    0.1816   37.0000 
2840.1264    8.3373   75.2062    4.9161    7.4788   11.3279   73.5054    2.4858    0.1864   37.0000 
2840.2788    8.5601   75.2064    4.9817    7.2039   10.5871   73.1301    2.4858    0.1955   37.0000 
2840.4312    8.6370   71.7874    5.0259    7.0072   10.2163   72.8996    2.4858    0.2010   37.0000 
2840.5836    8.5242   70.3830    4.9951    7.0443   10.0529   72.9438    2.4824    0.1988   37.0000 
2840.7360    8.4824   68.5483    4.8729    7.2196   10.1727   73.0439    2.4843    0.1825   37.0000 
