~VERSION INFORMATION
 VERS.                 2.0:   CWLS LOG ASCII STANDARD - VERSION 2.0
 WRAP.                  NO:   SINGLE LINE PER DEPTH STEP
 CREA.                 04/06/2018 10:59:30
#CREATED USING DSPetro VERSION 5000.10.1.3 BY H191660 ON 04/06/2018 10:59:30
~WELL INFORMATION
#MNEM.UNIT       DATA                          DESCRIPTION MNEMONIC
#---------      ---------------------------   --------------------------
 STRT    .M         2084.9844                 : START DEPTH
 STOP    .M         3339.9984                 : STOP DEPTH
 STEP    .M         0.1524                    : STEP VALUE
 NULL    .      -999.0000                     : NULL VALUE
 DATE    .      04/06/2018                    : LAS file Creation Date
 WELL .      6610_7_1                    : Well Name
 COMP .      Neftex Exploration Insights : Company
 FLD  .                                  : Field
 UWI  .      YNOWL_661071                : Unique Well Identifier (UWI)
 LOC  .                                  : Location
 RWS  .      -999                        : Def_Rw
 WST  .      -999                        : Def_Rwt
 SRVC .                                  : Contractor
~CURVE INFORMATION
#MNEM              UNIT       API CODE   Curve Type Comments
#----------  --------------- ----------  ---------- -----------
 DEPTH      .M                         : Depth       
 CAL_INCH   .inch                      :             Caliper Log - A representation of the measured diameter of a borehole along its depth
 GR_API     .API                       : GammaRay    Gamma Ray (API) - Measures the intensity of natural gamma-ray radiation emitted from formations containing radioactive elements, such as K, Th and U
 RD_OHMM    .ohmm                      :             Unspecified Deep Resistivity - No accroynm or method of attainment is specified - units of ohmm
 RM_OHMM    .ohm.m                     :             Unspecified Medium Resistivity - No accroynm or method of attainment is specified
 RS_OHMM    .ohmm                      :             Unspecified Shallow Resistivity - No accroynm or method of attainment is specified
 DT_US_FT   .us/ft                     :             Interval Transit Time: Compressional Wave - Evaluates the time it takes for a compressional wave to traverse a fixed distance
 RHOB_G_CC  .g/cc                      :             Bulk Density - Measures the density of bulk material, including any void space or other materials contained in the subject volume
 NEUT_P_%   .PC                        :             Unspecified Neutron Porosity Log - No accroynm or method of attainment is specified
 LITH       .                          : LITH        Lithology Curve
~A  DEPTH  CAL_INCH   GR_API   RD_OHMM   RM_OHMM   RS_OHMM   DT_US_FT RHOB_G_C~  NEUT_P_%    LITH   
# ...
3328.5684    8.1948   67.1069    1.1654    5.2840 -999.0000   67.9915    2.6206    0.3188   11.0000 
3328.7208    8.4359   67.1069    1.1655    5.2841 -999.0000   67.9908    2.6269    0.3222   11.0000 
3328.8732    8.3683   67.1069    1.1655    5.2842 -999.0000   67.9901    2.6282    0.3190   11.0000 
3329.0256    8.2815   67.1588    1.1655    5.2843 -999.0000   67.9895    2.6478    0.3152   11.0000 
3329.1780    8.2392   67.2149    1.1655    5.2692 -999.0000   67.9888    2.5909    0.3082   11.0000 
3329.3304    8.2263   67.2317    1.1656    5.2693 -999.0000   67.9881    2.5745    0.3188   11.0000 
3329.4828    8.2865   67.2317    1.1656    5.2694 -999.0000   67.9874    2.5762    0.3276   11.0000 
3329.6352    8.4134   67.2851    1.1656    5.2695 -999.0000   67.9867    2.5765    0.3281   11.0000 
3329.7876    8.4596   67.3565    1.1657    5.2696 -999.0000   67.9860    2.5778    0.3213   11.0000 
3329.9400    8.4659   67.3565    1.1657    5.2697 -999.0000   67.9854    2.5795    0.3115   11.0000 
3330.0924    8.4260   67.3565    1.1657    5.2698 -999.0000   67.9847    2.5645    0.3118   11.0000 
3330.2448    8.2141 -999.0000    1.1657    5.2699 -999.0000   67.9840    2.5778    0.3212   -1.0000 
3330.3972    8.1853 -999.0000    1.1658    5.2700 -999.0000   67.9833    2.5811    0.3244   -1.0000 
3330.5496    8.1724 -999.0000    1.1658    5.2915 -999.0000   67.9826    2.5811    0.3262   -1.0000 
3330.7020    8.1664 -999.0000    1.1616    5.3006 -999.0000   67.9819    2.5799    0.3152   -1.0000 
3330.8544    8.1604 -999.0000    1.1627    5.2856 -999.0000   67.9871    2.5761    0.3152   -1.0000 
3331.0068    8.1552 -999.0000    1.1630    5.2703 -999.0000   68.0461    2.5845    0.3076   -1.0000 
3331.1592    8.1516 -999.0000    1.1571    5.2704 -999.0000   68.0632    2.5897    0.3114   -1.0000 
3331.3116    8.1480 -999.0000    1.1526    5.2705 -999.0000   68.0625    2.5943    0.3132   -1.0000 
3331.4640    8.1464 -999.0000    1.1526    5.2706 -999.0000   68.0619    2.5944    0.2386   -1.0000 
3331.6164    8.1464 -999.0000    1.1526    5.2707 -999.0000   68.0161    2.5936    0.2383   -1.0000 
3331.7688    8.1464 -999.0000    1.1527    5.2708 -999.0000   67.9771    2.5906    0.2383   -1.0000 
3331.9212    8.1464 -999.0000    1.1527    5.2709 -999.0000   67.9765    2.5894    0.2383   -1.0000 
3332.0736    8.1464 -999.0000    1.1527    5.2710 -999.0000   67.9683    2.5877    0.2383   -1.0000 
3332.2260    8.1464 -999.0000    1.1528    5.2710 -999.0000   67.9405    2.5861    0.2383   -1.0000 
3332.3784    8.1464 -999.0000    1.1528    5.2711 -999.0000   67.9127    2.5861    0.2383   -1.0000 
3332.5308    8.1464 -999.0000    1.1528    5.2712 -999.0000   67.8703    2.5856    0.2383   -1.0000 
3332.6832    8.1464 -999.0000    1.1528    5.2713 -999.0000   67.7701    2.5793    0.2383   -1.0000 
3332.8356    8.1464 -999.0000    1.1529    5.2714 -999.0000 -999.0000    2.5760    0.2383   -1.0000 
3332.9880    8.1512 -999.0000    1.1529    5.2715 -999.0000 -999.0000    2.5938    0.2393   -1.0000 
3333.1404    8.2653 -999.0000    1.1529    5.2716 -999.0000 -999.0000    2.5994    0.2379   -1.0000 
3333.2928    8.3058 -999.0000    1.1530    5.2717 -999.0000 -999.0000    2.5993    0.2343   -1.0000 
3333.4452    8.2968 -999.0000    1.1530    5.2718 -999.0000 -999.0000    2.5942    0.2343   -1.0000 
3333.5976    8.2962 -999.0000    1.1530    5.2719 -999.0000 -999.0000    2.5865    0.2343   -1.0000 
3333.7500    8.2962 -999.0000    1.1459    5.2720 -999.0000 -999.0000    2.5739    0.2343   -1.0000 
3333.9024    8.2962 -999.0000    1.1473    5.2721 -999.0000 -999.0000    2.5653    0.2343   -1.0000 
3334.0548    8.2962 -999.0000    1.1388    5.2721 -999.0000 -999.0000    2.5660    0.2343   -1.0000 
3334.2072    8.2962 -999.0000    1.1304    5.2722 -999.0000 -999.0000    2.5677    0.2343   -1.0000 
3334.3596    8.2962 -999.0000    1.0762    5.2694 -999.0000 -999.0000    2.5693    0.2343   -1.0000 
3334.5120    8.2962 -999.0000    1.0487    5.2423 -999.0000 -999.0000    2.5737    0.2343   -1.0000 
3334.6644    8.2962 -999.0000    1.0487    5.1361 -999.0000 -999.0000    2.5743    0.2347   -1.0000 
3334.8168    8.2962 -999.0000    1.0487    5.1083 -999.0000 -999.0000    2.5743    0.2363   -1.0000 
3334.9692    8.2310 -999.0000    1.0478    5.1083 -999.0000 -999.0000    2.5693    0.2383   -1.0000 
3335.1216    8.1637 -999.0000    1.0469    5.1084 -999.0000 -999.0000    2.5646    0.2403   -1.0000 
3335.2740    8.1564 -999.0000    1.0460    5.1085 -999.0000 -999.0000    2.5590    0.2413   -1.0000 
3335.4264    8.1564 -999.0000    1.0458    5.1086 -999.0000 -999.0000    2.5559    0.2414   -1.0000 
3335.5788    8.1564 -999.0000    1.0458    5.1087 -999.0000 -999.0000    2.5576    0.2414   -1.0000 
3335.7312    8.1564 -999.0000    1.0459    5.1088 -999.0000 -999.0000    2.5576    0.2414   -1.0000 
3335.8836    8.1564 -999.0000    1.0459    5.0991 -999.0000 -999.0000    2.5459    0.2414   -1.0000 
3336.0360    8.1564 -999.0000    1.0459    5.0835 -999.0000 -999.0000    2.5452    0.2414   -1.0000 
3336.1884    8.1564 -999.0000    1.0459    5.0678 -999.0000 -999.0000    2.5526    0.2414   -1.0000 
3336.3408    8.1564 -999.0000 -999.0000 -999.0000 -999.0000 -999.0000    2.5578    0.2404   -1.0000 
3336.4932    8.1564 -999.0000 -999.0000 -999.0000 -999.0000 -999.0000    2.5609    0.2404   -1.0000 
3336.6456    8.1664 -999.0000 -999.0000 -999.0000 -999.0000 -999.0000    2.5513    0.2396   -1.0000 
3336.7980    8.1664 -999.0000 -999.0000 -999.0000 -999.0000 -999.0000    2.5476    0.2394   -1.0000 
3336.9504    8.1664 -999.0000 -999.0000 -999.0000 -999.0000 -999.0000    2.5564    0.2394   -1.0000 
3337.1028    8.1664 -999.0000 -999.0000 -999.0000 -999.0000 -999.0000    2.5486    0.2394   -1.0000 
3337.2552    8.1664 -999.0000 -999.0000 -999.0000 -999.0000 -999.0000    2.5278    0.2394   -1.0000 
3337.4076    8.1345 -999.0000 -999.0000 -999.0000 -999.0000 -999.0000    1.6803    0.2394   -1.0000 
3337.5600    8.0898 -999.0000 -999.0000 -999.0000 -999.0000 -999.0000    2.9464    0.2409   -1.0000 
3337.7124    4.0658 -999.0000 -999.0000 -999.0000 -999.0000 -999.0000    2.9489    0.2817   -1.0000 
3337.8648    3.4942 -999.0000 -999.0000 -999.0000 -999.0000 -999.0000    2.9489    0.2834   -1.0000 
3338.0172    3.4851 -999.0000 -999.0000 -999.0000 -999.0000 -999.0000    2.9455    0.2834   -1.0000 
3338.1696    3.4842 -999.0000 -999.0000 -999.0000 -999.0000 -999.0000 -999.0000    0.2834   -1.0000 
3338.3220    3.4842 -999.0000 -999.0000 -999.0000 -999.0000 -999.0000 -999.0000    0.2824   -1.0000 
3338.4744    3.4842 -999.0000 -999.0000 -999.0000 -999.0000 -999.0000 -999.0000    0.2814   -1.0000 
3338.6268    3.4842 -999.0000 -999.0000 -999.0000 -999.0000 -999.0000 -999.0000    0.2804   -1.0000 
3338.7792    3.4842 -999.0000 -999.0000 -999.0000 -999.0000 -999.0000 -999.0000    0.2804   -1.0000 
3338.9316    3.4842 -999.0000 -999.0000 -999.0000 -999.0000 -999.0000 -999.0000 -999.0000   -1.0000 
3339.0840    3.4842 -999.0000 -999.0000 -999.0000 -999.0000 -999.0000 -999.0000 -999.0000   -1.0000 
3339.2364 -999.0000 -999.0000 -999.0000 -999.0000 -999.0000 -999.0000 -999.0000 -999.0000   -1.0000 
3339.3888 -999.0000 -999.0000 -999.0000 -999.0000 -999.0000 -999.0000 -999.0000 -999.0000   -1.0000 
3339.5412 -999.0000 -999.0000 -999.0000 -999.0000 -999.0000 -999.0000 -999.0000 -999.0000   -1.0000 
3339.6936 -999.0000 -999.0000 -999.0000 -999.0000 -999.0000 -999.0000 -999.0000 -999.0000   -1.0000 
3339.8460 -999.0000 -999.0000 -999.0000 -999.0000 -999.0000 -999.0000 -999.0000 -999.0000   -1.0000 
3339.9984 -999.0000 -999.0000 -999.0000 -999.0000 -999.0000 -999.0000 -999.0000 -999.0000   -1.0000 
