~VERSION INFORMATION
 VERS.                 2.0:   CWLS LOG ASCII STANDARD - VERSION 2.0
 WRAP.                  NO:   SINGLE LINE PER DEPTH STEP
 CREA.                 04/06/2018 10:59:30
#CREATED USING DSPetro VERSION 5000.10.1.3 BY H191660 ON 04/06/2018 10:59:30
~WELL INFORMATION
#MNEM.UNIT       DATA                          DESCRIPTION MNEMONIC
#---------      ---------------------------   --------------------------
 STRT    .M         2084.9844                 : START DEPTH
 STOP    .M         3339.9984                 : STOP DEPTH
 STEP    .M         0.1524                    : STEP VALUE
 NULL    .      -999.0000                     : NULL VALUE
 DATE    .      04/06/2018                    : LAS file Creation Date
 WELL .      6610_7_1                    : Well Name
 COMP .      Neftex Exploration Insights : Company
 FLD  .                                  : Field
 UWI  .      YNOWL_661071                : Unique Well Identifier (UWI)
 LOC  .                                  : Location
 RWS  .      -999                        : Def_Rw
 WST  .      -999                        : Def_Rwt
 SRVC .                                  : Contractor
~CURVE INFORMATION
#MNEM              UNIT       API CODE   Curve Type Comments
#----------  --------------- ----------  ---------- -----------
 DEPTH      .M                         : Depth       
 CAL_INCH   .inch                      :             Caliper Log - A representation of the measured diameter of a borehole along its depth
 GR_API     .API                       : GammaRay    Gamma Ray (API) - Measures the intensity of natural gamma-ray radiation emitted from formations containing radioactive elements, such as K, Th and U
 RD_OHMM    .ohmm                      :             Unspecified Deep Resistivity - No accroynm or method of attainment is specified - units of ohmm
 RM_OHMM    .ohm.m                     :             Unspecified Medium Resistivity - No accroynm or method of attainment is specified
 RS_OHMM    .ohmm                      :             Unspecified Shallow Resistivity - No accroynm or method of attainment is specified
 DT_US_FT   .us/ft                     :             Interval Transit Time: Compressional Wave - Evaluates the time it takes for a compressional wave to traverse a fixed distance
 RHOB_G_CC  .g/cc                      :             Bulk Density - Measures the density of bulk material, including any void space or other materials contained in the subject volume
 NEUT_P_%   .PC                        :             Unspecified Neutron Porosity Log - No accroynm or method of attainment is specified
 LITH       .                          : LITH        Lithology Curve
~A  DEPTH  CAL_INCH   GR_API   RD_OHMM   RM_OHMM   RS_OHMM   DT_US_FT RHOB_G_C~  NEUT_P_%    LITH   
# ...
2328.8244   10.3911  107.6811    1.9708    2.9808   69.8231   94.7872    2.2877    0.3818   37.0000 
2328.9768   10.3663   83.5821    1.9846    2.9637    1.7873   95.5576    2.2666    0.4548   37.0000 
2329.1292   10.3754   73.8082    1.9995    2.9551    1.7873   83.1846    2.1487    0.4176   37.0000 
2329.2816   10.4874   68.0664    2.2153    4.7678    4.1699   82.0413    2.3554    0.4068   37.0000 
2329.4340   10.7303   60.1652    2.2022    4.7678   20.3425   81.6455    2.3554    0.4041   37.0000 
2329.5864   10.9587   60.1652    2.1774    4.8659    1.6020   81.8258    2.2974    0.3608   37.0000 
2329.7388   11.2097   76.1003    2.2958    2.6794    1.8825   92.1896    2.2547    0.4074   37.0000 
2329.8912   11.5483   91.5677    2.6487    2.6902    1.8826  100.2657    2.2537    0.4708   37.0000 
2330.0436   11.8771   84.2639    3.0915    2.8426    1.6610   98.6257    2.3573    0.4143   37.0000 
2330.1960   12.0811   80.3354    2.3962    3.3198    0.8258   80.7517    2.4237    0.3755   37.0000 
2330.3484   12.2761   74.8028    2.3878    4.0226    1.1363   69.3167    2.4237    0.3189   37.0000 
2330.5008   12.3219   82.3116    2.3947    4.0048    1.5929   69.4189    2.4237    0.2318   37.0000 
2330.6532   12.3438   86.2035    2.5511    2.8990    2.3571   88.4205    2.2391    0.3273   37.0000 
2330.8056   12.2666   97.0720    2.8467    2.8638    2.3523   88.6031    2.2454    0.3588   37.0000 
2330.9580   11.3835   89.1037    2.7376    3.0377    3.2176   83.1768    2.2517    0.4158   37.0000 
2331.1104   11.2568   85.8498    2.3722    4.4368   35.3754   82.4389    2.2527    0.3927   37.0000 
2331.2628   11.2595   76.2669    1.9294    4.4368   35.3756   84.7405    2.1890    0.3788   37.0000 
2331.4152   11.5665   76.1101    1.9294    4.4329    5.8591   87.8058    2.1183    0.4198   37.0000 
2331.5676   12.1394   88.9405    1.9294    2.2673    1.1016   94.4648    2.1170    0.4218   37.0000 
2331.7200   12.0744   99.3344    1.9239    2.0005    2.3035  102.1552    2.1170    0.4828   37.0000 
2331.8724   11.8113  104.2971    1.9071    1.9685    2.2972  105.3027    2.2620    0.4742   37.0000 
2332.0248   11.5413  108.4559    1.5446    1.9073    0.9649  105.2982    2.4180    0.4704   37.0000 
2332.1772   11.3182  108.4558    1.5274    2.7981    0.9649   83.8494    2.4137    0.4048   37.0000 
2332.3296   10.8209   98.6974    1.5156    2.7258    0.9614   80.8096    2.3519    0.3759   37.0000 
2332.4820   10.8024  102.5558    1.6075    2.2388   15.3397   80.7042    2.3414    0.3446   37.0000 
2332.6344   10.9697  103.9628    1.6996    2.1282   15.3398   86.6656    2.2930    0.3584   37.0000 
2332.7868   11.4043  109.2060    1.8403    2.0617    2.2641   91.6303    2.2960    0.3648   37.0000 
2332.9392   11.6716  102.0840    1.8541    2.7488    1.4611   96.9726    2.2970    0.4458   37.0000 
2333.0916   11.8037   95.1941    1.8734    2.7285    1.4115   96.8242    2.2820    0.4458   37.0000 
2333.2440   11.9292  100.6652    1.9324    2.4486    1.0891   90.6933    2.2940    0.4194   37.0000 
2333.3964   11.8479  105.9253    1.9626    2.4580    1.0878   81.0965    2.2997    0.4183   37.0000 
2333.5488   11.7281  101.8555    2.0137    2.5445    1.5748   73.6402    2.3653    0.4168   37.0000 
2333.7012   11.7081  101.3775    2.0759    2.5666    0.7717   73.8277    2.3054    0.3920   37.0000 
2333.8536   12.9937   96.5698    2.0999    2.4859    0.7707  104.1181    2.2920    0.3839   37.0000 
2334.0060   11.8482  104.0125    2.1607    2.1923    1.5568  105.9607    2.2536    0.3678   37.0000 
2334.1584   11.9131  108.3468    2.2095    2.3964    2.2392  107.3051    2.3160    0.4035   37.0000 
2334.3108   12.0341  112.9686    2.2838    2.6039    2.2383  107.3613    2.3887    0.4268   37.0000 
2334.4632   12.1700  114.3919    2.3079    2.6260    1.0767  101.4772    2.3883    0.4749   37.0000 
2334.6156   11.2233  119.7132    2.3272    2.5010    2.2906   93.9304    2.2586    0.4477   37.0000 
2334.7680   11.2067  116.5042    2.3490    2.5918    2.1702   92.2262    2.2570    0.4429   37.0000 
2334.9204   11.4509  115.9436    2.4570    2.6433    2.0869   92.2261    2.2543    0.4274   37.0000 
2335.0728   12.0032  109.8341    2.4980    2.7744    2.0417  111.3024    2.2021    0.4049   37.0000 
2335.2252   14.0794  109.7046    2.3473    2.8147    0.8855   97.9300    2.1534    0.4255   37.0000 
2335.3776   14.0900  109.5794    2.2926    2.8147    0.7213   96.0815    2.0727    0.4459   37.0000 
2335.5300   14.0936  109.4542    2.2224    2.6372    0.9990   96.2740    2.0290    0.3969   37.0000 
2335.6824   12.2297  109.4540    2.1984    2.2612    2.2385   97.6230    2.0253    0.3969   37.0000 
2335.8348   12.1429  100.5642    2.1820    2.3433    5.5321  102.9628    2.0248    0.3999   37.0000 
2335.9872   13.1691  100.2135    2.1407    2.6116    0.8801  104.3717    2.0418    0.4400   37.0000 
2336.1396   13.1691  108.0776    2.4150    2.6116    5.5322   95.2504    2.0818    0.4457   37.0000 
2336.2920   12.2638   92.3660    2.4950    2.6116    2.2385   87.4258    2.4086    0.4799   37.0000 
2336.4444   12.0273   87.3719    2.5219    3.3268    0.9058   83.9761    2.4246    0.4028   37.0000 
2336.5968   11.7646   83.3719    2.5325    3.3269    0.9012   77.8041    2.6036    0.3445   37.0000 
2336.7492   11.5546   73.5499    2.5522    3.6056    2.2415   77.2492    2.6103    0.3419   37.0000 
2336.9016   11.0124   83.4622    2.7907    3.5961    6.0667   77.3217    2.5369    0.3369   37.0000 
2337.0540   11.0124   87.2529    2.7907    2.9139    2.2454   82.7326    2.5153    0.3169   37.0000 
2337.2064   12.0388   96.8180    2.7907    2.9140    1.8941   85.5325    2.5413    0.3359   37.0000 
2337.3588   11.9226   96.8068    2.9247    2.8342    1.7273   89.1917    2.5560    0.3349   37.0000 
2337.5112   11.0324   96.4562    2.6904    2.8266    0.8073   89.7335    2.5760    0.3349   37.0000 
2337.6636   12.3449   83.5260    2.6693    2.8603    0.8073   89.9904    2.6837    0.3359   22.0000 
2337.8160   12.6619   78.8386    2.6650    3.0258    0.8904   90.0596    2.6917    0.4211   22.0000 
2337.9684   12.9410   77.3848    2.4204    3.0732    1.8193   88.6759    2.7069    0.4143   22.0000 
2338.1208   13.0975   72.2985    2.4025    3.3080    0.7194   73.7313    2.7069    0.3835   37.0000 
2338.2732   13.1354   74.1749    2.4081    3.2719    1.8193   75.1952    2.3319    0.3747   37.0000 
2338.4256   12.9122   76.6768    2.6528    2.8232    0.8073   78.7372    2.3319    0.3709   37.0000 
2338.5780   12.2734   81.9800    2.9310    2.8476    0.8073   81.3981    2.3302    0.3509   37.0000 
2338.7304   12.0076   82.5562    2.8796    2.8904    0.9114   83.8241    2.4013    0.3545   37.0000 
2338.8828   11.8429   78.8464    2.6107    3.0539    0.9576   93.4727    2.4179    0.3739   37.0000 
2339.0352   12.0697   75.4256    2.6045    3.2891    1.7374   91.5945    2.4723    0.4039   37.0000 
2339.1876   13.1656   80.3146    2.6045    3.2891    3.0738   89.1354    2.4736    0.3729   37.0000 
2339.3400   13.5456   81.6340    2.6045    3.1780    0.6265   83.8972    2.3989    0.3399   37.0000 
2339.4924   13.6413   91.0623    2.4339    3.0602    0.6265   83.8971    2.3942    0.3383   37.0000 
2339.6448   13.3068   91.0622    2.3601    2.8388    0.8065   95.5641    2.3862    0.3345   37.0000 
2339.7972   11.5661   91.0622    2.2807    2.6962    9.7326   96.3032    2.1749    0.3903   37.0000 
2339.9496   11.5627   91.3554    2.2422    2.4306    9.7327   94.9807    2.1686    0.4409   37.0000 
2340.1020   11.5684   94.9399    2.1243    2.3967    1.2655   93.2345    2.1652    0.4379   37.0000 
2340.2544   12.2794   97.9421    2.1017    2.3144    1.2585   89.1422    2.3600    0.4343   37.0000 
2340.4068   11.7112  107.0738    2.0213    2.3144    1.2511   89.2254    2.4619    0.4312   37.0000 
2340.5592   12.0785  101.7047    2.0213    2.3297    4.9309  102.1126    2.3952    0.4139   37.0000 
2340.7116   12.2784   97.7328    2.0213    2.3366    4.9309  105.7345    2.4135    0.4249   37.0000 
2340.8640   12.3654   96.6907    2.0996    2.2694    1.2368  108.0615    2.4349    0.4307   37.0000 
