~VERSION INFORMATION
 VERS.                 2.0:   CWLS LOG ASCII STANDARD - VERSION 2.0
 WRAP.                  NO:   SINGLE LINE PER DEPTH STEP
 CREA.                 04/06/2018 10:59:30
#CREATED USING DSPetro VERSION 5000.10.1.3 BY H191660 ON 04/06/2018 10:59:30
~WELL INFORMATION
#MNEM.UNIT       DATA                          DESCRIPTION MNEMONIC
#---------      ---------------------------   --------------------------
 STRT    .M         2084.9844                 : START DEPTH
 STOP    .M         3339.9984                 : STOP DEPTH
 STEP    .M         0.1524                    : STEP VALUE
 NULL    .      -999.0000                     : NULL VALUE
 DATE    .      04/06/2018                    : LAS file Creation Date
 WELL .      6610_7_1                    : Well Name
 COMP .      Neftex Exploration Insights : Company
 FLD  .                                  : Field
 UWI  .      YNOWL_661071                : Unique Well Identifier (UWI)
 LOC  .                                  : Location
 RWS  .      -999                        : Def_Rw
 WST  .      -999                        : Def_Rwt
 SRVC .                                  : Contractor
~CURVE INFORMATION
#MNEM              UNIT       API CODE   Curve Type Comments
#----------  --------------- ----------  ---------- -----------
 DEPTH      .M                         : Depth       
 CAL_INCH   .inch                      :             Caliper Log - A representation of the measured diameter of a borehole along its depth
 GR_API     .API                       : GammaRay    Gamma Ray (API) - Measures the intensity of natural gamma-ray radiation emitted from formations containing radioactive elements, such as K, Th and U
 RD_OHMM    .ohmm                      :             Unspecified Deep Resistivity - No accroynm or method of attainment is specified - units of ohmm
 RM_OHMM    .ohm.m                     :             Unspecified Medium Resistivity - No accroynm or method of attainment is specified
 RS_OHMM    .ohmm                      :             Unspecified Shallow Resistivity - No accroynm or method of attainment is specified
 DT_US_FT   .us/ft                     :             Interval Transit Time: Compressional Wave - Evaluates the time it takes for a compressional wave to traverse a fixed distance
 RHOB_G_CC  .g/cc                      :             Bulk Density - Measures the density of bulk material, including any void space or other materials contained in the subject volume
 NEUT_P_%   .PC                        :             Unspecified Neutron Porosity Log - No accroynm or method of attainment is specified
 LITH       .                          : LITH        Lithology Curve
~A  DEPTH  CAL_INCH   GR_API   RD_OHMM   RM_OHMM   RS_OHMM   DT_US_FT RHOB_G_C~  NEUT_P_%    LITH   
# ...
2255.6724    9.0635   92.1634    4.8288    6.2219    9.1482   80.2976    2.6469    0.3663   37.0000 
2255.8248    9.0635   92.5173    4.9357    6.2630    9.1481   78.7329    2.6389    0.3587   37.0000 
2255.9772    9.0635   92.9687    5.0450    6.8678    9.2009   78.3579    2.6341    0.3509   37.0000 
2256.1296    9.0635   94.0081    5.1189    7.0586    9.2536   77.7717    2.6195    0.3080   37.0000 
2256.2820    9.0635   87.7959    5.1189    7.4447   11.1783   77.6480    2.6057    0.2982   37.0000 
2256.4344    9.0660   81.9900    4.7938    7.2239   11.2566   77.4625    2.6099    0.2666   37.0000 
2256.5868    9.0763   81.9412    4.7716    5.6178    6.2041   78.8190    2.6278    0.2978   37.0000 
2256.7392    9.0856   86.3575    4.7629    5.5175    4.5749   79.8402    2.6758    0.3050   37.0000 
2256.8916    9.0928   94.6712    4.7629    5.2900    4.5275   80.9650    2.6691    0.3437   37.0000 
2257.0440    9.1000   95.8155    4.5458    5.1186    5.5407   82.9760    2.6099    0.3389   37.0000 
2257.1964    9.1088   97.0210    4.3835    5.1185    4.3671   83.5431    2.5874    0.3279   37.0000 
2257.3488    9.1191  105.8291    4.3809    5.1480    4.2392   83.1230    2.5924    0.3237   37.0000 
2257.5012    9.1234  100.8257    4.3308    5.2679    4.0762   82.0326    2.6522    0.3547   37.0000 
2257.6536    9.1234   98.3665    4.3533    5.3444    7.3466   82.3452    2.6591    0.3618   37.0000 
2257.8060    9.1120   91.1964    4.3759    5.4538    7.2706   82.7595    2.6608    0.3744   37.0000 
2257.9584    9.0939   95.6790    4.3807    5.5070    6.6364   82.6996    2.6269    0.3889   37.0000 
2258.1108    9.0654   96.0613    4.4116    5.6680    4.3997   81.7604    2.6250    0.3907   37.0000 
2258.2632    9.0394  101.7023    4.4314    5.6775    6.7492   81.4606    2.6389    0.3907   37.0000 
2258.4156    9.0153   96.4522    4.4314    5.6775    7.5625   81.2278    2.6474    0.3751   37.0000 
2258.5680    9.0078   91.3216    4.4313    5.6774    6.8426   81.1081    2.6475    0.3669   37.0000 
2258.7204    9.0003   96.9353    4.4368    5.6474    6.1102   80.9584    2.6436    0.3257   37.0000 
2258.8728    8.9933   97.1595    4.4568    5.5268    8.0108   81.0785    2.6141    0.3257   37.0000 
2259.0252    8.9930  103.2035    4.4572    5.4206    6.9613   81.4118    2.6171    0.3444   37.0000 
2259.1776    8.9840  103.2036    4.4804    5.3696    6.9975   82.0236    2.6331    0.3837   37.0000 
2259.3300    8.9722  105.4901    4.4824    5.3090    6.0748   82.0286    2.6775    0.3706   37.0000 
2259.4824    8.9617  104.6994    4.4953    5.6212    8.4376   81.6834    2.6908    0.3493   37.0000 
2259.6348    8.9557   96.6561    4.4953    5.9964    8.0350   81.0954    2.6141    0.3427   37.0000 
2259.7872    8.9405   96.5656    4.5486    5.9963    7.8155   80.8461    2.6141    0.3292   37.0000 
2259.9396    8.9232   96.4531    4.6133    5.9674    8.2479   80.7864    2.6158    0.3247   37.0000 
2260.0920    8.9210   93.0731    4.8728    5.8717    8.4792   80.8817    2.6199    0.3347   37.0000 
2260.2444    8.9032   95.9758    4.8728    6.2015    9.2340   81.0104    2.5937    0.3347   37.0000 
2260.3968    8.9018   97.1264    4.9364    6.3882    9.4930   81.1579    2.5873    0.3237   37.0000 
2260.5492    8.8932   99.8272    4.9576    6.5247    9.7592   81.2764    2.5843    0.3292   37.0000 
2260.7016    8.8932   98.5841    4.9576    6.8457    9.9180   80.5706    2.5814    0.3351   37.0000 
2260.8540    8.8931   96.8573    4.9529    6.7419   10.0282   79.3648    2.6125    0.3266   37.0000 
2261.0064    8.8931   92.4480    4.9432    6.6320    9.4460   79.1004    2.6275    0.3225   37.0000 
2261.1588    8.8931   88.5707    4.9289    6.5749    9.2507   79.0298    2.6224    0.3196   37.0000 
2261.3112    8.8817   89.6964    4.9005    6.5160    9.2506   79.2692    2.6144    0.3296   37.0000 
2261.4636    8.8826   89.9466    4.8759    6.3855    9.3039   79.7341    2.6125    0.3231   37.0000 
2261.6160    8.8631   89.9466    4.8115    6.1661    9.3038   80.0836    2.6084    0.3200   37.0000 
2261.7684    8.8631   86.1431    4.5666    5.9302    9.3037   80.4638    2.6041    0.3250   37.0000 
2261.9208    8.8631   86.4931    4.5825    5.7750    8.8075   80.9495    2.5274    0.3316   37.0000 
2262.0732    8.8777   93.7047    4.4770    5.5787    6.7764   82.0398    2.5274    0.3424   37.0000 
2262.2256    8.9931   96.0829    4.3849    5.5725    7.1157   82.2605    2.6619    0.3486   37.0000 
2262.3780    9.1704   97.8206    4.3580    5.5595    8.0088   82.3619    2.6666    0.3430   37.0000 
2262.5304    9.5096  102.8299    4.3354    5.5149    7.0959   81.7748    2.6729    0.3196   37.0000 
2262.6828    9.5358   96.2481    4.3453    5.1758    2.0437   80.8489    2.6472    0.3206   37.0000 
2262.8352    9.0370   91.0727    4.3540    5.2891    7.0957   81.3263    2.6347    0.3379   37.0000 
2262.9876    8.8694   93.5714    4.3654    5.4637    7.0890   82.1133    2.6137    0.3471   37.0000 
2263.1400    8.8058   94.6676    4.3971    5.5143    7.9567   82.0153    2.5934    0.3543   37.0000 
2263.2924    8.7773   96.5763    4.4495    5.5462    8.2179   81.7689    2.5834    0.3707   37.0000 
2263.4448    8.7670   92.7664    4.5070    5.8180    8.7817   81.3500    2.5859    0.3462   37.0000 
2263.5972    8.7557   91.8156    4.5855    6.1345    8.6638   81.0173    2.6041    0.3438   37.0000 
2263.7496    8.7436   90.2013    4.5855    6.1058    8.5248   80.4081    2.6202    0.3216   37.0000 
2263.9020    8.7429   89.1967    4.6616    6.1167    8.4830   80.6992    2.6265    0.3233   37.0000 
2264.0544    8.7429   94.4502    4.7604    6.1703    8.4341   80.9989    2.6362    0.3337   37.0000 
2264.2068    8.7480   94.8161    4.7603    6.2110    8.6585   81.1036    2.6258    0.3436   37.0000 
2264.3592    8.7538   99.5786    4.7312    6.2636    8.9528   81.2417    2.6242    0.3385   37.0000 
2264.5116    8.7718   96.2134    4.6941    6.4499    9.3644   80.9178    2.6242    0.3354   37.0000 
2264.6640    8.7933   95.4400    4.6651    6.4606    9.6270   80.6179    2.6202    0.3316   37.0000 
2264.8164    8.8327   93.2558    4.6651    6.3305    9.7837   80.5766    2.6105    0.3346   37.0000 
2264.9688    8.9505   92.9495    4.6605    6.1458    4.2480   80.5768    2.5992    0.3385   37.0000 
2265.1212    9.0294  101.9425    4.6382    5.8574    4.4430   80.9517    2.5992    0.3433   37.0000 
2265.2736    9.0719  101.6040    4.6381    5.8574    9.0803   80.9520    2.6078    0.3516   37.0000 
2265.4260    8.9334  100.6160    4.6615    5.8581    8.9863   80.9523    2.6161    0.3423   37.0000 
2265.5784    8.7124   99.0788    4.6648    6.0804    8.7408   80.9525    2.6362    0.3298   37.0000 
2265.7308    8.6548   96.5602    4.6830    6.2478    8.4532   80.9528    2.6409    0.3345   37.0000 
2265.8832    8.6779   94.4702    4.6761    6.5972    8.7494   80.9531    2.6252    0.3483   37.0000 
2266.0356    8.7236   93.1142    4.7102    6.6959    9.1944   80.9534    2.6065    0.3326   37.0000 
2266.1880    8.7634   90.7633    4.7966    6.7258    9.4083   80.9525    2.6019    0.3326   37.0000 
2266.3404    8.7862   89.7629    4.8804    6.7257    9.6280   80.3853    2.5958    0.3327   37.0000 
2266.4928    8.7928   88.5432    4.9570    6.7117    9.6279   79.9365    2.6057    0.3346   37.0000 
2266.6452    8.7928   86.4439    5.0322    6.3951    9.6278   79.6366    2.6238    0.3373   37.0000 
2266.7976    8.7702   85.1959    5.1892    6.2580    9.6277   79.3875    2.6404    0.3376   37.0000 
2266.9500    8.7314   82.9431    5.1891    6.3123    7.8238   79.0917    2.6959    0.3360   37.0000 
2267.1024    8.6844   89.0840    5.1890    6.4249    8.6604   78.7417    2.6959    0.3305   37.0000 
2267.2548    8.6556   91.6767    5.3253    7.2205    9.2467   78.2739    2.6592    0.3257   37.0000 
2267.4072    8.6283   93.5465    5.3406    8.1573   10.8918   77.4075    2.6329    0.3149   37.0000 
2267.5596    8.6283   96.3352    5.3406    8.1572   13.0071   76.3227    2.6225    0.3451   37.0000 
2267.7120    8.6470   99.7051    5.3405    8.0276   13.0659   76.2700    2.6398    0.3734   37.0000 
