~VERSION INFORMATION
 VERS.                 2.0:   CWLS LOG ASCII STANDARD - VERSION 2.0
 WRAP.                  NO:   SINGLE LINE PER DEPTH STEP
 CREA.                 04/06/2018 10:59:30
#CREATED USING DSPetro VERSION 5000.10.1.3 BY H191660 ON 04/06/2018 10:59:30
~WELL INFORMATION
#MNEM.UNIT       DATA                          DESCRIPTION MNEMONIC
#---------      ---------------------------   --------------------------
 STRT    .M         2084.9844                 : START DEPTH
 STOP    .M         3339.9984                 : STOP DEPTH
 STEP    .M         0.1524                    : STEP VALUE
 NULL    .      -999.0000                     : NULL VALUE
 DATE    .      04/06/2018                    : LAS file Creation Date
 WELL .      6610_7_1                    : Well Name
 COMP .      Neftex Exploration Insights : Company
 FLD  .                                  : Field
 UWI  .      YNOWL_661071                : Unique Well Identifier (UWI)
 LOC  .                                  : Location
 RWS  .      -999                        : Def_Rw
 WST  .      -999                        : Def_Rwt
 SRVC .                                  : Contractor
~CURVE INFORMATION
#MNEM              UNIT       API CODE   Curve Type Comments
#----------  --------------- ----------  ---------- -----------
 DEPTH      .M                         : Depth       
 CAL_INCH   .inch                      :             Caliper Log - A representation of the measured diameter of a borehole along its depth
 GR_API     .API                       : GammaRay    Gamma Ray (API) - Measures the intensity of natural gamma-ray radiation emitted from formations containing radioactive elements, such as K, Th and U
 RD_OHMM    .ohmm                      :             Unspecified Deep Resistivity - No accroynm or method of attainment is specified - units of ohmm
 RM_OHMM    .ohm.m                     :             Unspecified Medium Resistivity - No accroynm or method of attainment is specified
 RS_OHMM    .ohmm                      :             Unspecified Shallow Resistivity - No accroynm or method of attainment is specified
 DT_US_FT   .us/ft                     :             Interval Transit Time: Compressional Wave - Evaluates the time it takes for a compressional wave to traverse a fixed distance
 RHOB_G_CC  .g/cc                      :             Bulk Density - Measures the density of bulk material, including any void space or other materials contained in the subject volume
 NEUT_P_%   .PC                        :             Unspecified Neutron Porosity Log - No accroynm or method of attainment is specified
 LITH       .                          : LITH        Lithology Curve
~A  DEPTH  CAL_INCH   GR_API   RD_OHMM   RM_OHMM   RS_OHMM   DT_US_FT RHOB_G_C~  NEUT_P_%    LITH   
2084.9844   12.6146   57.3822    4.7415    6.2453 -999.0000   74.2143    2.7539 -999.0000 -999.0000 
2085.1368   12.6807   58.8788    4.6746    5.6318 -999.0000   79.9191    2.4993 -999.0000 -999.0000 
2085.2892   12.7559   63.1804    4.5471    5.1251 -999.0000   83.7023    2.4908 -999.0000 -999.0000 
2085.4416   12.7991   62.6155    4.3782    4.9954 -999.0000   85.1503    2.4849 -999.0000 -999.0000 
2085.5940   12.8216   62.1561    4.3148    4.8695 -999.0000   86.2163    2.4830 -999.0000 -999.0000 
2085.7464   12.7827   61.4910    4.1971    4.8171 -999.0000   87.3218    2.4944 -999.0000 -999.0000 
2085.8988   12.7079   69.2357    4.1810    4.8150 -999.0000   87.8886    2.4958 -999.0000 -999.0000 
2086.0512   12.6173   63.4738    4.1810    4.8150 -999.0000   88.6080    2.4829 -999.0000 -999.0000 
2086.2036   12.5268   63.2784    4.1994    4.8150 -999.0000   89.1632    2.4691 -999.0000 -999.0000 
2086.3560   12.5083   60.2643    4.2305    4.8053 -999.0000   89.1695    2.4697 -999.0000 -999.0000 
2086.5084   12.5017   57.6180    4.2582    4.7228 -999.0000   88.8777    2.4743 -999.0000 -999.0000 
2086.6608   12.5017   61.3950    4.2804    4.6380 -999.0000   88.5741    2.4773 -999.0000 -999.0000 
2086.8132   12.5069   63.4888    4.2909    4.5981 -999.0000   88.1733    2.4779 -999.0000 -999.0000 
2086.9656   12.5132   59.3256    4.2909    4.7928 -999.0000   87.9559    2.4641 -999.0000 -999.0000 
2087.1180   12.5203   57.7413    4.2909    4.8013 -999.0000   88.0560    2.4558 -999.0000 -999.0000 
2087.2704   12.5364   56.0829    4.2821    4.8152 -999.0000   88.2662    2.4560 -999.0000 -999.0000 
2087.4228   12.5609   54.3958    4.2398    4.8152 -999.0000   88.5234    2.4671 -999.0000 -999.0000 
2087.5752   12.5879   51.7462    4.2179    4.8152 -999.0000   88.8130    2.4774 -999.0000 -999.0000 
2087.7276   12.6104   54.5039    4.2175    4.8152 -999.0000   89.1131    2.4825 -999.0000 -999.0000 
2087.8800   12.5854   57.3672    4.2175    4.8152 -999.0000   89.4132    2.4735 -999.0000 -999.0000 
2088.0324   12.5314   54.6327    4.2342    4.8030 -999.0000   89.7672    2.4691 -999.0000 -999.0000 
2088.1848   12.5026   51.6209    4.2419    4.6382 -999.0000   89.8276    2.4691 -999.0000 -999.0000 
2088.3372   12.4841   53.2446    4.2660    4.6383 -999.0000   89.6022    2.4645 -999.0000 -999.0000 
2088.4896   12.6336   53.8047    4.3008    4.6383 -999.0000   89.1398    2.4532 -999.0000 -999.0000 
2088.6420   12.6770   53.5154    4.3159    4.6383 -999.0000   88.4848    2.4469 -999.0000 -999.0000 
2088.7944   12.6410   53.1425    4.3208    4.6840 -999.0000   88.0232    2.4358 -999.0000 -999.0000 
2088.9468   12.6119   50.4235    4.3409    4.7602 -999.0000   87.7754    2.4408 -999.0000 -999.0000 
2089.0992   12.5913   49.6217    4.3409    4.7465 -999.0000   88.3177    2.4791 -999.0000 -999.0000 
2089.2516   12.5812   53.8884    4.3409    4.6652 -999.0000   88.8659    2.4791 -999.0000 -999.0000 
2089.4040   12.5827   54.7909    4.3409    4.6652 -999.0000   89.1056    2.4769 -999.0000 -999.0000 
2089.5564   12.5990   56.7317    4.3235    4.7443 -999.0000   89.1570    2.4722 -999.0000 -999.0000 
2089.7088   12.6303   58.4924    4.3160    4.8280 -999.0000   89.0421    2.4708 -999.0000 -999.0000 
2089.8612   12.6807   59.7076    4.3160    4.9003 -999.0000   88.2265    2.4691 -999.0000 -999.0000 
2090.0136   12.7232   60.9955    4.3060    4.9898 -999.0000   87.9187    2.4691 -999.0000 -999.0000 
2090.1660   12.7302   62.4085    4.3142    4.9616 -999.0000   88.0014    2.4881 -999.0000 -999.0000 
2090.3184   12.7241   64.0300    4.3821    4.9156 -999.0000   88.4634    2.4891 -999.0000 -999.0000 
2090.4708   12.7089   65.7105    4.4480    4.8996 -999.0000   89.3735    2.4891 -999.0000 -999.0000 
2090.6232   12.6832   68.6071    4.4942    5.1308 -999.0000   89.4651    2.4891 -999.0000 -999.0000 
2090.7756   12.6558   65.2926    4.5176    5.1308 -999.0000   89.4244    2.4891 -999.0000 -999.0000 
2090.9280   12.6272   64.2827    4.6280    5.1104 -999.0000   88.5551    2.4947 -999.0000 -999.0000 
2091.0804   12.5991   60.1085    4.6327    5.2808 -999.0000   86.2082    2.6246 -999.0000 -999.0000 
2091.2328   12.5140   58.5273    4.6586    5.1457 -999.0000   83.9345    2.7160    0.4877 -999.0000 
2091.3852   12.5029   57.9980    4.6931    5.1309 -999.0000   82.2515    2.7160    0.4901 -999.0000 
2091.5376   12.5434   54.7327    4.7292    5.1309 -999.0000   82.2515    2.6988    0.4964 -999.0000 
2091.6900   12.6210   60.9966    4.7881    5.1309 -999.0000   85.8510    2.6286    0.5162 -999.0000 
2091.8424   12.6861   62.6869    4.7881    5.1309 -999.0000   86.7208    2.4877    0.5689 -999.0000 
2091.9948   12.7370   65.1753    4.7765    5.1310 -999.0000   87.1986    2.4907    0.5327 -999.0000 
2092.1472   12.6275   67.7689    4.7606    5.1310 -999.0000   87.6485    2.4925    0.5182 -999.0000 
2092.2996   12.6025   67.7992    4.7283    4.9996 -999.0000   87.7830    2.4980    0.4628 -999.0000 
2092.4520   12.5870   66.0415    4.6903    5.0192 -999.0000   87.8348    2.4858    0.4850 -999.0000 
2092.6044   12.5764   66.2322    4.6530    5.2507 -999.0000   87.8348    2.4847    0.4904 -999.0000 
2092.7568   12.5725   66.4257    4.6121    5.2327 -999.0000   87.8348    2.4712    0.4950 -999.0000 
2092.9092   12.5858   65.2327    4.5913    5.2206 -999.0000   87.8348    2.4664    0.5178 -999.0000 
2093.0616   12.6399   54.6155    4.5495    5.0465 -999.0000   87.7891    2.4632    0.4947 -999.0000 
2093.2140   12.6861   54.7264    4.4767    4.9459 -999.0000   87.7224    2.4625    0.4648 -999.0000 
2093.3664   12.7077   54.9900    4.4432    4.8159 -999.0000   87.6610    2.4672    0.4648 -999.0000 
2093.5188   12.6413   55.2397    4.3595    4.6927 -999.0000   87.6234    2.4658    0.4655 -999.0000 
2093.6712   12.5569   52.8487    4.2774    4.6792 -999.0000   87.5859    2.4579    0.4857 -999.0000 
2093.8236   12.5405   50.7429    4.1698    4.6792 -999.0000   87.5846    2.4425    0.5005 -999.0000 
2093.9760   12.6025   50.5089    4.1698    4.6845 -999.0000   87.7235    2.4475    0.4967 -999.0000 
2094.1284   12.6541   53.1331    4.1818    4.6927 -999.0000   87.9407    2.4525    0.4938 -999.0000 
2094.2808   12.7127   53.7390    4.2742    4.6969 -999.0000   88.0608    2.4540    0.4891 -999.0000 
2094.4332   12.7426   55.3640    4.3816    4.7980 -999.0000   88.1808    2.4608    0.5108 -999.0000 
2094.5856   12.7486   54.3646    4.4032    4.8848 -999.0000   88.2926    2.4675    0.4753 -999.0000 
2094.7380   12.7502   54.3645    4.4352    4.9001 -999.0000   88.3926    2.4781    0.4508 -999.0000 
2094.8904   12.7502   55.3637    4.4816    4.9001 -999.0000   88.5141    2.4792    0.4508 -999.0000 
2095.0428   12.7502   55.9881    4.5203    4.9002 -999.0000   88.6427    2.4759    0.4810 -999.0000 
2095.1952   12.7380   55.2385    4.5859    4.8686 -999.0000   88.7886    2.4673    0.4958 -999.0000 
2095.3476   12.6789   54.9744    4.5203    4.8162 -999.0000   88.9386    2.4582    0.4468 -999.0000 
2095.5000   12.5403   56.7188    4.4759    4.8162 -999.0000   89.0860    2.4536    0.4479 -999.0000 
2095.6524   12.5410   60.4552    4.4491    4.8572 -999.0000   89.1461    2.4458    0.4497 -999.0000 
2095.8048   12.5502   61.4833    4.4429    4.8163 -999.0000   89.2901    2.4426    0.4525 -999.0000 
2095.9572   12.5311   65.6049    4.4429    4.8163 -999.0000   89.4811    2.4491    0.5709 -999.0000 
2096.1096   12.4288   63.9588    4.4429    4.7748 -999.0000   89.6721    2.4569    0.5524 -999.0000 
2096.2620   12.3324   63.6062    4.4430    4.7749 -999.0000   89.8390    2.4625    0.5358 -999.0000 
2096.4144   12.3648   61.7326    4.4430    4.7749 -999.0000   89.9890    2.4709    0.5348 -999.0000 
2096.5668   12.4512   60.9831    4.4430    4.7749 -999.0000   89.9174    2.4782    0.5332 -999.0000 
2096.7192   12.5127   63.6298    4.4430    4.7749 -999.0000   89.8787    2.4875    0.5294 -999.0000 
2096.8716   12.5294   67.1030    4.4430    4.7749    0.1974   89.7063    2.4875    0.5067 -999.0000 
2097.0240   12.4844   67.1017    4.3987    4.7785    2.3908   89.4058    2.4869    0.4818 -999.0000 
