~VERSION INFORMATION
 VERS.                 2.0:   CWLS LOG ASCII STANDARD - VERSION 2.0
 WRAP.                  NO:   SINGLE LINE PER DEPTH STEP
 CREA.                 04/06/2018 10:59:30
#CREATED USING DSPetro VERSION 5000.10.1.3 BY H191660 ON 04/06/2018 10:59:30
~WELL INFORMATION
#MNEM.UNIT       DATA                          DESCRIPTION MNEMONIC
#---------      ---------------------------   --------------------------
 STRT    .M         2084.9844                 : START DEPTH
 STOP    .M         3339.9984                 : STOP DEPTH
 STEP    .M         0.1524                    : STEP VALUE
 NULL    .      -999.0000                     : NULL VALUE
 DATE    .      04/06/2018                    : LAS file Creation Date
 WELL .      6610_7_1                    : Well Name
 COMP .      Neftex Exploration Insights : Company
 FLD  .                                  : Field
 UWI  .      YNOWL_661071                : Unique Well Identifier (UWI)
 LOC  .                                  : Location
 RWS  .      -999                        : Def_Rw
 WST  .      -999                        : Def_Rwt
 SRVC .                                  : Contractor
~CURVE INFORMATION
#MNEM              UNIT       API CODE   Curve Type Comments
#----------  --------------- ----------  ---------- -----------
 DEPTH      .M                         : Depth       
 CAL_INCH   .inch                      :             Caliper Log - A representation of the measured diameter of a borehole along its depth
 GR_API     .API                       : GammaRay    Gamma Ray (API) - Measures the intensity of natural gamma-ray radiation emitted from formations containing radioactive elements, such as K, Th and U
 RD_OHMM    .ohmm                      :             Unspecified Deep Resistivity - No accroynm or method of attainment is specified - units of ohmm
 RM_OHMM    .ohm.m                     :             Unspecified Medium Resistivity - No accroynm or method of attainment is specified
 RS_OHMM    .ohmm                      :             Unspecified Shallow Resistivity - No accroynm or method of attainment is specified
 DT_US_FT   .us/ft                     :             Interval Transit Time: Compressional Wave - Evaluates the time it takes for a compressional wave to traverse a fixed distance
 RHOB_G_CC  .g/cc                      :             Bulk Density - Measures the density of bulk material, including any void space or other materials contained in the subject volume
 NEUT_P_%   .PC                        :             Unspecified Neutron Porosity Log - No accroynm or method of attainment is specified
 LITH       .                          : LITH        Lithology Curve
~A  DEPTH  CAL_INCH   GR_API   RD_OHMM   RM_OHMM   RS_OHMM   DT_US_FT RHOB_G_C~  NEUT_P_%    LITH   
# ...
2499.5124    8.6464   99.2602    3.7216    5.7752    8.7339   90.9678    2.4831    0.3551   37.0000 
2499.6648    8.6464  103.6796    3.7629    5.9275    9.0164   92.3876    2.4911    0.3443   37.0000 
2499.8172    8.6464  106.5574    3.7812    5.7696    9.9719   93.0506    2.4931    0.3536   37.0000 
2499.9696    8.6464  107.4794    3.7921    5.1525    9.7385   93.6289    2.4971    0.3574   37.0000 
2500.1220    8.6464  110.7977    3.7921    5.1766    9.2520   93.8799    2.4948    0.3580   37.0000 
2500.2744    8.6464  110.3508    3.7590    5.2217    9.2363   93.8416    2.4948    0.3590   37.0000 
2500.4268    8.6464  104.1757    3.7096    5.4680    9.3055   92.4187    2.4963    0.3628   37.0000 
2500.5792    8.6465   99.4212    3.6504    5.3588    9.3055   90.8141    2.5074    0.3670   37.0000 
2500.7316    8.6465   96.1555    3.6844    5.3185    8.6790   90.1501    2.5137    0.3794   37.0000 
2500.8840    8.6465   96.7821    3.6918    5.2669    8.2499   89.7861    2.5248    0.3680   37.0000 
2501.0364    8.6465   99.2118    3.7109    5.2883    7.8139   89.2694    2.5248    0.3550   37.0000 
2501.1888    8.6265  102.7706    3.7486    5.2367    7.9629   89.5398    2.5152    0.3550   37.0000 
2501.3412    8.6265  102.5471    3.7486    5.4087    8.4369   89.7640    2.5047    0.3566   37.0000 
2501.4936    8.6266   90.4678    3.7486    5.4522    8.8318   90.0332    2.4959    0.3540   37.0000 
2501.6460    8.6266   87.0585    3.7486    5.4165    8.6407   90.3478    2.4879    0.3602   37.0000 
2501.7984    8.6266   86.6838    3.7487    5.3588    8.1973   90.7331    2.4816    0.3680   37.0000 
2501.9508    8.6266   94.5751    3.8806    5.2136    8.3839   91.1034    2.4615    0.3700   37.0000 
2502.1032    8.6266  102.0511    3.8806    5.3898    8.7843   91.4489    2.4923    0.3425   37.0000 
2502.2556    8.6266  102.0526    3.8806    5.5073    9.2537   91.5343    2.4860    0.3388   37.0000 
2502.4080    8.6267   98.6497    3.8806    5.6767    9.3592   91.6034    2.4787    0.3381   37.0000 
2502.5604    8.6267   97.3162    3.8806    5.8059    9.4133   91.5806    2.4896    0.3799   37.0000 
2502.7128    8.6325   95.7042    3.8882    5.8091    9.4133   91.2277    2.4992    0.3800   37.0000 
2502.8652    8.6367   94.4312    3.8976    5.8009    8.9375   90.6576    2.5189    0.3800   37.0000 
2503.0176    8.6367   96.3055    3.9030    5.6117    8.8350   89.2686    2.5248    0.3833   37.0000 
2503.1700    8.6367   99.5552    3.9030    5.5155    8.9274   89.7786    2.5096    0.3881   37.0000 
2503.3224    8.6367  100.3040    3.9030    5.5155    9.0513   91.0056    2.5017    0.3890   37.0000 
2503.4748    8.6368   95.9176    3.8866    5.5370    9.1988   91.5801    2.4715    0.3890   37.0000 
2503.6272    8.6368   95.3063    3.8639    5.6274    9.2519   91.3205    2.4781    0.3680   37.0000 
2503.7796    8.6368   96.4467    3.8472    5.7326    9.2519   90.7735    2.4985    0.3574   37.0000 
2503.9320    8.6368   98.8050    3.9096    5.8765    9.1578   90.0085    2.5048    0.3505   37.0000 
2504.0844    8.6368   98.3702    3.9298    5.8473    8.9891   89.9410    2.5064    0.3478   37.0000 
2504.2368    8.6368   95.4309    3.9030    5.7095    8.8350   90.5965    2.4954    0.3401   37.0000 
2504.3892    8.6368   94.0304    3.9030    5.7095    8.9457   91.5992    2.4824    0.3435   37.0000 
2504.5416    8.6369   94.8800    3.9483    5.7095    8.9891   92.2917    2.4760    0.3480   37.0000 
2504.6940    8.6369   96.0567    3.9838    5.7095    9.1459   92.0524    2.4864    0.3500   37.0000 
2504.8464    8.6369   94.3918    4.0171    5.7754    9.3591   89.9134    2.4928    0.3281   37.0000 
2504.9988    8.6369   93.4397    4.0171    5.8427    9.1987   89.3508    2.5045    0.3326   37.0000 
2505.1512    8.6369   90.6842    4.0404    5.8581    9.1002   89.3507    2.5081    0.3401   37.0000 
2505.3036    8.6369   90.6843    4.0404    5.8596    9.2519   89.3506    2.4912    0.3159   37.0000 
2505.4560    8.6321   90.7215    4.0520    5.8596    9.3980   89.3505    2.4882    0.3141   37.0000 
2505.6084    8.6201   92.8086    4.0520    5.8765    9.4132   89.2661    2.4835    0.3113   37.0000 
2505.7608    8.6082   93.6714    4.0287    5.8566    9.4676   89.1165    2.4994    0.3486   37.0000 
2505.9132    8.5970   94.2709    4.0077    5.7337    9.4676   88.8336    2.5071    0.3487   37.0000 
2506.0656    8.5970   90.6847    3.9803    5.6383    9.4188   88.5507    2.5348    0.3401   37.0000 
2506.2180    8.5970   87.8111    3.9483    5.5634    9.1987   88.3186    2.5316    0.3381   37.0000 
2506.3704    8.5971   87.0695    3.9337    5.5388    9.0156   88.5562    2.5186    0.3353   37.0000 
2506.5228    8.5971   97.6821    3.8891    5.4986    8.9228   91.4274    2.4964    0.3343   37.0000 
2506.6752    8.5971   94.7257    3.8682    5.4703    8.5656   92.2316    2.4787    0.3484   37.0000 
2506.8276    8.5971   90.9352    3.8507    5.4730    9.2984   91.9272    2.4818    0.3510   37.0000 
2506.9800    8.5971   92.1567    3.7871    5.5155    9.5039   91.4484    2.4911    0.3510   37.0000 
2507.1324    8.5971   91.6835    3.7704    5.5634    9.6327   90.7504    2.5009    0.3473   37.0000 
2507.2848    8.5972   97.1705    3.7698    5.4204    9.5223   90.3928    2.5073    0.3470   37.0000 
2507.4372    8.5972  101.5561    3.7503    5.3924    8.8833   90.0916    2.5081    0.3618   37.0000 
2507.5896    8.5972   99.4577    3.7487    5.3898    8.7414   89.7248    2.5030    0.3567   37.0000 
2507.7420    8.5972   98.7557    3.7023    5.3459    8.5840   89.5076    2.4983    0.3482   37.0000 
2507.8944    8.5972   96.8096    3.6845    5.2909    8.5840   89.3878    2.4976    0.3344   37.0000 
2508.0468    8.5972   97.0338    3.6735    5.2670    9.0529   89.6180    2.5039    0.3341   37.0000 
2508.1992    8.5972   97.3578    3.6546    5.2670    9.1458   90.3094    2.5131    0.3343   37.0000 
2508.3516    8.5973  103.7903    3.6423    5.2670    9.2421   90.8947    2.5046    0.3411   37.0000 
2508.5040    8.5973  104.2680    3.6423    5.2670    9.0091   91.5242    2.4984    0.3449   37.0000 
2508.6564    8.5973  110.6780    3.6423    5.2528    8.5929   92.1128    2.5064    0.3527   37.0000 
2508.8088    8.5973   97.5586    3.6423    5.2670    8.3302   92.2664    2.5172    0.3700   37.0000 
2508.9612    8.5973   97.6559    3.6423    5.2670    8.2922   92.0206    2.5281    0.3538   37.0000 
2509.1136    8.5973   98.0775    3.6760    5.1321    8.6335   91.6788    2.4931    0.3511   37.0000 
2509.2660    8.5973  102.5568    3.6845    5.1321    8.9161   91.4885    2.4887    0.3609   37.0000 
2509.4184    8.5974  102.3158    3.7353    5.1518    9.0608   91.6678    2.4815    0.3686   37.0000 
2509.5708    8.5974  102.1975    3.7811    5.2644    9.2517   92.1959    2.4924    0.3656   37.0000 
2509.7232    8.5974   98.6139    3.8263    5.7096    9.3590   92.5159    2.4994    0.3559   37.0000 
2509.8756    8.5974   97.6195    3.8473    5.7096    9.5641   92.3931    2.5073    0.3490   37.0000 
2510.0280    8.5974   94.9355    3.8473    5.7703    9.4372   91.4906    2.5114    0.3490   37.0000 
2510.1804    8.5953  100.0020    4.0288    5.8596    9.3052   89.7744    2.5207    0.3445   37.0000 
2510.3328    8.5875   99.8469    4.0521    5.9078    8.8859   88.9749    2.5231    0.3417   37.0000 
2510.4852    8.5875   99.6838    4.0349    6.0483    9.7971   88.3766    2.5264    0.3369   37.0000 
2510.6376    8.5829   96.0778    3.9363    6.0657    9.9561   88.1336    2.5280    0.3321   37.0000 
2510.7900    8.5775   92.6777    3.9408    5.9685   10.0596   88.7621    2.4952    0.3251   37.0000 
2510.9424    8.5675   91.6745    3.8905    5.8562   10.0685   90.6471    2.4863    0.3231   37.0000 
2511.0948    8.4862   91.1655    3.8704    5.7626    8.4307   94.2254    2.4359    0.3231   37.0000 
2511.2472    8.4776   87.8142    3.8362    5.3404    8.3883   94.1477    2.4469    0.3650   37.0000 
2511.3996    8.4776   93.9225    3.8140    5.3281    8.5557   92.7728    2.4561    0.3632   37.0000 
2511.5520    8.4776   95.9958    3.7488    5.4613    9.6604   91.0471    2.4672    0.3570   37.0000 
