~VERSION INFORMATION
 VERS.                 2.0:   CWLS LOG ASCII STANDARD - VERSION 2.0
 WRAP.                  NO:   SINGLE LINE PER DEPTH STEP
 CREA.                 04/06/2018 10:59:30
#CREATED USING DSPetro VERSION 5000.10.1.3 BY H191660 ON 04/06/2018 10:59:30
~WELL INFORMATION
#MNEM.UNIT       DATA                          DESCRIPTION MNEMONIC
#---------      ---------------------------   --------------------------
 STRT    .M         2084.9844                 : START DEPTH
 STOP    .M         3339.9984                 : STOP DEPTH
 STEP    .M         0.1524                    : STEP VALUE
 NULL    .      -999.0000                     : NULL VALUE
 DATE    .      04/06/2018                    : LAS file Creation Date
 WELL .      6610_7_1                    : Well Name
 COMP .      Neftex Exploration Insights : Company
 FLD  .                                  : Field
 UWI  .      YNOWL_661071                : Unique Well Identifier (UWI)
 LOC  .                                  : Location
 RWS  .      -999                        : Def_Rw
 WST  .      -999                        : Def_Rwt
 SRVC .                                  : Contractor
~CURVE INFORMATION
#MNEM              UNIT       API CODE   Curve Type Comments
#----------  --------------- ----------  ---------- -----------
 DEPTH      .M                         : Depth       
 CAL_INCH   .inch                      :             Caliper Log - A representation of the measured diameter of a borehole along its depth
 GR_API     .API                       : GammaRay    Gamma Ray (API) - Measures the intensity of natural gamma-ray radiation emitted from formations containing radioactive elements, such as K, Th and U
 RD_OHMM    .ohmm                      :             Unspecified Deep Resistivity - No accroynm or method of attainment is specified - units of ohmm
 RM_OHMM    .ohm.m                     :             Unspecified Medium Resistivity - No accroynm or method of attainment is specified
 RS_OHMM    .ohmm                      :             Unspecified Shallow Resistivity - No accroynm or method of attainment is specified
 DT_US_FT   .us/ft                     :             Interval Transit Time: Compressional Wave - Evaluates the time it takes for a compressional wave to traverse a fixed distance
 RHOB_G_CC  .g/cc                      :             Bulk Density - Measures the density of bulk material, including any void space or other materials contained in the subject volume
 NEUT_P_%   .PC                        :             Unspecified Neutron Porosity Log - No accroynm or method of attainment is specified
 LITH       .                          : LITH        Lithology Curve
~A  DEPTH  CAL_INCH   GR_API   RD_OHMM   RM_OHMM   RS_OHMM   DT_US_FT RHOB_G_C~  NEUT_P_%    LITH   
# ...
2670.2004    8.4040   39.3783    2.1818    2.9935    4.5078   81.1727    2.3739    0.1831   27.0000 
2670.3528    8.4040   41.1095    2.1932    2.9507    4.2469   81.2010    2.3574    0.1831   27.0000 
2670.5052    8.4040   41.1270    2.2268    3.0833    4.5487   81.0150    2.3619    0.1779   27.0000 
2670.6576    8.4040   43.7501    2.2717    3.1394    4.9248   80.6230    2.3659    0.1742   27.0000 
2670.8100    8.4040   36.2554    2.3755    3.3358    5.3466   80.0212    2.3734    0.1711   27.0000 
2670.9624    8.4040   36.1305    2.3777    3.3395    5.3159   79.3636    2.3841    0.1665   27.0000 
2671.1148    8.4180   36.1305    2.3777    3.3395    5.3581   77.4718    2.4031    0.1641   27.0000 
2671.2672    8.4590   42.0579    2.3777    3.4568    6.3912   77.3864    2.4151    0.1631   27.0000 
2671.4196    8.5039   43.3078    2.3425    3.4463    5.0766   77.2811    2.4165    0.1631   27.0000 
2671.5720    8.4818   48.9150    2.2877    3.3525    5.5047   79.2792    2.4165    0.1631   36.0000 
2671.7244    8.4457   48.9962    2.1813    3.2517    5.9646   80.0147    2.4118    0.1657   36.0000 
2671.8768    8.3975   48.9962    2.1082    2.8178    4.7065   80.6532    2.3718    0.1905   36.0000 
2672.0292    8.3469   48.9961    2.0617    2.6756    4.5518   81.1450    2.3395    0.1911   27.0000 
2672.1816    8.3076   35.8370    1.9494    2.6678    3.7465   81.5795    2.3314    0.1871   27.0000 
2672.3340    8.2832   30.6343    1.8588    2.6678    3.7416   81.8207    2.3254    0.1833   27.0000 
2672.4864    8.2762   31.4693    1.8261    2.6525    4.3207   82.0213    2.3121    0.1801   27.0000 
2672.6388    8.2887   31.8742    1.8192    2.6379    4.1222   82.2452    2.3058    0.1815   27.0000 
2672.7912    8.3299   32.6328    1.8691    2.3983    3.7208   82.0883    2.3044    0.1831   27.0000 
2672.9436    8.3763   36.6528    1.9017    2.3983    3.6309   81.6489    2.3650    0.1821   27.0000 
2673.0960    8.4397   38.8882    1.9303    2.7214    4.6032   80.7965    2.3746    0.1766   27.0000 
2673.2484    8.4928   41.3029    1.9685    2.9014    5.9182   80.0685    2.3903    0.1635   27.0000 
2673.4008    8.4939   43.0002    2.0707    3.2075    5.6071   79.2999    2.4080    0.1621   27.0000 
2673.5532    8.4822   42.3191    2.1436    3.2260    5.3178   79.0325    2.4073    0.1621   27.0000 
2673.7056    8.4687   41.2514    2.1753    3.1879    4.9388   79.6074    2.3946    0.1692   27.0000 
2673.8580    8.4639   43.7301    2.2189    3.0391    4.7490   81.2101    2.3870    0.1711   27.0000 
2674.0104    8.4639   45.0410    2.1860    2.9001    5.1168   81.2844    2.3732    0.1755   27.0000 
2674.1628    8.4652   46.1220    2.1684    2.9001    5.5233   80.4183    2.3830    0.1744   27.0000 
2674.3152    8.4797   48.4960    2.1460    3.1707    5.3170   79.2776    2.3969    0.1738   27.0000 
2674.4676    8.6038   45.7836    2.1238    3.1588    4.6031   79.0325    2.3982    0.1821   27.0000 
2674.6200    8.6037   44.4960    2.1171    2.8769    5.7951   79.0849    2.3952    0.1821   27.0000 
2674.7724    8.5988   42.4506    2.1008    2.8277    5.7575   79.2353    2.3682    0.1794   27.0000 
2674.9248    8.5906   42.0007    2.1819    2.8177    5.4278   79.3171    2.3574    0.1741   27.0000 
2675.0772    8.5844   40.3516    2.2358    2.8242    4.4217   79.3661    2.3553    0.1668   27.0000 
2675.2296    8.6043   41.9780    2.2551    3.0807    6.7998   79.3661    2.3686    0.1630   27.0000 
2675.3820    8.6758   50.8592    2.4650    3.3276    7.1120   78.4487    2.4011    0.1593   27.0000 
2675.5344    8.8036   57.4972    2.6296    3.4536    7.1968   78.5454    2.4160    0.1521   27.0000 
2675.6868    8.7878   83.8449    2.6603    3.5776    6.7203   78.6155    2.4723    0.1566   27.0000 
2675.8392    8.7674   83.7240    2.8802    3.7530    6.6164   78.6657    2.6297    0.1774   37.0000 
2675.9916    8.7541   81.7030    3.3454    5.1000    6.4864   77.6845    2.6229    0.2171   37.0000 
2676.1440    8.7536   81.3296    3.6179    5.2165    9.4290   76.9761    2.6164    0.1987   37.0000 
2676.2964    8.7772   78.0989    3.9569    5.3381   10.3651   76.3690    2.6069    0.1967   37.0000 
2676.4488    8.8085   77.5992    4.0606    5.5568    9.9954   77.1405    2.5480    0.1761   37.0000 
2676.6012    8.8389   77.3535    4.3267    5.9887    9.7852   77.5918    2.5431    0.1764   37.0000 
2676.7536    8.8735   77.5991    4.4148    6.2350    9.9720   78.0115    2.5433    0.1782   37.0000 
2676.9060    8.8835   82.0957    4.3544    6.6002   10.6406   78.3124    2.5464    0.1791   37.0000 
2677.0584    8.8835   82.2705    4.1609    6.7268   10.6457   78.2661    2.5526    0.1809   37.0000 
2677.2108    8.8834   84.8436    3.8893    6.7606   10.4754   79.3444    2.5665    0.1837   37.0000 
2677.3632    8.8834   83.5945    3.2887    5.7203    5.2822   80.6601    2.5742    0.1871   37.0000 
2677.5156    8.8643   83.3673    3.1434    4.1438    5.1103   81.4874    2.6450    0.2374   37.0000 
2677.6680    8.8283   80.1944    3.1433    3.4695    4.7922   81.7710    2.6813    0.2573   37.0000 
2677.8204    8.7823   76.0103    3.1343    3.3200    4.9575   81.9727    2.7467    0.2931   37.0000 
2677.9728    8.7487   68.9107    3.1448    3.5695    5.1791   81.7267    2.7411    0.2498   37.0000 
2678.1252    8.7246   66.8919    3.2325    3.8895    5.4106   75.5149    2.7357    0.2179   37.0000 
2678.2776    8.6889   65.6424    3.4001    4.3391    8.1956   71.6674    2.7824    0.1930   37.0000 
2678.4300    8.6758   59.6119    3.5320    6.4553   13.3281   69.4515    2.7764    0.1803   37.0000 
2678.5824    8.6935   76.1168    3.7511    8.3395   25.4011   70.1463    2.7671    0.1321   37.0000 
2678.7348    8.7119   84.3921    4.1817    9.7708   24.6794   73.6553    2.7547    0.2074   37.0000 
2678.8872    8.7418   90.0309    4.3333    8.2923   11.7673   83.5526    2.6097    0.2911   37.0000 
2679.0396    8.8230  104.0839    5.1127    7.2759   10.8799   83.7782    2.6099    0.2869   37.0000 
2679.1920    8.8963  103.8585    5.1127    7.3268   10.3051   83.7865    2.6114    0.2841   37.0000 
2679.3444    8.8990  103.5082    5.0062    7.4117   14.8959   83.7865    2.6164    0.2745   37.0000 
2679.4968    8.8907  111.1981    4.4786    7.4544   10.2578   83.8613    2.6197    0.2861   37.0000 
2679.6492    8.8834  111.1980    4.4658    6.6346   10.5450   87.1767    2.6164    0.2977   37.0000 
2679.8016    8.8851  111.1979    4.4366    6.5866   11.3512   87.2743    2.6164    0.2931   37.0000 
2679.9540    8.8911  111.1979    4.3907    6.5865   11.5625   87.2142    2.6164    0.2931   37.0000 
2680.1064    8.9157  102.1827    4.3547    6.6556   10.0364   86.9459    2.6164    0.2931   37.0000 
2680.2588    8.9518  101.8298    4.2876    6.7012   10.1870   86.4531    2.6137    0.2975   37.0000 
2680.4112    8.9633  101.8297    4.2230    6.7534    9.8969   85.7511    2.6081    0.2904   37.0000 
2680.5636    8.9633  107.7079    4.1999    6.7205    9.6726   85.0867    2.6134    0.2531   37.0000 
2680.7160    8.9633  108.3046    4.1685    6.6644    9.5618   84.0367    2.6231    0.2561   37.0000 
2680.8684    8.9633  108.7802    4.1676    6.6353   10.0038   84.0669    2.6314    0.2588   37.0000 
2681.0208    8.9632  112.9460    4.1676    6.5298   10.2722   84.7689    2.6331    0.2621   37.0000 
2681.1732    8.9632  108.7917    4.1676    6.4060   10.3628   85.3186    2.6331    0.2876   37.0000 
2681.3256    8.9632   98.7067    4.1717    6.0939   10.0801   85.3711    2.6331    0.3003   37.0000 
2681.4780    8.9632   98.7066    4.2152    6.2797    9.4522   85.2170    2.6331    0.3071   37.0000 
2681.6304    8.9632   98.9097    4.2280    6.5192    9.3202   84.8660    2.6378    0.2938   37.0000 
2681.7828    8.9632   99.2248    4.2893    6.7224   11.0562   84.3205    2.6397    0.2914   37.0000 
2681.9352    8.9695  105.8260    4.3063    6.9968   12.1783   83.8981    2.6247    0.2781   37.0000 
2682.0876    8.9739  112.1961    4.3264    6.9967   12.3180   84.1488    2.6193    0.2854   37.0000 
2682.2400    9.0869  112.1961    4.3264    6.9967   12.0203   84.6924    2.6145    0.2872   37.0000 
