~VERSION INFORMATION
 VERS.                 2.0:   CWLS LOG ASCII STANDARD - VERSION 2.0
 WRAP.                  NO:   SINGLE LINE PER DEPTH STEP
 CREA.                 04/06/2018 10:59:30
#CREATED USING DSPetro VERSION 5000.10.1.3 BY H191660 ON 04/06/2018 10:59:30
~WELL INFORMATION
#MNEM.UNIT       DATA                          DESCRIPTION MNEMONIC
#---------      ---------------------------   --------------------------
 STRT    .M         2084.9844                 : START DEPTH
 STOP    .M         3339.9984                 : STOP DEPTH
 STEP    .M         0.1524                    : STEP VALUE
 NULL    .      -999.0000                     : NULL VALUE
 DATE    .      04/06/2018                    : LAS file Creation Date
 WELL .      6610_7_1                    : Well Name
 COMP .      Neftex Exploration Insights : Company
 FLD  .                                  : Field
 UWI  .      YNOWL_661071                : Unique Well Identifier (UWI)
 LOC  .                                  : Location
 RWS  .      -999                        : Def_Rw
 WST  .      -999                        : Def_Rwt
 SRVC .                                  : Contractor
~CURVE INFORMATION
#MNEM              UNIT       API CODE   Curve Type Comments
#----------  --------------- ----------  ---------- -----------
 DEPTH      .M                         : Depth       
 CAL_INCH   .inch                      :             Caliper Log - A representation of the measured diameter of a borehole along its depth
 GR_API     .API                       : GammaRay    Gamma Ray (API) - Measures the intensity of natural gamma-ray radiation emitted from formations containing radioactive elements, such as K, Th and U
 RD_OHMM    .ohmm                      :             Unspecified Deep Resistivity - No accroynm or method of attainment is specified - units of ohmm
 RM_OHMM    .ohm.m                     :             Unspecified Medium Resistivity - No accroynm or method of attainment is specified
 RS_OHMM    .ohmm                      :             Unspecified Shallow Resistivity - No accroynm or method of attainment is specified
 DT_US_FT   .us/ft                     :             Interval Transit Time: Compressional Wave - Evaluates the time it takes for a compressional wave to traverse a fixed distance
 RHOB_G_CC  .g/cc                      :             Bulk Density - Measures the density of bulk material, including any void space or other materials contained in the subject volume
 NEUT_P_%   .PC                        :             Unspecified Neutron Porosity Log - No accroynm or method of attainment is specified
 LITH       .                          : LITH        Lithology Curve
~A  DEPTH  CAL_INCH   GR_API   RD_OHMM   RM_OHMM   RS_OHMM   DT_US_FT RHOB_G_C~  NEUT_P_%    LITH   
# ...
3084.7284    8.1381   65.5730    1.9649    4.9829   14.8544   77.1411    2.4068    0.1613   36.0000 
3084.8808    8.1381   64.6985    1.9186    4.6281    6.3603   76.3968    2.4148    0.1881   36.0000 
3085.0332    8.1381   74.1074    1.8562    4.5571    6.3887   75.4299    2.4178    0.1959   36.0000 
3085.1856    8.1381   76.0175    1.8005    6.2032    6.4196   74.9048    2.4192    0.1981   36.0000 
3085.3380    8.1381   83.5399    1.7368    6.2571   17.7099   75.1542    2.4198    0.1939   36.0000 
3085.4904    8.1380   83.6868    1.7189    5.9067   17.5575   76.9247    2.4108    0.1849   36.0000 
3085.6428    8.1380   83.7401    1.5036    4.5281    4.8231   78.3482    2.3998    0.1711   36.0000 
3085.7952    8.1438   74.7525    1.4361    3.5059    4.7999   78.7277    2.3951    0.1661   36.0000 
3085.9476    8.1480   71.6068    1.3062    3.5310    6.8020   78.9239    2.3809    0.1704   36.0000 
3086.1000    8.1480   67.2045    1.2723    3.5522    6.6771   78.7653    2.3848    0.1795   36.0000 
3086.2524    8.1480   63.8554    1.2465    3.5775    4.4663   78.5219    2.3898    0.1821   36.0000 
3086.4048    8.1504   62.6906    1.1262    2.9408    4.5062   78.8447    2.3697    0.1811   36.0000 
3086.5572    8.1556   61.1698    1.1205    2.9527    4.5613   79.0062    2.3598    0.1794   36.0000 
3086.7096    8.1579   58.7915    1.1199    3.1331    4.6103   78.9948    2.3681    0.1743   36.0000 
3086.8620    8.1579   58.4533    1.1552    3.1843    4.7109   78.8444    2.3863    0.1555   36.0000 
3087.0144    8.1579   58.2873    1.1758    3.4279    4.7827   78.4254    2.4023    0.1652   36.0000 
3087.1668    8.1579   59.4724    1.1968    3.7563    7.7134   77.2230    2.4148    0.1691   36.0000 
3087.3192    8.1578   60.6704    1.2281    4.3187    7.7675   76.9331    2.4148    0.1691   36.0000 
3087.4716    8.1578   61.5741    1.2281    3.6312    7.7056   77.4824    2.3765    0.1554   27.0000 
3087.6240    8.1181   52.4027    1.2281    3.3770    4.9293   77.8908    2.3707    0.1541   27.0000 
3087.7764    8.0569   48.6864    1.2282    2.8779    4.1408   78.1711    2.3627    0.1528   27.0000 
3087.9288    8.0388   47.4553    1.3123    2.9157    4.0967   78.1709    2.3513    0.1380   27.0000 
3088.0812    8.0378   42.5845    1.3262    3.1066    4.1844   77.7941    2.3596    0.1089   27.0000 
3088.2336    8.0930   45.8326    1.4416    3.5985    5.1657   76.3614    2.3762    0.1091   27.0000 
3088.3860    8.1478   43.7072    1.5156    4.1141   11.3964   74.2691    2.3872    0.1090   27.0000 
3088.5384    8.1577   40.8352    1.5919    5.2671   16.3769   72.3730    2.3970    0.1070   27.0000 
3088.6908    8.1295   49.4202    1.6863    5.5606   16.7202   72.2295    2.4183    0.1271   27.0000 
3088.8432    8.0734   50.6290    1.8546    5.4385   16.7203   74.1553    2.4466    0.1319   27.0000 
3088.9956    8.0442   53.1763    1.8546    3.8124    4.9695   76.0409    2.3954    0.1421   27.0000 
3089.1480    8.0277   59.2609    1.8547    3.7512    9.8107   75.5073    2.3915    0.1445   27.0000 
3089.3004    8.0402   59.0455    1.8334    4.2554    9.8107   74.9200    2.4042    0.1464   36.0000 
3089.4528    8.0862   58.5896    1.7159    4.2903    5.8993   75.1628    2.4132    0.1511   36.0000 
3089.6052    8.1421   55.5448    1.6557    4.2735    5.9598   76.0967    2.4197    0.1511   36.0000 
3089.7576    8.1676   53.0777    1.6136    4.0619    6.0152   77.0129    2.4366    0.1511   36.0000 
3089.9100    8.1276   53.0776    1.5804    3.9350    6.7400   77.3346    2.4307    0.1511   36.0000 
3090.0624    8.1276   53.0775    1.5429    3.9715    6.8039   76.7212    2.4249    0.1511   36.0000 
3090.2148    8.1276   59.0741    1.5134    4.0037    6.8040   76.0510    2.4284    0.1500   36.0000 
3090.3672    8.1276   59.0741    1.4900    3.9957    6.1779   75.7353    2.4299    0.1491   36.0000 
3090.5196    8.1276   54.5095    1.4658    3.7568    5.7567   76.5097    2.4089    0.1464   27.0000 
3090.6720    8.1275   51.9527    1.4282    3.5665    5.5569   77.0009    2.3942    0.1435   27.0000 
3090.8244    8.1275   49.7848    1.4056    3.3778    5.4974   77.4290    2.3865    0.1431   27.0000 
3090.9768    8.1275   49.3582    1.3778    3.5010    5.4974   77.4863    2.3811    0.1512   27.0000 
3091.1292    8.1275   48.5792    1.3547    3.6197    6.6684   77.2607    2.3766    0.1531   27.0000 
3091.2816    8.1275   48.5791    1.3426    3.6198    6.6514   77.0209    2.3736    0.1531   27.0000 
3091.4340    8.1275   48.5790    1.3247    3.5923    6.1690   76.8592    2.3711    0.1531   27.0000 
3091.5864    8.1274   48.5789    1.3003    3.5462    5.9575   76.7588    2.3693    0.1531   27.0000 
3091.7388    8.1274   49.0436    1.2801    3.5170    5.8177   76.8024    2.3665    0.1531   27.0000 
3091.8912    8.1274   49.3933    1.2643    3.2820    5.7168   77.1381    2.3665    0.1521   27.0000 
3092.0436    8.1203   45.3737    1.2625    3.2632    5.6106   77.7308    2.3665    0.1521   27.0000 
3092.1960    8.0992   45.4924    1.2429    3.2632    5.5599   78.1659    2.3665    0.1521   27.0000 
3092.3484    8.0540   45.9484    1.2363    3.2632    5.5479   78.4134    2.3665    0.1521   27.0000 
3092.5008    8.0277   48.0859    1.2244    3.2632    6.2231   78.2747    2.3724    0.1450   27.0000 
3092.6532    8.0174   49.5504    1.2165    3.2492    6.1460   77.2467    2.3773    0.1460   27.0000 
3092.8056    8.0174   51.2624    1.2061    3.2352    5.8427   77.2465    2.3795    0.1541   27.0000 
3092.9580    8.0174   51.5765    1.1937    3.2166    5.4150   77.2462    2.3815    0.1581   27.0000 
3093.1104    8.0174   53.7113    1.1813    3.1889    5.2022   77.2983    2.3886    0.1567   27.0000 
3093.2628    8.0149   53.2358    1.1725    3.1615    5.1751   77.4106    2.3679    0.1499   27.0000 
3093.4152    8.0059   51.2891    1.1622    3.0624    6.0936   77.5566    2.3616    0.1451   27.0000 
3093.5676    7.9973   49.9091    1.1584    2.9759    6.1698   77.8063    2.3582    0.1430   27.0000 
3093.7200    7.9973   49.8269    1.1530    2.9759    5.7605   78.1544    2.3869    0.1496   27.0000 
3093.8724    7.9938   49.8268    1.1510    2.9759    5.3762   78.5512    2.3916    0.1570   27.0000 
3094.0248    7.9873   49.5769    1.1410    2.9760    5.1753   78.8510    2.3916    0.1611   27.0000 
3094.1772    7.9873   41.4557    1.1151    2.9846    5.3265   79.1601    2.3916    0.1621   27.0000 
3094.3296    7.9872   44.4785    1.0998    3.0998    6.7272   78.2219    2.3775    0.1570   27.0000 
3094.4820    7.9872   44.7453    1.0852    3.1345    6.7856   76.9238    2.3622    0.1570   27.0000 
3094.6344    7.9872   46.3130    1.0585    3.1345    5.7910   77.3833    2.3599    0.1570   27.0000 
3094.7868    7.9872   48.4519    1.0474    3.0367    4.2930   78.1421    2.3599    0.1548   27.0000 
3094.9392    7.9926   42.8296    1.0179    2.8314    4.3096   78.9849    2.3599    0.1500   27.0000 
3095.0916    8.0146   47.1255    0.9644    2.6674    5.2207   78.8511    2.3568    0.1400   27.0000 
3095.2440    8.0438   47.5771    0.9645    2.7069    5.3210   78.2460    2.3393    0.1496   27.0000 
3095.3964    8.0815   42.4520    0.9664    2.7296    5.1827   77.4518    2.3580    0.1547   27.0000 
3095.5488    8.1372   42.2044    1.0213    2.7297    4.8848   77.3252    2.3936    0.1643   27.0000 
3095.7012    8.1737   42.0793    1.0713    2.7345    4.4554   77.4874    2.3966    0.1670   27.0000 
3095.8536    8.1665   41.4545    1.0925    2.7455    5.8081   79.0804    2.3888    0.1640   27.0000 
3096.0060    8.1593   50.2503    1.1667    2.7534    5.7914   79.3236    2.3722    0.1640   27.0000 
3096.1584    8.1521   62.7317    1.1891    3.4975   28.3405   79.1778    2.3762    0.2165   36.0000 
3096.3108    8.1406   65.7592    1.1797    5.5277   28.9182   75.4081    2.3915    0.2271   36.0000 
3096.4632    8.1190   82.9350    1.1574    5.7416    5.7359   75.4078    2.4400    0.2110   36.0000 
3096.6156    8.0983   82.1852    0.9998    3.7862    5.7275   78.5591    2.4416    0.1730   36.0000 
3096.7680    8.0776   76.7006    0.9666    2.7541    5.7190   81.2861    2.4322    0.1674   36.0000 
