~VERSION INFORMATION
 VERS.                 2.0:   CWLS LOG ASCII STANDARD - VERSION 2.0
 WRAP.                  NO:   SINGLE LINE PER DEPTH STEP
 CREA.                 04/06/2018 10:59:30
#CREATED USING DSPetro VERSION 5000.10.1.3 BY H191660 ON 04/06/2018 10:59:30
~WELL INFORMATION
#MNEM.UNIT       DATA                          DESCRIPTION MNEMONIC
#---------      ---------------------------   --------------------------
 STRT    .M         2084.9844                 : START DEPTH
 STOP    .M         3339.9984                 : STOP DEPTH
 STEP    .M         0.1524                    : STEP VALUE
 NULL    .      -999.0000                     : NULL VALUE
 DATE    .      04/06/2018                    : LAS file Creation Date
 WELL .      6610_7_1                    : Well Name
 COMP .      Neftex Exploration Insights : Company
 FLD  .                                  : Field
 UWI  .      YNOWL_661071                : Unique Well Identifier (UWI)
 LOC  .                                  : Location
 RWS  .      -999                        : Def_Rw
 WST  .      -999                        : Def_Rwt
 SRVC .                                  : Contractor
~CURVE INFORMATION
#MNEM              UNIT       API CODE   Curve Type Comments
#----------  --------------- ----------  ---------- -----------
 DEPTH      .M                         : Depth       
 CAL_INCH   .inch                      :             Caliper Log - A representation of the measured diameter of a borehole along its depth
 GR_API     .API                       : GammaRay    Gamma Ray (API) - Measures the intensity of natural gamma-ray radiation emitted from formations containing radioactive elements, such as K, Th and U
 RD_OHMM    .ohmm                      :             Unspecified Deep Resistivity - No accroynm or method of attainment is specified - units of ohmm
 RM_OHMM    .ohm.m                     :             Unspecified Medium Resistivity - No accroynm or method of attainment is specified
 RS_OHMM    .ohmm                      :             Unspecified Shallow Resistivity - No accroynm or method of attainment is specified
 DT_US_FT   .us/ft                     :             Interval Transit Time: Compressional Wave - Evaluates the time it takes for a compressional wave to traverse a fixed distance
 RHOB_G_CC  .g/cc                      :             Bulk Density - Measures the density of bulk material, including any void space or other materials contained in the subject volume
 NEUT_P_%   .PC                        :             Unspecified Neutron Porosity Log - No accroynm or method of attainment is specified
 LITH       .                          : LITH        Lithology Curve
~A  DEPTH  CAL_INCH   GR_API   RD_OHMM   RM_OHMM   RS_OHMM   DT_US_FT RHOB_G_C~  NEUT_P_%    LITH   
# ...
2999.3844    8.1855   81.7013    3.6113    8.1497   23.5611   82.0784    2.4065    0.1671   36.0000 
2999.5368    8.2159   86.0566    5.1234   28.2402  106.3910   83.3515    2.3885    0.1636   36.0000 
2999.6892    8.2817  149.5942    5.5497   37.6768  107.7601   80.1911    2.3863    0.1636   36.0000 
2999.8416    8.3513  149.7043    5.9583   63.8024  103.8681   80.6912    2.4013    0.1645   36.0000 
2999.9940    8.4160  184.6210   10.9062   61.7482   71.9284   81.0032    2.4290    0.1683   37.0000 
3000.1464    8.4728  185.5298   11.7188   59.5554   67.6814   81.4692    2.4290    0.1846   37.0000 
3000.2988    8.5466  185.3741   13.9833   54.9571   61.6657   82.2680    2.4383    0.3220   37.0000 
3000.4512    8.5924  149.9691   14.8824   52.6120   26.1765   81.4029    2.4776    0.3736   37.0000 
3000.6036    8.6047  149.9692   18.4317   44.6637   25.7222   75.2673    2.5857    0.3952   37.0000 
3000.7560    8.5604  149.9693   18.6316   59.6281   26.4454   63.7746    2.7389    0.4313   37.0000 
3000.9084    8.4547  126.2919   18.8876   65.8289   79.7165   63.1441    2.7364    0.4375   37.0000 
3001.0608    8.4250  125.9728   20.6894   81.3568   79.3761   62.4468    2.7023    0.4595   37.0000 
3001.2132    8.4159  147.7233   20.8648   62.3301   74.6140   63.9606    2.6978    0.4148   37.0000 
3001.3656    8.4388  147.7233   20.8649   56.2966   50.2556   65.7224    2.6850    0.3895   37.0000 
3001.5180    8.4938  147.7234   19.8946   49.8722   46.1868   66.1957    2.6701    0.3655   37.0000 
3001.6704    8.5324  147.0365   17.4881   48.6334   42.5461   66.1242    2.6731    0.3432   37.0000 
3001.8228    8.5556  125.2606   16.7556   45.9614   18.9717   65.2198    2.6778    0.3074   37.0000 
3001.9752    8.5240  111.7827   11.8832   36.7014   19.2682   64.7537    2.6822    0.2900   37.0000 
3002.1276    8.4325   97.6809    8.2393   24.1009   19.7460   64.4068    2.7006    0.2819   37.0000 
3002.2800    8.4184   97.6809    7.9486   22.0544   35.3412   64.2517    2.6739    0.2516   37.0000 
3002.4324    8.4171   97.8693    7.6179   21.3535   35.7744   64.4805    2.6930    0.2510   37.0000 
3002.5848    8.4271  106.2918    5.8585    9.9662   35.5688   67.1809    2.6850    0.2492   37.0000 
3002.7372    8.4544  134.9949    4.9844    8.8091    8.3253   69.5523    2.6670    0.2476   37.0000 
3002.8896    8.4839  134.9950    4.5013    7.5416    8.3256   71.2529    2.5790    0.2185   37.0000 
3003.0420    8.4171  133.9967    3.6576    7.3734   10.8363   72.4493    2.5469    0.2105   37.0000 
3003.1944    8.3225  114.0299    3.0805    7.2118   12.3473   73.5681    2.5206    0.2011   37.0000 
3003.3468    8.2959  100.3748    2.9881    7.0351   12.2949   74.1563    2.5240    0.2039   37.0000 
3003.4992    8.2980   90.7477    2.7302    5.2295   12.0263   75.0900    2.5256    0.2046   37.0000 
3003.6516    8.3083   87.9356    2.5108    5.3566    7.5644   76.8027    2.5272    0.2016   36.0000 
3003.8040    8.3255   79.8284    2.4158    5.5697    5.6227   77.8945    2.4638    0.2016   36.0000 
3003.9564    8.3497   73.2204    2.3667    5.9723    5.5400   77.6429    2.4290    0.2046   36.0000 
3004.1088    8.3560   77.3406    2.1573    6.3310   12.5270   77.2140    2.4140    0.2136   36.0000 
3004.2612    8.3400   79.2840    2.1520    6.3091   12.3220   76.8451    2.4507    0.2044   36.0000 
3004.4136    8.3198   78.6091    2.1542    5.1697   10.8149   77.7369    2.4606    0.1986   36.0000 
3004.5660    8.2658   77.1571    2.2211    4.4004    5.3399   79.6592    2.4673    0.1878   36.0000 
3004.7184    8.1938   72.8902    2.3270    4.3543    4.9311   81.9624    2.4673    0.1810   36.0000 
3004.8708    8.1617   65.4017    2.4162    4.3447    5.5450   84.5243    2.4317    0.1686   36.0000 
3005.0232    8.1260   63.6105    2.8474    5.8899    6.9874   85.2228    2.4098    0.1768   36.0000 
3005.1756    8.1287   90.8168    3.0634    9.8615   16.7619   83.2721    2.4008    0.1796   36.0000 
3005.3280    8.4258   91.1283    3.5643   10.3271   16.7620   80.6862    2.3883    0.1808   36.0000 
3005.4804    8.4754   97.3064    3.5452   10.3869   12.2068   78.5139    2.3191    0.1710   36.0000 
3005.6328    8.4706  101.4682    4.9822   10.3825   12.5862   73.1355    2.3744    0.1706   36.0000 
3005.7852    8.4274  107.2905    5.0889   10.3572   13.4642   71.9841    2.5153    0.1858   37.0000 
3005.9376    8.3739  150.2221    5.6158   10.4579   21.8995   70.7796    2.5140    0.1961   37.0000 
3006.0900    8.3348  150.2222    5.5730   13.2274   39.6921   68.3737    2.5093    0.2060   37.0000 
3006.2424    8.2946  209.1002    5.4646   17.7346   39.0115   66.5281    2.5047    0.2202   37.0000 
3006.3948    8.2984  211.5349    5.4088   18.3909   12.7835   66.2639    2.5664    0.2286   37.0000 
3006.5472    8.5182  211.1944    4.1369   18.7576   26.2635   66.4137    2.5818    0.2176   37.0000 
3006.6996    8.6243  200.7592    2.6780    7.4402   26.1015   67.6507    2.5990    0.2046   37.0000 
3006.8520    8.5766  199.2124    2.5148    7.2873    7.9451   69.1384    2.5975    0.2046   37.0000 
3007.0044    8.4792  140.7944    2.2630    5.9007    7.4530   72.7611    2.5930    0.2182   37.0000 
3007.1568    8.3872  140.6130    1.6215    3.8355    7.1090   75.3223    2.5888    0.2310   37.0000 
3007.3092    8.2456  106.4796    1.6048    3.6395    6.8471   80.2893    2.4279    0.2436   37.0000 
3007.4616    8.1288  105.6721    1.5141    2.9470    5.9834   81.9092    2.4023    0.2269   37.0000 
3007.6140    8.1333  104.0743    1.2588    2.9470    4.1410   82.9168    2.3860    0.2205   37.0000 
3007.7664    8.1470   62.1586    1.2140    2.9470    3.9819   83.4689    2.3680    0.2131   36.0000 
3007.9188    8.1385   63.1816    1.1699    2.9333    3.9660   83.4866    2.3507    0.2005   36.0000 
3008.0712    8.1357   69.3004    1.1522    2.8980    5.1764   83.4997    2.3453    0.1891   36.0000 
3008.2236    8.1372   69.2253    1.1496    2.7580    5.0965   82.9318    2.3441    0.1676   36.0000 
3008.3760    8.1407   68.8425    1.1749    2.7578    4.0935   81.9606    2.3441    0.1694   36.0000 
3008.5284    8.1443   59.9895    1.2023    2.7501    4.1773   81.2861    2.3485    0.1862   36.0000 
3008.6808    8.1456   65.4339    1.3171    3.5239   10.4484   80.3440    2.3523    0.1876   36.0000 
3008.8332    8.1474   75.1942    1.3261    3.6044   10.2809   77.6333    2.3745    0.1870   37.0000 
3008.9856    8.1546   88.5081    1.3318    3.7010    5.8244   77.0554    2.3858    0.1805   37.0000 
3009.1380    8.1555   88.1707    1.3377    3.6692    8.6382   77.8191    2.3936    0.1716   36.0000 
3009.2904    8.1610   78.6344    1.3377    3.4140    5.8112   79.8283    2.4235    0.1589   36.0000 
3009.4428    8.1555   78.3356    1.3290    3.2298    5.3541   80.5368    2.4274    0.1576   36.0000 
3009.5952    8.1555   77.7116    1.2936    2.9008    4.5199   81.0915    2.4226    0.1576   36.0000 
3009.7476    8.1555   71.2049    1.1061    2.5728    4.4526   81.5408    2.3755    0.1646   36.0000 
3009.9000    8.1652   65.8548    1.0899    2.4931    4.4122   82.1075    2.3693    0.1824   36.0000 
3010.0524    8.1591   65.7299    1.0743    2.3995    4.3209   82.5692    2.3573    0.1912   36.0000 
3010.2048    8.1535   65.4268    0.9606    2.2542    3.9806   82.8664    2.3483    0.1866   36.0000 
3010.3572    8.1483   61.8316    0.9468    2.2284    3.8553   83.0481    2.3289    0.1783   36.0000 
3010.5096    8.1454   61.6066    0.9384    2.2092    3.7442   83.1312    2.3291    0.1754   36.0000 
3010.6620    8.1454   64.7628    0.9303    2.6346    5.2311   82.0698    2.3291    0.1726   36.0000 
3010.8144    8.1454   66.2122    0.9151    2.6852    5.2312   81.1177    2.3291    0.1726   36.0000 
3010.9668    8.1454   71.8452    0.9001    2.7584    4.7558   80.9741    2.3583    0.1746   36.0000 
3011.1192    8.1453   71.6907    0.8860    2.3472    4.0666   82.7184    2.3608    0.1779   36.0000 
3011.2716    8.1453   59.7295    0.8725    2.0350    3.4045   83.0466    2.3456    0.1787   36.0000 
3011.4240    8.1453   59.3920    0.8557    2.0321    3.9789   83.1297    2.3411    0.1835   36.0000 
