~VERSION INFORMATION
 VERS.                 2.0:   CWLS LOG ASCII STANDARD - VERSION 2.0
 WRAP.                  NO:   SINGLE LINE PER DEPTH STEP
 CREA.                 04/06/2018 10:59:30
#CREATED USING DSPetro VERSION 5000.10.1.3 BY H191660 ON 04/06/2018 10:59:30
~WELL INFORMATION
#MNEM.UNIT       DATA                          DESCRIPTION MNEMONIC
#---------      ---------------------------   --------------------------
 STRT    .M         2084.9844                 : START DEPTH
 STOP    .M         3339.9984                 : STOP DEPTH
 STEP    .M         0.1524                    : STEP VALUE
 NULL    .      -999.0000                     : NULL VALUE
 DATE    .      04/06/2018                    : LAS file Creation Date
 WELL .      6610_7_1                    : Well Name
 COMP .      Neftex Exploration Insights : Company
 FLD  .                                  : Field
 UWI  .      YNOWL_661071                : Unique Well Identifier (UWI)
 LOC  .                                  : Location
 RWS  .      -999                        : Def_Rw
 WST  .      -999                        : Def_Rwt
 SRVC .                                  : Contractor
~CURVE INFORMATION
#MNEM              UNIT       API CODE   Curve Type Comments
#----------  --------------- ----------  ---------- -----------
 DEPTH      .M                         : Depth       
 CAL_INCH   .inch                      :             Caliper Log - A representation of the measured diameter of a borehole along its depth
 GR_API     .API                       : GammaRay    Gamma Ray (API) - Measures the intensity of natural gamma-ray radiation emitted from formations containing radioactive elements, such as K, Th and U
 RD_OHMM    .ohmm                      :             Unspecified Deep Resistivity - No accroynm or method of attainment is specified - units of ohmm
 RM_OHMM    .ohm.m                     :             Unspecified Medium Resistivity - No accroynm or method of attainment is specified
 RS_OHMM    .ohmm                      :             Unspecified Shallow Resistivity - No accroynm or method of attainment is specified
 DT_US_FT   .us/ft                     :             Interval Transit Time: Compressional Wave - Evaluates the time it takes for a compressional wave to traverse a fixed distance
 RHOB_G_CC  .g/cc                      :             Bulk Density - Measures the density of bulk material, including any void space or other materials contained in the subject volume
 NEUT_P_%   .PC                        :             Unspecified Neutron Porosity Log - No accroynm or method of attainment is specified
 LITH       .                          : LITH        Lithology Curve
~A  DEPTH  CAL_INCH   GR_API   RD_OHMM   RM_OHMM   RS_OHMM   DT_US_FT RHOB_G_C~  NEUT_P_%    LITH   
# ...
2584.8564    9.1347  103.2288    3.6331    5.1352    8.6667   88.9526    2.5506    0.3151   37.0000 
2585.0088    9.1347  103.2289    3.6331    5.1839    8.9353   88.7912    2.5481    0.3061   37.0000 
2585.1612    9.1347  103.2375    3.6123    5.3137    8.1487   88.4919    2.5481    0.3292   37.0000 
2585.3136    9.1347  108.1729    3.5915    5.4000    8.2074   88.1242    2.5466    0.3341   37.0000 
2585.4660    9.1347  108.0199    3.5915    5.4466    8.5702   87.7302    2.5448    0.3540   37.0000 
2585.6184    9.1348  107.6707    3.5709    5.4528    9.1964   87.7156    2.5448    0.3550   37.0000 
2585.7708    9.1256  107.4776    3.5588    5.3689    8.9903   87.8026    2.5485    0.3518   37.0000 
2585.9232    9.1148  111.5339    3.5303    5.2832    8.4712   88.1017    2.5565    0.3490   37.0000 
2586.0756    9.1148  112.0432    3.4445    5.0887    8.2431   88.3861    2.5631    0.3432   37.0000 
2586.2280    9.1148  116.2242    3.3517    5.0887    8.0554   88.4459    2.5692    0.3374   37.0000 
2586.3804    9.1148  110.9381    3.3517    5.0887    8.6640   88.4086    2.5675    0.3341   37.0000 
2586.5328    9.1149  106.8008    3.3724    5.0887    9.4107   88.3230    2.5573    0.3278   37.0000 
2586.6852    9.1203  106.3514    3.3807    4.8345    9.1187   88.1379    2.4681    0.3151   37.0000 
2586.8376    9.1441  103.8548    3.3950    4.4445    8.2894   87.7785    2.4667    0.3459   37.0000 
2586.9900    9.1746  103.9798    3.4251    4.4831    7.6565   87.3539    2.5289    0.3510   37.0000 
2587.1424    9.2381  104.4054    3.4397    4.7269    7.3887   86.8641    2.5461    0.3356   37.0000 
2587.2948    9.2649  105.0266    3.4442    4.9128    8.0091   86.2910    2.5754    0.3228   37.0000 
2587.4472    9.2649  106.4691    3.5162    4.9564    7.6837   85.6283    2.5864    0.3580   37.0000 
2587.5996    9.2557  108.7282    3.5709    5.6772    8.4840   84.8551    2.5817    0.3590   37.0000 
2587.7520    9.2449  103.6216    3.5812    5.7429    8.8227   84.2706    2.5711    0.3553   37.0000 
2587.9044    9.2449   98.7326    3.5894    5.7429   10.0261   83.6435    2.5164    0.2967   37.0000 
2588.0568    9.2450   98.4828    3.6019    5.6825    9.8445   84.2291    2.5184    0.2952   37.0000 
2588.2092    9.2450  104.9081    3.6111    4.9187    8.6726   85.6691    2.5214    0.2970   37.0000 
2588.3616    9.2473  107.9295    3.6647    4.9498    8.2907   86.6377    2.5260    0.3118   37.0000 
2588.5140    9.2771  118.0999    3.6276    4.9942    8.4429   86.9344    2.5433    0.3151   37.0000 
2588.6664    9.3089  118.1000    3.6408    5.0056    8.7099   86.9630    2.5992    0.3191   37.0000 
2588.8188    9.3644  118.1001    3.6013    5.0339    8.8329   86.8076    2.6116    0.3259   37.0000 
2588.9712    9.4956   95.2347    3.5915    5.1126    7.9631   85.6200    2.6196    0.3241   37.0000 
2589.1236    9.5999   95.2348    3.5915    5.2828    7.7396   84.0463    2.6818    0.3331   37.0000 
2589.2760    9.4909  101.0810    3.6019    5.2828    7.9511   83.7470    2.6488    0.3300   37.0000 
2589.4284    9.4320  102.3309    3.6019    5.1846    8.3163   83.7577    2.6192    0.3214   37.0000 
2589.5808    9.3861  107.8636    3.6019    4.8852    8.9352   84.1879    2.5979    0.3321   37.0000 
2589.7332    9.3585  108.9729    3.6019    4.6988    8.8136   84.2569    2.5834    0.3321   37.0000 
2589.8856    9.3551  110.5646    3.5762    4.6541    8.1996   83.8390    2.5636    0.3247   37.0000 
2590.0380    9.3784  114.6023    3.5360    4.6408    7.7500   83.3760    2.5564    0.3136   37.0000 
2590.1904    9.4274  109.4655    3.4997    5.0160    8.5581   83.5228    2.5543    0.3111   37.0000 
2590.3428    9.4605  110.0808    3.5098    4.9725    8.8996   83.6936    2.5481    0.3089   37.0000 
2590.4952    9.4821  111.5307    3.5098    4.9353    8.8787   83.9809    2.5510    0.3012   37.0000 
2590.6476    9.4851  112.9185    3.6123    4.8178    8.3972   84.2800    2.5637    0.2971   37.0000 
2590.8000    9.4851  106.8560    3.6308    4.8877    7.5629   84.2929    2.5797    0.3015   37.0000 
2590.9524    9.4851  109.3550    3.6332    5.0246    8.0776   84.1665    2.5872    0.2818   37.0000 
2591.1048    9.4559  109.3551    3.6230    4.9731    7.0559   83.8702    2.5664    0.2790   37.0000 
2591.2572    9.3938  103.3994    3.5247    4.9219    7.3093   83.4854    2.5647    0.2752   37.0000 
2591.4096    9.3363   99.0306    3.4940    4.9018    8.3320   83.0440    2.5891    0.2721   37.0000 
2591.5620    9.2729   96.9299    3.4760    5.3904   12.2204   82.5452    2.6071    0.2725   37.0000 
2591.7144    9.1927   90.9882    3.4696    5.3540   18.7291   79.2466    2.5844    0.3103   37.0000 
2591.8668    9.1554   90.8478    3.4403    5.0319   22.8455   81.5474    2.5764    0.3201   37.0000 
2592.0192    9.2487   90.7385    3.3717    4.7828    6.7759   83.4659    2.5747    0.3259   37.0000 
2592.1716    9.3553  102.3504    3.3466    4.3309    6.6995   85.3645    2.5314    0.3520   37.0000 
2592.3240    9.3524  112.4796    3.3294    4.3184    6.8877   85.2382    2.5468    0.3422   37.0000 
2592.4764    9.3328  112.4797    3.3039    4.6945    8.2906   84.9766    2.5631    0.3021   37.0000 
2592.6288    9.3254  112.4798    3.3039    4.5771    8.8838   84.5687    2.5614    0.3011   37.0000 
2592.7812    9.3254  112.4799    3.3039    4.4586    6.4661   85.0059    2.5914    0.3044   37.0000 
2592.9336    9.3254  117.4097    3.3039    4.4794    6.2596   86.2882    2.5904    0.3211   37.0000 
2593.0860    9.3373  116.4976    3.2793    4.7901    5.1529   86.3458    2.5881    0.3261   37.0000 
2593.2384    9.3944  115.3540    3.1535    4.7901    8.6317   85.8969    2.5548    0.2989   37.0000 
2593.3908    9.4392  118.5877    3.1211    4.7539    6.8880   84.8803    2.5465    0.2981   37.0000 
2593.5432    9.4470  119.2275    3.0742    4.5482    6.0758   84.2089    2.5431    0.2988   37.0000 
2593.6956    9.4521  113.4815    3.0526    3.8932    5.8764   86.6058    2.4998    0.3291   37.0000 
2593.8480    9.4555  111.8570    3.0369    3.8646    7.0384   87.2744    2.4998    0.3504   37.0000 
2594.0004    9.4584  109.5768    3.0121    3.8597    7.6368   87.3766    2.5031    0.3409   37.0000 
2594.1528    9.4691  106.3982    2.9957    4.1478    5.3475   87.1407    2.5080    0.3301   37.0000 
2594.3052    9.5605  105.0988    2.9957    4.1718    5.3210   86.7500    2.5243    0.3311   37.0000 
2594.4576    9.5605  103.3597    3.0034    4.1752    5.9870   86.2712    2.4848    0.3371   37.0000 
2594.6100    9.5520  103.3598    3.0305    4.4318    7.4118   85.9485    2.5203    0.3334   37.0000 
2594.7624    9.5405  108.9816    3.0305    4.4177    7.5174   85.8063    2.5276    0.3245   37.0000 
2594.9148    9.5405  110.5073    3.0305    4.3013    5.0523   85.9730    2.5149    0.3021   37.0000 
2595.0672    9.5405  115.2767    3.0446    4.1251    5.0523   86.8558    2.5036    0.3178   37.0000 
2595.2196    9.6008  111.1070    3.0480    4.0417    5.1999   87.4723    2.4948    0.3271   37.0000 
2595.3720    9.6205  111.1917    3.0480    4.1030    7.5833   87.4103    2.5095    0.3225   37.0000 
2595.5244    9.6486  111.3408    3.0392    4.1243    7.7957   86.9346    2.5232    0.3090   37.0000 
2595.6768    9.5527  112.0033    3.0374    4.3185    7.4223   86.3874    2.5310    0.3072   37.0000 
2595.8292    9.4767  114.8558    3.0584    4.2881    7.1462   86.3596    2.5692    0.2947   37.0000 
2595.9816    9.4857  114.6997    3.0833    4.2224    6.9350   86.6587    2.5507    0.3015   37.0000 
2596.1340    9.4650  109.4882    3.1370    4.2032    6.9350   87.1451    2.5364    0.3271   37.0000 
2596.2864    9.4191  107.3977    3.1461    4.1600    7.4987   87.3636    2.5364    0.3301   37.0000 
2596.4388    9.3732  103.4451    3.1552    4.2686    8.0166   87.2493    2.5364    0.3301   37.0000 
2596.5912    9.3558  104.0315    3.1347    4.3806    8.8778   85.9098    2.6597    0.3118   37.0000 
2596.7436    9.3458  104.9474    3.0801    4.6009    8.9002   83.9239    2.6583    0.2685   37.0000 
2596.8960    9.3458  106.3935    3.0656    4.2977    8.6345   83.8662    2.5257    0.2753   37.0000 
