~VERSION INFORMATION
 VERS.                 2.0:   CWLS LOG ASCII STANDARD - VERSION 2.0
 WRAP.                  NO:   SINGLE LINE PER DEPTH STEP
 CREA.                 04/06/2018 10:59:30
#CREATED USING DSPetro VERSION 5000.10.1.3 BY H191660 ON 04/06/2018 10:59:30
~WELL INFORMATION
#MNEM.UNIT       DATA                          DESCRIPTION MNEMONIC
#---------      ---------------------------   --------------------------
 STRT    .M         2084.9844                 : START DEPTH
 STOP    .M         3339.9984                 : STOP DEPTH
 STEP    .M         0.1524                    : STEP VALUE
 NULL    .      -999.0000                     : NULL VALUE
 DATE    .      04/06/2018                    : LAS file Creation Date
 WELL .      6610_7_1                    : Well Name
 COMP .      Neftex Exploration Insights : Company
 FLD  .                                  : Field
 UWI  .      YNOWL_661071                : Unique Well Identifier (UWI)
 LOC  .                                  : Location
 RWS  .      -999                        : Def_Rw
 WST  .      -999                        : Def_Rwt
 SRVC .                                  : Contractor
~CURVE INFORMATION
#MNEM              UNIT       API CODE   Curve Type Comments
#----------  --------------- ----------  ---------- -----------
 DEPTH      .M                         : Depth       
 CAL_INCH   .inch                      :             Caliper Log - A representation of the measured diameter of a borehole along its depth
 GR_API     .API                       : GammaRay    Gamma Ray (API) - Measures the intensity of natural gamma-ray radiation emitted from formations containing radioactive elements, such as K, Th and U
 RD_OHMM    .ohmm                      :             Unspecified Deep Resistivity - No accroynm or method of attainment is specified - units of ohmm
 RM_OHMM    .ohm.m                     :             Unspecified Medium Resistivity - No accroynm or method of attainment is specified
 RS_OHMM    .ohmm                      :             Unspecified Shallow Resistivity - No accroynm or method of attainment is specified
 DT_US_FT   .us/ft                     :             Interval Transit Time: Compressional Wave - Evaluates the time it takes for a compressional wave to traverse a fixed distance
 RHOB_G_CC  .g/cc                      :             Bulk Density - Measures the density of bulk material, including any void space or other materials contained in the subject volume
 NEUT_P_%   .PC                        :             Unspecified Neutron Porosity Log - No accroynm or method of attainment is specified
 LITH       .                          : LITH        Lithology Curve
~A  DEPTH  CAL_INCH   GR_API   RD_OHMM   RM_OHMM   RS_OHMM   DT_US_FT RHOB_G_C~  NEUT_P_%    LITH   
# ...
3157.8804    8.4256  158.6358   11.4672   25.4309   22.9192   70.9328    2.5581    0.3952   37.0000 
3158.0328    8.4784  158.0580   10.9885   13.6134   21.2241   70.2843    2.5590    0.4112   37.0000 
3158.1852    8.5148  157.9329   10.4044   13.0378   14.4620   69.2100    2.5648    0.2915   37.0000 
3158.3376    8.5148  131.4414   10.0639   13.0757   16.9903   68.9104    2.5735    0.2112   37.0000 
3158.4900    8.5148  166.1833    8.5420   34.8742   56.9353   68.8700    2.5798    0.2441   37.0000 
3158.6424    8.4836  166.1585    7.3878   37.1280   57.8731   68.8699    2.5815    0.2630   37.0000 
3158.7948    8.4401  150.0680    7.1625   49.3170   57.7537   68.9870    2.5781    0.2817   37.0000 
3158.9472    8.4030  146.9995    6.1127   49.0584   17.1593   69.4892    2.5709    0.3242   37.0000 
3159.0996    8.3751  146.1688    5.0406   12.2316   17.2039   70.5264    2.5031    0.2714   37.0000 
3159.2520    8.3132  109.4582    4.8633   11.5527    8.8710   71.2802    2.4964    0.2378   37.0000 
3159.4044    8.2928   88.0840    4.7169    7.7511    8.1422   71.9172    2.4898    0.1964   36.0000 
3159.5568    8.2567   86.6536    4.4793    7.6989    7.6971   72.5177    2.4822    0.1547   36.0000 
3159.7092    8.1991   79.0628    4.4793    7.8932    7.8479   72.5944    2.4784    0.1502   36.0000 
3159.8616    8.1547   91.4687    4.5031    8.6362   96.1886   72.6195    2.4833    0.1402   36.0000 
3160.0140    8.1811   97.7260    5.0472   10.6454   96.1879   72.6194    2.4863    0.1757   36.0000 
3160.1664    8.2358  119.9413    5.5289   18.4924   96.1872   72.5542    2.4898    0.2042   37.0000 
3160.3188    8.3905  119.9414    5.6189   31.1079   93.3550   72.3739    2.4847    0.2234   37.0000 
3160.4712    8.3786  119.9414    5.7214   30.9534   11.4027   71.6671    2.4631    0.2652   37.0000 
3160.6236    8.3541  120.1227    4.4523   11.6152   11.5519   70.9579    2.4548    0.2363   37.0000 
3160.7760    8.3047  102.0768    3.4881   11.1786   11.4405   70.5590    2.4548    0.2209   37.0000 
3160.9284    8.4053  102.3150    3.3008   10.4461   17.3730   70.2861    2.4781    0.2033   37.0000 
3161.0808    8.5076  102.3150    2.0656    6.0471   17.3875   70.1186    2.4898    0.1836   37.0000 
3161.2332    8.5493  102.1952    1.7932    5.6176   11.4954   70.6363    2.4764    0.1848   37.0000 
3161.3856    8.4704   99.7162    1.3841    4.9143   11.5135   71.5497    2.4526    0.1883   37.0000 
3161.5380    8.1946   98.9896    1.1979    2.6645    4.0967   72.6046    2.4400    0.1960   37.0000 
3161.6904    8.0346   61.9089    1.0054    2.4398    3.9337   73.4039    2.4202    0.2082   27.0000 
3161.8428    7.9896   53.7172    0.8775    2.4007    3.8897   74.4315    2.3922    0.1730   27.0000 
3161.9952    7.9896   42.6843    0.7300    2.3408    3.9646   76.4274    2.3764    0.1685   27.0000 
3162.1476    7.9896   50.1850    0.7119    2.2913    4.0363   77.0353    2.3714    0.1475   27.0000 
3162.3000    7.9896   45.9356    0.7136    2.2010    4.0143   77.0352    2.3697    0.1521   27.0000 
3162.4524    7.9896   45.1162    0.7449    2.0652    3.9122   77.0059    2.3681    0.1612   27.0000 
3162.6048    7.9896   41.1839    0.8105    1.9723    3.9205   76.6059    2.3555    0.1632   27.0000 
3162.7572    7.9896   41.3914    0.8237    2.1003    3.9843   75.7086    2.3458    0.1604   27.0000 
3162.9096    7.9896   58.0381    0.9207    2.6864   20.3812   73.1041    2.3953    0.1480   27.0000 
3163.0620    7.9896   62.6244    0.9356    3.5425   20.4879   71.5921    2.4146    0.1422   27.0000 
3163.2144    7.9896   81.0185    0.9459    3.7177   20.4185   70.8829    2.4273    0.1409   36.0000 
3163.3668    7.9896   81.1882    0.9581    3.7576   11.7551   71.0350    2.4731    0.1533   36.0000 
3163.5192    7.9896   81.1882    0.9764    2.1704    3.8370   75.7925    2.4718    0.1615   36.0000 
3163.6716    7.9895   59.7492    0.9438    2.1555    3.8120   76.9512    2.3758    0.1752   27.0000 
3163.8240    7.9895   51.3652    0.9107    2.1555    3.8043   76.8351    2.3714    0.1742   27.0000 
3163.9764    7.9895   46.1380    0.8985    2.1555    4.5897   76.5190    2.3680    0.1692   27.0000 
3164.1288    7.9895   44.0370    0.7636    2.1555    4.6499   76.2008    2.3664    0.1666   27.0000 
3164.2812    7.9895   42.4281    0.7514    2.1232    3.7252   76.6659    2.3664    0.1608   27.0000 
3164.4336    7.9895   40.4064    0.7415    2.0713    3.7360   77.4334    2.3574    0.1580   27.0000 
3164.5860    7.9895   40.8046    0.7342    1.9520    4.3897   77.9342    2.3497    0.1542   27.0000 
3164.7384    7.9895   41.4937    0.7755    1.9208    4.3897   78.0341    2.3384    0.1464   27.0000 
3164.8908    7.9895   42.2772    0.8028    1.9617    4.1920   77.7804    2.3520    0.1435   27.0000 
3165.0432    7.9895   43.9336    0.8528    2.3135    5.5342   76.2530    2.3804    0.1412   27.0000 
3165.1956    7.9895   43.6502    0.9689    2.5268    5.4613   74.2945    2.3867    0.1399   27.0000 
3165.3480    7.9895   42.3921    0.9914    2.8022    5.4049   73.7832    2.3997    0.1381   27.0000 
3165.5004    7.9895   41.6654    1.0130    3.2685    7.8530   74.0114    2.4044    0.1355   27.0000 
3165.6528    7.9895   41.5581    1.1309    3.2330    7.8756   74.3980    2.4091    0.1295   27.0000 
3165.8052    7.9895   45.1912    1.1440    3.2089    5.3084   74.9085    2.4050    0.1162   27.0000 
3165.9576    8.0355   46.7465    1.1506    3.1613    5.7109   75.1487    2.3997    0.1172   27.0000 
3166.1100    8.0445   47.5863    1.1506    3.4764    5.8909   74.9379    2.3997    0.1211   27.0000 
3166.2624    8.0554   49.0788    1.1279    3.4764    8.5123   73.8759    2.4011    0.1202   27.0000 
3166.4148    8.0757   51.6843    1.0736    3.4721    8.5122   73.6234    2.4074    0.1212   27.0000 
3166.5672    8.0845   51.3507    1.0340    2.7311    8.5122   74.6102    2.4080    0.1232   27.0000 
3166.7196    8.1093   44.8139    0.8455    2.2185    4.1855   75.5331    2.3973    0.1367   27.0000 
3166.8720    8.1348   41.3460    0.7908    2.1659    4.0910   76.9073    2.3813    0.1440   27.0000 
3167.0244    8.1528   38.3073    0.7721    2.0986    3.9955   77.7118    2.3633    0.1492   27.0000 
3167.1768    8.1645   38.8073    0.7191    1.9900    3.8680   78.3662    2.3553    0.1492   27.0000 
3167.3292    8.1444   38.3481    0.6488    1.9082    3.7461   78.3661    2.3460    0.1447   27.0000 
3167.4816    8.1444   37.3505    0.6488    1.8455    3.6811   78.2714    2.3447    0.1442   27.0000 
3167.6340    8.1444   35.4317    0.6567    1.5214    3.5500   78.0431    2.3730    0.1452   27.0000 
3167.7864    8.1444   35.9664    0.6582    1.5346    3.5779   78.6044    2.3723    0.1462   27.0000 
3167.9388    8.1433   36.3263    0.6582    1.5689    4.7718   79.0326    2.3703    0.1462   27.0000 
3168.0912    8.1403   36.8856    0.6639    2.0763    4.7855   79.0325    2.3697    0.1462   27.0000 
3168.2436    8.1373   57.0598    0.6263    2.0408    4.7044   78.9228    2.3718    0.1604   36.0000 
3168.3960    8.1344   55.7975    0.6160    2.0024    4.2121   78.7395    2.3747    0.1681   36.0000 
3168.5484    8.1344   54.3989    0.6125    1.9135    3.4296   78.4496    2.3747    0.1754   36.0000 
3168.7008    8.1344   53.6958    0.6160    1.5658    3.0722   77.8184    2.3747    0.1755   36.0000 
3168.8532    8.1344   33.6876    0.5683    1.5554    3.0606   77.1175    2.3422    0.1892   36.0000 
3169.0056    8.1344   27.2359    0.5480    1.5495    3.0982   76.5576    2.3359    0.1452   27.0000 
3169.1580    8.1344   22.8456    0.5270    1.6531    3.1408   76.0088    2.3230    0.1452   27.0000 
3169.3104    8.1344   27.0630    0.5258    1.7437    3.2418   75.2579    2.3245    0.1452   27.0000 
3169.4628    8.1344   30.4061    0.5258    1.8281    3.5779   74.5364    2.3308    0.1452   27.0000 
3169.6152    8.1344   30.0549    0.5350    1.8240    3.9755   73.9867    2.3422    0.1452   27.0000 
3169.7676    8.1344   29.9301    0.5905    2.0186    4.2840   73.4206    2.3578    0.1452   27.0000 
3169.9200    8.1344   29.3049    0.6165    2.1295    5.2172   73.0816    2.3700    0.1441   27.0000 
