~VERSION INFORMATION
 VERS.                 2.0:   CWLS LOG ASCII STANDARD - VERSION 2.0
 WRAP.                  NO:   SINGLE LINE PER DEPTH STEP
 CREA.                 04/06/2018 10:59:30
#CREATED USING DSPetro VERSION 5000.10.1.3 BY H191660 ON 04/06/2018 10:59:30
~WELL INFORMATION
#MNEM.UNIT       DATA                          DESCRIPTION MNEMONIC
#---------      ---------------------------   --------------------------
 STRT    .M         2084.9844                 : START DEPTH
 STOP    .M         3339.9984                 : STOP DEPTH
 STEP    .M         0.1524                    : STEP VALUE
 NULL    .      -999.0000                     : NULL VALUE
 DATE    .      04/06/2018                    : LAS file Creation Date
 WELL .      6610_7_1                    : Well Name
 COMP .      Neftex Exploration Insights : Company
 FLD  .                                  : Field
 UWI  .      YNOWL_661071                : Unique Well Identifier (UWI)
 LOC  .                                  : Location
 RWS  .      -999                        : Def_Rw
 WST  .      -999                        : Def_Rwt
 SRVC .                                  : Contractor
~CURVE INFORMATION
#MNEM              UNIT       API CODE   Curve Type Comments
#----------  --------------- ----------  ---------- -----------
 DEPTH      .M                         : Depth       
 CAL_INCH   .inch                      :             Caliper Log - A representation of the measured diameter of a borehole along its depth
 GR_API     .API                       : GammaRay    Gamma Ray (API) - Measures the intensity of natural gamma-ray radiation emitted from formations containing radioactive elements, such as K, Th and U
 RD_OHMM    .ohmm                      :             Unspecified Deep Resistivity - No accroynm or method of attainment is specified - units of ohmm
 RM_OHMM    .ohm.m                     :             Unspecified Medium Resistivity - No accroynm or method of attainment is specified
 RS_OHMM    .ohmm                      :             Unspecified Shallow Resistivity - No accroynm or method of attainment is specified
 DT_US_FT   .us/ft                     :             Interval Transit Time: Compressional Wave - Evaluates the time it takes for a compressional wave to traverse a fixed distance
 RHOB_G_CC  .g/cc                      :             Bulk Density - Measures the density of bulk material, including any void space or other materials contained in the subject volume
 NEUT_P_%   .PC                        :             Unspecified Neutron Porosity Log - No accroynm or method of attainment is specified
 LITH       .                          : LITH        Lithology Curve
~A  DEPTH  CAL_INCH   GR_API   RD_OHMM   RM_OHMM   RS_OHMM   DT_US_FT RHOB_G_C~  NEUT_P_%    LITH   
# ...
2743.3524    8.7883  103.4180    5.0878    7.4834    9.9803   83.5719    2.5588    0.2806   37.0000 
2743.5048    8.7883   99.0652    4.9881    7.8880   10.5882   83.5218    2.5604    0.2778   37.0000 
2743.6572    8.7883   97.1907    4.9138    8.0966   12.1040   83.2774    2.5743    0.2740   37.0000 
2743.8096    8.7883   95.0247    4.8884    8.2478   11.9904   82.8906    2.5797    0.2726   37.0000 
2743.9620    8.7739   93.4259    4.8632    8.0798   11.4030   82.1914    2.6311    0.2706   37.0000 
2744.1144    8.7464   93.9566    4.7558    7.6585   11.0724   81.3020    2.6441    0.2706   37.0000 
2744.2668    8.6826   95.1407    4.7402    6.9607   10.0887   80.4720    2.6505    0.2745   37.0000 
2744.4192    8.6184  107.1405    4.6997    6.2242    6.6661   81.4111    2.7254    0.2813   37.0000 
2744.5716    8.6184  110.5674    4.4955    6.4782    6.9072   85.6822    2.6043    0.2866   37.0000 
2744.7240    8.6452  117.4665    4.3429    6.6004   10.6364   86.8876    2.5932    0.3361   37.0000 
2744.8764    8.6792  117.5303    4.0881    6.7077   10.7877   86.8284    2.5872    0.3467   37.0000 
2745.0288    8.6972  117.6551    3.4099    7.4408   11.0115   86.2468    2.5822    0.3556   37.0000 
2745.1812    8.7013   94.7919    3.2247    7.2887   11.3450   85.2482    2.5709    0.3486   37.0000 
2745.3336    8.6385   84.7692    3.1314    7.4838   11.5851   83.9187    2.5662    0.3334   37.0000 
2745.4860    8.5439   78.9182    2.5686    3.7069    7.0906   82.8810    2.5488    0.3164   37.0000 
2745.6384    8.4093   66.9142    2.4914    3.2191    3.4299   82.2260    2.4827    0.2746   37.0000 
2745.7908    8.2260   62.0954    2.4263    2.4771    3.1623   81.4722    2.4741    0.2521   36.0000 
2745.9432    8.1386   54.1981    2.2162    2.5073    2.8100   81.3520    2.3673    0.1787   36.0000 
2746.0956    8.1607   62.6623    1.6697    3.2353    3.2713   81.4392    2.4506    0.1952   36.0000 
2746.2480    8.2281   62.3128    1.6232    3.2220    5.9020   81.7392    2.4650    0.2049   36.0000 
2746.4004    8.2466   62.0881    1.5807    3.0654    6.4425   81.7687    2.4772    0.2097   36.0000 
2746.5528    8.2016   61.7386    1.5555    2.7044    7.5926   81.7094    2.4772    0.2116   36.0000 
2746.7052    8.1616   50.0541    1.2937    2.5517    4.1944   80.6711    2.4686    0.2126   36.0000 
2746.8576    8.1289   46.6808    1.2672    2.3065    3.8988   78.1843    2.3648    0.2041   27.0000 
2747.0100    8.1440   45.2274    1.1459    1.5493    2.9551   79.2125    2.3535    0.1960   27.0000 
2747.1624    8.1900   40.9676    1.0030    1.5315    2.9137   81.2796    2.3440    0.1815   27.0000 
2747.3148    8.1645   42.0916    0.9915    1.5386    2.8773   82.5597    2.3373    0.1806   27.0000 
2747.4672    8.1368   41.6368    0.9131    1.5763    2.5643   83.2276    2.3295    0.1813   27.0000 
2747.6196    8.1285   39.3611    0.8566    1.6028    2.5423   83.6310    2.3206    0.1931   27.0000 
2747.7720    8.1285   38.1003    0.8101    1.6038    2.5451   83.8215    2.3206    0.2119   27.0000 
2747.9244    8.1606   36.7435    0.7898    1.5992    2.5939   83.8524    2.3206    0.2187   27.0000 
2748.0768    8.2084   35.9115    0.7808    1.5601    2.6392   83.9030    2.3207    0.2196   27.0000 
2748.2292    8.1845   36.5114    0.7790    1.4200    2.6213   84.0029    2.3145    0.2196   27.0000 
2748.3816    8.1742   37.3448    0.8271    1.3207    2.5236   84.0609    2.2890    0.2161   27.0000 
2748.5340    8.1658   37.8403    0.9056    1.2629    2.4546   83.9869    2.2890    0.2096   27.0000 
2748.6864    8.1598   39.9200    0.9793    1.2629    2.4349   84.1391    2.2958    0.2096   27.0000 
2748.8388    8.1583   40.7027    1.0454    1.2960    2.4369   84.1855    2.3019    0.2115   27.0000 
2748.9912    8.1650   42.8399    1.1385    1.6843    2.5218   69.4121    2.3024    0.2183   27.0000 
2749.1436    8.2073   39.1987    1.1385    8.5694    3.1673   64.9420    2.4657    0.1535   27.0000 
2749.2960    8.2716   38.0157    1.1287    8.5603  189.1900   64.5515    2.4889    0.1192   27.0000 
2749.4484    8.3598   34.9712    1.1063    4.7764  197.7034   64.9251    2.4930    0.0667   27.0000 
2749.6008    8.3765   35.0358    1.0775    1.4790  197.1367   76.8752    2.4892    0.0677   27.0000 
2749.7532    8.3297   37.9685    1.0338    1.3827    2.4904   78.8455    2.4687    0.1392   27.0000 
2749.9056    8.2853   37.4688    1.0015    1.3395    2.4549   82.2167    2.4548    0.1577   27.0000 
2750.0580    8.2387   37.3356    0.9792    1.3073    2.3860   85.1654    2.2590    0.1713   27.0000 
2750.2104    8.2024   36.4695    0.9774    1.3148    2.3452   85.9018    2.2590    0.2025   27.0000 
2750.3628    8.1881   49.4438    0.9806    1.3611    2.7797   86.0967    2.2590    0.2016   27.0000 
2750.5152    8.1899   50.5967    1.2448    2.7009   13.1717   85.9004    2.2668    0.1996   27.0000 
2750.6676    8.2568   94.6207    1.6082    6.7197   14.3075   85.6862    2.4332    0.1901   27.0000 
2750.8200    8.4051   96.3257    1.9733    7.0941   13.8426   82.6025    2.5517    0.2268   37.0000 
2750.9724    8.5173  101.8745    2.1952    7.3136   12.9383   78.9203    2.5711    0.2464   37.0000 
2751.1248    8.6235  105.3777    2.5206    7.4759   11.6887   79.0017    2.6306    0.2606   37.0000 
2751.2772    8.6816  115.1342    4.2836    7.5781   13.7562   80.0100    2.6306    0.2842   37.0000 
2751.4296    8.7176  115.1532    5.5604    7.7261   13.9018   80.6590    2.6306    0.3096   37.0000 
2751.5820    8.7606  115.2434    5.6022    7.9603   11.8126   80.8498    2.6376    0.3149   37.0000 
2751.7344    8.7695  106.2723    5.6769    8.0209   11.5969   80.7817    2.6625    0.3255   37.0000 
2751.8868    8.7675  102.6131    5.7599    8.1271   13.3038   80.5675    2.6721    0.3237   37.0000 
2752.0392    8.7675   98.4168    6.5003    8.8758   14.6292   80.1826    2.6856    0.3227   37.0000 
2752.1916    8.7675  101.4557    6.5004   11.2467   17.7063   79.5084    2.6023    0.3204   37.0000 
2752.3440    8.7675  104.2867    6.5004   11.4630   17.5349   78.7836    2.6051    0.3158   37.0000 
2752.4964    8.7674  104.5957    6.5004   11.5616   16.5262   78.3227    2.6173    0.3130   37.0000 
2752.6488    8.7674  103.7945    6.5005   11.5625   15.3121   77.5514    2.6256    0.3062   37.0000 
2752.8012    8.7723   85.9700    6.4787    8.0288    9.9785   76.8923    2.6818    0.3128   37.0000 
2752.9536    8.7774   94.2329    6.4119    7.9012    9.5890   76.1206    2.6822    0.3235   37.0000 
2753.1060    8.7774   95.3986    6.3160    9.2018   13.0685   75.4904    2.6823    0.3283   37.0000 
2753.2584    8.7774  101.0664    6.2979   10.5130   17.4028   75.0899    2.6629    0.3225   37.0000 
2753.4108    8.7773  105.9837    6.2798   10.6059   16.6047   74.8469    2.6440    0.3215   37.0000 
2753.5632    8.7773  106.3685    6.2798   10.6060   15.6901   75.3873    2.6389    0.3365   37.0000 
2753.7156    8.7698  110.0310    6.4918   10.6060   15.8879   75.9974    2.6458    0.3357   37.0000 
2753.8680    8.7517  109.8555    6.5382   10.5642   16.8130   76.0864    2.6573    0.3405   37.0000 
2754.0204    8.7253  109.7832    6.5383   10.4847   16.3127   76.0972    2.6625    0.3175   37.0000 
2754.1728    8.6704  116.0257    6.5277   10.1578   14.7628   76.0971    2.6673    0.3147   37.0000 
2754.3252    8.6474  116.1309    6.2576    9.8314   12.8362   76.0914    2.6477    0.3290   37.0000 
2754.4776    8.6474  116.1504    6.1611    9.5958   15.8268   76.0164    2.6323    0.3331   37.0000 
2754.6300    8.6473  116.1503    6.1250    9.4968   13.1253   76.0136    2.6407    0.3368   37.0000 
2754.7824    8.6473  105.8236    5.9800    9.2638   13.3149   76.0136    2.6597    0.3475   37.0000 
2754.9348    8.6473  101.7871    5.9495    8.8577   14.8983   76.2353    2.6671    0.3502   37.0000 
2755.0872    8.6473  100.4132    5.7591    8.6953   11.7650   76.7292    2.6827    0.3529   37.0000 
2755.2396    8.6473  118.1483    5.5010    8.3573   12.3442   77.4046    2.7106    0.3591   37.0000 
2755.3920    8.6473  118.0918    5.5010    8.2950   13.5480   78.0720    2.6511    0.3623   37.0000 
