~VERSION INFORMATION
 VERS.                 2.0:   CWLS LOG ASCII STANDARD - VERSION 2.0
 WRAP.                  NO:   SINGLE LINE PER DEPTH STEP
 CREA.                 04/06/2018 10:59:30
#CREATED USING DSPetro VERSION 5000.10.1.3 BY H191660 ON 04/06/2018 10:59:30
~WELL INFORMATION
#MNEM.UNIT       DATA                          DESCRIPTION MNEMONIC
#---------      ---------------------------   --------------------------
 STRT    .M         2084.9844                 : START DEPTH
 STOP    .M         3339.9984                 : STOP DEPTH
 STEP    .M         0.1524                    : STEP VALUE
 NULL    .      -999.0000                     : NULL VALUE
 DATE    .      04/06/2018                    : LAS file Creation Date
 WELL .      6610_7_1                    : Well Name
 COMP .      Neftex Exploration Insights : Company
 FLD  .                                  : Field
 UWI  .      YNOWL_661071                : Unique Well Identifier (UWI)
 LOC  .                                  : Location
 RWS  .      -999                        : Def_Rw
 WST  .      -999                        : Def_Rwt
 SRVC .                                  : Contractor
~CURVE INFORMATION
#MNEM              UNIT       API CODE   Curve Type Comments
#----------  --------------- ----------  ---------- -----------
 DEPTH      .M                         : Depth       
 CAL_INCH   .inch                      :             Caliper Log - A representation of the measured diameter of a borehole along its depth
 GR_API     .API                       : GammaRay    Gamma Ray (API) - Measures the intensity of natural gamma-ray radiation emitted from formations containing radioactive elements, such as K, Th and U
 RD_OHMM    .ohmm                      :             Unspecified Deep Resistivity - No accroynm or method of attainment is specified - units of ohmm
 RM_OHMM    .ohm.m                     :             Unspecified Medium Resistivity - No accroynm or method of attainment is specified
 RS_OHMM    .ohmm                      :             Unspecified Shallow Resistivity - No accroynm or method of attainment is specified
 DT_US_FT   .us/ft                     :             Interval Transit Time: Compressional Wave - Evaluates the time it takes for a compressional wave to traverse a fixed distance
 RHOB_G_CC  .g/cc                      :             Bulk Density - Measures the density of bulk material, including any void space or other materials contained in the subject volume
 NEUT_P_%   .PC                        :             Unspecified Neutron Porosity Log - No accroynm or method of attainment is specified
 LITH       .                          : LITH        Lithology Curve
~A  DEPTH  CAL_INCH   GR_API   RD_OHMM   RM_OHMM   RS_OHMM   DT_US_FT RHOB_G_C~  NEUT_P_%    LITH   
# ...
3243.2244    9.7600  174.1827    5.3729    5.5154    2.0891   77.0418    2.5144    0.3261   37.0000 
3243.3768    9.9774  171.6077    5.0529    5.1368    2.0847   77.9406    2.4876    0.3304   37.0000 
3243.5292   10.2795  170.0728    4.2880    4.9231    1.1981   79.0338    2.4046    0.3801   37.0000 
3243.6816   10.4179  165.6234    4.2213    4.8396    1.8128   78.8008    2.3967    0.3801   37.0000 
3243.8340   10.5204  164.7023    4.1818    4.6654    1.7457   77.8632    2.3967    0.3791   37.0000 
3243.9864   10.1760  154.5015    4.1817    4.6385    1.5087   76.7671    2.4166    0.3691   37.0000 
3244.1388   10.2117  154.3663    4.1880    4.7827    3.5080   75.2638    2.4403    0.3671   37.0000 
3244.2912   10.2954  153.5172    4.8761    4.9790   12.4646   73.4728    2.6262    0.3801   37.0000 
3244.4436   10.1421  152.7931    5.3877    5.9484   12.5942   70.7977    2.6537    0.3801   37.0000 
3244.5960    9.6254  153.6839    5.7239    6.9747    8.8438   68.7144    2.6602    0.3234   37.0000 
3244.7484    9.3975  155.0007    6.2761    9.2850    9.1515   66.9313    2.6590    0.2933   37.0000 
3244.9008    9.2180  154.8757    6.7120    9.3386    9.6949   66.9745    2.6543    0.2550   37.0000 
3245.0532    9.1342  154.3969    7.4598    9.1981    9.5838   67.0612    2.6459    0.2550   37.0000 
3245.2056    9.0668  153.1264    7.4224    9.0796    9.1909   68.8383    2.6210    0.2550   37.0000 
3245.3580    9.0218  154.8020    6.8036    8.9778    2.5909   69.8867    2.6053    0.2670   37.0000 
3245.5104    9.0207  165.2647    6.5383    8.7917    2.4546   71.8549    2.5840    0.2680   37.0000 
3245.6628    9.0433  165.6132    6.2309    8.2428    2.0964   73.5465    2.5569    0.2724   37.0000 
3245.8152    9.0862  178.0649    5.8553    6.4929    2.0127   77.3923    2.5380    0.2862   37.0000 
3245.9676    9.1590  176.4908    5.2000    4.6115    1.7124   79.4029    2.5218    0.3283   37.0000 
3246.1200    9.2275  174.5779    3.9649    4.5982    1.6387   80.8647    2.5107    0.3661   37.0000 
3246.2724    9.3201  143.2989    3.7755    4.5739    1.5254   81.8620    2.5024    0.3521   37.0000 
3246.4248    9.5538  143.4233    3.6246    3.9539    1.4029   82.4686    2.4944    0.3485   37.0000 
3246.5772    9.7233  143.4227    3.3594    3.7585    1.2810   83.0096    2.4864    0.3448   37.0000 
3246.7296    9.9457  143.4222    3.3304    3.6376    1.2546   83.1935    2.4217    0.3385   37.0000 
3246.8820   10.0636  148.1692    3.6015    3.4856    1.2660   81.2718    2.4187    0.3317   37.0000 
3247.0344   10.1338  144.4386    3.6472    3.4673    1.4646   79.1768    2.4242    0.3361   37.0000 
3247.1868   10.1566  142.7957    3.7599    3.4810    1.6965   74.7568    2.4447    0.3411   37.0000 
3247.3392    9.7331  146.9084    4.1198    4.3007    3.5785   72.5193    2.5539    0.3441   37.0000 
3247.4916    9.5170  152.8749    4.4899    7.9845    3.5074   70.4208    2.6336    0.3371   37.0000 
3247.6440    9.3432  149.9151    5.1592    8.3033    3.5074   68.2112    2.6383    0.2954   37.0000 
3247.7964    9.2422  149.8482    5.3099    8.7055    3.5074   65.7641    2.6480    0.2755   37.0000 
3247.9488    9.1814  149.6641    6.6302    9.3937   26.0709   65.2718    2.6827    0.2698   37.0000 
3248.1012    9.1486  149.5231    8.0157   10.0346   25.7990   65.8763    2.6919    0.2480   37.0000 
3248.2536    9.1015  145.0565    8.2981   10.0166    3.6883   66.8901    2.6867    0.2480   37.0000 
3248.4060    9.0506  144.8236    8.8453    9.9595    3.6529   67.4381    2.6069    0.2517   37.0000 
3248.5584    8.9980  141.1669    8.8252    9.9481   13.3000   67.4117    2.5952    0.2565   37.0000 
3248.7108    8.9666  141.5839    8.7040    9.9194   13.3065   67.1722    2.6433    0.2600   37.0000 
3248.8632    8.9352  142.8093    8.6144   10.0054   12.9279   65.8400    2.6719    0.2530   37.0000 
3249.0156    8.9100  144.5178    8.3491   12.0305   12.0169   65.5238    2.6953    0.2511   37.0000 
3249.1680    8.8875  150.1211    8.1453   12.1348   11.0175   65.7103    2.6969    0.2363   37.0000 
3249.3204    8.8731  150.2199    7.9809   12.1347   10.0989   66.2825    2.6915    0.2395   37.0000 
3249.4728    8.8696  174.7351    7.4660   11.7162    8.1547   70.5996    2.6655    0.2443   37.0000 
3249.6252    8.8696  187.7270    7.1758   10.9752    7.7524   72.3602    2.6445    0.2758   37.0000 
3249.7776    8.8695  242.9335    6.5518   10.4769    4.9556   72.9653    2.6285    0.2981   37.0000 
3249.9300    8.8943  242.6005    5.8204    7.7377    2.0291   73.5433    2.5992    0.3115   37.0000 
3250.0824    8.9327  241.8594    5.7439    6.7431    3.5070   74.0805    2.6002    0.3367   37.0000 
3250.2348    8.9953  180.0252    5.4550    6.2954    3.5069   74.6182    2.6426    0.3545   37.0000 
3250.3872    9.1223  176.6748    4.7903    6.0115    1.6490   75.3372    2.6486    0.3645   37.0000 
3250.5396    9.2996  151.2488    4.6251    5.6004    1.6395   76.3776    2.6170    0.3861   37.0000 
3250.6920    9.4598  151.9694    4.5182    5.2932    3.1153   76.9397    2.5372    0.3769   37.0000 
3250.8444    9.3843  153.2263    4.5044    5.0753    2.9671   77.3592    2.5326    0.3681   37.0000 
3250.9968    9.2925  154.8102    4.4985    4.9798    1.7467   76.1860    2.5279    0.3773   37.0000 
3251.1492    9.3338  155.6185    4.4514    4.9051    3.5169   72.9172    2.5624    0.3791   37.0000 
3251.3016    9.3562  168.2373    4.4794    4.9998    6.0437   72.8568    2.6086    0.3801   37.0000 
3251.4540    9.3366  168.1076    4.5184    6.0961    6.0961   72.8861    2.6039    0.3765   37.0000 
3251.6064    9.2704  167.9872    4.6102    6.0678    6.0961   72.9407    2.5993    0.3521   37.0000 
3251.7588    9.1886  167.6595    5.0321    5.4641    1.8716   72.9007    2.5919    0.3521   37.0000 
3251.9112    9.0859  168.7876    5.1761    5.5657    1.8716   72.4750    2.6703    0.3531   37.0000 
3252.0636    9.0063  181.2694    5.7905    5.9145   12.3559   70.9588    2.6636    0.3103   37.0000 
3252.2160    8.9533  182.2160    5.4723    6.8519   13.3841   69.6154    2.6569    0.2937   37.0000 
3252.3684    8.8939  212.8313    5.2307    8.1775   13.4978   69.7844    2.6018    0.2706   37.0000 
3252.5208    8.8787  203.1568    5.1284    9.5260    2.4528   70.6698    2.5797    0.2480   37.0000 
3252.6732    8.8787  201.3436    5.1510    8.2484    2.4393   74.7072    2.5083    0.2910   37.0000 
3252.8256    8.8874  194.9279    5.1729    6.6008    2.4323   77.0234    2.5037    0.3097   37.0000 
3252.9780    8.9107  179.6121    5.2273    5.3474    2.4215   77.0237    2.5688    0.3207   37.0000 
3253.1304    8.9683  178.5657    5.2712    5.2630    2.4855   76.3214    2.5811    0.3641   37.0000 
3253.2828    9.0391  176.3547    5.3941    5.3107    3.4963   75.6855    2.5891    0.3662   37.0000 
3253.4352    9.0975  175.4409    5.5974    6.1485    3.4963   73.2723    2.5954    0.3681   37.0000 
3253.5876    8.8607  149.8929    6.1424    6.2918   12.3339   70.7828    2.6033    0.3613   37.0000 
3253.7400    8.7670   63.7023    6.5042    8.3113   12.5575   67.5882    2.6007    0.2654   36.0000 
3253.8924    8.7484   64.7211    6.9117    8.7648   13.1547   65.6065    2.5794    0.2106   36.0000 
3254.0448    8.7510   61.8285    8.1300   13.7032   15.6777   64.8508    2.5824    0.1489   36.0000 
3254.1972    8.7582   68.1998    8.1190   14.2562   15.6287   64.5131    2.5938    0.1549   36.0000 
3254.3496    8.7722   75.0617    7.9608   14.0674   15.4254   64.6699    2.6034    0.1578   36.0000 
3254.5020    8.7834   76.1594    6.8311    9.5008   14.7228   66.4817    2.6227    0.1752   36.0000 
3254.6544    8.7882   77.8741    6.5414    8.6565    3.1883   69.7817    2.5302    0.1868   36.0000 
3254.8068    8.7873  128.1790    6.3071    8.5757    3.1069   72.5940    2.5302    0.2338   36.0000 
3254.9592    8.7642  128.6525    6.0664    6.7550    3.2405   73.5621    2.5285    0.2548   37.0000 
3255.1116    8.6926  182.7229    5.8902    6.4007    3.2709   76.5931    2.5285    0.2738   37.0000 
3255.2640    8.6281  182.7227    5.7399    6.7776    4.2157   78.8826    2.4841    0.3041   37.0000 
