~VERSION INFORMATION
 VERS.                 2.0:   CWLS LOG ASCII STANDARD - VERSION 2.0
 WRAP.                  NO:   SINGLE LINE PER DEPTH STEP
 CREA.                 11/04/2018 11:49:07
#CREATED USING DSPetro VERSION 5000.10.1.3 BY H191660 ON 11/04/2018 11:49:07
~WELL INFORMATION
#MNEM.UNIT       DATA                          DESCRIPTION MNEMONIC
#---------      ---------------------------   --------------------------
 STRT    .M         2273.9604                 : START DEPTH
 STOP    .M         4010.2536                 : STOP DEPTH
 STEP    .M         0.1524                    : STEP VALUE
 NULL    .      -999.0000                     : NULL VALUE
 DATE    .      11/04/2018                    : LAS file Creation Date
 WELL .      7120_1_1_r2                 : Well Name
 COMP .      Neftex Exploration Insights : Company
 FLD  .                                  : Field
 UWI  .      ENOWL_0NOR05                : Unique Well Identifier (UWI)
 LOC  .                                  : Location
 RWS  .      -999                        : Def_Rw
 WST  .      -999                        : Def_Rwt
 SRVC .                                  : Contractor
~CURVE INFORMATION
#MNEM              UNIT       API CODE   Curve Type Comments
#----------  --------------- ----------  ---------- -----------
 DEPTH      .M                         : Depth       
 CAL_INCH   .inch                      :             Caliper Log - A representation of the measured diameter of a borehole along its depth
 GR_API     .API                       : GammaRay    Gamma Ray (API) - Measures the intensity of natural gamma-ray radiation emitted from formations containing radioactive elements, such as K, Th and U
 RD_OHMM    .ohmm                      :             Unspecified Deep Resistivity - No accroynm or method of attainment is specified - units of ohmm
 RM_OHMM    .ohm.m                     :             Unspecified Medium Resistivity - No accroynm or method of attainment is specified
 RS_OHMM    .ohmm                      :             Unspecified Shallow Resistivity - No accroynm or method of attainment is specified
 DT_US_FT   .us/ft                     :             Interval Transit Time: Compressional Wave - Evaluates the time it takes for a compressional wave to traverse a fixed distance
 RHOB_G_CC  .g/cc                      :             Bulk Density - Measures the density of bulk material, including any void space or other materials contained in the subject volume
 NPHI_RATIO .ratio                     :             Neutron Porosity - Measured with an neutron logging device calibrated to a given matrix (limestone, sandstone and dolomite)
 LITH       .                          : LITH        Lithology Curve
~A  DEPTH  CAL_INCH   GR_API   RD_OHMM   RM_OHMM   RS_OHMM   DT_US_FT RHOB_G_C~ NPHI_RAT~    LITH   
# ...
2615.3364    8.8930   34.0939   28.8601   17.9602   25.8622   60.9251    2.5859    0.0469   27.0000 
2615.4888    8.8797   30.5336   30.0126   18.9414   35.1544   60.6504    2.5832    0.0410   27.0000 
2615.6412    8.8532   23.2264   26.6708   17.2749   61.7029   59.4519    2.5820    0.0382   27.0000 
2615.7936    8.8492   16.0110   22.7935   15.1550   76.8510   59.1747    2.5725    0.0400   27.0000 
2615.9460    8.8406   11.7714   19.7069   13.3409   39.0862   59.6877    2.5561    0.0417   27.0000 
2616.0984    8.8196   10.4374   18.0855   12.4016   17.7561   61.1881    2.5385    0.0399   27.0000 
2616.2508    8.7852    9.8303   18.2589   12.4582   11.4623   60.7012    2.5318    0.0363   27.0000 
2616.4032    8.7461    9.7594   20.5655   13.7808   25.5463   59.5513    2.5353    0.0335   27.0000 
2616.5556    8.7344   10.4834   24.2602   16.0410   25.2960   59.0753    2.5453    0.0331   27.0000 
2616.7080    8.7398   11.7660   27.2957   17.9259   27.0835   58.2121    2.5584    0.0329   27.0000 
2616.8604    8.7586   12.4293   30.2987   19.5965   46.4006   58.7490    2.5652    0.0300   27.0000 
2617.0128    8.7656   12.6740   32.9990   21.0469   38.0477   58.6883    2.5678    0.0285   27.0000 
2617.1652    8.7656   14.1718   34.3251   21.7136   76.9724   59.1741    2.5684    0.0307   27.0000 
2617.3176    8.7656   15.9080   35.4593   22.1842   44.6449   58.9394    2.5766    0.0369   27.0000 
2617.4700    8.7656   16.8712   35.8008   22.2131   41.5156   58.7050    2.5910    0.0438   27.0000 
2617.6224    8.7711   17.0847   35.2830   21.7611   49.9683   58.4707    2.5971    0.0479   27.0000 
2617.7748    8.7680   18.6574   33.6243   20.7460   34.6580   58.2364    2.5963    0.0574   27.0000 
2617.9272    8.7602   22.8141   31.4508   19.5029   29.4272   58.8502    2.5943    0.0638   27.0000 
2618.0796    8.7633   27.5929   30.0348   18.6738   24.0771   58.8249    2.5992    0.0680   18.0000 
2618.2320    8.7711   31.4581   30.0334   18.6233   25.9590   59.2744    2.6016    0.0642   18.0000 
2618.3844    8.7789   31.9253   31.9393   19.7000   33.9233   59.5873    2.5988    0.0566   27.0000 
2618.5368    8.7703   28.8062   35.3281   21.7182   28.0484   59.0136    2.5977    0.0464   27.0000 
2618.6892    8.7656   24.0443   38.0177   23.2555   27.1591   58.3998    2.5963    0.0372   27.0000 
2618.8416    8.7711   20.1846   39.7493   24.2709   41.5848   57.4634    2.6012    0.0354   27.0000 
2618.9940    8.7680   19.2081   40.0460   24.4190   41.1238   56.6883    2.5994    0.0391   27.0000 
2619.1464    8.7656   20.2889   37.2698   22.8619   36.8093   56.5000    2.6018    0.0402   27.0000 
2619.2988    8.7383   21.6548   33.5062   20.7489   38.8950   57.0252    2.6008    0.0421   27.0000 
2619.4512    8.7484   22.9284   31.4409   19.5399   46.6925   58.2114    2.6064    0.0474   27.0000 
2619.6036    8.7906   23.8932   30.3080   18.7785   40.4479   59.0617    2.6053    0.0507   27.0000 
2619.7560    8.8429   24.2500   29.3229   18.1121   37.1208   58.9006    2.6022    0.0455   27.0000 
2619.9084    8.8321   24.1217   28.4374   17.5702   63.7246   58.3998    2.5961    0.0372   27.0000 
2620.0608    8.7985   23.4671   27.7486   17.2295   53.1718   58.4251    2.5978    0.0367   27.0000 
2620.2132    8.7672   22.9490   27.5763   17.1266   48.2574   58.4271    2.6010    0.0448   27.0000 
2620.3656    8.7524   23.3285   27.9691   17.2619   47.5673   58.6952    2.5975    0.0496   27.0000 
2620.5180    8.7391   24.3264   28.1388   17.1703   49.7346   58.9633    2.5984    0.0496   27.0000 
2620.6704    8.7508   25.4160   28.3178   17.2485   50.4778   59.2319    2.5996    0.0449   27.0000 
2620.8228    8.8997   25.2219   29.3414   17.9192   52.3069   59.5000    2.6037    0.0396   27.0000 
2620.9752    8.9118   24.5841   31.4218   19.1893   60.5990   59.1506    2.6109    0.0401   27.0000 
2621.1276    8.7651   24.8914   34.6757   21.0027   59.3488   59.1747    2.6119    0.0468   27.0000 
2621.2800    8.6836   25.6284   37.3074   22.5057   48.9899   59.1625    2.6113    0.0524   27.0000 
2621.4324    8.6664   26.7276   37.5760   22.7398   39.8251   59.2998    2.6045    0.0547   27.0000 
2621.5848    8.6641   27.8304   35.9451   21.9341   51.6084   59.7244    2.6016    0.0548   27.0000 
2621.7372    8.6641   29.7335   33.2883   20.3982   57.7188   60.3117    2.6029    0.0601   27.0000 
2621.8896    8.6695   31.6256   31.4264   19.2388   41.3488   60.7626    2.5994    0.0635   18.0000 
2622.0420    8.6773   33.0535   30.5196   18.5598   35.7859   60.6124    2.5990    0.0619   27.0000 
2622.1944    8.7015   32.5639   30.6038   18.4851   41.6903   60.5874    2.5955    0.0511   27.0000 
2622.3468    8.7055   29.5188   31.7168   19.0381   32.9749   59.9263    2.5992    0.0407   27.0000 
2622.4992    8.7086   25.8872   32.4615   19.4054   46.0189   58.7516    2.6029    0.0326   27.0000 
2622.6516    8.7164   22.7386   33.7457   20.1216   41.1255   58.7252    2.6090    0.0269   27.0000 
2622.8040    8.7406   21.0834   34.4072   20.5436   53.4048   56.8648    2.6127    0.0281   27.0000 
2622.9564    8.7555   20.9379   33.1324   19.8777   75.8914   57.1354    2.6133    0.0341   27.0000 
2623.1088    8.7524   22.0103   31.9555   19.2651   54.2109   57.7123    2.6024    0.0433   27.0000 
2623.2612    8.7500   23.5971   31.1628   18.9501   43.1661   58.1877    2.5990    0.0433   27.0000 
2623.4136    8.7555   24.5280   30.2291   18.4800   41.7896   59.1616    2.5969    0.0382   27.0000 
2623.5660    8.7578   25.1938   29.7324   18.2803   44.2534   59.2380    2.5998    0.0349   27.0000 
2623.7184    8.7633   24.9777   29.3330   18.1206   51.8792   58.7756    2.6002    0.0403   27.0000 
2623.8708    8.7711   24.1639   28.2104   17.5459   62.2223   58.8001    2.5996    0.0498   27.0000 
2624.0232    8.7898   24.1202   26.3305   16.4916   51.9311   59.1376    2.6037    0.0582   27.0000 
2624.1756    8.7914   26.0787   25.2265   15.9429   37.8183   60.0366    2.6068    0.0602   18.0000 
2624.3280    8.8054   28.9557   24.5105   15.6137   35.5383   60.6370    2.6061    0.0601   18.0000 
2624.4804    8.7743   30.3465   24.3522   15.5490   36.5523   60.8373    2.5986    0.0594   27.0000 
2624.6328    8.7797   30.6562   25.0834   16.0325   28.8605   60.7875    2.5861    0.0581   27.0000 
2624.7852    8.8054   31.3227   25.8081   16.6177   19.0386   60.4004    2.5848    0.0580   27.0000 
2624.9376    8.8125   33.0636   25.9594   16.9037   15.9818   60.3373    2.5941    0.0574   27.0000 
2625.0900    8.8070   34.2290   24.9466   16.4145   18.7634   60.6370    2.6072    0.0602   27.0000 
2625.2424    8.8047   33.4309   22.8484   15.2001   19.8843   60.4874    2.6045    0.0605   27.0000 
2625.3948    8.8047   32.4905   20.5645   13.7751   25.3890   60.0254    2.6016    0.0669   22.0000 
2625.5472    8.8101   33.7537   18.9158   12.6713   24.8008   60.6611    2.6016    0.0787   22.0000 
2625.6996    8.8125   37.3133   18.6360   12.4358   23.7995   61.7861    2.6166    0.0904   22.0000 
2625.8520    8.7906   41.3103   19.5973   12.9672   18.3850   61.8624    2.6326    0.0890   22.0000 
2626.0044    8.7649   43.8910   21.3875   13.9778   20.1671   61.5749    2.6422    0.0729   22.0000 
2626.1568    8.7633   44.5906   23.9498   15.3750   26.4402   60.9756    2.6514    0.0560   22.0000 
2626.3092    8.7656   43.6391   26.0800   16.5626   29.6851   59.8766    2.6529    0.0485   22.0000 
2626.4616    8.7656   42.3176   27.3119   17.1561   23.7650   58.9760    2.6605    0.0556   22.0000 
2626.6140    8.7656   40.4590   29.1850   18.0439   20.6405   59.1002    2.6531    0.0598   22.0000 
2626.7664    8.7929   36.8603   32.5118   19.7018   11.2001   59.5122    2.6375    0.0539   22.0000 
2626.9188    8.8538   30.8472   34.2959   20.3764    4.6486   58.9263    2.6055    0.0373   27.0000 
2627.0712    8.8641   23.5315   33.4631   19.3551    4.5655   59.4111    2.5910    0.0258   27.0000 
2627.2236    8.7938   17.7250   33.1539   18.9068    4.5580   59.1372    2.5830    0.0241   27.0000 
2627.3760    8.7656   14.3311   32.1916   18.1739    5.0992   58.2632    2.5801    0.0282   27.0000 
