~VERSION INFORMATION
 VERS.                 2.0:   CWLS LOG ASCII STANDARD - VERSION 2.0
 WRAP.                  NO:   SINGLE LINE PER DEPTH STEP
 CREA.                 11/04/2018 11:49:07
#CREATED USING DSPetro VERSION 5000.10.1.3 BY H191660 ON 11/04/2018 11:49:07
~WELL INFORMATION
#MNEM.UNIT       DATA                          DESCRIPTION MNEMONIC
#---------      ---------------------------   --------------------------
 STRT    .M         2273.9604                 : START DEPTH
 STOP    .M         4010.2536                 : STOP DEPTH
 STEP    .M         0.1524                    : STEP VALUE
 NULL    .      -999.0000                     : NULL VALUE
 DATE    .      11/04/2018                    : LAS file Creation Date
 WELL .      7120_1_1_r2                 : Well Name
 COMP .      Neftex Exploration Insights : Company
 FLD  .                                  : Field
 UWI  .      ENOWL_0NOR05                : Unique Well Identifier (UWI)
 LOC  .                                  : Location
 RWS  .      -999                        : Def_Rw
 WST  .      -999                        : Def_Rwt
 SRVC .                                  : Contractor
~CURVE INFORMATION
#MNEM              UNIT       API CODE   Curve Type Comments
#----------  --------------- ----------  ---------- -----------
 DEPTH      .M                         : Depth       
 CAL_INCH   .inch                      :             Caliper Log - A representation of the measured diameter of a borehole along its depth
 GR_API     .API                       : GammaRay    Gamma Ray (API) - Measures the intensity of natural gamma-ray radiation emitted from formations containing radioactive elements, such as K, Th and U
 RD_OHMM    .ohmm                      :             Unspecified Deep Resistivity - No accroynm or method of attainment is specified - units of ohmm
 RM_OHMM    .ohm.m                     :             Unspecified Medium Resistivity - No accroynm or method of attainment is specified
 RS_OHMM    .ohmm                      :             Unspecified Shallow Resistivity - No accroynm or method of attainment is specified
 DT_US_FT   .us/ft                     :             Interval Transit Time: Compressional Wave - Evaluates the time it takes for a compressional wave to traverse a fixed distance
 RHOB_G_CC  .g/cc                      :             Bulk Density - Measures the density of bulk material, including any void space or other materials contained in the subject volume
 NPHI_RATIO .ratio                     :             Neutron Porosity - Measured with an neutron logging device calibrated to a given matrix (limestone, sandstone and dolomite)
 LITH       .                          : LITH        Lithology Curve
~A  DEPTH  CAL_INCH   GR_API   RD_OHMM   RM_OHMM   RS_OHMM   DT_US_FT RHOB_G_C~ NPHI_RAT~    LITH   
# ...
2846.9844   12.9239   28.1918  199.1714   41.7105    0.1793   54.6748    2.5959    0.0030   27.0000 
2847.1368   12.2089   28.7249  199.8165   40.9559    0.2148   53.8766    2.6090    0.0024   27.0000 
2847.2892   12.2728   28.6369  205.5079   41.9252    0.2272   53.4127    2.6332    0.0014   27.0000 
2847.4416   12.6708   27.8857  211.8453   44.1054    0.1872   52.6747    2.6412    0.0013   27.0000 
2847.5940   13.0160   27.0936  214.1404   45.0063    0.2026   53.1629    2.6474    0.0018   27.0000 
2847.7464   13.2318   26.1878  216.9842   46.1999    0.1781   52.8882    2.6340    0.0006   27.0000 
2847.8988   12.1458   23.6100  224.4521   48.5434    0.2099   52.8870    2.6160    0.0003   27.0000 
2848.0512   10.5918   19.5119  232.4887   49.4259    0.3738   53.5240    2.5977    0.0022   27.0000 
2848.2036   10.3841   16.1081  238.6470   48.1493    1.1721   53.6625    2.6014    0.0033   27.0000 
2848.3560   10.8688   15.0344  235.0427   44.2917    1.4996   52.6636    2.5946    0.0034   27.0000 
2848.5084   12.3577   16.6416  216.9448   40.9858    0.7181   54.0841    2.5871    0.0017   27.0000 
2848.6608   14.0051   19.2840  199.7368   39.0082    0.2875   53.5649    2.5764   -0.0024   11.0000 
2848.8132   15.2226   20.3750  192.4224   38.6296    0.2309   53.1751    2.5777   -0.0046   11.0000 
2848.9656   15.8034   19.7993  193.1465   38.6909    0.2069   53.6870    2.5582   -0.0032   11.0000 
2849.1180   14.2273   20.4230  195.4867   38.8043    0.2451   53.5256    2.5215    0.0034   11.0000 
2849.2704   14.0240   23.0879  199.0342   39.1717    0.2217   53.4623    2.4934    0.0076   11.0000 
2849.4228   14.9492   24.5011  198.6888   38.5219    0.1511   53.2374    2.5136    0.0086   11.0000 
2849.5752   15.5721   22.5526  199.8878   36.9042    0.1286   53.5627    2.5540    0.0071   11.0000 
2849.7276   14.6629   19.2904  208.1375   35.3187    0.1820   53.8374    2.5814    0.0057   27.0000 
2849.8800   14.2710   19.1769  213.2551   34.4837    0.2760   53.8750    2.6029    0.0030   27.0000 
2850.0324   15.5415   22.4714  208.5901   36.6942    0.3674   54.1370    2.6121   -0.0008   27.0000 
2850.1848   17.0067   24.5549  196.2391   39.8954    0.2243   54.3375    2.6242   -0.0026   27.0000 
2850.3372   17.8975   23.0787  181.0425   37.1022    0.1362   53.7632    2.5907   -0.0036   11.0000 
2850.4896   19.0701   20.2223  175.8112   32.7524    0.1287   53.5873    2.5592   -0.0046   11.0000 
2850.6420   14.9755   20.7107  182.0142   31.8189    0.1301   53.5377    2.5213    0.0013   11.0000 
2850.7944   12.1736   24.1898  194.3896   32.5313    0.1948   53.1250    2.5447    0.0060   11.0000 
2850.9468   12.1268   25.3409  216.2939   35.2420    0.2334   53.3872    2.5333    0.0082   11.0000 
2851.0992   11.7143   22.3460  239.0632   42.0795    0.2465   52.1026    2.5297    0.0125   11.0000 
2851.2516   10.5813   18.7377  242.3250   46.1609    0.3438   51.5000    2.5059    0.0200   11.0000 
2851.4040   10.4247   18.1555  238.3631   47.6356    0.7057   51.5000    2.5228    0.0245   11.0000 
2851.5564   10.6053   21.0320  229.9468   51.1428    0.5121   52.4629    2.5543    0.0230   27.0000 
2851.7088   10.7989   23.9844  227.5872   50.5652    0.4774   53.9990    2.5816    0.0172   27.0000 
2851.8612   11.1893   23.7279  238.8431   50.8876    0.3622   53.9383    2.6062    0.0097   27.0000 
2852.0136   10.8150   21.3567  254.0220   53.5096    0.2631   54.9728    2.6092    0.0063   27.0000 
2852.1660    9.9656   19.2730  264.3262   54.2296    0.2857   53.8367    2.6074    0.0096   27.0000 
2852.3184    9.5588   20.6566  263.5422   53.3431    0.5039   53.2998    2.6047    0.0136   27.0000 
2852.4708    9.8275   24.6774  265.3507   55.0810    0.4374   53.1130    2.6049    0.0119   27.0000 
2852.6232    9.9142   26.9789  269.6873   56.6702    0.3534   53.3494    2.6150    0.0087   27.0000 
2852.7756    9.1532   25.7308  266.8629   56.1206    0.5345   52.9748    2.6260    0.0092   27.0000 
2852.9280    8.9724   22.3847  270.6829   58.3080    1.4763   51.9634    2.6357    0.0091   27.0000 
2853.0804    9.1240   22.4714  278.8521   62.7891    4.1973   52.0617    2.6168    0.0098   27.0000 
2853.2328    9.0440   27.4732  277.0462   65.6359    2.9810   52.8614    2.6061    0.0113   27.0000 
2853.3852    9.1069   32.8255  278.7764   68.7223    1.7897   52.9499    2.6068    0.0107   27.0000 
2853.5376    9.2054   33.4901  267.8007   67.8332    1.3951   52.6124    2.6252    0.0103   27.0000 
2853.6900    9.7670   30.9169  252.6964   64.5315    1.1761   52.5874    2.6164    0.0089   27.0000 
2853.8424   10.4858   28.7610  244.0088   62.6690    0.6434   52.7123    2.6203    0.0069   27.0000 
2853.9948   10.7608   28.6847  243.2996   61.5927    0.3884   53.0120    2.6032    0.0060   27.0000 
2854.1472   10.6798   27.8541  258.3137   64.2685    0.3332   53.2125    2.5965    0.0045   27.0000 
2854.2996    9.7922   24.9747  275.9092   68.2085    0.3471   52.7256    2.5622    0.0087   11.0000 
2854.4520    9.5934   22.9210  287.3368   70.0280    0.5062   51.1026    2.5496    0.0097   11.0000 
2854.6044    9.9643   22.8851  294.3581   70.1117    0.6812   51.9848    2.5303    0.0079   11.0000 
2854.7568   10.9568   24.6457  286.7369   68.1777    0.4874   52.6250    2.5351    0.0036   11.0000 
2854.9092   12.0268   25.4626  284.3076   67.4759    0.3496   53.6755    2.5465    0.0009   11.0000 
2855.0616   12.3827   24.5558  294.4847   66.8237    0.2667   54.2998    2.5789   -0.0002   11.0000 
2855.2140   12.4335   22.7650  303.3278   64.7221    0.2254   53.1522    2.5918   -0.0015   11.0000 
2855.3664   12.6037   20.8447  303.3101   64.8808    0.2168   51.9247    2.5522   -0.0009   11.0000 
2855.5188   12.6719   19.4076  282.3510   62.1006    0.2167   51.3624    2.4669    0.0019   11.0000 
2855.6712   13.0758   20.1049  256.4717   57.2048    0.2238   51.7744    2.3897    0.0057   11.0000 
2855.8236   13.4683   22.5713  234.8531   53.7723    0.2051   51.5633    2.3664    0.0068   11.0000 
2855.9760   13.5953   25.0861  223.5243   51.6922    0.1965   52.3357    2.4266    0.0055   11.0000 
2856.1284   10.9819   25.7686  231.8776   48.7217    0.2385   53.5379    2.5173    0.0086   27.0000 
2856.2808   10.1245   24.8332  245.6715   47.9005    0.2454   52.7388    2.6009    0.0062   27.0000 
2856.4332   11.6615   23.2938  258.0706   52.8251    0.2404   52.8614    2.6264    0.0003   27.0000 
2856.5856   12.8193   21.0314  259.0581   58.5166    0.2252   52.1643    2.6133   -0.0018   27.0000 
2856.7380   13.6337   20.3178  250.5127   57.8284    0.1952   56.1270    2.5965   -0.0020   27.0000 
2856.8904   14.0138   22.2083  255.2491   54.4214    0.1946   54.1482    2.5918   -0.0020   27.0000 
2857.0428   13.5135   24.2647  271.4490   55.3590    0.2172   52.1504    2.5945   -0.0020   11.0000 
2857.1952   12.5092   25.0174  280.0242   56.5254    0.2316   52.1747    2.5780   -0.0016   11.0000 
2857.3476   11.5078   25.0675  288.1102   54.9265    0.2002   51.9874    2.5963   -0.0008   27.0000 
2857.5000    9.8322   26.0067  303.8918   53.4469    0.1675   51.6999    2.6224    0.0043   27.0000 
2857.6524    8.9451   27.2702  315.1615   51.3667    0.1941   51.7998    2.6685    0.0074   27.0000 
2857.8048    8.8312   28.7195  332.3592   49.9578    0.2612   51.8750    2.6705    0.0078   27.0000 
2857.9572    8.8741   32.0012  381.4040   59.6735    0.2724   52.1370    2.6654    0.0075   27.0000 
2858.1096    8.8797   35.4006  427.0226   73.0760    0.3602   52.3375    2.6633    0.0073   27.0000 
2858.2620    8.8859   35.4135  432.4279   81.2449    1.4682   51.5010    2.6553    0.0066   27.0000 
2858.4144    8.8906   30.8624  395.2052   82.0472    1.8111   52.2604    2.6442    0.0067   27.0000 
2858.5668    9.0817   25.4040  361.0750   78.7423    1.5663   52.4880    2.6242    0.0058   27.0000 
2858.7192    9.0220   23.0706  342.6976   74.6691    0.6576   52.9878    2.6090    0.0061   27.0000 
2858.8716    8.9500   24.1082  315.3696   70.4697    0.5013   53.5126    2.5372    0.0087   11.0000 
2859.0240    8.9890   25.6852  300.0972   67.5217    0.4870   52.6636    2.4409    0.0132   11.0000 
