~VERSION INFORMATION
 VERS.                 2.0:   CWLS LOG ASCII STANDARD - VERSION 2.0
 WRAP.                  NO:   SINGLE LINE PER DEPTH STEP
 CREA.                 11/04/2018 11:49:07
#CREATED USING DSPetro VERSION 5000.10.1.3 BY H191660 ON 11/04/2018 11:49:07
~WELL INFORMATION
#MNEM.UNIT       DATA                          DESCRIPTION MNEMONIC
#---------      ---------------------------   --------------------------
 STRT    .M         2273.9604                 : START DEPTH
 STOP    .M         4010.2536                 : STOP DEPTH
 STEP    .M         0.1524                    : STEP VALUE
 NULL    .      -999.0000                     : NULL VALUE
 DATE    .      11/04/2018                    : LAS file Creation Date
 WELL .      7120_1_1_r2                 : Well Name
 COMP .      Neftex Exploration Insights : Company
 FLD  .                                  : Field
 UWI  .      ENOWL_0NOR05                : Unique Well Identifier (UWI)
 LOC  .                                  : Location
 RWS  .      -999                        : Def_Rw
 WST  .      -999                        : Def_Rwt
 SRVC .                                  : Contractor
~CURVE INFORMATION
#MNEM              UNIT       API CODE   Curve Type Comments
#----------  --------------- ----------  ---------- -----------
 DEPTH      .M                         : Depth       
 CAL_INCH   .inch                      :             Caliper Log - A representation of the measured diameter of a borehole along its depth
 GR_API     .API                       : GammaRay    Gamma Ray (API) - Measures the intensity of natural gamma-ray radiation emitted from formations containing radioactive elements, such as K, Th and U
 RD_OHMM    .ohmm                      :             Unspecified Deep Resistivity - No accroynm or method of attainment is specified - units of ohmm
 RM_OHMM    .ohm.m                     :             Unspecified Medium Resistivity - No accroynm or method of attainment is specified
 RS_OHMM    .ohmm                      :             Unspecified Shallow Resistivity - No accroynm or method of attainment is specified
 DT_US_FT   .us/ft                     :             Interval Transit Time: Compressional Wave - Evaluates the time it takes for a compressional wave to traverse a fixed distance
 RHOB_G_CC  .g/cc                      :             Bulk Density - Measures the density of bulk material, including any void space or other materials contained in the subject volume
 NPHI_RATIO .ratio                     :             Neutron Porosity - Measured with an neutron logging device calibrated to a given matrix (limestone, sandstone and dolomite)
 LITH       .                          : LITH        Lithology Curve
~A  DEPTH  CAL_INCH   GR_API   RD_OHMM   RM_OHMM   RS_OHMM   DT_US_FT RHOB_G_C~ NPHI_RAT~    LITH   
# ...
3078.6324    8.5078   35.1980  132.0286  106.0172   29.7538   56.5873    2.6660    0.0357   18.0000 
3078.7848    8.5242   34.5558  137.4035  109.2794   30.1913   56.5377    2.6629    0.0352   18.0000 
3078.9372    8.5367   34.7937  143.8558  113.1215   32.5055   56.6751    2.6600    0.0341   18.0000 
3079.0896    8.5336   34.4748  146.6955  114.1120   33.3592   56.9251    2.6555    0.0354   18.0000 
3079.2420    8.5149   33.8624  148.1003  114.3048   33.0132   57.0000    2.6543    0.0375   18.0000 
3079.3944    8.5024   33.4150  146.9184  112.9583   31.9594   57.0000    2.6529    0.0398   18.0000 
3079.5468    8.4945   34.2287  143.7862  110.5864   32.4188   57.4367    2.6646    0.0409   18.0000 
3079.6992    8.4813   35.9627  138.6368  106.6777   34.8166   57.5375    2.6549    0.0444   18.0000 
3079.8516    8.4929   36.3033  134.2176  103.5018   34.2235   57.1250    2.6484    0.0476   18.0000 
3080.0040    8.5000   35.5048  135.6921  104.6920   32.6548   57.1250    2.6402    0.0487   18.0000 
3080.1564    8.5000   34.4034  138.1514  106.3947   31.4312   57.4744    2.6435    0.0458   18.0000 
3080.3088    8.4781   34.3345  140.4871  107.7618   34.2405   57.1873    2.6479    0.0431   18.0000 
3080.4612    8.4687   34.8219  141.3511  108.2023   35.2004   57.4370    2.6498    0.0398   18.0000 
3080.6136    8.4687   34.6851  138.6199  106.2569   35.7736   57.8870    2.6477    0.0369   18.0000 
3080.7660    8.4687   34.5419  139.6275  106.6454   35.0238   57.5633    2.6438    0.0348   18.0000 
3080.9184    8.4687   33.5997  140.9812  107.1548   36.9261   57.3750    2.6439    0.0352   18.0000 
3081.0708    8.4687   33.1002  144.3937  109.3636   45.5631   57.4251    2.6500    0.0380   18.0000 
3081.2232    8.4687   33.9996  154.4223  116.1401   44.3239   57.5000    2.6523    0.0401   18.0000 
3081.3756    8.4633   35.0093  159.3320  119.3459   43.3576   57.5000    2.6496    0.0392   18.0000 
3081.5280    8.4664   34.7861  157.5070  117.6898   41.8379   57.3253    2.6484    0.0386   18.0000 
3081.6804    8.4633   33.6686  155.8716  116.1531   43.4073   57.6877    2.6498    0.0416   18.0000 
3081.8328    8.4555   33.6249  152.8496  113.8937   46.0325   57.6128    2.6545    0.0443   18.0000 
3081.9852    8.4422   34.6273  153.2114  113.3353   47.1773   57.5873    2.6535    0.0439   18.0000 
3082.1376    8.4375   34.9326  155.9236  114.3464   44.2089   57.7123    2.6482    0.0411   18.0000 
3082.2900    8.4648   33.8778  156.6919  114.5310   40.5458   57.3123    2.6451    0.0397   18.0000 
3082.4424    8.4820   32.8811  155.3102  113.8304   38.3389   57.2125    2.6445    0.0385   18.0000 
3082.5948    8.4789   32.4379  149.3540  110.7171   44.7560   56.8130    2.6432    0.0395   18.0000 
3082.7472    8.4766   33.1913  141.2827  106.0017   47.7500   56.9744    2.6358    0.0421   18.0000 
3082.8996    8.4820   35.1976  136.4371  103.0937   44.3797   57.3876    2.6287    0.0450   18.0000 
3083.0520    8.4844   37.4254  132.1057  100.2720   37.2128   57.5875    2.6283    0.0452   18.0000 
3083.2044    8.4789   38.6558  128.0650   97.5976   36.0601   57.9746    2.6330    0.0422   18.0000 
3083.3568    8.4875   38.3729  128.0374   97.5552   37.9133   57.8630    2.6389    0.0400   18.0000 
3083.5092    8.4813   37.5822  132.3746  100.4922   41.9623   57.4880    2.6406    0.0396   18.0000 
3083.6616    8.4820   36.9061  135.3642  102.4397   40.5143   57.4625    2.6420    0.0399   18.0000 
3083.8140    8.4953   36.8217  138.0244  104.2555   35.6229   57.5000    2.6467    0.0411   18.0000 
3083.9664    8.4836   37.8539  143.1738  107.7770   31.5406   57.5873    2.6580    0.0436   18.0000 
3084.1188    8.4820   39.7039  146.1161  109.9588   34.6563   56.0420    2.6567    0.0444   18.0000 
3084.2712    8.4789   41.2220  140.3157  106.0799   43.3406   56.1807    2.6529    0.0438   18.0000 
3084.4236    8.4820   41.3155  131.4322  100.3337   41.5835   56.3192    2.6428    0.0438   18.0000 
3084.5760    8.4844   40.4226  120.5300   93.2067   32.7937   56.4578    2.6441    0.0450   18.0000 
3084.7284    8.4844   39.5220  109.3731   85.6310   29.1872   56.5963    2.6451    0.0464   18.0000 
3084.8808    8.4625   39.6159  103.5205   81.4720   32.2500   56.7351    2.6500    0.0459   18.0000 
3085.0332    8.4367   40.3221  103.9937   81.9890   43.1267   56.8736    2.6523    0.0447   18.0000 
3085.1856    8.4406   39.6668  107.7884   84.7620   49.0435   57.0121    2.6564    0.0420   18.0000 
3085.3380    8.4617   37.7773  109.6069   86.2157   46.6122   57.1506    2.6596    0.0400   18.0000 
3085.4904    8.4742   36.2442  109.0694   86.1568   49.6731   57.2620    2.6643    0.0396   18.0000 
3085.6428    8.4711   35.9439  107.5550   85.3197   49.5147   57.3750    2.6633    0.0430   18.0000 
3085.7952    8.4797   35.7195  106.2508   84.3005   52.1647   57.5498    2.6539    0.0444   18.0000 
3085.9476    8.5062   35.2281  105.2719   83.2452   43.3596   57.4503    2.6436    0.0468   18.0000 
3086.1000    8.5211   35.1570  107.0097   84.0255   35.2161   57.7244    2.6406    0.0448   18.0000 
3086.2524    8.5180   34.4464  113.3941   87.9722   36.0980   57.3498    2.6502    0.0421   18.0000 
3086.4048    8.4992   33.0654  121.5082   93.3832   42.7935   56.7748    2.6557    0.0378   18.0000 
3086.5572    8.5031   31.7931  126.6298   96.7251   41.2666   56.5376    2.6617    0.0358   18.0000 
3086.7096    8.5133   31.5040  131.0730   99.6329   36.5274   56.6747    2.6654    0.0384   18.0000 
3086.8620    8.5156   32.1159  131.5099  100.2431   32.4394   57.5658    2.6619    0.0406   18.0000 
3087.0144    8.5102   33.1315  128.7915   98.7476   34.8552   57.5836    2.6561    0.0431   18.0000 
3087.1668    8.5024   34.2428  127.2450   97.4430   48.6556   57.5665    2.6529    0.0433   18.0000 
3087.3192    8.5109   34.3562  127.4988   97.3530   38.6967   57.5494    2.6537    0.0440   18.0000 
3087.4716    8.5156   34.7944  128.8407   98.3828   33.4133   57.5323    2.6570    0.0444   18.0000 
3087.6240    8.5156   36.9348  130.2267   99.5625   33.9031   57.5152    2.6527    0.0461   18.0000 
3087.7764    8.5156   39.6230  133.2720  101.6232   38.2668   57.4981    2.6545    0.0489   18.0000 
3087.9288    8.5156   40.8894  137.9884  105.1760   36.9028   57.4810    2.6562    0.0525   18.0000 
3088.0812    8.5156   39.1876  140.2709  106.6794   36.3734   57.4639    2.6549    0.0520   18.0000 
3088.2336    8.5156   37.0216  140.9740  107.1893   35.4369   57.4468    2.6488    0.0482   18.0000 
3088.3860    8.5102   36.5593  138.3673  105.4642   37.2130   57.4297    2.6424    0.0428   18.0000 
3088.5384    8.5078   37.3021  139.6194  106.1637   38.3061   57.4126    2.6474    0.0410   18.0000 
3088.6908    8.5078   38.1309  140.4271  106.4934   36.2476   57.1130    2.6531    0.0397   18.0000 
3088.8432    8.5187   38.6567  141.8285  107.6389   37.2259   56.8249    2.6611    0.0428   18.0000 
3088.9956    8.4961   40.6505  147.3252  111.6816   35.3218   57.2752    2.6600    0.0475   18.0000 
3089.1480    8.4844   44.0252  151.2400  114.7597   35.9685   57.5874    2.6568    0.0499   18.0000 
3089.3004    8.5008   45.2183  157.2778  118.9943   35.9421   57.6250    2.6440    0.0438   18.0000 
3089.4528    8.5133   42.6307  164.9919  123.9618   39.4149   57.8870    2.6428    0.0359   18.0000 
3089.6052    8.5102   38.2898  170.3861  127.4393   36.7293   57.3872    2.6514    0.0306   18.0000 
3089.7576    8.5078   34.9517  170.6041  127.3658   38.9609   56.9502    2.6666    0.0324   18.0000 
3089.9100    8.5133   34.0524  159.6161  120.4918   36.7666   56.2636    2.6705    0.0364   18.0000 
3090.0624    8.5156   34.6988  146.9052  112.0239   33.9052   56.1747    2.6672    0.0424   18.0000 
3090.2148    8.5102   35.3186  142.8244  109.0968   35.2008   56.6002    2.6578    0.0434   18.0000 
3090.3672    8.5078   34.6216  146.6072  111.4170   35.9250   57.0126    2.6516    0.0399   18.0000 
3090.5196    8.5133   33.7252  161.9029  120.7478   37.1508   57.0376    2.6504    0.0338   18.0000 
3090.6720    8.5102   33.9576  187.6788  136.8484   38.6264   56.7380    2.6477    0.0297   18.0000 
