~VERSION INFORMATION
 VERS.                 2.0:   CWLS LOG ASCII STANDARD - VERSION 2.0
 WRAP.                  NO:   SINGLE LINE PER DEPTH STEP
 CREA.                 11/04/2018 11:49:07
#CREATED USING DSPetro VERSION 5000.10.1.3 BY H191660 ON 11/04/2018 11:49:07
~WELL INFORMATION
#MNEM.UNIT       DATA                          DESCRIPTION MNEMONIC
#---------      ---------------------------   --------------------------
 STRT    .M         2273.9604                 : START DEPTH
 STOP    .M         4010.2536                 : STOP DEPTH
 STEP    .M         0.1524                    : STEP VALUE
 NULL    .      -999.0000                     : NULL VALUE
 DATE    .      11/04/2018                    : LAS file Creation Date
 WELL .      7120_1_1_r2                 : Well Name
 COMP .      Neftex Exploration Insights : Company
 FLD  .                                  : Field
 UWI  .      ENOWL_0NOR05                : Unique Well Identifier (UWI)
 LOC  .                                  : Location
 RWS  .      -999                        : Def_Rw
 WST  .      -999                        : Def_Rwt
 SRVC .                                  : Contractor
~CURVE INFORMATION
#MNEM              UNIT       API CODE   Curve Type Comments
#----------  --------------- ----------  ---------- -----------
 DEPTH      .M                         : Depth       
 CAL_INCH   .inch                      :             Caliper Log - A representation of the measured diameter of a borehole along its depth
 GR_API     .API                       : GammaRay    Gamma Ray (API) - Measures the intensity of natural gamma-ray radiation emitted from formations containing radioactive elements, such as K, Th and U
 RD_OHMM    .ohmm                      :             Unspecified Deep Resistivity - No accroynm or method of attainment is specified - units of ohmm
 RM_OHMM    .ohm.m                     :             Unspecified Medium Resistivity - No accroynm or method of attainment is specified
 RS_OHMM    .ohmm                      :             Unspecified Shallow Resistivity - No accroynm or method of attainment is specified
 DT_US_FT   .us/ft                     :             Interval Transit Time: Compressional Wave - Evaluates the time it takes for a compressional wave to traverse a fixed distance
 RHOB_G_CC  .g/cc                      :             Bulk Density - Measures the density of bulk material, including any void space or other materials contained in the subject volume
 NPHI_RATIO .ratio                     :             Neutron Porosity - Measured with an neutron logging device calibrated to a given matrix (limestone, sandstone and dolomite)
 LITH       .                          : LITH        Lithology Curve
~A  DEPTH  CAL_INCH   GR_API   RD_OHMM   RM_OHMM   RS_OHMM   DT_US_FT RHOB_G_C~ NPHI_RAT~    LITH   
# ...
2505.6084    9.6586   54.3940    9.1563   10.5836   10.7735   71.2365    2.5391    0.1587   22.0000 
2505.7608    9.6344   56.7691    9.3366   10.7413   10.2742   70.9676    2.5335    0.1520   22.0000 
2505.9132    9.5922   55.8510    9.4553   11.0309   10.6879   71.0054    2.5260    0.1472   22.0000 
2506.0656    9.5508   53.0950    9.5608   11.2858   10.2377   71.2899    2.5216    0.1400   22.0000 
2506.2180    9.5117   52.7811    9.6578   11.3367    9.1082   71.6309    2.5204    0.1420   22.0000 
2506.3704    9.4782   55.3620    9.7827   11.1658    9.8027   71.7167    2.5191    0.1454   22.0000 
2506.5228    9.4633   57.6131    9.9061   10.9664   12.0834   71.3210    2.5173    0.1467   22.0000 
2506.6752    9.4282   56.7998   10.0318   11.0129   12.2067   70.4635    2.5184    0.1439   22.0000 
2506.8276    9.3977   54.6025   10.1875   11.3377   10.0124   69.5312    2.5219    0.1433   22.0000 
2506.9800    9.3688   52.8468   10.3024   11.8946   12.4236   68.9237    2.5258    0.1473   22.0000 
2507.1324    9.3485   51.8544   10.3407   12.6845   14.3638   68.8409    2.5287    0.1540   22.0000 
2507.2848    9.3383   51.8576   10.4427   13.2735   13.4498   69.2719    2.5282    0.1508   22.0000 
2507.4372    9.3359   53.2160   10.6125   13.0677   12.9695   69.9276    2.5263    0.1443   22.0000 
2507.5896    9.3414   54.5470   10.7156   12.2920   13.3808   70.4933    2.5291    0.1371   22.0000 
2507.7420    9.3492   56.4604   10.7851   11.6964   13.8112   70.8371    2.5409    0.1324   22.0000 
2507.8944    9.3406   57.6871   10.8509   11.6037   13.8782   70.9258    2.5614    0.1358   22.0000 
2508.0468    9.3359   57.5960   10.7969   11.7475   15.2131   70.8455    2.5800    0.1428   22.0000 
2508.1992    9.3359   55.8805   10.7907   11.8586   15.7422   70.6901    2.5878    0.1501   22.0000 
2508.3516    9.3523   54.5056   10.7962   11.9101   15.3965   70.4895    2.5822    0.1472   22.0000 
2508.5040    9.3867   54.2665   10.6501   11.9608   14.7283   70.2623    2.5680    0.1361   22.0000 
2508.6564    9.3984   53.5510   10.6146   12.0631   14.5273   70.0226    2.5539    0.1282   22.0000 
2508.8088    9.3657   53.0690   10.7719   12.2016   15.9561   69.8053    2.5462    0.1326   22.0000 
2508.9612    9.2970   53.8129   10.8398   12.4360   17.5130   69.6684    2.5486    0.1380   22.0000 
2509.1136    9.2407   54.6535   11.0582   12.8060   15.9840   69.6491    2.5645    0.1419   22.0000 
2509.2660    9.2156   54.5218   11.5442   13.2791   12.5010   69.7471    2.5877    0.1427   22.0000 
2509.4184    9.2000   54.7503   11.7461   13.6758   13.8980   69.8848    2.5912    0.1487   22.0000 
2509.5708    9.1353   55.6816   11.8242   13.7125   15.0445   69.9554    2.5768    0.1544   22.0000 
2509.7232    9.0712   56.0288   12.0350   13.3043   14.1696   69.9447    2.5601    0.1524   22.0000 
2509.8756    9.0165   55.3728   12.1832   12.8095   14.0760   69.8588    2.5467    0.1488   22.0000 
2510.0280    8.9672   54.7689   12.5180   12.8119   14.1049   69.7039    2.5408    0.1507   22.0000 
2510.1804    8.9422   55.0158   13.0462   13.3056   15.7914   69.4818    2.5426    0.1556   22.0000 
2510.3328    8.9266   56.8233   13.3648   13.8450   16.2909   69.2168    2.5439    0.1559   22.0000 
2510.4852    8.9110   58.3808   13.7517   14.1172   14.8010   68.9512    2.5429    0.1505   22.0000 
2510.6376    8.9117   58.4886   14.1492   14.1032   14.4106   68.7212    2.5414    0.1508   22.0000 
2510.7900    8.9141   57.4025   14.0686   14.0500   14.6970   68.5440    2.5394    0.1560   22.0000 
2510.9424    8.9141   55.5121   13.7820   14.0555   14.3879   68.4261    2.5361    0.1567   22.0000 
2511.0948    8.9141   54.2405   13.7210   14.0118   14.1642   68.3609    2.5374    0.1487   22.0000 
2511.2472    8.9086   53.1938   13.6954   13.9632   14.7029   68.3759    2.5488    0.1421   22.0000 
2511.3996    8.9062   53.7259   13.6203   14.0759   16.7891   68.5317    2.5684    0.1406   22.0000 
2511.5520    8.9117   56.1942   13.6750   14.3587   18.3429   69.0316    2.5863    0.1437   22.0000 
2511.7044    8.9523   56.4194   13.8482   14.6225   17.6347   70.0512    2.5966    0.1460   22.0000 
2511.8568    9.0015   53.6288   13.7438   14.8308   14.8020   71.2000    2.5954    0.1530   22.0000 
2512.0092    9.0320   51.5915   13.0870   15.2586   16.9013   71.6554    2.5764    0.1585   22.0000 
2512.1616    9.0664   53.5852   12.3405   15.7220   16.6688   70.9163    2.5370    0.1668   22.0000 
2512.3140    9.1054   56.4023   11.8049   15.5145   15.0199   69.5855    2.4887    0.1699   22.0000 
2512.4664    9.1445   57.7815   11.2653   14.7128   14.2631   68.6475    2.4456    0.1781    1.0000 
2512.6188    9.1617   57.9539   11.0162   13.9070   13.4348   68.4882    2.4155    0.1895    1.0000 
2512.7712    9.1586   59.8445   11.1695   13.3507   12.2816   68.8531    2.3993    0.2000    1.0000 
2512.9236    9.1999   61.5622   11.1922   13.0375   12.3565   69.3943    2.3939    0.2055    1.0000 
2513.0760    9.1860   61.7239   11.1445   12.9367   14.0972   69.8587    2.3927    0.2007    1.0000 
2513.2284    9.1664   63.2849   11.1790   12.9961   14.0014   70.1273    2.3969    0.2034    1.0000 
2513.3808    9.1859   65.3660   11.1475   12.9650   12.6838   70.1912    2.4074    0.2097    1.0000 
2513.5332    9.1953   66.8408   11.3876   12.8422   13.0566   70.1708    2.4267    0.2152    1.0000 
2513.6856    9.1953   65.3650   12.2242   12.8702   13.6716   70.1488    2.4566    0.1997    1.0000 
2513.8380    9.1844   63.5466   13.0268   12.9267   13.8873   70.1514    2.4930    0.1791   22.0000 
2513.9904    9.1851   64.0231   13.4193   12.8353   13.8533   70.2072    2.5279    0.1624   22.0000 
2514.1428    9.1656   65.5503   13.5406   12.7531   14.6136   70.2887    2.5556    0.1734   22.0000 
2514.2952    9.1344   66.8987   13.4672   12.6634   15.4884   70.1806    2.5744    0.1867   22.0000 
2514.4476    9.1032   66.2889   13.3421   12.5610   13.5516   69.6574    2.5858    0.1942   37.0000 
2514.6000    9.0610   64.6457   13.4743   12.6439   14.6369   68.8078    2.5911    0.1813   22.0000 
2514.7524    9.1015   60.5392   14.0275   13.3802   16.2027   67.9347    2.5915    0.1622   22.0000 
2514.9048    9.1578   56.3062   14.5641   14.9972   28.4082   67.5186    2.5866    0.1475   22.0000 
2515.0572    9.0955   54.1129   14.7890   16.5334   22.6138   67.6472    2.5772    0.1442   22.0000 
2515.2096    9.0625   55.5909   14.8415   16.7243   14.6201   68.0630    2.5668    0.1496   22.0000 
2515.3620    9.0188   59.9458   14.7464   16.1440   13.8145   68.4782    2.5605    0.1645   22.0000 
2515.5144    8.9836   63.1507   14.5710   16.0829   13.4161   68.6843    2.5612    0.1791   22.0000 
2515.6668    8.9929   65.5927   14.8839   16.4324   11.4667   68.5353    2.5687    0.1814   22.0000 
2515.8192    8.9672   65.6831   15.6106   16.4597    9.9257   67.9452    2.5805    0.1677   22.0000 
2515.9716    8.9367   63.8450   16.5252   16.3991   11.4372   66.9112    2.5934    0.1406   22.0000 
2516.1240    8.8914   59.6586   17.5205   17.3721   17.1827   65.7543    2.6048    0.1187   22.0000 
2516.2764    8.8313   52.5686   17.9186   19.8263   18.5868   64.9714    2.6127    0.1133   22.0000 
2516.4288    8.8398   46.9154   17.4771   23.2574   24.0129   65.1237    2.6121    0.1252   22.0000 
2516.5812    8.8570   48.4474   17.1980   25.2345   16.4894   65.9361    2.6042    0.1430   22.0000 
2516.7336    8.8539   55.7122   17.5220   23.5490   12.1031   66.9690    2.5922    0.1570   22.0000 
2516.8860    8.8516   63.2952   17.8735   20.6496   12.4472   67.7202    2.5800    0.1647   22.0000 
2517.0384    8.8516   65.7079   18.4228   19.3238   12.3583   67.9946    2.5720    0.1665   22.0000 
2517.1908    8.8625   65.5180   18.8441   19.1172   12.7413   67.9849    2.5707    0.1610   22.0000 
2517.3432    8.8726   65.7700   18.5645   19.1498   18.8813   67.9196    2.5790    0.1618   22.0000 
2517.4956    8.8750   64.8373   18.4188   19.3501   30.2134   67.8924    2.5962    0.1692   22.0000 
2517.6480    8.8805   64.2781   18.8604   19.6373   31.8711   67.8880    2.6123    0.1804   22.0000 
