~VERSION INFORMATION
 VERS.                 2.0:   CWLS LOG ASCII STANDARD - VERSION 2.0
 WRAP.                  NO:   SINGLE LINE PER DEPTH STEP
 CREA.                 11/04/2018 11:49:07
#CREATED USING DSPetro VERSION 5000.10.1.3 BY H191660 ON 11/04/2018 11:49:07
~WELL INFORMATION
#MNEM.UNIT       DATA                          DESCRIPTION MNEMONIC
#---------      ---------------------------   --------------------------
 STRT    .M         2273.9604                 : START DEPTH
 STOP    .M         4010.2536                 : STOP DEPTH
 STEP    .M         0.1524                    : STEP VALUE
 NULL    .      -999.0000                     : NULL VALUE
 DATE    .      11/04/2018                    : LAS file Creation Date
 WELL .      7120_1_1_r2                 : Well Name
 COMP .      Neftex Exploration Insights : Company
 FLD  .                                  : Field
 UWI  .      ENOWL_0NOR05                : Unique Well Identifier (UWI)
 LOC  .                                  : Location
 RWS  .      -999                        : Def_Rw
 WST  .      -999                        : Def_Rwt
 SRVC .                                  : Contractor
~CURVE INFORMATION
#MNEM              UNIT       API CODE   Curve Type Comments
#----------  --------------- ----------  ---------- -----------
 DEPTH      .M                         : Depth       
 CAL_INCH   .inch                      :             Caliper Log - A representation of the measured diameter of a borehole along its depth
 GR_API     .API                       : GammaRay    Gamma Ray (API) - Measures the intensity of natural gamma-ray radiation emitted from formations containing radioactive elements, such as K, Th and U
 RD_OHMM    .ohmm                      :             Unspecified Deep Resistivity - No accroynm or method of attainment is specified - units of ohmm
 RM_OHMM    .ohm.m                     :             Unspecified Medium Resistivity - No accroynm or method of attainment is specified
 RS_OHMM    .ohmm                      :             Unspecified Shallow Resistivity - No accroynm or method of attainment is specified
 DT_US_FT   .us/ft                     :             Interval Transit Time: Compressional Wave - Evaluates the time it takes for a compressional wave to traverse a fixed distance
 RHOB_G_CC  .g/cc                      :             Bulk Density - Measures the density of bulk material, including any void space or other materials contained in the subject volume
 NPHI_RATIO .ratio                     :             Neutron Porosity - Measured with an neutron logging device calibrated to a given matrix (limestone, sandstone and dolomite)
 LITH       .                          : LITH        Lithology Curve
~A  DEPTH  CAL_INCH   GR_API   RD_OHMM   RM_OHMM   RS_OHMM   DT_US_FT RHOB_G_C~ NPHI_RAT~    LITH   
# ...
3188.3604    8.7848   44.3247  149.2981   58.6534   26.9410   54.8384    2.6949    0.0219   18.0000 
3188.5128    8.7743   32.3251  206.4980   60.1882   28.6722   53.7139    2.6860    0.0101   18.0000 
3188.6652    8.7626   30.5096  255.5200   61.3201   24.8878   52.7303    2.6755    0.0053   27.0000 
3188.8176    8.7629   36.4826  282.3676   61.8377   21.9662   52.5838    2.6656    0.0055   27.0000 
3188.9700    8.7599   40.8689  306.8478   62.8317   23.2584   52.4374    2.6648    0.0065   27.0000 
3189.1224    8.7554   38.4481  340.5151   64.5200   33.1445   52.2910    2.6652    0.0060   27.0000 
3189.2748    8.7362   32.4828  393.3012   65.9414   41.9784   52.1447    2.6695    0.0044   27.0000 
3189.4272    8.7393   26.4675  435.1967   66.6510   30.1733   51.9981    2.6689    0.0035   27.0000 
3189.5796    8.7543   22.8942  471.4957   66.0562   20.6744   51.8518    2.6667    0.0031   27.0000 
3189.7320    8.7629   22.3052  533.6489   66.7204   31.3183   51.7054    2.6674    0.0030   27.0000 
3189.8844    8.7612   23.6338  594.9814   69.2595   42.1959   51.5590    2.6689    0.0034   27.0000 
3190.0368    8.7706   25.7485  631.9144   71.7208   49.4178   51.4125    2.6761    0.0048   27.0000 
3190.1892    8.7901   31.0254  566.3563   69.0930   38.9924   51.8127    2.6755    0.0086   22.0000 
3190.3416    8.8434   42.6228  469.3112   65.7178   21.2228   53.4858    2.6736    0.0208   22.0000 
3190.4940    8.9158   57.0769  412.0976   61.0833   27.4257   55.2604    2.6610    0.0421   22.0000 
3190.6464    8.8587   65.8490  403.8949   57.2387   44.0006   57.4095    2.6518    0.0598   22.0000 
3190.7988    8.8052   65.9738  466.2828   57.8241   49.6565   58.6502    2.6494    0.0661   22.0000 
3190.9512    8.7969   62.7936  585.6398   57.4363   52.9091   59.0498    2.6529    0.0699   22.0000 
3191.1036    8.7975   61.6273  671.6564   56.2069   53.7726   59.2997    2.6562    0.0746   22.0000 
3191.2560    8.8020   62.1313  646.1453   55.9774   53.6593   59.1130    2.6616    0.0695   22.0000 
3191.4084    8.7989   62.3932  548.2649   56.7220   48.6321   59.1474    2.6706    0.0611   22.0000 
3191.5608    8.7969   64.1714  476.6160   57.3956   49.1126   59.1817    2.6721    0.0623   22.0000 
3191.7132    8.7969   66.5336  416.7984   58.1425   46.4289   58.9987    2.6695    0.0674   22.0000 
3191.8656    8.7969   65.5883  388.5383   58.6906   48.7552   58.5669    2.6748    0.0622   22.0000 
3192.0180    8.7976   59.7705  375.6854   59.5591   46.3763   58.1345    2.6968    0.0423   22.0000 
3192.1704    8.8026   53.7931  337.1282   61.6658   49.3227   57.7028    2.7145    0.0275   22.0000 
3192.3228    8.8040   52.2988  320.3998   63.2382   48.7236   57.2710    2.7171    0.0266   22.0000 
3192.4752    8.7996   53.7200  316.3363   64.1444   45.5194   56.8393    2.7138    0.0313   22.0000 
3192.6276    8.8006   54.7386  291.6909   65.0652   46.9177   56.4076    2.7009    0.0333   22.0000 
3192.7800    8.7867   53.7297  271.5026   65.5627   47.9063   55.9752    2.6876    0.0326   22.0000 
3192.9324    8.7748   50.3726  283.4179   65.8779   44.8473   55.3384    2.6773    0.0314   18.0000 
3193.0848    8.7677   43.3205  326.2385   66.0263   43.7059   54.2139    2.6772    0.0249   18.0000 
3193.2372    8.7663   34.0810  410.6666   64.5707   50.4627   53.5256    2.6808    0.0159   18.0000 
3193.3896    8.7692   29.3235  546.4757   61.6770   45.9685   53.5623    2.6737    0.0120   27.0000 
3193.5420    8.7569   34.5489  580.5836   60.7198   47.2043   54.5130    2.6705    0.0191   18.0000 
3193.6944    8.7558   49.1050  489.4062   62.5223   50.1200   56.6606    2.6656    0.0407   22.0000 
3193.8468    8.7578   65.7154  403.7024   64.7028   49.8201   56.1466    2.6686    0.0693   22.0000 
3193.9992    8.7578   75.9199  317.4203   66.9786   47.3115   61.4507    2.6655    0.0856   22.0000 
3194.1516    8.7571   75.9159  269.6145   67.9346   48.4322   61.7748    2.6592    0.0893   22.0000 
3194.3040    8.7520   68.7615  287.7439   67.8228   43.9156   61.0132    2.6528    0.0802   22.0000 
3194.4564    8.7478   59.6059  318.3579   66.9793   43.2314   59.5272    2.6444    0.0634   22.0000 
3194.6088    8.7327   53.8009  351.1166   66.0122   48.9595   58.2139    2.6470    0.0484   22.0000 
3194.7612    8.7266   53.4426  424.9288   63.9452   51.0593   57.6124    2.6543    0.0470   22.0000 
3194.9136    8.7258   55.5974  453.2740   62.7025   49.5454   57.7622    2.6655    0.0543   22.0000 
3195.0660    8.7200   58.4448  447.9320   63.3371   49.6268   58.1370    2.6670    0.0606   22.0000 
3195.2184    8.7130   60.2891  487.9115   63.4130   50.9201   58.3373    2.6645    0.0607   22.0000 
3195.3708    8.7117   63.7397  541.7798   63.3566   51.4969   58.5501    2.6541    0.0624   22.0000 
3195.5232    8.7160   69.1064  598.3914   63.0327   51.2566   59.2378    2.6465    0.0652   22.0000 
3195.6756    8.7130   70.6066  661.5916   62.7031   51.2778   59.3252    2.6406    0.0635   22.0000 
3195.8280    8.7109   66.9709  705.8622   62.7559   52.3918   59.1627    2.6468    0.0572   22.0000 
3195.9804    8.7117   60.4711  754.0048   62.7905   53.3678   58.1643    2.6498    0.0492   22.0000 
3196.1328    8.7167   54.5968  790.2252   63.1335   52.7402   57.1372    2.6453    0.0412   22.0000 
3196.2852    8.7180   49.1502  817.7579   63.8167   53.3801   56.2632    2.6380    0.0332   27.0000 
3196.4376    8.7137   40.7091  963.5937   63.4266   52.8081   55.3013    2.6327    0.0258   27.0000 
3196.5900    8.7160   30.2383 1157.5370   62.4732   54.4493   53.7772    2.6449    0.0182   27.0000 
3196.7424    8.7130   21.8524 1399.4010   61.7176   54.6215   52.2871    2.6708    0.0119   18.0000 
3196.8948    8.7109   18.5056 1655.3510   60.9706   53.9629   51.6128    2.6942    0.0084   18.0000 
3197.0472    8.7109   19.5437 1757.3030   60.8608   53.5723   51.6747    2.6959    0.0092   18.0000 
3197.1996    8.7109   21.9534 1656.7670   61.6482   50.3464   52.3614    2.6797    0.0125   18.0000 
3197.3520    8.7117   23.8799 1573.2980   62.7752   37.7730   53.0627    2.6730    0.0156   18.0000 
3197.5044    8.7200   24.4189 1545.3080   63.8500   41.9054   53.3375    2.6784    0.0155   18.0000 
3197.6568    8.7428   23.9420 1772.7310   63.5693   50.3135   52.5884    2.6937    0.0127   18.0000 
3197.8092    8.7574   24.5694 1997.7220   62.5509   52.1939   51.5513    2.6994    0.0099   18.0000 
3197.9616    8.7719   30.6306 1398.6050   64.0482   54.3834   51.6867    2.6986    0.0120   18.0000 
3198.1140    8.7909   44.3390  721.9086   67.5890   55.2562   53.7133    2.6868    0.0262   18.0000 
3198.2664    8.7977   60.6484  448.5251   69.2999   51.1546   56.5102    2.6796    0.0498   22.0000 
3198.4188    8.8027   74.0266  321.4603   70.3430   42.9649   59.0345    2.6591    0.0718   22.0000 
3198.5712    8.8039   81.8981  270.5202   69.9910   46.6288   60.7981    2.6498    0.0854   22.0000 
3198.7236    8.7997   86.5659  300.4445   68.1512   42.9939   61.2500    2.6397    0.0907   22.0000 
3198.8760    8.8027   85.9994  366.9874   66.4301   47.0891   60.3760    2.6457    0.0867   22.0000 
3199.0284    8.8047   76.2558  448.3805   63.4842   51.2758   58.8646    2.6504    0.0681   22.0000 
3199.1808    8.8047   62.9619  524.9760   60.9948   48.4718   57.4143    2.6597    0.0502   22.0000 
3199.3332    8.8047   56.0183  450.1693   61.4970   43.7704   56.6498    2.6681    0.0415   22.0000 
3199.4856    8.8055   59.7822  347.5641   62.3751   49.2141   57.0252    2.6629    0.0471   22.0000 
3199.6380    8.8131   67.8574  285.0318   63.7326   47.0687   57.9492    2.6583    0.0562   22.0000 
3199.7904    8.8291   73.0565  223.3503   64.6104   45.0497   57.7260    2.6572    0.0603   22.0000 
3199.9428    8.8275   71.8515  185.9289   64.4974   41.2384   57.3253    2.6676    0.0560   22.0000 
3200.0952    8.8106   66.0919  166.8994   63.8510   38.0743   56.6372    2.6755    0.0477   22.0000 
3200.2476    8.8047   58.4803  164.0127   63.9644   40.4091   55.3262    2.6895    0.0396   22.0000 
3200.4000    8.8047   50.9201  182.4555   64.3328   37.3205   54.5256    2.7015    0.0313   22.0000 
