~VERSION INFORMATION
 VERS.                 2.0:   CWLS LOG ASCII STANDARD - VERSION 2.0
 WRAP.                  NO:   SINGLE LINE PER DEPTH STEP
 CREA.                 11/04/2018 11:49:07
#CREATED USING DSPetro VERSION 5000.10.1.3 BY H191660 ON 11/04/2018 11:49:07
~WELL INFORMATION
#MNEM.UNIT       DATA                          DESCRIPTION MNEMONIC
#---------      ---------------------------   --------------------------
 STRT    .M         2273.9604                 : START DEPTH
 STOP    .M         4010.2536                 : STOP DEPTH
 STEP    .M         0.1524                    : STEP VALUE
 NULL    .      -999.0000                     : NULL VALUE
 DATE    .      11/04/2018                    : LAS file Creation Date
 WELL .      7120_1_1_r2                 : Well Name
 COMP .      Neftex Exploration Insights : Company
 FLD  .                                  : Field
 UWI  .      ENOWL_0NOR05                : Unique Well Identifier (UWI)
 LOC  .                                  : Location
 RWS  .      -999                        : Def_Rw
 WST  .      -999                        : Def_Rwt
 SRVC .                                  : Contractor
~CURVE INFORMATION
#MNEM              UNIT       API CODE   Curve Type Comments
#----------  --------------- ----------  ---------- -----------
 DEPTH      .M                         : Depth       
 CAL_INCH   .inch                      :             Caliper Log - A representation of the measured diameter of a borehole along its depth
 GR_API     .API                       : GammaRay    Gamma Ray (API) - Measures the intensity of natural gamma-ray radiation emitted from formations containing radioactive elements, such as K, Th and U
 RD_OHMM    .ohmm                      :             Unspecified Deep Resistivity - No accroynm or method of attainment is specified - units of ohmm
 RM_OHMM    .ohm.m                     :             Unspecified Medium Resistivity - No accroynm or method of attainment is specified
 RS_OHMM    .ohmm                      :             Unspecified Shallow Resistivity - No accroynm or method of attainment is specified
 DT_US_FT   .us/ft                     :             Interval Transit Time: Compressional Wave - Evaluates the time it takes for a compressional wave to traverse a fixed distance
 RHOB_G_CC  .g/cc                      :             Bulk Density - Measures the density of bulk material, including any void space or other materials contained in the subject volume
 NPHI_RATIO .ratio                     :             Neutron Porosity - Measured with an neutron logging device calibrated to a given matrix (limestone, sandstone and dolomite)
 LITH       .                          : LITH        Lithology Curve
~A  DEPTH  CAL_INCH   GR_API   RD_OHMM   RM_OHMM   RS_OHMM   DT_US_FT RHOB_G_C~ NPHI_RAT~    LITH   
# ...
3883.3044    6.3703   23.1347  106.0668   70.2815   23.5173   49.7809    2.8078    0.0509   12.0000 
3883.4568    6.4386   29.7968  110.8174   71.3495   26.2875   49.9807    2.8121    0.0511   12.0000 
3883.6092    6.3436   38.9347  120.8602   75.5038   11.7101   49.3141    2.8035    0.0513   12.0000 
3883.7616    6.2520   45.1085  139.1035   84.7686    4.9492   49.6362    2.7865    0.0458   12.0000 
3883.9140    6.1224   45.0486  158.1398   94.0905    4.7776   50.5503    2.7717    0.0370   12.0000 
3884.0664    6.0606   40.4106  188.8399  109.4918   11.2570   49.9371    2.7594    0.0318   12.0000 
3884.2188    6.0520   34.7277  236.1192  132.9512   25.7052   51.2668    2.7490    0.0308   12.0000 
3884.3712    6.0426   31.4078  276.1730  153.2130   37.9024   52.1747    2.7556    0.0342   12.0000 
3884.5236    6.0145   31.8921  274.7409  152.5582   38.3580   51.2893    2.7748    0.0387   12.0000 
3884.6760    5.9930   34.2324  253.6066  141.2500   37.0437   51.1376    2.7867    0.0431   12.0000 
3884.8284    5.9910   37.0047  233.1707  130.4766   44.1137   50.2886    2.7959    0.0438   12.0000 
3884.9808    5.9922   35.9975  221.3795  124.6124   42.7987   49.7877    2.7852    0.0411   12.0000 
3885.1332    5.9867   31.2435  221.9786  125.7939   44.2907   48.8766    2.7820    0.0383   12.0000 
3885.2856    5.9844   26.3494  229.0535  130.1732   45.0716   47.8434    2.7750    0.0383   12.0000 
3885.4380    5.9844   25.5685  241.1676  137.7934   48.5831   47.4314    2.7797    0.0389   12.0000 
3885.5904    5.9926   29.0658  257.4120  148.2293   47.7296   47.7680    2.7914    0.0411   12.0000 
3885.7428    5.9961   31.7898  276.7275  161.1193   41.7434   47.9375    2.7813    0.0451   12.0000 
3885.8952    5.9961   32.9671  282.9036  167.7296   52.6028   48.5065    2.7686    0.0505   12.0000 
3886.0476    5.9961   32.1617  266.6578  162.4232   51.0769   48.5749    2.7574    0.0529   12.0000 
3886.2000    5.9961   29.5331  239.4305  151.1836   45.1709   49.0681    2.7471    0.0539   12.0000 
3886.3524    5.9988   26.3492  209.2905  136.5606   39.8980   49.5308    2.7346    0.0532   12.0000 
3886.5048    6.0000   24.8634  177.0519  119.8944   34.4880   49.6250    2.7291    0.0544   12.0000 
3886.6572    6.0055   26.8090  146.1071  103.0697   28.4636   50.4129    2.7381    0.0545   12.0000 
3886.8096    6.0296   31.0196  120.9322   87.7874   29.9602   51.1433    2.7463    0.0586   12.0000 
3886.9620    6.0582   37.5276  100.3533   74.2415   32.9831   51.7492    2.7399    0.0626   12.0000 
3887.1144    6.0801   46.2206   83.8612   62.6576   29.5185   51.8938    2.7322    0.0648   12.0000 
3887.2668    6.1214   51.1621   80.4684   59.9209   22.0224   51.7875    2.7305    0.0586   12.0000 
3887.4192    6.1613   48.7220   88.2300   65.1398   28.7223   51.2693    2.7468    0.0495   12.0000 
3887.5716    6.1964   41.7616  101.9343   74.1204   39.7526   49.7087    2.7839    0.0424   12.0000 
3887.7240    6.2425   35.7976  137.5218   97.6417   58.1406   48.9503    2.8201    0.0405   12.0000 
3887.8764    6.2933   33.3041  213.6136  147.9583   50.0214   47.9121    2.8342    0.0429   12.0000 
3888.0288    6.3386   31.9048  303.6612  207.9461   47.4333   47.0623    2.8346    0.0508   12.0000 
3888.1812    6.3898   32.6724  340.5426  233.8996   54.1625   47.8364    2.8353    0.0592   12.0000 
3888.3336    6.4554   35.5631  259.2493  183.0464   42.2915   48.1627    2.8209    0.0608   12.0000 
3888.4860    6.4929   40.2113  184.2475  131.6240   23.6855   48.8674    2.8185    0.0578   12.0000 
3888.6384    6.5218   44.7074  166.9068  118.4221   13.9261   49.2313    2.8135    0.0566   22.0000 
3888.7908    6.5531   47.8180  173.6493  121.3030   37.4959   48.0264    2.8146    0.0590   22.0000 
3888.9432    6.5789   48.6086  256.0095  172.8460   53.5905   46.7576    2.8191    0.0563   22.0000 
3889.0956    6.5996   46.6742  350.5148  235.3248 1414.2510   46.9615    2.8135    0.0492   22.0000 
3889.2480    6.6219   44.1241  349.5057  234.2027  616.9216   47.6690    2.8064    0.0438   22.0000 
3889.4004    6.6289   41.6841  312.5225  209.0293   31.1633   48.5742    2.7856    0.0452   22.0000 
3889.5528    6.6344   40.7861  286.3912  190.8936   25.2110   48.0889    2.7678    0.0481   22.0000 
3889.7052    6.6531   41.8318  251.7380  167.3570   24.7581   48.0120    2.7650    0.0481   22.0000 
3889.8576    6.6711   44.7666  233.6136  156.1695   25.5872   48.4752    2.7684    0.0468   22.0000 
3890.0100    6.6703   47.8198  230.9482  155.5851   20.0342   47.9684    2.7695    0.0454   22.0000 
3890.1624    6.6680   50.8432  242.5723  164.7301   16.6364   47.9497    2.7709    0.0419   22.0000 
3890.3148    6.6707   51.7902  265.7046  182.3602   13.8963   48.1062    2.7674    0.0364   22.0000 
3890.4672    6.6746   50.2481  269.8413  188.7406   11.6172   47.6446    2.7643    0.0316   22.0000 
3890.6196    6.6649   49.1191  265.5143  189.7304   14.0146   48.6193    2.7650    0.0316   22.0000 
3890.7720    6.6465   50.7138  263.4412  192.0191   14.2270   49.2998    2.7765    0.0384   22.0000 
3890.9244    6.6379   54.1785  247.1610  183.0446   13.2712   49.6370    2.7785    0.0526   22.0000 
3891.0768    6.6285   55.0028  196.9536  147.4936   19.0648   50.4487    2.7801    0.0699   22.0000 
3891.2292    6.6277   55.0978  131.0769   98.4772   23.7682   50.8813    2.7772    0.0786   22.0000 
3891.3816    6.6207   57.5314   98.9945   73.8232   19.0455   50.8064    2.7822    0.0726   22.0000 
3891.5340    6.5954   56.7255   96.1585   70.9971   14.7909   50.4443    2.7865    0.0584   22.0000 
3891.6864    6.5805   49.3990  117.6931   85.5226   18.8583   49.3954    2.7912    0.0459   22.0000 
3891.8388    6.5563   38.0105  187.2297  133.6575   26.4025   48.2121    2.8135    0.0401   12.0000 
3891.9912    6.5278   30.1762  315.2620  219.5868   32.9186   47.3060    2.8359    0.0411   12.0000 
3892.1436    6.4922   29.3158  423.4564  289.8990   32.7099   46.5818    2.8486    0.0464   12.0000 
3892.2960    6.4586   30.3859  459.8670  313.1014   33.5469   46.7244    2.8352    0.0504   12.0000 
3892.4484    6.4218   32.5010  430.6550  296.7399   34.6306   46.8750    2.8144    0.0499   12.0000 
3892.6008    6.3801   33.7379  370.9877  258.7737   32.6365   47.0501    2.7936    0.0483   22.0000 
3892.7532    6.3372   35.4041  326.5359  227.4965   34.4281   47.4309    2.7857    0.0485   22.0000 
3892.9056    6.2860   39.1120  298.5157  208.9437   35.8776   48.1739    2.7852    0.0485   22.0000 
3893.0580    6.2258   43.3107  280.5667  199.2765   33.2706   48.0881    2.7838    0.0490   22.0000 
3893.2104    6.1742   46.8223  267.6772  193.3038   30.7369   47.8062    2.7818    0.0500   22.0000 
3893.3628    6.1383   48.1943  253.9160  186.0277   31.5109   48.6254    2.7744    0.0482   22.0000 
3893.5152    6.1043   50.4988  253.6614  188.1790   32.2684   49.1748    2.7742    0.0460   22.0000 
3893.6676    6.0746   56.2882  266.4741  202.4709   28.5226   49.0753    2.7686    0.0454   22.0000 
3893.8200    6.0527   66.4624  256.0630  198.4178   30.5736   48.8249    2.7711    0.0526   22.0000 
3893.9724    6.0414   79.0170  235.2687  185.2980   41.5736   49.6254    2.7707    0.0649   22.0000 
3894.1248    6.0391   92.7272  196.0233  155.8038   37.1530   51.9665    2.7709    0.0828   37.0000 
3894.2772    6.0363  103.1915  149.9698  119.5258   42.9764   53.1182    2.7769    0.0967   37.0000 
3894.4296    6.0161  107.2145  119.2372   94.7417   35.5227   53.7740    2.7725    0.0923   37.0000 
3894.5820    6.0051  113.1107  111.1192   87.7651   26.8264   53.2559    2.7559    0.0697   37.0000 
3894.7344    6.0012  126.1121  121.1800   94.2868   23.6393   51.0584    2.7323    0.0472   37.0000 
3894.8868    5.9973  131.4356  156.8871  117.5441   32.3967   49.9006    2.7342    0.0390   37.0000 
3895.0392    5.9961  114.6779  295.5447  209.0352   38.3465   47.5228    2.7588    0.0412   37.0000 
3895.1916    6.0016   81.1958  541.9597  369.9920   33.2911   46.7376    2.7976    0.0421   37.0000 
3895.3440    6.0012   51.2565  605.4417  424.6170   31.0653   46.1559    2.8160    0.0423   12.0000 
