~VERSION INFORMATION
 VERS.                 2.0:   CWLS LOG ASCII STANDARD - VERSION 2.0
 WRAP.                  NO:   SINGLE LINE PER DEPTH STEP
 CREA.                 11/04/2018 11:49:07
#CREATED USING DSPetro VERSION 5000.10.1.3 BY H191660 ON 11/04/2018 11:49:07
~WELL INFORMATION
#MNEM.UNIT       DATA                          DESCRIPTION MNEMONIC
#---------      ---------------------------   --------------------------
 STRT    .M         2273.9604                 : START DEPTH
 STOP    .M         4010.2536                 : STOP DEPTH
 STEP    .M         0.1524                    : STEP VALUE
 NULL    .      -999.0000                     : NULL VALUE
 DATE    .      11/04/2018                    : LAS file Creation Date
 WELL .      7120_1_1_r2                 : Well Name
 COMP .      Neftex Exploration Insights : Company
 FLD  .                                  : Field
 UWI  .      ENOWL_0NOR05                : Unique Well Identifier (UWI)
 LOC  .                                  : Location
 RWS  .      -999                        : Def_Rw
 WST  .      -999                        : Def_Rwt
 SRVC .                                  : Contractor
~CURVE INFORMATION
#MNEM              UNIT       API CODE   Curve Type Comments
#----------  --------------- ----------  ---------- -----------
 DEPTH      .M                         : Depth       
 CAL_INCH   .inch                      :             Caliper Log - A representation of the measured diameter of a borehole along its depth
 GR_API     .API                       : GammaRay    Gamma Ray (API) - Measures the intensity of natural gamma-ray radiation emitted from formations containing radioactive elements, such as K, Th and U
 RD_OHMM    .ohmm                      :             Unspecified Deep Resistivity - No accroynm or method of attainment is specified - units of ohmm
 RM_OHMM    .ohm.m                     :             Unspecified Medium Resistivity - No accroynm or method of attainment is specified
 RS_OHMM    .ohmm                      :             Unspecified Shallow Resistivity - No accroynm or method of attainment is specified
 DT_US_FT   .us/ft                     :             Interval Transit Time: Compressional Wave - Evaluates the time it takes for a compressional wave to traverse a fixed distance
 RHOB_G_CC  .g/cc                      :             Bulk Density - Measures the density of bulk material, including any void space or other materials contained in the subject volume
 NPHI_RATIO .ratio                     :             Neutron Porosity - Measured with an neutron logging device calibrated to a given matrix (limestone, sandstone and dolomite)
 LITH       .                          : LITH        Lithology Curve
~A  DEPTH  CAL_INCH   GR_API   RD_OHMM   RM_OHMM   RS_OHMM   DT_US_FT RHOB_G_C~ NPHI_RAT~    LITH   
# ...
3529.7364    8.4195   13.3479   16.4903    9.9550    9.5078   53.2380    2.6957    0.1434   12.0000 
3529.8888    8.4219   14.4947   14.5186    8.7692    8.6439   52.7756    2.7115    0.1399   12.0000 
3530.0412    8.4219   16.2567   13.3728    8.0408    9.4692   52.7125    2.7100    0.1409   12.0000 
3530.1936    8.4273   18.0211   13.4683    7.9724   10.7881   52.2248    2.7084    0.1447   12.0000 
3530.3460    8.4297   18.7579   14.6263    8.4756   10.4653   52.1748    2.7158    0.1467   12.0000 
3530.4984    8.4297   17.2531   18.3118   10.0727   12.2548   52.0753    2.7269    0.1401   12.0000 
3530.6508    8.4297   14.3106   23.3484   12.2873   19.2919   51.7380    2.7236    0.1317   12.0000 
3530.8032    8.4297   12.1486   26.9577   13.8940   21.7077   51.4499    2.7125    0.1260   12.0000 
3530.9556    8.4297   11.6693   24.5104   13.0284   23.8818   51.1128    2.7131    0.1276   12.0000 
3531.1080    8.4297   12.3530   20.2585   11.3432   22.2610   50.9127    2.7176    0.1245   12.0000 
3531.2604    8.4297   13.0693   15.2312    8.9981   17.1503   51.1370    2.7365    0.1273   12.0000 
3531.4128    8.4297   14.0211   10.7834    6.6314   11.2113   51.3375    2.7332    0.1304   12.0000 
3531.5652    8.4297   16.0913    8.7527    5.4963    9.2533   51.5498    2.7299    0.1319   12.0000 
3531.7176    8.4297   18.7913    8.1613    5.1611    7.2278   52.3237    2.7114    0.1316   12.0000 
3531.8700    8.4297   20.3141    7.7743    4.9724    5.9161   52.8870    2.7113    0.1368   12.0000 
3532.0224    8.4297   19.9951    7.6903    4.9247    5.7778   53.3502    2.7066    0.1439   12.0000 
3532.1748    8.4297   18.2865    8.3203    5.2967    5.7036   53.8502    2.7031    0.1470   12.0000 
3532.3272    8.4297   16.3572    8.8640    5.6664    6.7055   54.1748    2.6977    0.1464   12.0000 
3532.4796    8.4297   14.9097    9.3444    6.0263   11.4796   54.1627    2.6967    0.1480   12.0000 
3532.6320    8.4297   13.7652   10.8999    6.9556   11.4387   54.5617    2.6945    0.1517   12.0000 
3532.7844    8.4297   13.8945   13.4012    8.3907   10.0810   54.3998    2.6988    0.1450   12.0000 
3532.9368    8.4351   14.3232   16.1064    9.9190    9.6495   53.7256    2.6998    0.1293   12.0000 
3533.0892    8.4539   14.2816   19.5717   11.8339   13.0015   53.0633    2.7101    0.1070   12.0000 
3533.2416    8.4609   13.1352   18.5496   11.4141   13.5564   52.4383    2.7299    0.0942   12.0000 
3533.3940    8.4609   11.1296   14.9195    9.5885   13.6104   52.4251    2.7609    0.0897   12.0000 
3533.5464    8.4609   10.8145   12.2693    8.1696    7.9079   53.1992    2.7879    0.0981    1.0000 
3533.6988    8.4719   12.9300   10.8644    7.3502    6.1271   54.1114    2.7908    0.1109    1.0000 
3533.8512    8.4984   15.8582   10.0350    6.8420    5.1840   54.6370    2.7850    0.1229    1.0000 
3534.0036    8.5297   17.5581    9.7166    6.6431    5.6352   55.0126    2.7573    0.1295    1.0000 
3534.1560    8.5391   17.3190   10.0791    6.8667    7.7668   55.1250    2.7270    0.1319    1.0000 
3534.3084    8.5391   15.6979   10.9398    7.4501    8.0497   55.5620    2.7037    0.1351   12.0000 
3534.4608    8.5445   14.0839   12.0091    8.1317    8.8790   55.2696    2.6904    0.1355   12.0000 
3534.6132    8.5469   13.6840   14.7642    9.7429    9.7352   54.9752    2.6957    0.1366   12.0000 
3534.7656    8.5469   15.0722   20.0090   12.9231    8.0785   54.2809    2.6965    0.1379   12.0000 
3534.9180    8.5469   16.5995   26.9640   16.8166   14.8340   53.3008    2.6980    0.1341   12.0000 
3535.0704    8.5523   16.6866   41.0577   23.7785   11.4076   52.1266    2.6951    0.1129   12.0000 
3535.2228    8.5438   15.3733   58.9806   32.0924   11.9430   50.8766    2.7152    0.0833   12.0000 
3535.3752    8.5281   13.5941   67.4668   35.4659   17.1619   49.7997    2.7424    0.0575   12.0000 
3535.5276    8.6981   13.1207   72.0461   36.6705   12.7405   48.5808    2.7746    0.0462   12.0000 
3535.6800    8.8772   14.3040   77.5300   38.2678   11.8134   48.4934    2.7947    0.0448   12.0000 
3535.8324    8.8837   14.9901   85.7448   40.6918   26.4619   49.1490    2.8220    0.0483   12.0000 
3535.9848    8.9109   14.5484  102.5472   44.7210   33.9350   49.2875    2.8457    0.0484   12.0000 
3536.1372    8.9079   13.2776  135.7850   52.0202   33.0330   49.2500    2.8393    0.0427   12.0000 
3536.2896    8.8493   12.8328  193.7590   61.9454   33.5541   48.8130    2.8285    0.0337   12.0000 
3536.4420    8.8281   14.1630  276.0320   72.8692   21.6603   48.7123    2.8221    0.0236   12.0000 
3536.5944    8.8281   16.2807  340.9087   75.8613   16.8475   48.2260    2.8326    0.0171   12.0000 
3536.7468    8.8281   18.5331  378.1776   75.6068    9.3637   48.0000    2.8515    0.0139   12.0000 
3536.8992    8.8445   19.7848  417.3080   77.6950    7.4172   48.0000    2.8479    0.0142   12.0000 
3537.0516    8.8461   21.6116  439.9720   77.3941   16.8759   47.5633    2.8356    0.0167   12.0000 
3537.2040    8.8765   25.0835  447.9911   76.6928   28.3999   47.8990    2.8552    0.0172   12.0000 
3537.3564    8.9671   29.6249  473.9603   81.0368   24.8797   48.1688    2.8775    0.0150   12.0000 
3537.5088    8.9181   33.0141  442.5229   84.2088   23.2313   48.0124    2.8787    0.0131   12.0000 
3537.6612    8.8610   35.7080  337.1161   81.3792   28.7487   49.2922    2.8565    0.0137   12.0000 
3537.8136    8.8516   41.2574  260.6609   77.1968   16.3049   50.5737    2.8408    0.0165   12.0000 
3537.9660    8.8898   50.0019  212.8801   73.3930   16.3404   52.8009    2.8270    0.0186   12.0000 
3538.1184    8.9172   56.9386  174.5256   68.5375   19.6914   54.4129    2.8168    0.0265   12.0000 
3538.2708    8.9383   57.6490  165.5740   66.6514   28.4844   55.5803    2.8172    0.0472   12.0000 
3538.4232    8.9671   54.9499  171.3012   68.0441   29.4269   56.6362    2.8225    0.0717   12.0000 
3538.5756    8.9766   52.9506  179.8819   70.1912   30.4117   56.2388    2.8037    0.0818   12.0000 
3538.7280    8.9766   52.5189  188.2715   71.3712   35.4800   54.9746    2.7881    0.0786   12.0000 
3538.8804    8.9711   52.6660  211.4330   73.6577   36.5289   53.6448    2.7770    0.0729   12.0000 
3539.0328    8.9633   54.1891  259.5033   84.7234   25.1594   53.0316    2.7912    0.0686   12.0000 
3539.1852    8.9446   54.3623  342.4279   96.4924    9.2275   51.1034    2.7988    0.0595   12.0000 
3539.3376    8.9921   49.3364  503.9021  100.4077    1.9670   48.3866    2.7920    0.0449   12.0000 
3539.4900    9.0320   40.0333  690.8912   94.5762    0.6946   46.4682    2.7290    0.0346   12.0000 
3539.6424    9.1592   32.3695  894.6077   85.7004    1.5632   45.6941    2.6799    0.0271   12.0000 
3539.7948    9.6258   30.1517 1069.7450   85.9330   10.4931   44.7328    2.6713    0.0198   12.0000 
3539.9472    9.9467   31.5598 1126.0031   88.0020   10.0552   46.3884    2.7497    0.0145   12.0000 
3540.0996    9.5602   34.3918 1183.8230   97.5258   12.0769   46.8123    2.7791    0.0159   12.0000 
3540.2520    9.2198   37.5137 1128.4600   95.8458    7.4501   46.9309    2.7855    0.0212   12.0000 
3540.4044    9.1672   39.2141  996.7412   88.8102    4.2217   46.0144    2.7509    0.0264   12.0000 
3540.5568    9.1446   37.5297  833.2567   91.5994    7.9389   45.9992    2.7521    0.0343   12.0000 
3540.7092    9.1765   34.3643  691.5111   89.4937    8.5518   46.5377    2.7775    0.0361   12.0000 
3540.8616    9.1844   32.1057  578.7327   87.6028    4.2185   46.2942    2.7988    0.0367   12.0000 
3541.0140    9.1797   30.8076  514.8813   82.3907    1.1381   46.9984    2.8061    0.0395   12.0000 
3541.1664    9.2015   28.0566  522.5731   73.1716    0.6809   46.8073    2.7780    0.0443   12.0000 
3541.3188    9.4513   23.9288  580.9437   71.2534    1.2244   45.7309    2.7847    0.0452   12.0000 
3541.4712   10.0132   21.9050  666.9711   72.4382   10.1585   46.4255    2.7957    0.0326   12.0000 
3541.6236   10.0308   21.5011  819.8105   73.2906    5.9429   47.1372    2.8624    0.0215   12.0000 
3541.7760    9.4728   21.5080 1020.3090   75.5654    2.4840   47.3373    2.8729    0.0160   12.0000 
