~VERSION INFORMATION
 VERS.                 2.0:   CWLS LOG ASCII STANDARD - VERSION 2.0
 WRAP.                  NO:   SINGLE LINE PER DEPTH STEP
 CREA.                 11/04/2018 11:49:07
#CREATED USING DSPetro VERSION 5000.10.1.3 BY H191660 ON 11/04/2018 11:49:07
~WELL INFORMATION
#MNEM.UNIT       DATA                          DESCRIPTION MNEMONIC
#---------      ---------------------------   --------------------------
 STRT    .M         2273.9604                 : START DEPTH
 STOP    .M         4010.2536                 : STOP DEPTH
 STEP    .M         0.1524                    : STEP VALUE
 NULL    .      -999.0000                     : NULL VALUE
 DATE    .      11/04/2018                    : LAS file Creation Date
 WELL .      7120_1_1_r2                 : Well Name
 COMP .      Neftex Exploration Insights : Company
 FLD  .                                  : Field
 UWI  .      ENOWL_0NOR05                : Unique Well Identifier (UWI)
 LOC  .                                  : Location
 RWS  .      -999                        : Def_Rw
 WST  .      -999                        : Def_Rwt
 SRVC .                                  : Contractor
~CURVE INFORMATION
#MNEM              UNIT       API CODE   Curve Type Comments
#----------  --------------- ----------  ---------- -----------
 DEPTH      .M                         : Depth       
 CAL_INCH   .inch                      :             Caliper Log - A representation of the measured diameter of a borehole along its depth
 GR_API     .API                       : GammaRay    Gamma Ray (API) - Measures the intensity of natural gamma-ray radiation emitted from formations containing radioactive elements, such as K, Th and U
 RD_OHMM    .ohmm                      :             Unspecified Deep Resistivity - No accroynm or method of attainment is specified - units of ohmm
 RM_OHMM    .ohm.m                     :             Unspecified Medium Resistivity - No accroynm or method of attainment is specified
 RS_OHMM    .ohmm                      :             Unspecified Shallow Resistivity - No accroynm or method of attainment is specified
 DT_US_FT   .us/ft                     :             Interval Transit Time: Compressional Wave - Evaluates the time it takes for a compressional wave to traverse a fixed distance
 RHOB_G_CC  .g/cc                      :             Bulk Density - Measures the density of bulk material, including any void space or other materials contained in the subject volume
 NPHI_RATIO .ratio                     :             Neutron Porosity - Measured with an neutron logging device calibrated to a given matrix (limestone, sandstone and dolomite)
 LITH       .                          : LITH        Lithology Curve
~A  DEPTH  CAL_INCH   GR_API   RD_OHMM   RM_OHMM   RS_OHMM   DT_US_FT RHOB_G_C~ NPHI_RAT~    LITH   
# ...
3651.6564    8.6117   16.4307   21.8748   14.7604    9.5409   50.9880    2.8357    0.0742   12.0000 
3651.8088    8.5930   18.7272   17.9744   12.5655   10.7657   51.3127    2.8203    0.0755   12.0000 
3651.9612    8.5696   19.3113   15.5072   11.2495    7.5807   51.1504    2.7940    0.0801   12.0000 
3652.1136    8.5789   18.6537   14.9049   11.1073    6.9601   51.8297    2.7770    0.0829   12.0000 
3652.2660    8.5859   18.9039   14.5077   10.9950    5.5410   52.5805    2.7680    0.0852   12.0000 
3652.4184    8.6187   22.4166   14.3946   10.9525    6.5786   52.1372    2.7670    0.0911   12.0000 
3652.5708    8.6983   27.4566   14.3947   10.9884    8.7340   52.3127    2.7771    0.0974   12.0000 
3652.7232    8.8030   30.8398   13.6748   10.6228    6.4108   52.6748    2.7894    0.1005   12.0000 
3652.8756    8.6558   31.7440   12.8283   10.1409    6.5646   53.1867    2.7834    0.1004   12.0000 
3653.0280    8.5836   31.9999   13.1168   10.2889    5.7007   53.4623    2.7534    0.0984   12.0000 
3653.1804    8.5859   34.1854   14.0677   10.8528    4.8804   53.3249    2.7162    0.0949   12.0000 
3653.3328    8.6296   36.5728   16.9180   12.6747    5.6529   52.9004    2.7010    0.0903   12.0000 
3653.4852    8.6321   36.8347   21.1809   15.5654    8.3422   53.0557    2.7006    0.0769   12.0000 
3653.6376    8.6796   33.8292   27.2012   19.2190   12.1222   52.4451    2.7025    0.0694   12.0000 
3653.7900    8.5775   30.1608   35.3331   23.7866   21.0621   52.8691    2.6949    0.0766   12.0000 
3653.9424    8.5671   29.8118   41.3716   26.9453   10.6286   52.6631    2.6941    0.0944   12.0000 
3654.0948    8.5805   35.0323   45.3095   28.5161    4.8841   51.9571    2.7144    0.1101   12.0000 
3654.2472    8.6382   40.4672   44.1570   27.7760    3.4531   51.2260    2.7554    0.1136   12.0000 
3654.3996    8.8006   40.7719   44.1593   27.4294    8.1118   51.1751    2.7968    0.1020   12.0000 
3654.5520    8.8266   37.4064   49.8778   29.5688    7.5778   50.8998    2.7786    0.0869   12.0000 
3654.7044    8.9162   33.7230   63.1271   35.1968    7.9023   51.1870    2.7588    0.0730   12.0000 
3654.8568    8.8299   32.1959   85.1699   42.4381   10.0364   51.5497    2.7422    0.0678   12.0000 
3655.0092    8.8335   32.0173  103.1416   47.7327   11.9492   49.9655    2.7677    0.0660   12.0000 
3655.1616    8.8321   33.4735  115.9706   52.6064   13.1839   49.1625    2.8004    0.0600   12.0000 
3655.3140    8.8476   36.7340  132.2293   58.5629   16.6175   47.9014    2.8304    0.0494   12.0000 
3655.4664    8.8375   39.4981  141.5602   60.8192   12.1061   47.8117    2.8494    0.0333   12.0000 
3655.6188    8.8336   40.3530  135.0455   58.3343   12.7933   48.3494    2.8685    0.0207   12.0000 
3655.7712    8.8469   38.0236  111.0302   51.4091   11.3018   48.4125    2.9037    0.0159   12.0000 
3655.9236    8.8406   33.2213   89.1499   45.1550   10.2178   48.4624    2.9474    0.0209    1.0000 
3656.0760    8.8523   29.4623   75.3183   41.5714    9.2987   48.5873    2.9678    0.0354    1.0000 
3656.2284    8.8867   29.0441   66.4083   38.9294   12.9035   48.7123    2.9530    0.0518    1.0000 
3656.3808    8.8820   31.3003   60.2957   36.3041    8.4116   48.6187    2.9166    0.0577    1.0000 
3656.5332    8.8150   33.9637   59.2251   36.6159    4.9021   48.2561    2.8893    0.0588    1.0000 
3656.6856    8.8054   36.6351   59.9813   37.9793    4.0300   48.2561    2.8582    0.0622    1.0000 
3656.8380    9.0308   39.3035   62.3440   38.1952    3.1296   49.3606    2.7822    0.0713   12.0000 
3656.9904    9.4853   40.7337   70.0209   39.2288    1.4610   49.8562    2.7020    0.0853   12.0000 
3657.1428   10.0285   38.6900   76.7226   39.3679    0.9171   49.0871    2.6892    0.0916   12.0000 
3657.2952   10.1789   34.6343   81.3610   38.8882    1.4416   49.3618    2.7207    0.0930   12.0000 
3657.4476   10.2428   32.1670   91.2528   41.3633    3.2481   49.5377    2.7352    0.0916   12.0000 
3657.6000   10.3444   33.7842  103.9592   44.9219    1.7344   49.4127    2.7063    0.0860   12.0000 
3657.7524   10.0855   35.6439  117.5137   47.0484    0.5317   49.6814    2.6906    0.0836   12.0000 
3657.9048    9.7535   34.6119  138.2659   49.6732    0.7844   48.1082    2.6622    0.0814   12.0000 
3658.0572    9.7569   33.4762  152.6778   51.2596    0.9990   48.3357    2.6722    0.0768   12.0000 
3658.2096   10.0371   35.6501  154.4969   49.8072    0.7296   49.0120    2.6271    0.0776   12.0000 
3658.3620   10.2663   40.0976  136.8796   46.6853    0.4989   48.2496    2.6226    0.0772   12.0000 
3658.5144   10.2821   42.4966  106.9255   39.4839    0.6389   48.1376    2.6077    0.0801   12.0000 
3658.6668   10.3966   41.2189   86.9526   34.0564    0.8697   47.0264    2.6263    0.0788   12.0000 
3658.8192   10.4968   36.6952   80.5477   32.5334    1.0548   46.7620    2.6441    0.0756   12.0000 
3658.9716   10.4447   31.0385   76.3504   31.4837    0.8738   47.6174    2.6683    0.0795   12.0000 
3659.1240   10.2120   27.6257   75.5941   31.5451    0.7317   49.3819    2.7064    0.0812   12.0000 
3659.2764   10.0650   27.7040   76.5768   32.4937    0.5124   50.4807    2.7256    0.0865   12.0000 
3659.4288   10.0172   28.2635   76.7334   32.8855    0.6694   50.0324    2.7504    0.0923   12.0000 
3659.5812    9.8058   25.9102   78.3937   33.3963    0.5407   49.4880    2.7570    0.0937   12.0000 
3659.7336   10.1667   22.1755   83.4355   34.2832    0.4112   50.0315    2.7613    0.0808   12.0000 
3659.8860   10.3867   19.7306   87.4727   33.0414    0.4351   49.1763    2.7323    0.0684   12.0000 
3660.0384   10.4803   20.5731   86.5936   32.1126    0.5274   49.3425    2.7024    0.0634   12.0000 
3660.1908   10.2754   23.1628   82.6120   31.1181    0.6902   49.6250    2.7281    0.0639   12.0000 
3660.3432   10.1883   25.7270   86.9187   31.6739    1.0340   49.7125    2.7681    0.0641   12.0000 
3660.4956   10.0315   30.0856   95.9113   32.8487    0.8162   49.8375    2.8120    0.0701   12.0000 
3660.6480    9.8627   35.4543  104.6364   34.0643    1.4156   47.8211    2.8030    0.0779   12.0000 
3660.8004    9.9077   38.2340  112.5459   35.3468    5.3107   46.8938    2.8257    0.0726   12.0000 
3660.9528    9.4759   35.4546  113.4693   36.5755    9.1551   47.3554    2.8508    0.0669    1.0000 
3661.1052    9.0604   30.5462   96.7889   35.9513    6.8520   46.8622    2.9019    0.0615    1.0000 
3661.2576    9.0779   28.0821   81.4615   34.6137    3.7043   47.4365    2.8946    0.0596    1.0000 
3661.4100    9.1195   26.7301   70.2113   32.7576    8.6587   48.0308    2.8719    0.0626    1.0000 
3661.5624    9.1718   23.8112   62.3476   31.2812   12.3072   47.8630    2.8549    0.0691    1.0000 
3661.7148    8.9823   20.6218   59.1830   31.8953   10.5114   47.7062    2.8373    0.0781   12.0000 
3661.8672    8.8742   18.9201   60.4300   33.5928    7.7672   48.2993    2.8252    0.0790   12.0000 
3662.0196    8.8672   17.8522   64.2160   35.5379    4.6604   48.6498    2.8059    0.0744   12.0000 
3662.1720    8.8726   16.3587   71.4509   38.3784    2.8768   48.0761    2.7825    0.0728   12.0000 
3662.3244    8.8968   16.1767   80.0977   41.0892    2.2249   48.1189    2.7617    0.0734   12.0000 
3662.4768    9.1792   18.2545   85.7683   43.1691    6.3855   47.9874    2.7586    0.0669   12.0000 
3662.6292    9.2477   20.7420   85.5901   43.2382    3.4409   47.7002    2.7543    0.0582   12.0000 
3662.7816    9.3248   22.4548   76.1052   37.9696    0.9329   48.5421    2.7110    0.0495   12.0000 
3662.9340    9.6947   23.6232   62.3910   31.9089    0.6007   47.7584    2.6770    0.0472   12.0000 
3663.0864   10.0053   24.8118   53.6924   28.4386    0.6305   47.3375    2.6645    0.0556   12.0000 
3663.2388   10.2201   25.7103   50.5858   25.8840    0.6790   47.7246    2.6607    0.0662   12.0000 
3663.3912   10.4068   26.5220   50.4998   25.1463    0.4852   47.6130    2.6724    0.0809   12.0000 
3663.5436   10.4227   27.5180   52.0937   25.5088    0.5156   47.4127    2.6764    0.0938   12.0000 
3663.6960   10.0840   28.0967   51.0828   24.4912    0.8308   48.5568    2.7086    0.1040   12.0000 
