~VERSION INFORMATION
 VERS.                 2.0:   CWLS LOG ASCII STANDARD - VERSION 2.0
 WRAP.                  NO:   SINGLE LINE PER DEPTH STEP
 CREA.                 11/04/2018 11:49:07
#CREATED USING DSPetro VERSION 5000.10.1.3 BY H191660 ON 11/04/2018 11:49:07
~WELL INFORMATION
#MNEM.UNIT       DATA                          DESCRIPTION MNEMONIC
#---------      ---------------------------   --------------------------
 STRT    .M         2273.9604                 : START DEPTH
 STOP    .M         4010.2536                 : STOP DEPTH
 STEP    .M         0.1524                    : STEP VALUE
 NULL    .      -999.0000                     : NULL VALUE
 DATE    .      11/04/2018                    : LAS file Creation Date
 WELL .      7120_1_1_r2                 : Well Name
 COMP .      Neftex Exploration Insights : Company
 FLD  .                                  : Field
 UWI  .      ENOWL_0NOR05                : Unique Well Identifier (UWI)
 LOC  .                                  : Location
 RWS  .      -999                        : Def_Rw
 WST  .      -999                        : Def_Rwt
 SRVC .                                  : Contractor
~CURVE INFORMATION
#MNEM              UNIT       API CODE   Curve Type Comments
#----------  --------------- ----------  ---------- -----------
 DEPTH      .M                         : Depth       
 CAL_INCH   .inch                      :             Caliper Log - A representation of the measured diameter of a borehole along its depth
 GR_API     .API                       : GammaRay    Gamma Ray (API) - Measures the intensity of natural gamma-ray radiation emitted from formations containing radioactive elements, such as K, Th and U
 RD_OHMM    .ohmm                      :             Unspecified Deep Resistivity - No accroynm or method of attainment is specified - units of ohmm
 RM_OHMM    .ohm.m                     :             Unspecified Medium Resistivity - No accroynm or method of attainment is specified
 RS_OHMM    .ohmm                      :             Unspecified Shallow Resistivity - No accroynm or method of attainment is specified
 DT_US_FT   .us/ft                     :             Interval Transit Time: Compressional Wave - Evaluates the time it takes for a compressional wave to traverse a fixed distance
 RHOB_G_CC  .g/cc                      :             Bulk Density - Measures the density of bulk material, including any void space or other materials contained in the subject volume
 NPHI_RATIO .ratio                     :             Neutron Porosity - Measured with an neutron logging device calibrated to a given matrix (limestone, sandstone and dolomite)
 LITH       .                          : LITH        Lithology Curve
~A  DEPTH  CAL_INCH   GR_API   RD_OHMM   RM_OHMM   RS_OHMM   DT_US_FT RHOB_G_C~ NPHI_RAT~    LITH   
# ...
3993.0324    5.8586  139.2521 24598.4492 24571.3594   32.7024   52.1751    2.7482    0.0552   37.0000 
3993.1848    5.8434  140.1753 17469.4004 17962.9805   31.9342   52.2500    2.7541    0.0473   37.0000 
3993.3372    5.8426  141.8146 13500.0898 13578.5498   42.0567   52.4248    2.7545    0.0456   37.0000 
3993.4896    5.8410  146.5776 12710.3301 13002.8701   51.3457   52.3253    2.7471    0.0483   37.0000 
3993.6420    5.8371  150.9874 13093.7402 13691.3301   55.0789   52.3373    2.7400    0.0531   37.0000 
3993.7944    5.8387  152.1120 14703.4004 16026.7197   54.4870   52.3750    2.7492    0.0625   37.0000 
3993.9468    5.8371  149.1583 13378.6904 14533.2900   51.1376   52.3750    2.7703    0.0813   37.0000 
3994.0992    5.8332  138.6603 7404.8848 8092.8882   48.4870   52.2877    2.8142    0.1019    1.0000 
3994.2516    5.8375  118.0218 2623.1240 2862.3320   47.7003   52.3373    2.8505    0.1147    1.0000 
3994.4040    5.8371   94.5697 1019.2670 1086.0031   47.6250   52.3750    2.8730    0.1194    1.0000 
3994.5564    5.8387   79.7789  646.8494  702.6625   47.9964   52.3750    2.8748    0.1184    1.0000 
3994.7088    5.8398   72.5161  483.8192  536.0385   48.4619   52.4624    2.8894    0.1190    1.0000 
3994.8612    5.8371   65.0656  432.3207  482.3779   48.9868   52.5000    2.9183    0.1203    1.0000 
3995.0136    5.8359   55.8530  465.5388  521.0598   49.5721   52.4125    2.9428    0.1213    1.0000 
3995.1660    5.8387   48.6173  435.5211  488.7324   50.1870   52.4625    2.9356    0.1178    1.0000 
3995.3184    5.8371   44.6122  383.8816  430.1630   50.4842   52.3252    2.9201    0.1073    1.0000 
3995.4708    5.8332   42.4251  354.6111  396.5781   50.9679   52.3373    2.9133    0.0984    1.0000 
3995.6232    5.8320   41.3647  337.3831  375.3273   51.7021   52.6370    2.9408    0.0965    1.0000 
3995.7756    5.8320   41.4314  347.7496  381.9801   51.9375   52.4874    2.9613    0.0970    1.0000 
3995.9280    5.8348   41.9003  397.8278  429.5379   52.0686   52.3750    2.9594    0.0972    1.0000 
3996.0804    5.8359   42.3314  414.8276  440.3231   51.9940   52.3750    2.9338    0.0982    1.0000 
3996.2328    5.8332   43.3556  400.8702  420.2616   51.9375   52.4623    2.9252    0.1038    1.0000 
3996.3852    5.8348   44.1218  409.0476  428.4887   52.0688   52.4125    2.9312    0.1080    1.0000 
3996.5376    5.8414   43.4867  437.5892  455.8068   51.8847   52.3750    2.9445    0.1068    1.0000 
3996.6900    5.8410   40.9431  483.8665  500.6830   51.6721   52.4624    2.9247    0.1032    1.0000 
3996.8424    5.8371   38.5021  582.8966  594.4218   51.4066   52.4127    2.8731    0.0990    1.0000 
3996.9948    5.8414   37.7844  544.1241  547.8412   51.3125   52.4625    2.8309    0.0959    1.0000 
3997.1472    5.8383   38.4188  418.7917  418.0044   51.2032   52.4125    2.8258    0.0928    1.0000 
3997.2996    5.8414   38.5908  374.0195  368.6815   51.3746   52.4624    2.8691    0.0925    1.0000 
3997.4520    5.8410   38.2851  400.4133  390.7863   51.2504   52.4127    2.9086    0.0935    1.0000 
3997.6044    5.8371   38.1864  517.3906  495.8239   50.9379   52.4623    2.9329    0.0934    1.0000 
3997.7568    5.8359   38.7973  935.7548  868.7251   50.7343   52.5000    2.9258    0.0929    1.0000 
3997.9092    5.8359   40.1909 1308.3199 1194.1071   50.5782   52.5000    2.9117    0.0917    1.0000 
3998.0616    5.8387   40.9450 1219.1320 1113.6350   49.7889   52.5000    2.9109    0.0944    1.0000 
3998.2140    5.8371   40.3137 1044.6780  970.8165   49.3596   52.4127    2.9162    0.0960    1.0000 
3998.3664    5.8359   39.0189  971.7125  877.8436   48.8091   52.4625    2.9289    0.0958    1.0000 
3998.5188    5.8359   39.6974  730.3632  815.3046   48.5937   52.5000    2.9240    0.0933    1.0000 
3998.6712    5.8141   41.6891  377.5072  856.2611   48.5937   52.5000    2.9131    0.0933    1.0000 
3998.8236    5.8020   44.1611  336.1280  695.9060   48.5937   52.5000    2.8965    0.0948    1.0000 
3998.9760    5.8254   44.8354  367.7111  330.3319   48.5937   52.5000    2.8934    0.0966    1.0000 
3999.1284    5.8387   45.2002  435.6502  215.4914   48.5937   52.5000    2.9054    0.0951    1.0000 
3999.2808    5.8398   45.6850  484.1375  194.7063   48.5937   52.5000    2.9306    0.0939    1.0000 
3999.4332    5.8398   45.0602  396.7984  203.8914   48.5937   52.5000    2.9408    0.0934    1.0000 
3999.5856    5.8289   42.8481  279.5024  240.7187   48.5937   52.5000    2.9359    0.0946    1.0000 
3999.7380    5.7832   39.5902  425.6260  304.5800   48.5937   52.5000    2.9213    0.0969    1.0000 
3999.8904    5.7574   38.5441 1155.5160  394.9614   48.5937   52.5000    2.9201    0.0963    1.0000 
4000.0428    5.7539   38.8628 1855.4330  460.3228   48.5937   52.5000    2.9260    0.0940    1.0000 
4000.1952    5.7566   39.9924 2000.0000  478.6234   48.5937   52.5000    2.9264    0.0936    1.0000 
4000.3476    5.7824   41.5224 1846.4790  504.3646   48.5937   52.5000    2.9162    0.0944    1.0000 
4000.5000    5.7930   43.0098 1065.7310  559.1794   48.5937   52.5000    2.8957    0.0964    1.0000 
4000.6524    5.7739   44.0210  382.2034  638.7261   48.5937   52.5000    2.8655    0.0965    1.0000 
4000.8048    5.7820   43.6750  341.5510  631.0443   48.5937   52.5000    2.8527    0.0941    1.0000 
4000.9572    5.7945   43.7456  455.3501  467.3862   48.5937   52.5000    2.8707    0.0916    1.0000 
4001.1096    5.8187   43.6371  830.2959  305.7482   48.5937   52.5000    2.9035    0.0912    1.0000 
4001.2620    5.8063   42.1989 1282.9590  237.7742   48.5937   52.5000    2.9154    0.0930    1.0000 
4001.4144    5.7914   40.3140  988.6213  247.6843   48.5937   52.5000    2.8737    0.0961    1.0000 
4001.5668    5.7618   38.4750  332.4069  331.6494   48.5937   52.5000    2.8186    0.0975    1.0000 
4001.7192    5.7500   38.0625  122.9418  420.9485   48.5937   52.5000    2.7727    0.0973   37.0000 
4001.8716    5.7473   38.0625  105.4008  315.1761   48.5937   52.5000    2.7488    0.0955   37.0000 
4002.0240    5.7516   38.0625  122.4632  148.1189   48.5937   52.5000    2.7400    0.0947   37.0000 
4002.1764    5.7512   38.0625  144.5792  114.1361   48.5937   52.5000    2.7383    0.0954   37.0000 
4002.3288    5.7527   38.0625  153.8512  112.3264   48.5937   52.5000    2.7328    0.0960   37.0000 
4002.4812    5.7321   38.0625  158.2774  116.5511   48.5937   52.5000    2.7482    0.0976   37.0000 
4002.6336    5.7172   38.0625  164.8134  119.5008   48.5937   52.5000    2.8050    0.0981   37.0000 
4002.7860    5.7039   38.0625  166.4413  120.7516   48.5937   52.5000    2.8999    0.0999   37.0000 
4002.9384    5.6773   38.0625  165.0960  121.7500   48.5937   52.5000    2.9877    0.1009   37.0000 
4003.0908    5.6297   38.0625  161.2617  121.7500   48.5937   52.5000    3.0117    0.1014   37.0000 
4003.2432    5.5259   38.0625  158.8111  122.0071   48.5937   52.5000    3.0049    0.1022   37.0000 
4003.3956    5.4501   38.0625  157.2181  123.2891   48.5937   52.5000    2.9951    0.1029   37.0000 
4003.5480    5.4063   38.0625  160.4826  124.3125   48.5937   52.5000    2.9908    0.1034   37.0000 
4003.7004    5.3781   38.0625  167.9141  124.0558   48.5937   52.5000    2.9971    0.1035   37.0000 
4003.8528    5.3684   38.0625  170.8713  123.0321   48.5937   52.5000    3.0014    0.1039   37.0000 
4004.0052    5.3535   38.0625  166.4154  123.5566 -999.0000   52.5000    2.9992    0.1040   37.0000 
4004.1576    5.3367   38.0625  164.7581  125.6580 -999.0000   52.5000    2.9940    0.1040   37.0000 
4004.3100    5.3266   38.0625  169.2624  125.3871 -999.0000   52.5000    2.9826    0.1040   37.0000 
4004.4624    5.3215   38.0625  167.7604  124.3125 -999.0000   52.5000    2.9772    0.1040   37.0000 
4004.6148    5.3149   38.0625  162.0000  124.3125 -999.0000   52.5000    2.9752    0.1043   37.0000 
4004.7672    5.2934   38.0625  160.0237  124.3125 -999.0000   52.5000    2.9746    0.1045   37.0000 
4004.9196    5.2852   38.0625  161.1516  124.3125 -999.0000   52.5000    2.9828    0.1045   37.0000 
4005.0720    5.2824   38.0625  160.9620  124.3125 -999.0000   52.5000    2.9863    0.1045   37.0000 
