~VERSION INFORMATION
 VERS.                 2.0:   CWLS LOG ASCII STANDARD - VERSION 2.0
 WRAP.                  NO:   SINGLE LINE PER DEPTH STEP
 CREA.                 11/04/2018 11:49:07
#CREATED USING DSPetro VERSION 5000.10.1.3 BY H191660 ON 11/04/2018 11:49:07
~WELL INFORMATION
#MNEM.UNIT       DATA                          DESCRIPTION MNEMONIC
#---------      ---------------------------   --------------------------
 STRT    .M         2273.9604                 : START DEPTH
 STOP    .M         4010.2536                 : STOP DEPTH
 STEP    .M         0.1524                    : STEP VALUE
 NULL    .      -999.0000                     : NULL VALUE
 DATE    .      11/04/2018                    : LAS file Creation Date
 WELL .      7120_1_1_r2                 : Well Name
 COMP .      Neftex Exploration Insights : Company
 FLD  .                                  : Field
 UWI  .      ENOWL_0NOR05                : Unique Well Identifier (UWI)
 LOC  .                                  : Location
 RWS  .      -999                        : Def_Rw
 WST  .      -999                        : Def_Rwt
 SRVC .                                  : Contractor
~CURVE INFORMATION
#MNEM              UNIT       API CODE   Curve Type Comments
#----------  --------------- ----------  ---------- -----------
 DEPTH      .M                         : Depth       
 CAL_INCH   .inch                      :             Caliper Log - A representation of the measured diameter of a borehole along its depth
 GR_API     .API                       : GammaRay    Gamma Ray (API) - Measures the intensity of natural gamma-ray radiation emitted from formations containing radioactive elements, such as K, Th and U
 RD_OHMM    .ohmm                      :             Unspecified Deep Resistivity - No accroynm or method of attainment is specified - units of ohmm
 RM_OHMM    .ohm.m                     :             Unspecified Medium Resistivity - No accroynm or method of attainment is specified
 RS_OHMM    .ohmm                      :             Unspecified Shallow Resistivity - No accroynm or method of attainment is specified
 DT_US_FT   .us/ft                     :             Interval Transit Time: Compressional Wave - Evaluates the time it takes for a compressional wave to traverse a fixed distance
 RHOB_G_CC  .g/cc                      :             Bulk Density - Measures the density of bulk material, including any void space or other materials contained in the subject volume
 NPHI_RATIO .ratio                     :             Neutron Porosity - Measured with an neutron logging device calibrated to a given matrix (limestone, sandstone and dolomite)
 LITH       .                          : LITH        Lithology Curve
~A  DEPTH  CAL_INCH   GR_API   RD_OHMM   RM_OHMM   RS_OHMM   DT_US_FT RHOB_G_C~ NPHI_RAT~    LITH   
# ...
3310.2804    9.4110    3.6267 6307.5679   64.9150    6.3139   50.7123    2.9755   -0.0090    1.0000 
3310.4328    9.4167    3.3791 6974.9019   63.4098    6.1496   50.5312    2.9843   -0.0092    1.0000 
3310.5852    9.4216    3.6956 7566.3281   61.6370    6.2683   50.4375    2.9933   -0.0095    1.0000 
3310.7376    9.4278    4.1946 7986.5142   59.9732    6.1136   50.3938    2.9949   -0.0097    1.0000 
3310.8900    9.4297    4.5129 8021.7852   58.7923    5.8320   50.3750    2.9862   -0.0098    1.0000 
3311.0424    9.4363    4.5152 7697.8530   57.8501    5.8553   50.4187    2.9826   -0.0098    1.0000 
3311.1948    9.4502    4.4502 7714.3262   57.2163    5.7355   50.5250    2.9869   -0.0096    1.0000 
3311.3472    9.4624    4.1743 7650.0229   56.4484    4.9812   50.5188    2.9973   -0.0093    1.0000 
3311.4996    9.4678    4.1045 7774.0762   55.7493    4.9113   50.3253    3.0049   -0.0093    1.0000 
3311.6520    9.4687    5.0544 8021.5259   55.5726    5.1961   50.1627    3.0053   -0.0091    1.0000 
3311.8044    9.4620    6.6244 8270.7168   55.9194    5.0913   50.2563    2.9966   -0.0088    1.0000 
3311.9568    9.4583    6.9598 8099.7700   56.1913    5.0063   50.4000    2.9850   -0.0090    1.0000 
3312.1092    9.4600    5.4959 8225.9277   56.0553    4.9220   50.2627    2.9828   -0.0094    1.0000 
3312.2616    9.4542    4.0777 8239.2910   55.8879    4.7448   50.3185    2.9921   -0.0095    1.0000 
3312.4140    9.4303    4.5245 8529.2402   55.7640    4.9626   50.3312    2.9976   -0.0087    1.0000 
3312.5664    9.4007    6.7994 8279.0273   55.4829    5.4125   50.2250    2.9883   -0.0078    1.0000 
3312.7188    9.3821    9.0135 7933.6108   55.5206    6.0569   50.2749    2.9746   -0.0076    1.0000 
3312.8712    9.3692    9.3847 7845.5762   56.1504    6.8302   50.3562    2.9654   -0.0078    1.0000 
3313.0236    9.3544    8.1214 8146.2271   56.9187    8.5005   50.4187    2.9641   -0.0082    1.0000 
3313.1760    9.3489    6.6664 8497.6172   57.3418    8.1953   50.3062    2.9661   -0.0087    1.0000 
3313.3284    9.3507    5.8081 8092.9292   57.4317    7.4894   50.4248    2.9727   -0.0088    1.0000 
3313.4808    9.3482    5.6623 7955.1509   57.1190    7.3118   50.4563    2.9797   -0.0084    1.0000 
3313.6332    9.3311    5.9410 8297.2285   56.7832    8.3765   50.5248    2.9814   -0.0077    1.0000 
3313.7856    9.3025    6.7310 8104.2588   56.5705   10.5891   50.4750    2.9798   -0.0074    1.0000 
3313.9380    9.2814    7.4386 8074.2202   56.7193   11.8330   50.2187    2.9821   -0.0073    1.0000 
3314.0904    9.2743    7.4405 8263.5410   57.0825   12.1124   50.0376    2.9854   -0.0073    1.0000 
3314.2428    9.2462    7.7783 8332.1563   57.1682   12.1625   49.7816    2.9838   -0.0073    1.0000 
3314.3952    9.2010    9.5364 7895.4092   57.5727   12.9597   49.9939    2.9675   -0.0073    1.0000 
3314.5476    9.1626   11.4305 7629.7051   58.1785   14.8755   50.2125    2.9400   -0.0069    1.0000 
3314.7000    9.1442   11.8638 7728.2021   58.4615   20.4730   50.3374    2.9207   -0.0065    1.0000 
3314.8524    9.1440   10.5121 8792.9121   58.8592   17.2824   50.7680    2.9198   -0.0066    1.0000 
3315.0048    9.1476    9.2912 10940.8301   59.3901   16.6025   50.6755    2.9330   -0.0070    1.0000 
3315.1572    9.1381    9.7329 17654.2598   58.1507   16.8482   50.5187    2.9508   -0.0073    1.0000 
3315.3096    9.1276   11.5851 44116.1602   56.8971   17.7597   50.4126    2.9643   -0.0073    1.0000 
3315.4620    9.1216   13.6969 53602.6797   56.6536   16.0236   50.2877    2.9698   -0.0071    1.0000 
3315.6144    9.1112   15.2310 51618.3398   56.7135   15.0048   50.2063    2.9656   -0.0067    1.0000 
3315.7668    9.0861   15.4405 47746.6602   57.5507   16.1091   50.0562    2.9551   -0.0058    1.0000 
3315.9192    9.0496   15.2094 40522.9492   58.6405   17.7736   49.8687    2.9520   -0.0042    1.0000 
3316.0716    9.0278   17.5371 28848.8398   58.3258   18.0301   50.1184    2.9405   -0.0012    1.0000 
3316.2240    9.0234   26.4509 9717.6680   59.0390   16.9502   50.9924    2.9067    0.0053    1.0000 
3316.3764    8.9923   39.8866 1350.7820   59.6686   15.8747   51.7940    2.8536    0.0181   12.0000 
3316.5288    8.9367   49.5400  372.6783   58.0426   16.7846   52.4377    2.8006    0.0336   12.0000 
3316.6812    8.8941   51.0623  206.9594   54.5013   17.6681   52.2441    2.7751    0.0423   12.0000 
3316.8336    8.8776   46.0820  149.9216   51.8182   21.0160   52.0506    2.7756    0.0396   12.0000 
3316.9860    8.8785   40.8468  139.7379   51.1809   21.3644   52.0344    2.7880    0.0308   12.0000 
3317.1384    8.8854   36.9649  152.3753   52.8287   18.6130   52.0810    2.7925    0.0217   12.0000 
3317.2908    8.8828   35.0375  182.1159   55.7989   19.6243   52.1275    2.7945    0.0155   12.0000 
3317.4432    8.8767   35.2806  194.3010   56.4525   25.9977   52.1740    2.8004    0.0142   12.0000 
3317.5956    8.8750   36.2887  175.7457   54.2656   26.7483   52.2205    2.8058    0.0181   12.0000 
3317.7480    8.8680   39.8871  136.0378   49.7126   19.9410   52.2671    2.8055    0.0271   12.0000 
3317.9004    8.8541   45.6336  100.2062   44.1017   18.6500   52.3136    2.7973    0.0362   12.0000 
3318.0528    8.8420   53.6297   81.4934   40.2306   18.3017   52.3602    2.7897    0.0442   12.0000 
3318.2052    8.8403   60.8612   72.8821   37.7528   18.0482   52.4067    2.7960    0.0521   22.0000 
3318.3576    8.8604   59.9368   67.5035   35.6388   18.0656   52.4533    2.8054    0.0546   22.0000 
3318.5100    8.8751   49.9340   67.3258   35.3433   15.5014   52.4998    2.8084    0.0484   22.0000 
3318.6624    8.8758   35.7454   68.8589   35.7467   12.6758   51.6570    2.7981    0.0362   12.0000 
3318.8148    8.8715   26.4294   68.7948   35.6406   14.3479   50.8510    2.7894    0.0260   12.0000 
3318.9672    8.8715   23.3722   71.5241   36.3674   18.4366   50.1010    2.7974    0.0214   12.0000 
3319.1196    8.8777   22.3780   77.5031   37.9367   20.8661   49.9188    2.8214    0.0224   12.0000 
3319.2720    8.8820   23.5070   83.0042   39.1776   20.1638   49.8938    2.8479    0.0270   12.0000 
3319.4244    8.8828   26.3406   88.1937   40.0967   20.0602   50.2680    2.8557    0.0330   12.0000 
3319.5768    8.8863   29.5284   90.3615   40.0909   19.5902   50.6558    2.8423    0.0375   12.0000 
3319.7292    8.8933   30.2010   82.8692   37.5842   17.8462   51.0564    2.8227    0.0437   12.0000 
3319.8816    8.9223   29.2603   73.3552   34.9464   11.4285   51.5377    2.8054    0.0522   12.0000 
3320.0340    8.9120   30.7703   68.6066   33.7387   12.3055   52.0808    2.7939    0.0578   12.0000 
3320.1864    8.8904   33.5508   67.4979   33.4707   14.8277   51.9443    2.7888    0.0570   12.0000 
3320.3388    8.8819   34.8408   68.7451   33.9608   17.0234   51.1122    2.7935    0.0521   12.0000 
3320.4912    8.8767   33.6970   73.0338   35.2107   16.5857   50.3310    2.8118    0.0481   12.0000 
3320.6436    8.8750   31.8174   76.8776   36.2906   15.6906   50.2124    2.8314    0.0461   12.0000 
3320.7960    8.8715   31.3070   76.2935   36.1773   13.7384   50.7304    2.8368    0.0460   12.0000 
3320.9484    8.8680   30.6482   75.0219   35.7451   14.5845   51.2432    2.8313    0.0492   12.0000 
3321.1008    8.8708   29.9016   76.1284   35.8235   14.0338   51.1562    2.8172    0.0536   12.0000 
3321.2532    8.8706   30.3771   80.2328   36.4791   14.9749   51.4121    2.8078    0.0551   12.0000 
3321.4056    8.8680   32.0379   91.3204   38.6758   17.8693   50.9511    2.8064    0.0508   12.0000 
3321.5580    8.8672   33.7473  106.0436   41.2777   20.4814   50.0324    2.8138    0.0419   12.0000 
3321.7104    8.8708   33.3575  122.5240   43.7113   23.6714   49.2685    2.8287    0.0331   12.0000 
3321.8628    8.8706   32.1227  143.1134   46.5343   24.2209   49.1063    2.8362    0.0261   12.0000 
3322.0152    8.8716   32.7797  166.7752   49.2344   25.1572   48.8191    2.8381    0.0206   12.0000 
3322.1676    8.8742   35.8444  194.0147   51.5643   23.4509   48.5128    2.8385    0.0160   12.0000 
3322.3200    8.8571   39.9039  240.2299   54.6766   26.8661   48.3500    2.8462    0.0132   12.0000 
