~VERSION INFORMATION
 VERS.                 2.0:   CWLS LOG ASCII STANDARD - VERSION 2.0
 WRAP.                  NO:   SINGLE LINE PER DEPTH STEP
 CREA.                 11/04/2018 11:49:07
#CREATED USING DSPetro VERSION 5000.10.1.3 BY H191660 ON 11/04/2018 11:49:07
~WELL INFORMATION
#MNEM.UNIT       DATA                          DESCRIPTION MNEMONIC
#---------      ---------------------------   --------------------------
 STRT    .M         2273.9604                 : START DEPTH
 STOP    .M         4010.2536                 : STOP DEPTH
 STEP    .M         0.1524                    : STEP VALUE
 NULL    .      -999.0000                     : NULL VALUE
 DATE    .      11/04/2018                    : LAS file Creation Date
 WELL .      7120_1_1_r2                 : Well Name
 COMP .      Neftex Exploration Insights : Company
 FLD  .                                  : Field
 UWI  .      ENOWL_0NOR05                : Unique Well Identifier (UWI)
 LOC  .                                  : Location
 RWS  .      -999                        : Def_Rw
 WST  .      -999                        : Def_Rwt
 SRVC .                                  : Contractor
~CURVE INFORMATION
#MNEM              UNIT       API CODE   Curve Type Comments
#----------  --------------- ----------  ---------- -----------
 DEPTH      .M                         : Depth       
 CAL_INCH   .inch                      :             Caliper Log - A representation of the measured diameter of a borehole along its depth
 GR_API     .API                       : GammaRay    Gamma Ray (API) - Measures the intensity of natural gamma-ray radiation emitted from formations containing radioactive elements, such as K, Th and U
 RD_OHMM    .ohmm                      :             Unspecified Deep Resistivity - No accroynm or method of attainment is specified - units of ohmm
 RM_OHMM    .ohm.m                     :             Unspecified Medium Resistivity - No accroynm or method of attainment is specified
 RS_OHMM    .ohmm                      :             Unspecified Shallow Resistivity - No accroynm or method of attainment is specified
 DT_US_FT   .us/ft                     :             Interval Transit Time: Compressional Wave - Evaluates the time it takes for a compressional wave to traverse a fixed distance
 RHOB_G_CC  .g/cc                      :             Bulk Density - Measures the density of bulk material, including any void space or other materials contained in the subject volume
 NPHI_RATIO .ratio                     :             Neutron Porosity - Measured with an neutron logging device calibrated to a given matrix (limestone, sandstone and dolomite)
 LITH       .                          : LITH        Lithology Curve
~A  DEPTH  CAL_INCH   GR_API   RD_OHMM   RM_OHMM   RS_OHMM   DT_US_FT RHOB_G_C~ NPHI_RAT~    LITH   
# ...
3761.3844    7.0660   51.2182   83.6311   84.6003   22.4546   49.1182    2.7015    0.0722   22.0000 
3761.5368    6.9582   52.4310   78.2852   76.5966   13.8899   48.7685    2.7070    0.0760   22.0000 
3761.6892    7.0564   42.2950   79.2995   76.1513    5.3449   48.4750    2.7351    0.0700   12.0000 
3761.8416    7.1694   27.7684   84.7464   80.4579    2.5723   48.2190    2.7954    0.0628   12.0000 
3761.9940    7.1707   18.9092  117.0477  107.2040    3.6670   47.1643    2.8061    0.0576   12.0000 
3762.1464    7.2475   16.0275  181.0987  161.5688    8.0019   46.8810    2.7981    0.0524   12.0000 
3762.2988    7.3015   15.2981  229.5212  203.9368    8.5689   46.8062    2.7873    0.0508   12.0000 
3762.4512    7.2895   14.2758  269.1310  237.5255   14.1447   45.8760    2.7914    0.0525   12.0000 
3762.6036    7.2485   13.6405  300.5021  265.1718   13.2475   46.4607    2.7990    0.0546   12.0000 
3762.7560    7.1170   13.9338  312.2531  274.8620   29.1393   47.3117    2.7830    0.0565   12.0000 
3762.9084    7.0145   14.4383  308.7089  272.7485   38.3879   48.3316    2.6921    0.0629   12.0000 
3763.0608    7.2733   14.4922  293.1995  261.8506   22.9217   48.5562    2.6235    0.0695   12.0000 
3763.2132    7.6347   14.5439  259.0981  234.5406    8.1416   48.0630    2.5971    0.0764   12.0000 
3763.3656    7.8447   15.1346  214.3875  195.4044    2.6479   46.7832    2.6218    0.0796   12.0000 
3763.5180    7.9043   16.4315  172.5387  158.7946    1.1468   46.8815    2.6416    0.0811   12.0000 
3763.6704    7.9293   18.6519  144.3878  134.8832    0.7882   47.0812    2.7059    0.0812   12.0000 
3763.8228    7.8092   19.2121  133.4572  126.4784    1.1229   47.2810    2.7338    0.0811   12.0000 
3763.9752    7.6857   17.3812  137.3608  131.2023    1.7738   47.8990    2.7835    0.0831   12.0000 
3764.1276    7.6781   13.4464  151.3749  146.8112    3.0096   48.0377    2.8429    0.0836   12.0000 
3764.2800    7.4226    9.7893  143.4299  142.7315    3.5338   48.0875    2.9577    0.0869   12.0000 
3764.4324    7.0275    8.1695  113.5100  115.5739    6.0622   47.9065    3.0136    0.0846   12.0000 
3764.5848    6.6824    7.5097   93.1567   96.3034   12.7092   48.2929    2.9663    0.0803   12.0000 
3764.7372    6.4904    8.1463   86.5587   90.2245   24.2116   49.6813    2.9106    0.0736   12.0000 
3764.8896    6.3591    9.6583   83.1150   87.2575   35.1376   50.8888    2.8979    0.0679   12.0000 
3765.0420    6.3449   10.9078   83.9160   88.3692   32.2368   52.3255    2.8862    0.0613   12.0000 
3765.1944    6.2872   10.6133   97.6260  102.3484   23.9608   53.8613    2.8372    0.0581   12.0000 
3765.3468    6.2524    9.1611  107.3894  112.4242   23.2767   54.4435    2.7815    0.0566   12.0000 
3765.4992    6.2309    8.9598   94.8558  100.3588   28.9329   54.1470    2.7479    0.0592   12.0000 
3765.6516    6.1844   10.4896   77.3988   82.9250   28.3550   53.1234    2.7389    0.0663   12.0000 
3765.8040    6.0915   12.0008   68.9229   74.3056   27.1400   52.9685    2.7465    0.0719   12.0000 
3765.9564    6.1350   12.5809   65.4788   70.5139   40.8714   52.8005    2.7636    0.0685   12.0000 
3766.1088    6.2307   12.1082   70.5654   74.5586   47.0123   52.6389    2.7859    0.0606   12.0000 
3766.2612    6.4927   11.4781   80.7317   84.1785   35.2514   51.0910    2.8053    0.0605   12.0000 
3766.4136    6.6156   11.4107   88.6781   92.3020   24.2505   47.9466    2.8078    0.0687   12.0000 
3766.5660    6.6277   11.3688  102.9798  106.3501   20.6882   45.4776    2.8039    0.0759   12.0000 
3766.7184    6.5770   11.4810  135.5618  137.2739   33.7018   46.4892    2.8123    0.0749   12.0000 
3766.8708    6.4973   11.9290  170.6605  170.9197   53.0004   46.7054    2.8314    0.0744   12.0000 
3767.0232    6.4945   11.9247  184.3976  184.2486   56.5536   46.5875    2.8433    0.0768   12.0000 
3767.1756    6.5558   10.8863  179.9642  178.9980   43.6041   46.1443    2.8184    0.0828   12.0000 
3767.3280    6.8019    8.9918  161.1738  159.0563   32.3523   46.0248    2.7821    0.0891   12.0000 
3767.4804    6.9558    7.9120  134.3299  130.8139   25.9679   46.3276    2.7742    0.0949   12.0000 
3767.6328    7.1087    7.6046  120.1943  115.4442   12.3494   46.7887    2.7849    0.0967   12.0000 
3767.7852    7.1040    7.2860  120.9619  115.5546    7.3690   46.8938    2.8054    0.0933   12.0000 
3767.9376    7.1900    6.8995  129.7961  123.3731   10.0102   47.7921    2.7852    0.0857   12.0000 
3768.0900    7.2137    6.7719  143.7182  135.9691    9.1434   48.8862    2.7857    0.0816   12.0000 
3768.2424    7.2386    6.6913  151.9986  145.0407    5.5304   48.4434    2.7910    0.0790   12.0000 
3768.3948    7.1939    6.3732  158.7149  154.1656    3.9341   48.2124    2.8401    0.0757   12.0000 
3768.5472    7.1707    6.4167  177.5061  174.1001    3.5095   48.1190    2.8695    0.0692   12.0000 
3768.6996    7.0136    8.2470  212.2823  208.4471    5.5520   48.1935    2.8717    0.0662   12.0000 
3768.8520    7.0054   11.8263  241.5211  238.3383   13.1829   47.7248    2.8465    0.0659   12.0000 
3769.0044    7.0913   15.5882  231.9236  230.7893   23.7196   46.9748    2.8100    0.0673   12.0000 
3769.1568    7.1581   17.4206  187.8747  188.0256   19.7290   47.1433    2.8179    0.0648   12.0000 
3769.3092    7.0584   17.5450  148.9009  150.0429    7.3498   48.7099    2.8153    0.0543   12.0000 
3769.4616    6.7128   17.5510  126.9314  128.5529    4.7555   49.4438    2.7969    0.0383   12.0000 
3769.6140    6.3294   19.1056  118.3142  120.0762    6.7331   50.5505    2.7542    0.0281   12.0000 
3769.7664    6.2133   21.9743  120.4651  122.1018   19.3495   51.0000    2.7151    0.0262   12.0000 
3769.9188    6.2300   24.0010  130.9817  132.5202   49.6201   49.5152    2.7160    0.0335   12.0000 
3770.0712    6.2519   24.2965  145.4457  146.9108   52.0619   49.1370    2.7248    0.0397   12.0000 
3770.2236    6.3944   24.3413  164.5731  165.3631   39.6810   48.5497    2.7416    0.0379   12.0000 
3770.3760    6.5596   28.1050  193.2224  192.4589   16.4338   48.8618    2.7235    0.0315   12.0000 
3770.5284    6.7037   38.6049  234.6928  231.3804    5.2153   49.5180    2.6951    0.0361   12.0000 
3770.6808    6.9208   50.4338  270.9424  265.0715    2.4900   47.8970    2.6943    0.0636   22.0000 
3770.8332    7.1709   53.8541  266.9421  261.4038    1.5160   48.5256    2.7082    0.0896   22.0000 
3770.9856    7.3689   45.6860  248.8250  245.6812    1.3072   48.2058    2.7525    0.0914   22.0000 
3771.1380    7.4492   31.8069  250.4885  250.0110    1.2885   46.8511    2.7764    0.0716   12.0000 
3771.2904    7.4991   21.3977  238.9075  240.6136    1.4551   46.1755    2.7943    0.0548   12.0000 
3771.4428    7.2889   15.4995  219.2076  221.1357    2.0932   45.6248    2.7858    0.0559   12.0000 
3771.5952    7.0195   13.1389  228.9890  235.0014    2.5477   46.1378    2.7807    0.0615   12.0000 
3771.7476    6.8907   12.4883  189.3368  201.7957    6.4083   46.8308    2.7894    0.0620   12.0000 
3771.9000    6.8454   11.7892  139.3008  155.1239   11.7399   47.1747    2.8107    0.0574   12.0000 
3772.0524    6.8331   10.7476  117.9561  135.6809   20.4855   47.8177    2.8375    0.0526   12.0000 
3772.2048    6.8129    9.3176  107.4223  126.2077   40.9122   48.5440    2.8539    0.0537   12.0000 
3772.3572    6.7829    8.3699   97.7220  116.9701   50.7542   48.2256    2.8547    0.0571   12.0000 
3772.5096    6.7762    7.9863   92.5295  112.3998   46.7909   48.1747    2.8262    0.0598   12.0000 
3772.6620    6.7856    7.9377   88.1401  108.3714   47.6068   48.1627    2.7940    0.0592   12.0000 
3772.8144    6.8000    7.7773   76.7738   94.6583   46.3253   48.3876    2.7824    0.0569   12.0000 
3772.9668    6.8074    7.6441   64.6327   79.5928   48.0887   48.4562    2.7826    0.0534   12.0000 
3773.1192    6.8059    7.5215   58.7559   71.9629   42.0872   48.4812    2.7996    0.0492   12.0000 
3773.2716    6.8265    7.4996   60.2240   73.4528   36.7836   48.1506    2.8094    0.0455   12.0000 
3773.4240    6.8387    8.1800   66.7929   81.0568   37.5553   48.0000    2.8174    0.0410   12.0000 
