~VERSION INFORMATION
 VERS.                 2.0:   CWLS LOG ASCII STANDARD - VERSION 2.0
 WRAP.                  NO:   SINGLE LINE PER DEPTH STEP
 CREA.                 11/04/2018 11:49:07
#CREATED USING DSPetro VERSION 5000.10.1.3 BY H191660 ON 11/04/2018 11:49:07
~WELL INFORMATION
#MNEM.UNIT       DATA                          DESCRIPTION MNEMONIC
#---------      ---------------------------   --------------------------
 STRT    .M         2273.9604                 : START DEPTH
 STOP    .M         4010.2536                 : STOP DEPTH
 STEP    .M         0.1524                    : STEP VALUE
 NULL    .      -999.0000                     : NULL VALUE
 DATE    .      11/04/2018                    : LAS file Creation Date
 WELL .      7120_1_1_r2                 : Well Name
 COMP .      Neftex Exploration Insights : Company
 FLD  .                                  : Field
 UWI  .      ENOWL_0NOR05                : Unique Well Identifier (UWI)
 LOC  .                                  : Location
 RWS  .      -999                        : Def_Rw
 WST  .      -999                        : Def_Rwt
 SRVC .                                  : Contractor
~CURVE INFORMATION
#MNEM              UNIT       API CODE   Curve Type Comments
#----------  --------------- ----------  ---------- -----------
 DEPTH      .M                         : Depth       
 CAL_INCH   .inch                      :             Caliper Log - A representation of the measured diameter of a borehole along its depth
 GR_API     .API                       : GammaRay    Gamma Ray (API) - Measures the intensity of natural gamma-ray radiation emitted from formations containing radioactive elements, such as K, Th and U
 RD_OHMM    .ohmm                      :             Unspecified Deep Resistivity - No accroynm or method of attainment is specified - units of ohmm
 RM_OHMM    .ohm.m                     :             Unspecified Medium Resistivity - No accroynm or method of attainment is specified
 RS_OHMM    .ohmm                      :             Unspecified Shallow Resistivity - No accroynm or method of attainment is specified
 DT_US_FT   .us/ft                     :             Interval Transit Time: Compressional Wave - Evaluates the time it takes for a compressional wave to traverse a fixed distance
 RHOB_G_CC  .g/cc                      :             Bulk Density - Measures the density of bulk material, including any void space or other materials contained in the subject volume
 NPHI_RATIO .ratio                     :             Neutron Porosity - Measured with an neutron logging device calibrated to a given matrix (limestone, sandstone and dolomite)
 LITH       .                          : LITH        Lithology Curve
~A  DEPTH  CAL_INCH   GR_API   RD_OHMM   RM_OHMM   RS_OHMM   DT_US_FT RHOB_G_C~ NPHI_RAT~    LITH   
# ...
2956.7124    8.8984   27.3137  557.3802  334.3137   90.8527   54.8754    2.6397    0.0220   27.0000 
2956.8648    8.8930   31.7604  480.7771  301.1706   89.0869   55.5996    2.6213    0.0255   27.0000 
2957.0172    8.8852   32.6184  446.6723  286.3331   93.4707   56.2740    2.6186    0.0284   27.0000 
2957.1696    8.8883   33.1108  430.0478  280.5543   94.5837   56.1506    2.6355    0.0320   18.0000 
2957.3220    8.8906   34.4501  416.6377  275.8040  117.2857   56.7003    2.6426    0.0339   18.0000 
2957.4744    8.8961   35.5364  412.7366  273.9247  101.9914   57.0874    2.6453    0.0315   18.0000 
2957.6268    8.8984   35.3708  406.3447  271.9825   92.6534   56.9503    2.6451    0.0265   18.0000 
2957.7792    8.8984   33.7538  414.5110  275.1188  108.8153   56.5256    2.6459    0.0225   27.0000 
2957.9316    8.9039   31.9665  427.0797  279.7961  119.6581   56.3750    2.6438    0.0222   27.0000 
2958.0840    8.9062   30.0808  406.0947  269.3800  135.5526   56.3750    2.6371    0.0245   27.0000 
2958.2364    8.8953   29.1764  377.0796  255.7661  122.2356   56.3750    2.6307    0.0254   27.0000 
2958.3888    8.8906   28.8394  332.5482  235.3425  113.4820   55.9383    2.6289    0.0233   27.0000 
2958.5412    8.8906   27.1508  315.1630  224.6572  119.0026   56.2752    2.6344    0.0190   27.0000 
2958.6936    8.8906   24.9293  304.5961  217.8034  111.8235   55.9748    2.6449    0.0172   27.0000 
2958.8460    8.8906   24.5841  290.5308  211.2989  116.8582   55.5752    2.6525    0.0171   27.0000 
2958.9984    8.8906   27.2433  269.1324  201.8578  108.9780   55.5873    2.6529    0.0191   27.0000 
2959.1508    8.8906   30.8163  225.2307  178.2161  103.2636   55.9744    2.6523    0.0234   18.0000 
2959.3032    8.8906   32.5500  198.8416  162.7292   98.0540   56.5627    2.6496    0.0270   18.0000 
2959.4556    8.8906   33.7865  168.7571  142.2415   82.1720   57.1870    2.6594    0.0299   18.0000 
2959.6080    8.8906   36.6827  135.2223  118.2054   80.8790   56.8510    2.6641    0.0335   18.0000 
2959.7604    8.8906   40.3861  113.7954  102.3807   69.9924   56.8870    2.6682    0.0357   18.0000 
2959.9128    8.9179   43.4066  101.7441   93.1336   50.5624   57.4377    2.6645    0.0361   18.0000 
2960.0652    8.9351   44.2029   95.5916   87.8047   51.8355   57.1873    2.6689    0.0341   18.0000 
2960.2176    8.9375   43.9649   96.7863   88.6118   64.1518   57.2622    2.6719    0.0318   18.0000 
2960.3700    8.9430   42.7409  107.2631   97.0280   64.7188   57.1130    2.6678    0.0282   18.0000 
2960.5224    8.9508   40.1211  125.4650  111.1494   65.6136   56.7374    2.6619    0.0241   18.0000 
2960.6748    8.9695   37.3746  142.6548  123.4181   81.6578   56.6250    2.6670    0.0202   18.0000 
2960.8272    8.9766   34.0062  177.0266  147.7361   89.5224   56.1880    2.6727    0.0170   18.0000 
2960.9796    8.9766   32.3029  198.8314  162.4098   82.7448   56.0000    2.6766    0.0165   18.0000 
2961.1320    8.9766   32.8909  188.8362  154.2913   93.7989   56.1747    2.6709    0.0193   18.0000 
2961.2844    8.9766   35.1726  177.2458  145.1453   89.2138   56.2500    2.6611    0.0229   18.0000 
2961.4368    8.9875   37.5027  152.3596  127.7768   78.4196   56.9492    2.6541    0.0256   18.0000 
2961.5892    8.9867   38.7023  133.0444  113.4317   82.3878   57.2500    2.6537    0.0257   18.0000 
2961.7416    9.0171   38.7560  130.3505  111.1403   72.1054   57.0753    2.6584    0.0281   18.0000 
2961.8940    9.0422   36.1816  130.7204  111.1546   67.9257   56.7374    2.6615    0.0286   18.0000 
2962.0464    9.0414   32.5869  143.9229  120.8070   76.8218   56.8001    2.6621    0.0266   18.0000 
2962.1988    9.0281   30.3617  161.7847  133.8555   72.2524   56.3506    2.6594    0.0235   18.0000 
2962.3512    9.0234   29.7775  162.8195  135.1923   76.3049   56.0377    2.6582    0.0231   18.0000 
2962.5036    9.0398   30.2689  163.7020  135.9433   76.8925   56.1751    2.6582    0.0248   18.0000 
2962.6560    9.0469   30.8812  161.2030  134.0729   60.5861   56.3375    2.6637    0.0271   18.0000 
2962.8084    9.0469   31.8639  158.4111  131.3044   66.9451   56.5498    2.6633    0.0258   18.0000 
2962.9608    9.0523   32.0587  161.4692  132.6992   62.7835   56.6250    2.6580    0.0256   18.0000 
2963.1132    9.0601   31.5635  168.8891  137.4012   69.0963   56.3630    2.6576    0.0245   18.0000 
2963.2656    9.0625   32.0313  186.2012  149.0480   69.2480   56.2500    2.6609    0.0243   18.0000 
2963.4180    9.0843   32.2417  221.1861  169.7349   80.0917   55.9878    2.6621    0.0207   18.0000 
2963.5704    9.0937   30.5651  279.0367  201.7697   83.0733   55.7003    2.6607    0.0180   18.0000 
2963.7228    9.0937   27.6986  322.6352  225.7400   93.0921   55.6250    2.6574    0.0176   37.0000 
2963.8752    9.0937   26.9380  336.9169  233.4992   96.2555   55.5375    2.6549    0.0186   27.0000 
2964.0276    9.0883   28.5863  322.7331  225.9583   85.6863   55.7626    2.6516    0.0204   27.0000 
2964.1800    9.0969   30.8377  282.8437  205.0251   76.2845   56.3994    2.6504    0.0234   18.0000 
2964.3324    9.1070   33.0401  250.6634  188.1843   77.7308   56.7123    2.6463    0.0288   18.0000 
2964.4848    9.1094   35.9135  231.3944  178.9494   62.5048   56.5749    2.6459    0.0328   18.0000 
2964.6372    9.1094   38.4222  207.5706  165.7198   54.0015   56.8502    2.6451    0.0327   18.0000 
2964.7896    9.1203   38.8039  180.1365  147.9575   60.0753   57.5244    2.6554    0.0336   18.0000 
2964.9420    9.1141   38.6557  154.1316  130.6659   59.4876   57.3133    2.6683    0.0396   18.0000 
2965.0944    9.1039   38.9812  142.2661  122.8437   38.5014   57.3870    2.6814    0.0427   18.0000 
2965.2468    9.1180   38.8281  145.7414  125.1438   28.4305   57.4125    2.6883    0.0409   18.0000 
2965.3992    9.1414   37.7544  156.6465  132.1764   28.4179   57.1128    2.6908    0.0359   18.0000 
2965.5516    9.1539   36.8428  178.8492  147.9944   28.5987   57.0000    2.6900    0.0349   18.0000 
2965.7040    9.1453   37.7230  206.3612  165.8021   28.2849   57.0873    2.6867    0.0335   18.0000 
2965.8564    9.1570   38.9530  232.5521  181.1529   30.0430   56.9499    2.6733    0.0293   18.0000 
2966.0088    9.1641   38.2435  262.1589  196.8542   30.1118   56.8750    2.6557    0.0261   18.0000 
2966.1612    9.1804   35.5211  322.3378  225.4373   29.3383   56.6128    2.6422    0.0261   37.0000 
2966.3136    9.1984   32.7079  421.2098  268.8953   27.5358   56.6747    2.6428    0.0284   18.0000 
2966.4660    9.2031   31.9004  491.4767  298.4821   25.8589   56.5749    2.6500    0.0300   18.0000 
2966.6184    9.2250   33.3535  502.1708  303.8691   25.4156   56.3249    2.6469    0.0303   18.0000 
2966.7708    9.2344   35.5890  471.2409  292.8591   31.2183   57.1240    2.6336    0.0310   37.0000 
2966.9232    9.2617   36.9217  453.1949  285.5531   39.1993   57.5873    2.6275    0.0330   27.0000 
2967.0756    9.3062   37.3170  421.2422  270.9088   25.1208   57.8870    2.6297    0.0357   18.0000 
2967.2280    9.3203   38.9974  370.4766  248.2862   15.4269   57.7374    2.6391    0.0397   18.0000 
2967.3804    9.3149   42.0108  309.4810  220.3073   12.5590   58.1494    2.6426    0.0478   18.0000 
2967.5328    9.3016   44.9044  215.1284  171.5569   17.0505   58.6370    2.6398    0.0576   18.0000 
2967.6852    9.3133   46.2393  134.8610  119.7887   19.9785   58.7500    2.6455    0.0694   18.0000 
2967.8376    9.3148   47.2440   93.6235   88.4218   19.8498   59.4503    2.6607    0.0732   22.0000 
2967.9900    9.3180   47.9154   80.0402   77.3479   18.2079   59.7500    2.6810    0.0674   22.0000 
2968.1424    9.3203   47.4365   78.9682   76.3099   16.6829   59.3130    2.6820    0.0564   18.0000 
2968.2948    9.3203   44.5646   84.5159   80.7312   17.6070   58.7756    2.6729    0.0476   18.0000 
2968.4472    9.3258   40.6293  100.6512   93.7283   18.4557   58.1883    2.6686    0.0437   18.0000 
2968.5996    9.3281   37.5710  128.1195  114.6929   18.1951   57.8249    2.6789    0.0392   18.0000 
2968.7520    9.3281   36.0896  155.5707  133.6247   17.9766   57.4004    2.6891    0.0338   18.0000 
