~VERSION INFORMATION
 VERS.                 2.0:   CWLS LOG ASCII STANDARD - VERSION 2.0
 WRAP.                  NO:   SINGLE LINE PER DEPTH STEP
 CREA.                 11/04/2018 11:49:07
#CREATED USING DSPetro VERSION 5000.10.1.3 BY H191660 ON 11/04/2018 11:49:07
~WELL INFORMATION
#MNEM.UNIT       DATA                          DESCRIPTION MNEMONIC
#---------      ---------------------------   --------------------------
 STRT    .M         2273.9604                 : START DEPTH
 STOP    .M         4010.2536                 : STOP DEPTH
 STEP    .M         0.1524                    : STEP VALUE
 NULL    .      -999.0000                     : NULL VALUE
 DATE    .      11/04/2018                    : LAS file Creation Date
 WELL .      7120_1_1_r2                 : Well Name
 COMP .      Neftex Exploration Insights : Company
 FLD  .                                  : Field
 UWI  .      ENOWL_0NOR05                : Unique Well Identifier (UWI)
 LOC  .                                  : Location
 RWS  .      -999                        : Def_Rw
 WST  .      -999                        : Def_Rwt
 SRVC .                                  : Contractor
~CURVE INFORMATION
#MNEM              UNIT       API CODE   Curve Type Comments
#----------  --------------- ----------  ---------- -----------
 DEPTH      .M                         : Depth       
 CAL_INCH   .inch                      :             Caliper Log - A representation of the measured diameter of a borehole along its depth
 GR_API     .API                       : GammaRay    Gamma Ray (API) - Measures the intensity of natural gamma-ray radiation emitted from formations containing radioactive elements, such as K, Th and U
 RD_OHMM    .ohmm                      :             Unspecified Deep Resistivity - No accroynm or method of attainment is specified - units of ohmm
 RM_OHMM    .ohm.m                     :             Unspecified Medium Resistivity - No accroynm or method of attainment is specified
 RS_OHMM    .ohmm                      :             Unspecified Shallow Resistivity - No accroynm or method of attainment is specified
 DT_US_FT   .us/ft                     :             Interval Transit Time: Compressional Wave - Evaluates the time it takes for a compressional wave to traverse a fixed distance
 RHOB_G_CC  .g/cc                      :             Bulk Density - Measures the density of bulk material, including any void space or other materials contained in the subject volume
 NPHI_RATIO .ratio                     :             Neutron Porosity - Measured with an neutron logging device calibrated to a given matrix (limestone, sandstone and dolomite)
 LITH       .                          : LITH        Lithology Curve
~A  DEPTH  CAL_INCH   GR_API   RD_OHMM   RM_OHMM   RS_OHMM   DT_US_FT RHOB_G_C~ NPHI_RAT~    LITH   
# ...
3420.0084    9.1453   30.9738  438.1741   63.6690   18.8379   47.1995    2.8343    0.0187   12.0000 
3420.1608    9.1406   30.7734  403.2597   62.8901   18.2248   47.3998    2.8465    0.0253   12.0000 
3420.3132    9.1843   30.5675  392.3055   63.2196   15.6198   47.5250    2.8408    0.0260   12.0000 
3420.4656    9.1212   29.5590  401.5947   64.2789   26.5478   47.2566    2.8283    0.0227   12.0000 
3420.6180    9.0859   29.0718  422.0858   66.7056   42.0805   46.9503    2.8338    0.0201   12.0000 
3420.7704    9.0805   30.3470  450.5846   69.2386   44.1889   46.5256    2.8488    0.0188   12.0000 
3420.9228    9.0891   30.8211  472.1952   69.5275   32.2591   46.5501    2.8562    0.0165   12.0000 
3421.0752    9.1101   28.3741  461.8071   72.1552   34.0660   47.2815    2.8001    0.0149   12.0000 
3421.2276    9.1226   26.0040  431.0073   71.8356   29.8457   46.5137    2.7235    0.0167   12.0000 
3421.3800    9.1796   27.4269  398.8630   69.8926   18.7601   46.2808    2.7080    0.0193   12.0000 
3421.5324    9.2741   30.5998  388.1509   70.5565    7.8355   44.7592    2.7369    0.0180   12.0000 
3421.6848    9.5068   33.1422  368.0624   62.3352    2.8263   43.6248    2.7767    0.0127   12.0000 
3421.8372    9.5119   36.0599  358.6123   61.2641    2.2164   46.4965    2.7891    0.0094   12.0000 
3421.9896    9.4438   37.7497  374.9094   66.8081    2.4312   45.4543    2.7618    0.0112   12.0000 
3422.1420    9.3041   38.5266  353.0404   61.9757    3.8465   43.9135    2.7623    0.0156   12.0000 
3422.2944    9.2992   42.3024  298.8143   56.2498    3.0496   46.4450    2.7389    0.0181   12.0000 
3422.4468    9.3476   49.3292  270.0428   57.3063    3.8178   45.6148    2.7429    0.0175   12.0000 
3422.5992    9.1956   55.0781  254.7574   53.4015    4.8800   44.1823    2.7582    0.0164   12.0000 
3422.7516    9.1141   53.9728  266.5880   54.5726    3.1986   45.2913    2.7631    0.0161   12.0000 
3422.9040    9.0875   48.9585  302.6151   58.3677    3.2875   45.4373    2.8060    0.0154   12.0000 
3423.0564    9.1273   46.8061  349.6561   58.4476    4.9889   44.5934    2.8065    0.0138   12.0000 
3423.2088    9.0611   48.1429  415.8201   60.6208    5.8795   45.6672    2.8302    0.0125   12.0000 
3423.3612    9.0289   55.0047  457.3639   63.9956    6.7728   45.7696    2.8383    0.0105   22.0000 
3423.5136    9.0312   68.3628  477.3089   65.3004    5.9268   45.9119    2.8359    0.0111   22.0000 
3423.6660    9.0203   78.8721  492.8161   68.0361    5.3918   46.8066    2.8264    0.0148   22.0000 
3423.8184    9.0102   74.9822  423.7114   69.9855    7.8179   47.8242    2.8154    0.0199   12.0000 
3423.9708    9.0024   56.9532  299.9637   66.9333    8.4250   48.2997    2.7907    0.0259   12.0000 
3424.1232    9.0055   39.7567  214.1735   60.7895    7.0335   49.1611    2.7799    0.0306   12.0000 
3424.2756    9.0297   33.9342  174.5369   58.7659    5.7852   49.8064    2.7779    0.0334   12.0000 
3424.4280    9.0445   35.7237  153.5264   59.3668    6.7536   49.9375    2.7582    0.0311   12.0000 
3424.5804    9.0469   39.4763  143.4601   55.4698   10.0941   47.7977    2.7486    0.0335   12.0000 
3424.7328    9.2161   43.3234  153.3453   54.4949    5.3550   46.1326    2.7562    0.0348   12.0000 
3424.8852    9.4693   46.9224  165.8803   55.0336    3.7778   45.9876    2.7803    0.0299   12.0000 
3425.0376    9.8416   50.1325  180.9961   53.3788    2.6506   46.1938    2.8054    0.0203   12.0000 
3425.1900    9.9960   52.3901  224.5533   56.0660    2.7609   47.3862    2.8261    0.0161   12.0000 
3425.3424    9.5766   50.9321  261.9461   65.1093    4.3799   48.0933    2.8566    0.0201   12.0000 
3425.4948    9.2269   45.2092  270.3802   68.4959    4.0425   48.2748    2.8645    0.0254   12.0000 
3425.6472    9.2819   40.0237  216.1022   58.5441    4.9481   46.0802    2.8032    0.0282   12.0000 
3425.7996    9.4506   41.1299  176.7331   52.3645    2.4792   46.2175    2.7869    0.0336   12.0000 
3425.9520    9.5764   45.3866  165.2851   53.4432    1.8907   47.1679    2.7310    0.0370   12.0000 
3426.1044    9.5930   44.4521  159.4860   53.1791    1.5913   46.7636    2.7351    0.0393   12.0000 
3426.2568    9.8263   36.8299  159.4173   52.0134    1.1393   46.7626    2.7207    0.0421   12.0000 
3426.4092   10.3555   29.6321  185.8352   55.7135    0.5803   48.1860    2.7376    0.0491   12.0000 
3426.5616   10.7792   27.2727  202.2928   51.9319    0.3139   45.8678    2.7118    0.0620   12.0000 
3426.7140   10.6918   29.5074  211.3351   45.9326    0.4657   43.8826    2.6939    0.0661   12.0000 
3426.8664   10.4674   33.3847  228.6372   44.4683    0.7374   46.9328    2.6975    0.0577   12.0000 
3427.0188   10.2862   36.5010  245.6364   43.8226    0.9543   47.3683    2.7565    0.0433   12.0000 
3427.1712   10.0761   37.6304  262.0908   43.9461    1.3604   48.6418    2.7853    0.0345   12.0000 
3427.3236    9.9696   36.5363  274.2032   46.8151    1.3026   49.7244    2.8117    0.0320   12.0000 
3427.4760   10.0077   34.8164  275.2113   48.3087    1.2415   48.5212    2.8250    0.0311   12.0000 
3427.6284   10.2880   31.8802  261.0007   46.4276    0.9246   47.1934    2.8289    0.0297   12.0000 
3427.7808   10.6550   28.5389  208.1804   42.0607    0.9752   48.0986    2.8082    0.0262   12.0000 
3427.9332   10.5964   27.4555  161.1725   37.5813    0.9235   47.3586    2.7784    0.0249   12.0000 
3428.0856   10.0704   29.0289  148.4781   35.8311    1.4392   47.7296    2.7163    0.0293   12.0000 
3428.2380    9.9242   29.2525  147.5150   34.6218    1.4451   48.0812    2.7193    0.0360   12.0000 
3428.3904   10.0982   27.3566  157.7073   35.4854    1.3561   48.5869    2.7236    0.0395   12.0000 
3428.5428   10.1750   25.5380  192.4812   37.7348    2.1108   48.4631    2.7398    0.0390   12.0000 
3428.6952    9.5192   25.2112  209.9562   38.7217   11.7762   48.7055    2.7644    0.0440   12.0000 
3428.8476    9.0978   25.1607  220.5681   41.7135   15.9743   49.0063    2.7865    0.0433   12.0000 
3429.0000    9.0445   26.4884  229.7476   44.1269   13.0644   47.7056    2.8230    0.0403   12.0000 
3429.1524    9.1615   31.2696  230.0162   45.0939    6.5627   47.5183    2.8045    0.0331   12.0000 
3429.3048    9.2437   36.3599  239.1415   45.8315    3.9113   47.8185    2.7815    0.0289   12.0000 
3429.4572    9.2087   37.8232  255.0411   44.3872    3.3098   46.9579    2.7924    0.0321   12.0000 
3429.6096    9.2858   36.9256  271.8542   44.0025    3.9430   46.2123    2.8371    0.0354   12.0000 
3429.7620    9.3336   36.1950  289.7804   43.3290   10.2771   46.3247    2.8535    0.0368   12.0000 
3429.9144    9.1067   36.1194  317.2111   42.1658    9.5436   46.2628    2.8562    0.0340   12.0000 
3430.0668    9.1061   34.7698  307.0711   41.1826    6.1084   47.5413    2.8301    0.0327   12.0000 
3430.2192    9.0938   29.4641  239.4298   39.9394   12.3439   47.6873    2.8388    0.0368   12.0000 
3430.3716    8.8301   22.3625  178.3163   38.2534   11.2422   47.4563    2.8367    0.0488   12.0000 
3430.5240    8.6774   17.5533  137.8159   36.9108   10.2907   47.5248    2.8307    0.0600   12.0000 
3430.6764    8.6508   18.3179  118.1812   35.7118    7.0156   48.3049    2.8137    0.0647   12.0000 
3430.8288    8.7304   22.4069  107.5656   34.7882    4.0540   48.7125    2.8176    0.0688   12.0000 
3430.9812    8.6947   24.9960   86.0574   31.4564   11.2001   49.3628    2.8127    0.0741   12.0000 
3431.1336    8.5058   25.6264   71.4764   29.1902   15.2955   49.9746    2.8072    0.0856   12.0000 
3431.2860    8.4320   25.1270   50.3127   23.8750   13.0212   49.5573    2.7998    0.0878   12.0000 
3431.4384    8.4297   24.7323   28.1989   16.0224   15.2010   49.3998    2.7996    0.0866   12.0000 
3431.5908    8.4297   23.9417   22.2451   13.9525   10.5574   48.9560    2.8035    0.0847   12.0000 
3431.7432    8.4297   22.1674   22.0548   14.2796    6.7291   48.8811    2.7924    0.0874   12.0000 
3431.8956    8.4297   19.6197   23.8451   15.3126   10.0940   48.9812    2.7789    0.0892   12.0000 
3432.0480    8.4624   17.8181   32.9415   19.7678    9.0359   49.0437    2.7808    0.0846   12.0000 
