~VERSION INFORMATION
 VERS.                 2.0:   CWLS LOG ASCII STANDARD - VERSION 2.0
 WRAP.                  NO:   SINGLE LINE PER DEPTH STEP
 CREA.                 11/04/2018 11:49:07
#CREATED USING DSPetro VERSION 5000.10.1.3 BY H191660 ON 11/04/2018 11:49:07
~WELL INFORMATION
#MNEM.UNIT       DATA                          DESCRIPTION MNEMONIC
#---------      ---------------------------   --------------------------
 STRT    .M         2273.9604                 : START DEPTH
 STOP    .M         4010.2536                 : STOP DEPTH
 STEP    .M         0.1524                    : STEP VALUE
 NULL    .      -999.0000                     : NULL VALUE
 DATE    .      11/04/2018                    : LAS file Creation Date
 WELL .      7120_1_1_r2                 : Well Name
 COMP .      Neftex Exploration Insights : Company
 FLD  .                                  : Field
 UWI  .      ENOWL_0NOR05                : Unique Well Identifier (UWI)
 LOC  .                                  : Location
 RWS  .      -999                        : Def_Rw
 WST  .      -999                        : Def_Rwt
 SRVC .                                  : Contractor
~CURVE INFORMATION
#MNEM              UNIT       API CODE   Curve Type Comments
#----------  --------------- ----------  ---------- -----------
 DEPTH      .M                         : Depth       
 CAL_INCH   .inch                      :             Caliper Log - A representation of the measured diameter of a borehole along its depth
 GR_API     .API                       : GammaRay    Gamma Ray (API) - Measures the intensity of natural gamma-ray radiation emitted from formations containing radioactive elements, such as K, Th and U
 RD_OHMM    .ohmm                      :             Unspecified Deep Resistivity - No accroynm or method of attainment is specified - units of ohmm
 RM_OHMM    .ohm.m                     :             Unspecified Medium Resistivity - No accroynm or method of attainment is specified
 RS_OHMM    .ohmm                      :             Unspecified Shallow Resistivity - No accroynm or method of attainment is specified
 DT_US_FT   .us/ft                     :             Interval Transit Time: Compressional Wave - Evaluates the time it takes for a compressional wave to traverse a fixed distance
 RHOB_G_CC  .g/cc                      :             Bulk Density - Measures the density of bulk material, including any void space or other materials contained in the subject volume
 NPHI_RATIO .ratio                     :             Neutron Porosity - Measured with an neutron logging device calibrated to a given matrix (limestone, sandstone and dolomite)
 LITH       .                          : LITH        Lithology Curve
~A  DEPTH  CAL_INCH   GR_API   RD_OHMM   RM_OHMM   RS_OHMM   DT_US_FT RHOB_G_C~ NPHI_RAT~    LITH   
# ...
2383.6884   12.5287   42.8532    7.2498    8.0182 -999.0000   65.2345    2.5055    0.1454   22.0000 
2383.8408   12.5202   43.4273    7.2466    8.0969 -999.0000   65.0488    2.5021    0.1393   18.0000 
2383.9932   12.5141   44.5617    7.3021    8.1430 -999.0000   64.8710    2.5010    0.1333   18.0000 
2384.1456   12.5128   45.1060    7.4026    8.1621 -999.0000   64.7706    2.5015    0.1279   18.0000 
2384.2980   12.5158   45.1631    7.5193    8.1970 -999.0000   64.6938    2.5029    0.1234   18.0000 
2384.4504   12.5190   45.0401    7.6195    8.2479 -999.0000   64.5865    2.5042    0.1214   18.0000 
2384.6028   12.5196   44.7099    7.6931    8.2721 -999.0000   64.5028    2.5062    0.1232   18.0000 
2384.7552   12.5173   44.4240    7.7454    8.2626 -999.0000   64.5213    2.5076    0.1287   18.0000 
2384.9076   12.5133   44.8036    7.7905    8.2672 -999.0000   64.7024    2.5051    0.1343   18.0000 
2385.0600   12.5098   45.4700    7.8473    8.2968 -999.0000   64.9516    2.5014    0.1358   18.0000 
2385.2124   12.5075   45.8087    7.9342    8.2876 -999.0000   65.1603    2.5001    0.1331   18.0000 
2385.3648   12.5061   45.5048    8.0685    8.1780 -999.0000   65.2572    2.5030    0.1287   18.0000 
2385.5172   12.5056   44.8928    8.2459    8.0100 -999.0000   65.2393    2.5101    0.1258   18.0000 
2385.6696   12.5066   44.0402    8.4476    7.9187 -999.0000   65.0897    2.5165    0.1256   18.0000 
2385.8220   12.5093   42.9367    8.6399    8.0216 -999.0000   64.7556    2.5185    0.1267   18.0000 
2385.9744   12.5136   41.7798    8.7756    8.3603 -999.0000   64.1979    2.5155    0.1268   18.0000 
2386.1268   12.5175   41.1279    8.8007    8.7960 -999.0000   63.5342    2.5106    0.1245   18.0000 
2386.2792   12.5180   41.3694    8.6593    9.0175 -999.0000   63.0036    2.5091    0.1204   18.0000 
2386.4316   12.5133   42.5733    8.3340    8.7251 -999.0000   62.9228    2.5105    0.1181   18.0000 
2386.5840   12.5074   44.4725    7.9117    8.2134 -999.0000   63.2510    2.5113    0.1192   18.0000 
2386.7364   12.5029   46.9746    7.4398    7.7758 -999.0000   63.8481    2.5133    0.1224   18.0000 
2386.8888   12.5010   50.0757    6.9641    7.5521 -999.0000   64.5122    2.5171    0.1242   18.0000 
2387.0412   12.5025   53.4510    6.5378    7.4435 -999.0000   65.0646    2.5207    0.1233   18.0000 
2387.1936   12.5086   55.7743    6.1852    7.3208 -999.0000   65.4873    2.5214    0.1225   18.0000 
2387.3460   12.5178   55.6512    5.9218    7.1736 -999.0000   65.8361    2.5173    0.1241   18.0000 
2387.4984   12.5242   53.3790    5.7568    7.0527 -999.0000   66.1468    2.5097    0.1280   18.0000 
2387.6508   12.5229   50.9989    5.6879    7.0055 -999.0000   66.4027    2.5050    0.1332   18.0000 
2387.8032   12.5166   50.4644    5.7287    7.0491 -999.0000   66.5480    2.5076    0.1392   37.0000 
2387.9556   12.5124   51.0199    5.8804    7.1650 -999.0000   66.5272    2.5139    0.1440   22.0000 
2388.1080   12.5119   50.8568    6.1308    7.3371 -999.0000   66.3193    2.5187    0.1457   22.0000 
2388.2604   12.5132   49.6660    6.4582    7.5631 -999.0000   65.9104    2.5204    0.1435   22.0000 
2388.4128   12.5166   48.4101    6.8401    7.8607 -999.0000   65.2870    2.5238    0.1381   22.0000 
2388.5652   12.5236   47.4508    7.2084    8.2253 -999.0000   64.5830    2.5324    0.1309   22.0000 
2388.7176   12.5315   46.4834    7.5022    8.6260 -999.0000   63.9172    2.5428    0.1221   22.0000 
2388.8700   12.5353   45.4781    7.6596    8.9362 -999.0000   63.4389    2.5489    0.1132   22.0000 
2389.0224   12.5331   44.8301    7.6662    8.9901 -999.0000   63.2895    2.5497    0.1082   22.0000 
2389.1748   12.5277   44.9591    7.5302    8.7244 -999.0000   63.5788    2.5453    0.1102   22.0000 
2389.3272   12.5229   45.4065    7.2951    8.3446 -999.0000   64.1748    2.5402    0.1176   22.0000 
2389.4796   12.5202   45.8594    6.9993    8.0409 -999.0000   64.8445    2.5386    0.1264   22.0000 
2389.6320   12.5193   46.5160    6.6988    7.8592 -999.0000   65.3489    2.5399    0.1330   22.0000 
2389.7844   12.5197   47.4391    6.4543    7.7202 -999.0000   65.6061    2.5404    0.1365   22.0000 
2389.9368   12.5199   48.6163    6.3217    7.5214 -999.0000   65.7569    2.5342    0.1385   22.0000 
2390.0892   12.5193   50.1763    6.2908    7.3018 -999.0000   65.9404    2.5230    0.1401   22.0000 
2390.2416   12.5174   51.8763    6.3425    7.1749 -999.0000   66.1080    2.5141    0.1423   22.0000 
2390.3940   12.5146   52.8221    6.4563    7.2800 -999.0000   66.0649    2.5141    0.1449   22.0000 
2390.5464   12.5115   51.6141    6.6249    7.6431 -999.0000   65.6758    2.5198    0.1456   22.0000 
2390.6988   12.5090   48.1451    6.8630    8.1091 -999.0000   65.1079    2.5243    0.1434   22.0000 
2390.8512   12.5084   44.2155    7.2130    8.4889 -999.0000   64.5936    2.5254    0.1393   22.0000 
2391.0036   12.5098   42.4500    7.6918    8.6514 -999.0000   64.2839    2.5268    0.1363   22.0000 
2391.1560   12.5126   43.8028    8.2704    8.6223 -999.0000   64.1482    2.5324    0.1361   22.0000 
2391.3084   12.5172   46.5815    8.8448    8.5697 -999.0000   63.9936    2.5404    0.1359   22.0000 
2391.4608   12.5236   48.2744    9.2719    8.6799 -999.0000   63.6173    2.5459    0.1314   22.0000 
2391.6132   12.5289   47.8953    9.4763    9.0238 -999.0000   62.9858    2.5469    0.1221   18.0000 
2391.7656   12.5298   45.6755    9.4591    9.5326 -999.0000   62.2074    2.5452    0.1106   18.0000 
2391.9180   12.5234   42.7461    9.2636    9.7989 -999.0000   61.6641    2.5472    0.1029   18.0000 
2392.0704   12.5156   41.3823    9.0073    9.5367 -999.0000   61.6456    2.5490    0.1021   18.0000 
2392.2228   12.5103   42.9428    8.7226    8.8670 -999.0000   62.2152    2.5498    0.1083   18.0000 
2392.3752   12.5074   47.0512    8.4237    8.1546 -999.0000   63.2234    2.5463    0.1194   18.0000 
2392.5276   12.5050   50.7809    8.1350    7.6741 -999.0000   64.2970    2.5435    0.1299   22.0000 
2392.6800   12.5034   51.9658    7.8971    7.4742 -999.0000   65.1074    2.5409    0.1357   22.0000 
2392.8324   12.5042   51.3558    7.7532    7.4923 -999.0000   65.5444    2.5359    0.1375   22.0000 
2392.9848   12.5072   50.3579    7.7335    7.6782 -999.0000   65.6347    2.5297    0.1374   22.0000 
2393.1372   12.5097   49.8730    7.8335    7.9614 -999.0000   65.4825    2.5254    0.1363   22.0000 
2393.2896   12.5094   50.0671    8.0530    8.2618 -999.0000   65.1437    2.5267    0.1333   37.0000 
2393.4420   12.5079   50.3499    8.3761    8.4753 -999.0000   64.7345    2.5320    0.1274   18.0000 
2393.5944   12.5074   49.9306    8.7805    8.5816 -999.0000   64.4125    2.5370    0.1211   18.0000 
2393.7468   12.5085   48.3755    9.2463    8.6438 -999.0000   64.2748    2.5409    0.1181   18.0000 
2393.8992   12.5101   45.8692    9.7068    8.8421 -999.0000   64.2713    2.5455    0.1194   18.0000 
2394.0516   12.5105   43.9230   10.0596    9.3401 -999.0000   64.1297    2.5505    0.1198   18.0000 
2394.2040   12.5091   43.1208   10.2809   10.0351 -999.0000   63.7343    2.5527    0.1165   18.0000 
2394.3564   12.5068   43.6755   10.4056   10.5410 -999.0000   63.2375    2.5475    0.1129   18.0000 
2394.5088   12.5049   45.3656   10.4879   10.4832 -999.0000   62.9651    2.5353    0.1140   18.0000 
2394.6612   12.5052   47.6992   10.5395    9.9662 -999.0000   63.1225    2.5229    0.1209   18.0000 
2394.8136   12.5090   49.7701   10.5186    9.4888 -999.0000   63.5453    2.5179    0.1274   18.0000 
2394.9660   12.5147   50.9755   10.3878    9.2857 -999.0000   63.9325    2.5221    0.1285   18.0000 
2395.1184   12.5182   51.2437   10.1807    9.2304 -999.0000   64.1268    2.5316    0.1261   18.0000 
2395.2708   12.5160   51.3997    9.9674    9.1235 -999.0000   64.1888    2.5401    0.1243   22.0000 
2395.4232   12.5083   52.6922    9.8277    8.8531 -999.0000   64.3649    2.5419    0.1278   22.0000 
2395.5756   12.5031   54.3239    9.7423    8.6216 -999.0000   64.7051    2.5387    0.1344   22.0000 
2395.7280   12.5046   54.8418    9.6483    8.6107 -999.0000   65.0471    2.5320    0.1384   22.0000 
