~VERSION INFORMATION
 VERS.                 2.0:   CWLS LOG ASCII STANDARD - VERSION 2.0
 WRAP.                  NO:   SINGLE LINE PER DEPTH STEP
 CREA.                 11/04/2018 11:49:07
#CREATED USING DSPetro VERSION 5000.10.1.3 BY H191660 ON 11/04/2018 11:49:07
~WELL INFORMATION
#MNEM.UNIT       DATA                          DESCRIPTION MNEMONIC
#---------      ---------------------------   --------------------------
 STRT    .M         2273.9604                 : START DEPTH
 STOP    .M         4010.2536                 : STOP DEPTH
 STEP    .M         0.1524                    : STEP VALUE
 NULL    .      -999.0000                     : NULL VALUE
 DATE    .      11/04/2018                    : LAS file Creation Date
 WELL .      7120_1_1_r2                 : Well Name
 COMP .      Neftex Exploration Insights : Company
 FLD  .                                  : Field
 UWI  .      ENOWL_0NOR05                : Unique Well Identifier (UWI)
 LOC  .                                  : Location
 RWS  .      -999                        : Def_Rw
 WST  .      -999                        : Def_Rwt
 SRVC .                                  : Contractor
~CURVE INFORMATION
#MNEM              UNIT       API CODE   Curve Type Comments
#----------  --------------- ----------  ---------- -----------
 DEPTH      .M                         : Depth       
 CAL_INCH   .inch                      :             Caliper Log - A representation of the measured diameter of a borehole along its depth
 GR_API     .API                       : GammaRay    Gamma Ray (API) - Measures the intensity of natural gamma-ray radiation emitted from formations containing radioactive elements, such as K, Th and U
 RD_OHMM    .ohmm                      :             Unspecified Deep Resistivity - No accroynm or method of attainment is specified - units of ohmm
 RM_OHMM    .ohm.m                     :             Unspecified Medium Resistivity - No accroynm or method of attainment is specified
 RS_OHMM    .ohmm                      :             Unspecified Shallow Resistivity - No accroynm or method of attainment is specified
 DT_US_FT   .us/ft                     :             Interval Transit Time: Compressional Wave - Evaluates the time it takes for a compressional wave to traverse a fixed distance
 RHOB_G_CC  .g/cc                      :             Bulk Density - Measures the density of bulk material, including any void space or other materials contained in the subject volume
 NPHI_RATIO .ratio                     :             Neutron Porosity - Measured with an neutron logging device calibrated to a given matrix (limestone, sandstone and dolomite)
 LITH       .                          : LITH        Lithology Curve
~A  DEPTH  CAL_INCH   GR_API   RD_OHMM   RM_OHMM   RS_OHMM   DT_US_FT RHOB_G_C~ NPHI_RAT~    LITH   
2273.9604   13.4555   75.0403    3.9449    6.2370 -999.0000   83.4772    2.5162    0.3206 -999.0000 
2274.1128   13.3949   77.8391    3.8830    6.0746 -999.0000   82.9262    2.5407    0.3005 -999.0000 
2274.2652   13.3708   77.9306    3.8689    5.9090 -999.0000   82.4737    2.5481    0.2934 -999.0000 
2274.4176   13.3621   74.5739    3.9423    5.8046 -999.0000   82.2858    2.5391    0.3015 -999.0000 
2274.5700   13.3653   70.9065    4.0373    5.7602 -999.0000   82.4090    2.5287    0.3145 -999.0000 
2274.7224   13.3737   69.2284    4.1007    5.8173 -999.0000   82.8402    2.5287    0.3243 -999.0000 
2274.8748   13.3797   70.5636    4.1088    6.0269 -999.0000   83.3534    2.5428    0.3286 -999.0000 
2275.0272   13.3794   73.0494    4.0814    6.3411 -999.0000   83.6202    2.5663    0.3322 -999.0000 
2275.1796   13.3717   74.1889    4.0582    6.6099 -999.0000   83.5951    2.5893    0.3401 -999.0000 
2275.3320   13.3595   73.8575    4.0640    6.7407 -999.0000   83.4868    2.6011    0.3496 -999.0000 
2275.4844   13.3488   73.6743    4.1064    6.7617 -999.0000   83.4458    2.5972    0.3524 -999.0000 
2275.6368   13.3449   74.5961    4.1796    6.7204 -999.0000   83.4799    2.5834    0.3433 -999.0000 
2275.7892   13.3487   75.7136    4.2735    6.6174 -999.0000   83.4270    2.5710    0.3284 -999.0000 
2275.9416   13.3580   75.6638    4.3770    6.4975 -999.0000   83.2016    2.5615    0.3202 -999.0000 
2276.0940   13.3789   74.6211    4.4835    6.4233 -999.0000   82.9536    2.5532    0.3179 -999.0000 
2276.2464   13.4249   73.4292    4.5775    6.4114 -999.0000   82.8197    2.5521    0.3170 -999.0000 
2276.3988   13.5103   73.5673    4.6345    6.4585 -999.0000   82.9122    2.5712    0.3137 -999.0000 
2276.5512   13.6174   75.3862    4.6619    6.5459 -999.0000   83.2214    2.6065    0.3118 -999.0000 
2276.7036   13.7044   77.4642    4.6704    6.6329 -999.0000   83.6129    2.6362    0.3139 -999.0000 
2276.8560   13.7349   78.1217    4.6467    6.6702 -999.0000   83.7988    2.6383    0.3151 -999.0000 
2277.0084   13.7148   77.0277    4.5832    6.6147 -999.0000   83.5907    2.6083    0.3114 -999.0000 
2277.1608   13.6947   75.8123    4.4877    6.4405 -999.0000   83.1674    2.5568    0.3040 -999.0000 
2277.3132   13.7214   75.8230    4.3857    6.1689 -999.0000   82.9878    2.5003    0.2974 -999.0000 
2277.4656   13.7772   76.0237    4.3070    5.8562 -999.0000   83.2992    2.4536    0.2950 -999.0000 
2277.6180   13.8104   75.0528    4.2670    5.6208 -999.0000   83.9049    2.4262    0.2945 -999.0000 
2277.7704   13.7994   73.5215    4.2588    5.5441 -999.0000   84.4480    2.4235    0.2924 -999.0000 
2277.9228   13.7661   73.4772    4.2377    5.6684 -999.0000   84.5750    2.4467    0.2904 -999.0000 
2278.0752   13.7490   74.5629    4.1757    5.8844 -999.0000   84.4320    2.4786    0.2942 -999.0000 
2278.2276   13.7515   75.3052    4.0941    6.1364 -999.0000   84.1154    2.5104    0.3031 -999.0000 
2278.3800   13.7584   75.0620    4.0402    6.3925 -999.0000   83.6591    2.5380    0.3100 -999.0000 
2278.5324   13.7451   75.4239    4.0397    6.6243 -999.0000   83.1608    2.5587    0.3097 -999.0000 
2278.6848   13.6912   77.3768    4.0836    6.7161 -999.0000   82.8407    2.5700    0.3080 -999.0000 
2278.8372   13.6024   79.3188    4.1608    6.6325 -999.0000   82.9167    2.5741    0.3103 -999.0000 
2278.9896   13.5101   79.6442    4.2692    6.4885 -999.0000   83.3123    2.5792    0.3154 -999.0000 
2279.1420   13.4464   78.9754    4.3968    6.4244 -999.0000   83.6008    2.5931    0.3180 -999.0000 
2279.2944   13.4264   78.5507    4.5137    6.5102 -999.0000   83.3466    2.6190    0.3126 -999.0000 
2279.4468   13.4384   78.0313    4.5840    6.6517 -999.0000   82.6975    2.6448    0.3004 -999.0000 
2279.5992   13.4633   76.6335    4.5957    6.7316 -999.0000   82.1103    2.6592    0.2877 -999.0000 
2279.7516   13.4761   74.8541    4.5575    6.7321 -999.0000   81.8402    2.6626    0.2811 -999.0000 
2279.9040   13.4398   74.2929    4.5124    6.6905 -999.0000   81.9009    2.6603    0.2847 -999.0000 
2280.0564   13.3626   75.6972    4.5211    6.6536 -999.0000   82.0350    2.6549    0.2912 -999.0000 
2280.2088   13.2847   78.1415    4.5970    6.6490 -999.0000   82.1060    2.6433    0.2940 -999.0000 
2280.3612   13.2396   80.1757    4.7115    6.6609 -999.0000   82.1301    2.6241    0.2931 -999.0000 
2280.5136   13.2290   80.7141    4.8030    6.6114 -999.0000   82.1424    2.6042    0.2930 -999.0000 
2280.6660   13.2348   79.2856    4.8236    6.4200 -999.0000   82.0764    2.5960    0.2943 -999.0000 
2280.8184   13.2422   77.2928    4.7849    6.1455 -999.0000   81.8789    2.5998    0.2926 -999.0000 
2280.9708   13.2569   76.9165    4.7055    5.9387 -999.0000   81.5754    2.6058    0.2872 -999.0000 
2281.1232   13.3179   78.4899    4.5978    5.8810 -999.0000   81.3352    2.5936    0.2818 -999.0000 
2281.2756   13.4894   79.8786    4.4652    5.9365 -999.0000   81.4334    2.5501    0.2833 -999.0000 
2281.4280   13.8138   78.1376    4.3213    5.9820 -999.0000   82.1845    2.4879    0.2989 -999.0000 
2281.5804   14.1902   75.2274    4.1834    5.9411 -999.0000   83.4498    2.4413    0.3216 -999.0000 
2281.7328   14.5324   73.7529    4.0573    5.8225 -999.0000   84.9544    2.4228    0.3402 -999.0000 
2281.8852   14.7917   74.8870    3.9451    5.7022 -999.0000   86.1295    2.4391    0.3429 -999.0000 
2282.0376   14.9957   76.2627    3.8707    5.6519 -999.0000   86.5014    2.4765    0.3354 -999.0000 
2282.1900   15.1714   76.3342    3.8569    5.6815 -999.0000   86.2796    2.5150    0.3310 -999.0000 
2282.3424   15.2735   76.3098    3.9044    5.7663 -999.0000   85.9525    2.5381    0.3363 -999.0000 
2282.4948   15.2355   77.4859    3.9866    5.8672 -999.0000   85.7827    2.5349    0.3491 -999.0000 
2282.6472   15.0240   79.0315    4.0644    5.9494 -999.0000   85.6080    2.5099    0.3600 -999.0000 
2282.7996   14.6827   79.7545    4.1173    5.9824 -999.0000   85.0951    2.4848    0.3546 -999.0000 
2282.9520   14.3778   80.2513    4.1538    5.9684 -999.0000   84.3225    2.4851    0.3315 -999.0000 
2283.1044   14.2258   81.3071    4.1892    5.9252 -999.0000   83.7410    2.5092    0.3067 -999.0000 
2283.2568   14.2439   82.9575    4.2301    5.8591 -999.0000   83.7105    2.5375    0.2923 -999.0000 
2283.4092   14.3553   84.5818    4.2636    5.7966 -999.0000   84.3293    2.5475    0.2949 -999.0000 
2283.5616   14.4451   85.7225    4.2558    5.7906 -999.0000   85.1295    2.5452    0.3067 -999.0000 
2283.7140   14.5266   85.9738    4.1865    5.8410 -999.0000   85.7570    2.5421    0.3220 -999.0000 
2283.8664   14.6694   84.9315    4.0692    5.8838 -999.0000   86.1154    2.5401    0.3385 -999.0000 
2284.0188   14.8669   82.7984    3.9488    5.8358 -999.0000   86.4129    2.5354    0.3518 -999.0000 
2284.1712   14.9632   80.3900    3.8772    5.7152 -999.0000   86.8145    2.5270    0.3530 -999.0000 
2284.3236   14.8022   78.5209    3.8866    5.6464 -999.0000   87.1587    2.5191    0.3394 -999.0000 
2284.4760   14.3915   78.1083    3.9903    5.6837 -999.0000   87.2861    2.5102    0.3161 -999.0000 
2284.6284   13.9269   80.9991    4.1704    5.8087 -999.0000   87.0914    2.4935    0.2918 -999.0000 
2284.7808   13.5978   89.6136    4.4172    6.0635 -999.0000   86.2762    2.4647    0.2690 -999.0000 
2284.9332   13.4641  100.0441    4.7123    6.5556 -999.0000   84.3721    2.4313    0.2472 -999.0000 
2285.0856   13.4033  102.9844    5.0275    7.2434 -999.0000   81.4155    2.4118    0.2302 -999.0000 
2285.2380   13.3515   94.6535    5.3662    7.9723 -999.0000   77.8349    2.4212    0.2187 -999.0000 
2285.3904   13.3033   78.9551    5.7498    8.4267 -999.0000   74.7576    2.4657    0.2127 -999.0000 
2285.5428   13.2765   66.2652    6.1777    8.4791 -999.0000   73.2012    2.5232    0.2117 -999.0000 
2285.6952   13.2679   60.1749    6.5770    8.3382 -999.0000   72.9800    2.5661    0.2129 -999.0000 
2285.8476   13.2682   58.1202    6.8552    8.1418 -999.0000   73.5249    2.5840    0.2125 -999.0000 
2286.0000   13.2715   57.3685    6.9500    7.9591 -999.0000   74.1877    2.5822    0.2099 -999.0000 
