~VERSION INFORMATION
 VERS.                 2.0:   CWLS LOG ASCII STANDARD - VERSION 2.0
 WRAP.                  NO:   SINGLE LINE PER DEPTH STEP
 CREA.                 11/04/2018 11:49:07
#CREATED USING DSPetro VERSION 5000.10.1.3 BY H191660 ON 11/04/2018 11:49:07
~WELL INFORMATION
#MNEM.UNIT       DATA                          DESCRIPTION MNEMONIC
#---------      ---------------------------   --------------------------
 STRT    .M         2273.9604                 : START DEPTH
 STOP    .M         4010.2536                 : STOP DEPTH
 STEP    .M         0.1524                    : STEP VALUE
 NULL    .      -999.0000                     : NULL VALUE
 DATE    .      11/04/2018                    : LAS file Creation Date
 WELL .      7120_1_1_r2                 : Well Name
 COMP .      Neftex Exploration Insights : Company
 FLD  .                                  : Field
 UWI  .      ENOWL_0NOR05                : Unique Well Identifier (UWI)
 LOC  .                                  : Location
 RWS  .      -999                        : Def_Rw
 WST  .      -999                        : Def_Rwt
 SRVC .                                  : Contractor
~CURVE INFORMATION
#MNEM              UNIT       API CODE   Curve Type Comments
#----------  --------------- ----------  ---------- -----------
 DEPTH      .M                         : Depth       
 CAL_INCH   .inch                      :             Caliper Log - A representation of the measured diameter of a borehole along its depth
 GR_API     .API                       : GammaRay    Gamma Ray (API) - Measures the intensity of natural gamma-ray radiation emitted from formations containing radioactive elements, such as K, Th and U
 RD_OHMM    .ohmm                      :             Unspecified Deep Resistivity - No accroynm or method of attainment is specified - units of ohmm
 RM_OHMM    .ohm.m                     :             Unspecified Medium Resistivity - No accroynm or method of attainment is specified
 RS_OHMM    .ohmm                      :             Unspecified Shallow Resistivity - No accroynm or method of attainment is specified
 DT_US_FT   .us/ft                     :             Interval Transit Time: Compressional Wave - Evaluates the time it takes for a compressional wave to traverse a fixed distance
 RHOB_G_CC  .g/cc                      :             Bulk Density - Measures the density of bulk material, including any void space or other materials contained in the subject volume
 NPHI_RATIO .ratio                     :             Neutron Porosity - Measured with an neutron logging device calibrated to a given matrix (limestone, sandstone and dolomite)
 LITH       .                          : LITH        Lithology Curve
~A  DEPTH  CAL_INCH   GR_API   RD_OHMM   RM_OHMM   RS_OHMM   DT_US_FT RHOB_G_C~ NPHI_RAT~    LITH   
# ...
2737.2564    9.0507   15.9194   74.8656   26.4365   59.9533   55.1504    2.6135    0.0217   27.0000 
2737.4088    9.0625   16.1318   76.3814   26.7764   40.5387   53.7772    2.6180    0.0214   27.0000 
2737.5612    9.0625   17.2547   73.9800   26.0620   46.2929   53.9487    2.6273    0.0203   27.0000 
2737.7136    9.0625   19.5661   70.8689   25.2143   69.6204   53.8123    2.6309    0.0197   27.0000 
2737.8660    9.0625   21.0372   69.0292   24.7926   62.9504   53.3628    2.6295    0.0192   27.0000 
2738.0184    9.0680   20.5901   68.5576   24.9178   24.1484   53.4247    2.6330    0.0180   27.0000 
2738.1708    9.0649   18.5602   67.3537   24.6358   16.4265   53.7620    2.6375    0.0176   27.0000 
2738.3232    9.0625   17.0453   63.5501   23.5279   22.0873   53.8750    2.6428    0.0179   27.0000 
2738.4756    9.0680   17.2766   59.0428   22.3304   18.8598   53.7875    2.6336    0.0187   27.0000 
2738.6280    9.0649   18.5957   53.4845   20.6684   20.4857   53.9248    2.6248    0.0221   27.0000 
2738.7804    9.0843   20.8405   50.6625   19.9740   22.6052   54.6987    2.6203    0.0255   27.0000 
2738.9328    9.1047   21.9642   51.0224   20.4931   34.5569   54.7374    2.6123    0.0277   27.0000 
2739.0852    9.0821   22.1908   51.4933   21.1194   38.4482   55.0627    2.6066    0.0290   27.0000 
2739.2376    9.0867   22.1151   53.1801   22.2647   20.8720   56.3862    2.5905    0.0307   27.0000 
2739.3900    9.1101   22.6095   54.5062   23.4470   12.0644   56.7003    2.5813    0.0340   27.0000 
2739.5424    9.1609   23.8277   49.3826   21.8116   10.6101   56.7123    2.5746    0.0430   27.0000 
2739.6948    9.2070   25.5005   44.0020   19.6128   10.3321   57.6254    2.5832    0.0556   27.0000 
2739.8472    9.3006   27.2616   42.6767   18.9553   14.2838   58.0874    2.5865    0.0585   27.0000 
2739.9996    9.3741   26.6038   42.6258   18.8149    9.3118   57.0769    2.5777    0.0486   27.0000 
2740.1520    9.3797   23.6756   43.0507   18.7434   13.7425   56.5377    2.5674    0.0403   27.0000 
2740.3044    9.3914   21.4595   44.9530   19.3601    9.6959   56.3249    2.5549    0.0502   27.0000 
2740.4568    9.4039   22.3910   46.8108   20.1084    5.3308   55.2871    2.5603    0.0630   27.0000 
2740.6092    9.4117   24.8045   47.1311   20.1859    3.6665   56.5356    2.5740    0.0657   27.0000 
2740.7616    9.3486   25.9439   48.9943   20.7766    5.4611   57.7740    2.5890    0.0508   27.0000 
2740.9140    9.2384   25.5162   54.7232   22.7162    5.5735   57.3013    2.5937    0.0339   27.0000 
2741.0664    9.1649   23.6402   62.5817   25.3741    4.4141   56.2997    2.5951    0.0211   27.0000 
2741.2188    9.1594   20.7642   69.1421   27.5271    4.0167   55.3008    2.5807    0.0169   27.0000 
2741.3712    9.2077   17.6065   69.9795   27.6029    3.7896   53.6026    2.5660    0.0231   27.0000 
2741.5236    9.2648   15.4667   66.9744   26.4096    2.9021   51.5152    2.5884    0.0330   27.0000 
2741.6760    9.3468   15.6025   62.1049   24.9192    2.3446   52.3632    2.5969    0.0409   27.0000 
2741.8284    9.4187   17.2499   57.8038   23.5424    7.7464   53.9614    2.5998    0.0402   27.0000 
2741.9808    9.4266   18.6212   57.9124   23.7615    7.2081   54.5497    2.5838    0.0425   27.0000 
2742.1332    9.4765   19.0156   56.9402   23.6719    3.4760   55.5857    2.5885    0.0501   27.0000 
2742.2856    9.5382   19.2801   53.6645   22.5247    2.0657   54.5994    2.5978    0.0555   27.0000 
2742.4380    9.5765   20.7067   50.6262   21.2046    1.1064   53.4870    2.6037    0.0549   27.0000 
2742.5904    9.5586   22.4667   47.9814   20.0697    0.7229   53.5244    2.6191    0.0464   27.0000 
2742.7428    9.3940   23.7195   47.2070   19.5856    0.8535   54.9728    2.6359    0.0385   27.0000 
2742.8952    9.2517   23.9784   49.6076   20.2444    1.4107   55.5000    2.6379    0.0308   27.0000 
2743.0476    9.1696   22.3981   55.5468   22.0650    4.2783   55.8502    2.6354    0.0235   27.0000 
2743.2000    9.1102   20.0735   65.3416   25.2245   30.6017   54.6016    2.6375    0.0160   27.0000 
2743.3524    9.0555   17.6865   73.1526   27.4570   79.2556   53.5633    2.6387    0.0126   27.0000 
2743.5048    9.0118   16.2880   81.1783   29.7404   98.3574   53.2997    2.6441    0.0122   27.0000 
2743.6572    8.9727   16.2984   85.7202   31.0755  118.4711   53.1124    2.6410    0.0149   27.0000 
2743.8096    8.9282   18.2168   86.7024   31.3350  120.8378   53.0000    2.6469    0.0182   27.0000 
2743.9620    8.9086   21.8065   84.5937   31.1025  107.9379   53.2620    2.6504    0.0225   27.0000 
2744.1144    8.8953   25.4148   78.0546   30.0564  115.5777   53.8990    2.6463    0.0290   27.0000 
2744.2668    8.9016   30.1536   71.8381   29.0014   86.8470   54.9129    2.6391    0.0384   22.0000 
2744.4192    8.9172   36.5261   68.6679   28.7423   74.3664   56.1254    2.6463    0.0449   22.0000 
2744.5716    8.9328   42.0428   68.3091   29.0786   60.1839   56.6748    2.6586    0.0430   22.0000 
2744.7240    8.9484   42.1950   70.4092   30.2066   73.8630   56.4006    2.6648    0.0381   22.0000 
2744.8764    8.9695   36.1074   73.7074   31.3876   78.8506   55.0272    2.6578    0.0380   22.0000 
2745.0288    8.9766   29.6538   76.3455   32.1323   47.9241   54.4125    2.6543    0.0389   22.0000 
2745.1812    8.9766   25.8457   77.5549   32.5277   46.1689   53.5010    2.6447    0.0384   22.0000 
2745.3336    8.9766   23.2890   75.5998   31.4015   29.4143   52.3389    2.6420    0.0347   22.0000 
2745.4860    8.9820   19.7295   72.8537   29.5604    9.3110   52.3494    2.6303    0.0339   18.0000 
2745.6384    8.9844   17.0420   70.1801   27.8591    5.5840   52.4001    2.6305    0.0345   18.0000 
2745.7908    8.9789   18.1703   66.7243   26.2823   14.3346   52.8374    2.6342    0.0343   18.0000 
2745.9432    8.9929   21.5047   67.1366   26.4439    9.2561   53.2746    2.6511    0.0349   18.0000 
2746.0956    9.0491   23.4145   70.8396   27.9828   11.6306   53.7119    2.6650    0.0297   18.0000 
2746.2480    9.1031   22.9872   72.8106   28.6950   22.3412   54.1498    2.6803    0.0236   18.0000 
2746.4004    9.1117   22.3249   77.0451   30.1379   13.2987   53.0371    2.6869    0.0189   18.0000 
2746.5528    9.1094   22.8335   76.6586   30.1759    9.0955   51.9258    2.6984    0.0169   18.0000 
2746.7052    9.1039   24.5336   73.3685   28.6750    9.5579   51.5377    2.6936    0.0169   18.0000 
2746.8576    9.1070   26.2996   70.3751   27.5680    7.9014   51.8494    2.6854    0.0174   18.0000 
2747.0100    9.1148   27.5268   65.5927   25.8825    7.1871   51.4748    2.6863    0.0189   18.0000 
2747.1624    9.1172   27.1979   61.2887   24.2583    5.1734   52.3862    2.6902    0.0219   18.0000 
2747.3148    9.1117   25.7179   58.0434   23.3122    5.9298   50.8662    2.6955    0.0233   18.0000 
2747.4672    9.1148   23.7471   55.5064   22.8725    5.9820   52.0088    2.7000    0.0210   18.0000 
2747.6196    9.1227   20.8933   54.3935   23.0192    4.9645   53.2252    2.7094    0.0166   18.0000 
2747.7720    9.2560   16.9828   53.5583   23.2176    7.4015   52.5884    2.7183    0.0138   18.0000 
2747.9244    9.2088   12.9599   51.2281   22.8087    9.3392   52.6867    2.6948    0.0180   18.0000 
2748.0768    9.0931   10.6006   47.7382   21.7362    7.8408   52.7877    2.6563    0.0343   18.0000 
2748.2292    9.0133   10.3079   40.7441   18.8860   10.9174   53.7129    2.5954    0.0497   27.0000 
2748.3816    8.9813   10.6226   35.2414   16.5033   12.8325   55.6132    2.5565    0.0513   27.0000 
2748.5340    8.9547   10.8633   33.0270   15.5590   18.0820   57.4736    2.5379    0.0411   27.0000 
2748.6864    8.9289   10.3160   31.9066   14.9985   16.1701   58.2620    2.5414    0.0344   27.0000 
2748.8388    8.9273    9.7258   33.3165   15.5176   18.3864   57.6763    2.5449    0.0301   27.0000 
2748.9912    8.9352   10.5720   40.4943   18.2018   16.9689   56.6747    2.5640    0.0223   27.0000 
2749.1436    8.9484   12.8513   47.5132   20.3899   19.8093   55.1514    2.5927    0.0165   27.0000 
2749.2960    8.9531   17.0663   55.1718   22.4788   40.2237   54.0136    2.6425    0.0151   27.0000 
