~VERSION INFORMATION
 VERS.                 2.0:   CWLS LOG ASCII STANDARD - VERSION 2.0
 WRAP.                  NO:   SINGLE LINE PER DEPTH STEP
 CREA.                 03/01/2018 15:42:06
#CREATED USING DSPetro VERSION 5000.10.1.3 BY H191660 ON 03/01/2018 15:42:06
~WELL INFORMATION
#MNEM.UNIT       DATA                          DESCRIPTION MNEMONIC
#---------      ---------------------------   --------------------------
 STRT    .M         0.0000                    : START DEPTH
 STOP    .M         4299.9660                 : STOP DEPTH
 STEP    .M         0.1524                    : STEP VALUE
 NULL    .      -999.0000                     : NULL VALUE
 DATE    .      03/01/2018                    : LAS file Creation Date
 WELL .      961_Atlas-1                 : Well Name
 COMP .      Neftex Exploration Insights : Company
 FLD  .                                  : Field
 UWI  .      ZAUWL_005200                : Unique Well Identifier (UWI)
 LOC  .                                  : Location
 RWS  .      -999                        : Def_Rw
 WST  .      -999                        : Def_Rwt
 SRVC .                                  : Contractor
~CURVE INFORMATION
#MNEM              UNIT       API CODE   Curve Type Comments
#----------  --------------- ----------  ---------- -----------
 DEPTH      .M                         : Depth       
 GR_API     .API                       : gammaRay    Gamma Ray (API) - Measures the intensity of natural gamma-ray radiation emitted from formations containing radioactive elements, such as K, Th and U
 RHOB_G_CC  .g/cc                      : density     Bulk Density - Measures the density of bulk material, including any void space or other materials contained in the subject volume
 DRHO_G_CC  .g/cc                      : drho        Density Correction - Investigates the correction to the Bulk Density log; used as an indication of hole condition to validate the Bulk Density measure
 NPHI_v_v   .ratio                     : neutron     Neutron Porosity - Measured with an neutron logging device calibrated to a given matrix (limestone, sandstone and dolomite)
 PEF_B_E    .b/e-                      : PEF         Photoelectric Factor - A log of photoelectric absorption properties. Often expressed in an approximation unit barns/electron (b/e-)
 LITH       .                          : LITH        Lithology Curve
 LITH_v2    .                          : LITH        Lithology Curve
~A  DEPTH   GR_API   RHOB_G_C  DRHO_G_C  NPHI_v_v  PEF_B_E     LITH    LITH_v2  
# ...
4058.5644  177.2500    2.4000    0.0300    0.3800    3.0900   37.0000   37.0000 
4058.7168  180.8200    2.3900    0.0300    0.3600    3.1700   37.0000   37.0000 
4058.8692  180.0300    2.6000    0.1300    0.3600    3.0600   37.0000   37.0000 
4059.0216  177.3100    2.5000    0.1000    0.3900    3.3500   37.0000   37.0000 
4059.1740  177.0700    2.4400    0.1100    0.4600    3.3700   37.0000   37.0000 
4059.3264  177.5900    2.1800    0.0400    0.4600    3.5000   37.0000   37.0000 
4059.4788  175.7600    2.2000    0.0400    0.4500    3.3500   37.0000   37.0000 
4059.6312  168.0200    2.2700    0.0400    0.4100    3.2600   37.0000   37.0000 
4059.7836  164.1900    2.3900    0.0300    0.3700    3.0600   37.0000   37.0000 
4059.9360  167.2400    2.4400    0.0500    0.3200    2.8500   37.0000   37.0000 
4060.0884  172.7700    2.4200    0.0300    0.2900    2.7100   37.0000   37.0000 
4060.2408  178.6000    2.4300    0.0400    0.2900    2.8000   37.0000   37.0000 
4060.3932  169.7800    2.4300    0.0400    0.2800    2.9100   37.0000   37.0000 
4060.5456  161.6500    2.4300    0.0400    0.2700    2.9700   37.0000   37.0000 
4060.6980  149.8900    2.4300    0.0300    0.2700    3.0000   37.0000   37.0000 
4060.8504  148.7000    2.4400    0.0300    0.2700    3.1800   37.0000   37.0000 
4061.0028  144.4100    2.4400    0.0300    0.2600    3.3600   37.0000   37.0000 
4061.1552  135.9100    2.4500    0.0400    0.2500    3.4300   37.0000   37.0000 
4061.3076  124.8700    2.4400    0.0500    0.2400    3.3000   37.0000   37.0000 
4061.4600  121.1400    2.4300    0.0500    0.2300    3.1600   37.0000   37.0000 
4061.6124  122.3800    2.4100    0.0500    0.2100    3.1100   37.0000   37.0000 
4061.7648  122.3000    2.4100    0.0400    0.2000    3.2300   37.0000   37.0000 
4061.9172  110.0800    2.4100    0.0500    0.2100    3.3800   37.0000   37.0000 
4062.0696  101.4400    2.4400    0.0600    0.2200    3.5300   37.0000   37.0000 
4062.2220  100.7700    2.4700    0.0500    0.2500    3.6800   37.0000   37.0000 
4062.3744  116.7200    2.5000    0.0500    0.2700    4.1100   37.0000   37.0000 
4062.5268  139.2700    2.5600    0.0700    0.3100    4.2200   37.0000   37.0000 
4062.6792  155.9400    2.5500    0.0800    0.3100    4.1900   37.0000   37.0000 
4062.8316  162.6200    2.5300    0.0800    0.3000    3.8900   37.0000   37.0000 
4062.9840  162.5100    2.4800    0.0600    0.2700    3.8500   37.0000   37.0000 
4063.1364  165.8700    2.4900    0.0500    0.2500    3.9100   37.0000   37.0000 
4063.2888  171.7100    2.5000    0.0600    0.2500    3.9100   37.0000   37.0000 
4063.4412  175.7400    2.5200    0.0700    0.2500    3.8700   37.0000   37.0000 
4063.5936  178.2700    2.5500    0.0800    0.2500    3.6200   37.0000   37.0000 
4063.7460  178.0600    2.5300    0.0700    0.2500    3.6400   37.0000   37.0000 
4063.8984  175.2300    2.5300    0.0600    0.2500    3.6500   37.0000   37.0000 
4064.0508  173.0700    2.4300   -0.0200    0.2600    3.8800   37.0000   37.0000 
4064.2032  172.0500    2.5600    0.0100    0.2600    3.7500   37.0000   37.0000 
4064.3556  171.2800    2.5700    0.0100    0.2600    3.7600   37.0000   37.0000 
4064.5080  168.0600    2.6900    0.1200    0.2400    3.6000   23.0000   23.0000 
4064.6604  166.5100    2.5400    0.0600    0.2400    3.9200   37.0000   37.0000 
4064.8128  167.3700    2.5400    0.0600    0.2400    4.1500   37.0000   37.0000 
4064.9652  168.4200    2.5300    0.0600    0.2500    4.2500   37.0000   37.0000 
4065.1176  169.8000    2.5300    0.0500    0.2600    4.1500   37.0000   37.0000 
4065.2700  172.2200    2.5300    0.0500    0.2600    3.9200   37.0000   37.0000 
4065.4224  172.2800    2.5300    0.0500    0.2700    3.8600   37.0000   37.0000 
4065.5748  175.5300    2.5300    0.0500    0.2900    3.7000   37.0000   37.0000 
4065.7272  174.9100    2.5500    0.0600    0.2900    3.5700   37.0000   37.0000 
4065.8796  177.8700    2.5700    0.0400    0.2800    4.2700   37.0000   37.0000 
4066.0320  176.3700    2.5800   -0.0600    0.2800    4.6000   37.0000   37.0000 
4066.1844  169.3700    2.5800   -0.0700    0.2800    4.6000   37.0000   37.0000 
4066.3368  154.8900    2.5300   -0.0600    0.2800    3.7600   37.0000   37.0000 
4066.4892  147.6300    2.5300    0.0400    0.3000    3.4600   37.0000   37.0000 
4066.6416  152.8800    2.5000    0.0300    0.3100    3.2900   37.0000   37.0000 
4066.7940  167.8500    2.4900    0.0300    0.3100    3.2000   37.0000   37.0000 
4066.9464  176.2400    2.5000    0.0500    0.3000    3.3500   37.0000   37.0000 
4067.0988  174.0800    2.3900   -0.1300    0.3000    4.0000   37.0000   37.0000 
4067.2512  157.0900    2.4500   -0.1500    0.2900    4.8900   37.0000   37.0000 
4067.4036  147.2500    2.4800   -0.1400    0.2700    4.6400   37.0000   37.0000 
4067.5560  149.1800    2.5600    0.0500    0.2500    3.9000   37.0000   37.0000 
4067.7084  163.0400    2.5200    0.0600    0.2400    3.3700   37.0000   37.0000 
4067.8608  168.3700    2.4700    0.0500    0.2300    3.3500   37.0000   37.0000 
4068.0132  162.5800    2.4500    0.0500    0.2300    3.3800   37.0000   37.0000 
4068.1656  158.6500    2.4300    0.0400    0.2400    3.4800   37.0000   37.0000 
4068.3180  158.2100    2.4300    0.0500    0.2400    3.7300   37.0000   37.0000 
4068.4704  155.3000    2.4400    0.0400    0.2400    3.9500   37.0000   37.0000 
4068.6228  148.5000    2.4300    0.0300    0.2400    4.0600   37.0000   37.0000 
4068.7752  135.9600    2.4100    0.0200    0.2400    4.0700   37.0000   37.0000 
4068.9276  128.2400    2.4000    0.0300    0.2200    3.9800   37.0000   37.0000 
4069.0800  116.0200    2.4100    0.0300    0.2200    3.5600   37.0000   37.0000 
4069.2324  100.7500    2.4100    0.0300    0.2000    3.3500   37.0000   37.0000 
4069.3848   87.1800    2.3500   -0.0500    0.1900    3.2100   37.0000   37.0000 
4069.5372   78.9900    2.5400    0.0000    0.1800    3.3700   36.0000   36.0000 
4069.6896   86.4900    2.5400    0.0000    0.1700    3.3900   36.0000   36.0000 
4069.8420  104.1400    2.6500    0.1200    0.1800    3.1400   36.0000   36.0000 
4069.9944  105.0900    2.4100    0.0300    0.1900    3.0800   36.0000   36.0000 
4070.1468   93.0000    2.4000    0.0300    0.1900    2.8300   36.0000   36.0000 
4070.2992   67.0300    2.3700    0.0000    0.1800    3.0300   27.0000   27.0000 
4070.4516   58.2000    2.4100    0.0100    0.1700    2.7500   27.0000   27.0000 
4070.6040   51.1300    2.4000    0.0100    0.1600    2.6800   27.0000   27.0000 
4070.7564   48.3000    2.4100    0.0500    0.1700    2.6000   27.0000   27.0000 
4070.9088   49.1300    2.3300    0.0200    0.1800    2.6800   27.0000   27.0000 
4071.0612   61.6600    2.3200    0.0100    0.2000    3.0100   27.0000   27.0000 
4071.2136  103.6300    2.3600    0.0200    0.2400    3.2000   10.0000   10.0000 
4071.3660  145.1300    2.4300    0.0400    0.2800    3.5100   10.0000   10.0000 
4071.5184  176.6600    2.4700    0.0600    0.3200    3.4300   10.0000   10.0000 
4071.6708  183.0500    2.3900    0.0400    0.3400    3.5700   10.0000   10.0000 
4071.8232  187.1200    2.2400    0.0000    0.3800    3.8900   10.0000   10.0000 
4071.9756  192.0700    2.1500   -0.0200    0.4100    3.9000   10.0000   10.0000 
4072.1280  194.6300    2.1800   -0.0200    0.4200    3.6100   10.0000   10.0000 
4072.2804  190.1200    2.1600    0.0000    0.4000    3.1800   10.0000   10.0000 
4072.4328  178.5700    2.1800    0.0300    0.3900    3.2600   10.0000   10.0000 
4072.5852  172.5400    2.2000    0.0300    0.4100    3.2900   10.0000   10.0000 
4072.7376  174.1100    2.3500    0.0300    0.4100    3.2000   10.0000   10.0000 
4072.8900  180.1900    2.5000    0.0300    0.3500    2.8400   37.0000   37.0000 
4073.0424  176.5400    2.5100    0.0200    0.3000    2.5000   37.0000   37.0000 
4073.1948  174.7300    2.5000    0.0200    0.2700    2.5600   37.0000   37.0000 
4073.3472  175.4800    2.4800    0.0200    0.2800    2.6100   37.0000   37.0000 
4073.4996  180.2600    2.6600    0.0900    0.2800    2.6400   37.0000   37.0000 
