~VERSION INFORMATION
 VERS.                 2.0:   CWLS LOG ASCII STANDARD - VERSION 2.0
 WRAP.                  NO:   SINGLE LINE PER DEPTH STEP
 CREA.                 03/01/2018 15:42:06
#CREATED USING DSPetro VERSION 5000.10.1.3 BY H191660 ON 03/01/2018 15:42:06
~WELL INFORMATION
#MNEM.UNIT       DATA                          DESCRIPTION MNEMONIC
#---------      ---------------------------   --------------------------
 STRT    .M         0.0000                    : START DEPTH
 STOP    .M         4299.9660                 : STOP DEPTH
 STEP    .M         0.1524                    : STEP VALUE
 NULL    .      -999.0000                     : NULL VALUE
 DATE    .      03/01/2018                    : LAS file Creation Date
 WELL .      961_Atlas-1                 : Well Name
 COMP .      Neftex Exploration Insights : Company
 FLD  .                                  : Field
 UWI  .      ZAUWL_005200                : Unique Well Identifier (UWI)
 LOC  .                                  : Location
 RWS  .      -999                        : Def_Rw
 WST  .      -999                        : Def_Rwt
 SRVC .                                  : Contractor
~CURVE INFORMATION
#MNEM              UNIT       API CODE   Curve Type Comments
#----------  --------------- ----------  ---------- -----------
 DEPTH      .M                         : Depth       
 GR_API     .API                       : gammaRay    Gamma Ray (API) - Measures the intensity of natural gamma-ray radiation emitted from formations containing radioactive elements, such as K, Th and U
 RHOB_G_CC  .g/cc                      : density     Bulk Density - Measures the density of bulk material, including any void space or other materials contained in the subject volume
 DRHO_G_CC  .g/cc                      : drho        Density Correction - Investigates the correction to the Bulk Density log; used as an indication of hole condition to validate the Bulk Density measure
 NPHI_v_v   .ratio                     : neutron     Neutron Porosity - Measured with an neutron logging device calibrated to a given matrix (limestone, sandstone and dolomite)
 PEF_B_E    .b/e-                      : PEF         Photoelectric Factor - A log of photoelectric absorption properties. Often expressed in an approximation unit barns/electron (b/e-)
 LITH       .                          : LITH        Lithology Curve
 LITH_v2    .                          : LITH        Lithology Curve
~A  DEPTH   GR_API   RHOB_G_C  DRHO_G_C  NPHI_v_v  PEF_B_E     LITH    LITH_v2  
# ...
2987.3448   23.2300    2.4000    0.0100    0.2300    7.9900   18.0000   18.0000 
2987.4972   22.9400    2.4100    0.0200    0.2300    8.0900   18.0000   18.0000 
2987.6496   22.1700    2.4700    0.1000    0.2200    7.5600   18.0000   18.0000 
2987.8020   21.7100    2.4200    0.0700    0.2000    7.8300   18.0000   18.0000 
2987.9544   21.3500    2.4300    0.0700    0.1900    8.0900   18.0000   18.0000 
2988.1068   21.6700    2.4600    0.0800    0.1800    8.0500   18.0000   18.0000 
2988.2592   22.7800    2.4300    0.0800    0.1900    8.0000   18.0000   18.0000 
2988.4116   24.5100    2.4100    0.0500    0.2100    7.8400   18.0000   18.0000 
2988.5640   25.0700    2.5900    0.1100    0.2300    7.2100   12.0000   23.0000 
2988.7164   23.7500    2.5500    0.1000    0.2400    7.5600   12.0000   23.0000 
2988.8688   21.0700    2.5600    0.1500    0.2400    7.5900   12.0000   23.0000 
2989.0212   19.0900    2.3500    0.0700    0.2500    8.4400   18.0000   18.0000 
2989.1736   18.6600    2.3700    0.0700    0.2400    8.1700   18.0000   18.0000 
2989.3260   19.5000    2.3800    0.0800    0.2300    8.0600   11.0000   18.0000 
2989.4784   20.8100    2.3900    0.0800    0.2200    7.7100   11.0000   11.0000 
2989.6308   21.6800    2.1800   -0.1800    0.2200    8.2500   11.0000   11.0000 
2989.7832   22.0400    2.4300   -0.1200    0.2200    7.4200   11.0000   18.0000 
2989.9356   21.8500    2.4200   -0.1300    0.2100    7.5500   11.0000   18.0000 
2990.0880   21.3200    2.7400    0.1900    0.2100    6.6800   11.0000   23.0000 
2990.2404   20.4500    2.4100    0.0700    0.2100    7.1600   11.0000   18.0000 
2990.3928   19.6300    2.4200    0.0700    0.2100    7.6800   18.0000   18.0000 
2990.5452   19.6100    2.3900    0.0600    0.2200    7.8800   18.0000   18.0000 
2990.6976   20.6200    2.3400    0.0200    0.2300    8.5000   18.0000   18.0000 
2990.8500   21.5900    2.3800    0.0700    0.2400    7.7800   18.0000   18.0000 
2991.0024   21.5800    2.3400    0.0200    0.2500    7.5100   18.0000   18.0000 
2991.1548   19.0900    2.3800    0.0800    0.2300    7.4200   18.0000   18.0000 
2991.3072   16.6500    2.3800    0.0700    0.2400    8.1900   18.0000   18.0000 
2991.4596   15.1800    2.4200    0.0700    0.2300    8.5600   18.0000   18.0000 
2991.6120   16.2600    2.4200    0.0700    0.2500    8.6700   18.0000   18.0000 
2991.7644   17.3400    2.4300    0.0800    0.2500    7.8100   18.0000   18.0000 
2991.9168   17.9400    2.3700    0.0700    0.2400    7.5600   18.0000   18.0000 
2992.0692   17.2900    2.3500    0.0700    0.2300    7.6400   18.0000   18.0000 
2992.2216   16.4600    2.3200    0.0600    0.2200    8.0600   18.0000   18.0000 
2992.3740   16.1300    2.3200    0.0600    0.2100    8.1500   18.0000   18.0000 
2992.5264   16.7500    2.3300    0.0600    0.2200    7.8300   18.0000   18.0000 
2992.6788   17.7100    2.3600    0.0600    0.2200    7.3300   18.0000   18.0000 
2992.8312   18.6500    2.3900    0.0600    0.2300    6.9200   18.0000   18.0000 
2992.9836   19.8500    2.4100    0.0700    0.2200    7.2500   18.0000   18.0000 
2993.1360   20.6500    2.4100    0.0700    0.2200    7.2900   18.0000   18.0000 
2993.2884   20.3600    2.3500    0.0200    0.2200    7.6600   11.0000   11.0000 
2993.4408   19.3200    2.2300   -0.1600    0.2200    7.6400   11.0000   11.0000 
2993.5932   18.2800    2.4100   -0.1200    0.2200    7.1600   11.0000   18.0000 
2993.7456   17.8900    2.4700   -0.0800    0.2100    7.2300   11.0000   18.0000 
2993.8980   17.3900    2.8100    0.2200    0.2100    7.0300   11.0000   23.0000 
2994.0504   17.3400    2.5200    0.1000    0.2100    8.0500   11.0000   18.0000 
2994.2028   17.6900    2.5200    0.1100    0.2100    8.1000   18.0000   18.0000 
2994.3552   18.4200    2.4600    0.0900    0.2000    7.9000   18.0000   18.0000 
2994.5076   18.6800    2.4500    0.0800    0.1900    7.7300   18.0000   18.0000 
2994.6600   19.6200    2.4500    0.0800    0.1900    7.7000   18.0000   18.0000 
2994.8124   20.6200    2.4400    0.0800    0.1900    7.5500   18.0000   18.0000 
2994.9648   21.5100    2.4000    0.0500    0.1900    8.0400   18.0000   18.0000 
2995.1172   21.5600    2.4200    0.0700    0.2000    8.2400   18.0000   18.0000 
2995.2696   21.8400    2.4000    0.0600    0.2000    8.3000   18.0000   18.0000 
2995.4220   21.9300    2.4400    0.0900    0.1900    7.6300   18.0000   18.0000 
2995.5744   21.5200    2.3600    0.0000    0.1800    7.3600   18.0000   18.0000 
2995.7268   20.6000    2.6200    0.0800    0.1800    7.0300   12.0000   23.0000 
2995.8792   20.4400    2.6300    0.0900    0.1800    7.2400   12.0000   23.0000 
2996.0316   20.5800    2.4800   -0.1100    0.1900    7.8100   18.0000   18.0000 
2996.1840   20.5500    2.5100   -0.1100    0.1900    7.2700   18.0000   18.0000 
2996.3364   20.0000    2.5000   -0.1100    0.2000    7.2100   18.0000   18.0000 
2996.4888   18.7600    2.7100    0.1700    0.2000    6.9100   12.0000   23.0000 
2996.6412   17.9000    2.4000    0.0700    0.2000    7.8400   18.0000   18.0000 
2996.7936   17.4700    2.4100    0.0700    0.2000    7.8600   18.0000   18.0000 
2996.9460   17.3000    2.4000    0.0700    0.2000    7.6400   18.0000   18.0000 
2997.0984   17.0500    2.4400    0.0700    0.2100    7.2200   18.0000   18.0000 
2997.2508   17.2300    2.4600    0.0700    0.2100    6.9500   18.0000   18.0000 
2997.4032   18.1700    2.4500    0.0500    0.2100    6.9400   18.0000   18.0000 
2997.5556   19.2700    2.3600   -0.0600    0.2100    6.8200   18.0000   18.0000 
2997.7080   20.3900    2.3300   -0.0700    0.2100    7.2200   18.0000   18.0000 
2997.8604   21.3600    2.3400   -0.0400    0.2000    7.6800   18.0000   18.0000 
2998.0128   21.9500    2.4000    0.0800    0.2100    7.9800   18.0000   18.0000 
2998.1652   21.3500    2.4000    0.0800    0.2100    8.0000   18.0000   18.0000 
2998.3176   20.5300    2.3900    0.0700    0.2200    7.8000   18.0000   18.0000 
2998.4700   19.8600    2.3900    0.0700    0.2100    7.8800   18.0000   18.0000 
2998.6224   19.8500    2.4200    0.0800    0.2000    7.9100   18.0000   18.0000 
2998.7748   20.0200    2.4300    0.0800    0.2000    7.8000   18.0000   18.0000 
2998.9272   20.3400    2.4300    0.0800    0.2100    7.8000   18.0000   18.0000 
2999.0796   20.7300    2.4000    0.0800    0.2100    7.7800   18.0000   18.0000 
2999.2320   20.6400    2.3800    0.0800    0.2200    8.0500   18.0000   18.0000 
2999.3844   19.9100    2.3600    0.0800    0.2300    7.9900   18.0000   18.0000 
2999.5368   18.3700    2.3700    0.0800    0.2300    8.1300   18.0000   18.0000 
2999.6892   17.0300    2.3400    0.0800    0.2300    7.8000   18.0000   18.0000 
2999.8416   17.9200    2.3400    0.0800    0.2200    7.8800   11.0000   18.0000 
2999.9940   19.4200    2.2900    0.0100    0.2300    8.0900   11.0000   11.0000 
3000.1464   20.0100    2.1800   -0.1700    0.2300    8.9000   11.0000   11.0000 
3000.2988   18.3100    2.1800   -0.1700    0.2400    8.8900   11.0000   11.0000 
3000.4512   16.7300    2.2300   -0.1100    0.2400    8.4000   11.0000   11.0000 
3000.6036   15.8900    2.3800    0.0800    0.2300    8.0600   18.0000   18.0000 
3000.7560   15.8300    2.3800    0.0800    0.2300    8.2000   18.0000   18.0000 
3000.9084   16.1800    2.3800    0.0800    0.2200    8.1700   18.0000   18.0000 
3001.0608   17.1600    2.3600    0.0600    0.2100    7.5300   18.0000   18.0000 
3001.2132   17.9400    2.3700    0.0500    0.2100    7.2100   18.0000   18.0000 
3001.3656   18.1500    2.3800    0.0500    0.2100    7.2600   18.0000   18.0000 
3001.5180   17.8800    2.3700    0.0400    0.2200    7.7600   11.0000   11.0000 
3001.6704   17.8500    2.1800   -0.2100    0.2200    8.4700   11.0000   11.0000 
3001.8228   18.3100    2.4100    0.0700    0.2200    7.1700   11.0000   11.0000 
3001.9752   18.9000    3.0400   -0.1000    0.2100    5.8900   11.0000   11.0000 
3002.1276   19.1600    2.6700    0.0000    0.2100    6.7700   11.0000   11.0000 
3002.2800   19.0200    2.4000   -0.2500    0.2000    7.1500   11.0000   11.0000 
