~VERSION INFORMATION
 VERS.                 2.0:   CWLS LOG ASCII STANDARD - VERSION 2.0
 WRAP.                  NO:   SINGLE LINE PER DEPTH STEP
 CREA.                 03/01/2018 15:42:06
#CREATED USING DSPetro VERSION 5000.10.1.3 BY H191660 ON 03/01/2018 15:42:06
~WELL INFORMATION
#MNEM.UNIT       DATA                          DESCRIPTION MNEMONIC
#---------      ---------------------------   --------------------------
 STRT    .M         0.0000                    : START DEPTH
 STOP    .M         4299.9660                 : STOP DEPTH
 STEP    .M         0.1524                    : STEP VALUE
 NULL    .      -999.0000                     : NULL VALUE
 DATE    .      03/01/2018                    : LAS file Creation Date
 WELL .      961_Atlas-1                 : Well Name
 COMP .      Neftex Exploration Insights : Company
 FLD  .                                  : Field
 UWI  .      ZAUWL_005200                : Unique Well Identifier (UWI)
 LOC  .                                  : Location
 RWS  .      -999                        : Def_Rw
 WST  .      -999                        : Def_Rwt
 SRVC .                                  : Contractor
~CURVE INFORMATION
#MNEM              UNIT       API CODE   Curve Type Comments
#----------  --------------- ----------  ---------- -----------
 DEPTH      .M                         : Depth       
 GR_API     .API                       : gammaRay    Gamma Ray (API) - Measures the intensity of natural gamma-ray radiation emitted from formations containing radioactive elements, such as K, Th and U
 RHOB_G_CC  .g/cc                      : density     Bulk Density - Measures the density of bulk material, including any void space or other materials contained in the subject volume
 DRHO_G_CC  .g/cc                      : drho        Density Correction - Investigates the correction to the Bulk Density log; used as an indication of hole condition to validate the Bulk Density measure
 NPHI_v_v   .ratio                     : neutron     Neutron Porosity - Measured with an neutron logging device calibrated to a given matrix (limestone, sandstone and dolomite)
 PEF_B_E    .b/e-                      : PEF         Photoelectric Factor - A log of photoelectric absorption properties. Often expressed in an approximation unit barns/electron (b/e-)
 LITH       .                          : LITH        Lithology Curve
 LITH_v2    .                          : LITH        Lithology Curve
~A  DEPTH   GR_API   RHOB_G_C  DRHO_G_C  NPHI_v_v  PEF_B_E     LITH    LITH_v2  
# ...
3847.3380  111.0700    2.2900    0.0400    0.2400    3.4400   37.0000   37.0000 
3847.4904  110.1100    2.2100    0.0200    0.2500    3.3700   37.0000   37.0000 
3847.6428  110.9600    2.2200    0.0200    0.2500    3.2500   37.0000   37.0000 
3847.7952  106.5800    2.2600    0.0300    0.2500    3.1400   37.0000   37.0000 
3847.9476   94.2900    2.2900    0.0500    0.2500    3.1800   37.0000   37.0000 
3848.1000   78.3400    2.2900    0.0400    0.2500    3.0700   36.0000   36.0000 
3848.2524   70.2600    2.2800    0.0300    0.2400    2.8900   36.0000   36.0000 
3848.4048   74.0800    2.2500    0.0200    0.2400    2.7200   36.0000   36.0000 
3848.5572   82.4700    2.2400    0.0200    0.2400    2.7300   36.0000   36.0000 
3848.7096   85.3900    2.2300    0.0200    0.2500    2.8400   36.0000   36.0000 
3848.8620   81.7500    2.2400    0.0200    0.2400    2.9700   36.0000   36.0000 
3849.0144   77.4600    2.2300    0.0200    0.2400    3.0800   36.0000   36.0000 
3849.1668   74.6800    2.2500    0.0200    0.2400    3.1900   36.0000   36.0000 
3849.3192   72.4700    2.2600    0.0200    0.2500    3.3700   36.0000   36.0000 
3849.4716   69.6200    2.2800    0.0200    0.2500    3.4200   36.0000   36.0000 
3849.6240   68.1900    2.2700    0.0100    0.2500    3.4900   36.0000   36.0000 
3849.7764   70.8900    2.2600   -0.0100    0.2500    4.0400   36.0000   36.0000 
3849.9288   74.8600    2.3300   -0.0100    0.2600    4.4700   36.0000   36.0000 
3850.0812   77.1700    2.4300    0.0000    0.2600    4.8700   36.0000   36.0000 
3850.2336   78.0700    2.5600    0.0400    0.2300    4.3700   36.0000   36.0000 
3850.3860   77.6400    2.5500    0.0400    0.1700    4.2200   36.0000   36.0000 
3850.5384   77.4400    2.5700    0.0400    0.1500    4.0500   36.0000   36.0000 
3850.6908   75.6700    2.4700    0.0400    0.1300    3.8400   36.0000   36.0000 
3850.8432   74.1800    2.4000    0.0300    0.1400    3.6500   36.0000   36.0000 
3850.9956   75.0800    2.3300    0.0300    0.1500    3.5100   36.0000   36.0000 
3851.1480   80.0300    2.3300    0.0300    0.1700    3.5400   36.0000   36.0000 
3851.3004   87.6500    2.3300    0.0300    0.2000    3.6200   36.0000   36.0000 
3851.4528   94.9800    2.3100    0.0200    0.2200    3.6100   37.0000   37.0000 
3851.6052  100.7600    2.3000    0.0200    0.2400    3.4000   37.0000   37.0000 
3851.7576  105.1500    2.3000    0.0200    0.2400    3.2000   37.0000   37.0000 
3851.9100  106.6400    2.3100    0.0200    0.2300    3.1000   37.0000   37.0000 
3852.0624  103.9500    2.3000    0.0200    0.2400    3.2000   37.0000   37.0000 
3852.2148   98.7200    2.3100    0.0200    0.2500    3.2800   37.0000   37.0000 
3852.3672   95.3000    2.3200    0.0400    0.2500    3.2600   37.0000   37.0000 
3852.5196   96.9700    2.2700    0.0300    0.2600    3.2900   37.0000   37.0000 
3852.6720  100.0600    2.2200    0.0300    0.2500    3.1000   37.0000   37.0000 
3852.8244  103.1600    2.1700    0.0200    0.2400    2.9500   37.0000   37.0000 
3852.9768   83.5100    2.1900    0.0200    0.2500    2.8100   37.0000   37.0000 
3853.1292   62.6800    2.1900    0.0200    0.2500    2.7200   27.0000   27.0000 
3853.2816   43.5700    2.1900    0.0200    0.2600    2.7000   27.0000   27.0000 
3853.4340   44.7400    2.1900    0.0200    0.2500    2.7200   27.0000   27.0000 
3853.5864   51.1700    2.2100    0.0200    0.2400    2.8700   27.0000   27.0000 
3853.7388   55.8300    2.2000    0.0200    0.2400    3.1100   27.0000   27.0000 
3853.8912   60.2400    2.2000    0.0200    0.2400    3.2000   27.0000   27.0000 
3854.0436   58.8800    2.1900    0.0100    0.2300    3.1900   27.0000   27.0000 
3854.1960   57.5600    2.1800    0.0100    0.2300    3.0300   27.0000   27.0000 
3854.3484   55.0300    2.1700    0.0100    0.2300    3.0200   27.0000   27.0000 
3854.5008   53.4000    2.1700    0.0100    0.2400    3.0600   27.0000   27.0000 
3854.6532   51.1800    2.1800    0.0100    0.2400    3.0900   27.0000   27.0000 
3854.8056   48.4400    2.1900    0.0200    0.2400    2.9500   27.0000   27.0000 
3854.9580   45.6900    2.2100    0.0300    0.2400    2.9400   27.0000   27.0000 
3855.1104   43.2000    2.2500    0.0300    0.2400    3.1100   27.0000   27.0000 
3855.2628   43.2300    2.3300    0.0300    0.2400    3.4500   27.0000   27.0000 
3855.4152   47.3600    2.4200    0.0300    0.2400    3.7100   27.0000   27.0000 
3855.5676   60.9700    2.4800    0.0400    0.2400    3.7600   27.0000   27.0000 
3855.7200   99.3700    2.4800    0.0400    0.2500    3.7000   37.0000   37.0000 
3855.8724  129.2300    2.4600    0.0300    0.2500    3.6600   37.0000   37.0000 
3856.0248  148.0800    2.4100    0.0200    0.2500    3.5800   37.0000   37.0000 
3856.1772  139.3700    2.3800    0.0100    0.2300    3.5300   37.0000   37.0000 
3856.3296  139.2400    2.3500    0.0100    0.2300    3.5400   37.0000   37.0000 
3856.4820  138.5000    2.3400    0.0200    0.2300    3.3700   37.0000   37.0000 
3856.6344  137.7400    2.3300    0.0200    0.2500    3.2800   37.0000   37.0000 
3856.7868  127.5500    2.3500    0.0200    0.2400    3.3300   37.0000   37.0000 
3856.9392  109.0700    2.3700    0.0200    0.2400    3.5500   37.0000   37.0000 
3857.0916   93.8900    2.4000    0.0200    0.2500    3.6400   37.0000   37.0000 
3857.2440   85.3800    2.4400    0.0300    0.2800    3.6100   37.0000   37.0000 
3857.3964   88.9600    2.4700    0.0400    0.2800    3.6600   37.0000   37.0000 
3857.5488   93.8400    2.4800    0.0400    0.2800    3.6700   37.0000   37.0000 
3857.7012  100.8200    2.4700    0.0300    0.2700    3.5000   37.0000   37.0000 
3857.8536  106.4600    2.4700    0.0300    0.2700    3.4000   37.0000   37.0000 
3858.0060  113.6200    2.4800    0.0400    0.2700    3.4400   37.0000   37.0000 
3858.1584  118.8000    2.4700    0.0300    0.2700    3.4400   37.0000   37.0000 
3858.3108  123.8700    2.4500    0.0200    0.2900    3.6100   37.0000   37.0000 
3858.4632  126.2100    2.4600    0.0200    0.2800    3.9900   37.0000   37.0000 
3858.6156  129.4100    2.4800    0.0300    0.2600    4.4500   37.0000   37.0000 
3858.7680  134.0300    2.5000    0.0500    0.2600    4.5800   37.0000   37.0000 
3858.9204  134.1000    2.4800    0.0500    0.2500    4.4500   37.0000   37.0000 
3859.0728  128.1400    2.4400    0.0400    0.2600    4.1200   37.0000   37.0000 
3859.2252  117.9500    2.3900    0.0200    0.2500    3.7600   37.0000   37.0000 
3859.3776  109.4600    2.3900    0.0300    0.2300    3.5300   37.0000   37.0000 
3859.5300  104.4800    2.3800    0.0200    0.2200    3.3000   37.0000   37.0000 
3859.6824  102.5700    2.3600    0.0200    0.2300    3.2600   37.0000   37.0000 
3859.8348  103.6300    2.3500    0.0200    0.2400    3.0400   37.0000   37.0000 
3859.9872  107.1300    2.3500    0.0200    0.2600    3.3900   37.0000   37.0000 
3860.1396  113.4500    2.4000    0.0400    0.2700    3.5700   37.0000   37.0000 
3860.2920  121.1100    2.3800    0.0300    0.2700    3.8900   37.0000   37.0000 
3860.4444  127.1300    2.4100    0.0500    0.2700    3.6300   37.0000   37.0000 
3860.5968  129.7100    2.3800    0.0300    0.2600    3.1700   37.0000   37.0000 
3860.7492  131.1100    2.4100    0.0300    0.2500    3.1300   37.0000   37.0000 
3860.9016  132.2800    2.4100    0.0300    0.2400    2.9900   37.0000   37.0000 
3861.0540  126.2900    2.3400    0.0300    0.2600    3.2200   37.0000   37.0000 
3861.2064  115.1600    2.2700    0.0400    0.2600    3.0600   37.0000   37.0000 
3861.3588  101.9900    2.2100    0.0300    0.2600    3.1600   36.0000   36.0000 
3861.5112   94.6800    2.1900    0.0100    0.2400    3.2100   36.0000   36.0000 
3861.6636   89.5000    2.5300    0.1200    0.2300    2.7300   36.0000   36.0000 
3861.8160   84.1800    2.5600    0.1200    0.2400    2.6500   36.0000   36.0000 
3861.9684   83.7000    2.6300    0.1500    0.2500    2.5000   36.0000   36.0000 
3862.1208   85.9800    2.2600    0.0100    0.2400    2.8500   36.0000   36.0000 
3862.2732   89.1200    2.2500    0.0100    0.2200    2.7600   36.0000   36.0000 
