~VERSION INFORMATION
 VERS.                 2.0:   CWLS LOG ASCII STANDARD - VERSION 2.0
 WRAP.                  NO:   SINGLE LINE PER DEPTH STEP
 CREA.                 03/01/2018 15:42:06
#CREATED USING DSPetro VERSION 5000.10.1.3 BY H191660 ON 03/01/2018 15:42:06
~WELL INFORMATION
#MNEM.UNIT       DATA                          DESCRIPTION MNEMONIC
#---------      ---------------------------   --------------------------
 STRT    .M         0.0000                    : START DEPTH
 STOP    .M         4299.9660                 : STOP DEPTH
 STEP    .M         0.1524                    : STEP VALUE
 NULL    .      -999.0000                     : NULL VALUE
 DATE    .      03/01/2018                    : LAS file Creation Date
 WELL .      961_Atlas-1                 : Well Name
 COMP .      Neftex Exploration Insights : Company
 FLD  .                                  : Field
 UWI  .      ZAUWL_005200                : Unique Well Identifier (UWI)
 LOC  .                                  : Location
 RWS  .      -999                        : Def_Rw
 WST  .      -999                        : Def_Rwt
 SRVC .                                  : Contractor
~CURVE INFORMATION
#MNEM              UNIT       API CODE   Curve Type Comments
#----------  --------------- ----------  ---------- -----------
 DEPTH      .M                         : Depth       
 GR_API     .API                       : gammaRay    Gamma Ray (API) - Measures the intensity of natural gamma-ray radiation emitted from formations containing radioactive elements, such as K, Th and U
 RHOB_G_CC  .g/cc                      : density     Bulk Density - Measures the density of bulk material, including any void space or other materials contained in the subject volume
 DRHO_G_CC  .g/cc                      : drho        Density Correction - Investigates the correction to the Bulk Density log; used as an indication of hole condition to validate the Bulk Density measure
 NPHI_v_v   .ratio                     : neutron     Neutron Porosity - Measured with an neutron logging device calibrated to a given matrix (limestone, sandstone and dolomite)
 PEF_B_E    .b/e-                      : PEF         Photoelectric Factor - A log of photoelectric absorption properties. Often expressed in an approximation unit barns/electron (b/e-)
 LITH       .                          : LITH        Lithology Curve
 LITH_v2    .                          : LITH        Lithology Curve
~A  DEPTH   GR_API   RHOB_G_C  DRHO_G_C  NPHI_v_v  PEF_B_E     LITH    LITH_v2  
# ...
3198.5712  161.4400    2.4200    0.0400    0.4800    5.9600   37.0000   37.0000 
3198.7236  155.0400    2.3900    0.0100    0.4800    6.5500   37.0000   37.0000 
3198.8760  143.7100    2.3900    0.0200    0.4800    5.6900   37.0000   37.0000 
3199.0284  138.3300    2.3500    0.0100    0.4600    5.6000   37.0000   37.0000 
3199.1808  132.3900    2.3300    0.0300    0.4700    4.4700   37.0000   37.0000 
3199.3332  133.4800    2.3200    0.0300    0.4800    4.5800   37.0000   37.0000 
3199.4856  134.4900    2.3200    0.0300    0.5000    4.4400   37.0000   37.0000 
3199.6380  140.8400    2.3200    0.0400    0.4900    4.5400   37.0000   37.0000 
3199.7904  148.4800    2.3100    0.0400    0.4700    4.4900   37.0000   37.0000 
3199.9428  157.0800    2.3100    0.0400    0.4600    4.7000   37.0000   37.0000 
3200.0952  161.4000    2.3100    0.0400    0.4800    4.9700   37.0000   37.0000 
3200.2476  163.2800    2.3200    0.0400    0.5100    5.0700   37.0000   37.0000 
3200.4000  166.0900    2.3800    0.0600    0.4900    4.9600   37.0000   37.0000 
3200.5524  169.2100    2.5500    0.0700    0.4700    5.6400   23.0000   23.0000 
3200.7048  167.4300    2.6900    0.0600    0.4900    6.9200   23.0000   23.0000 
3200.8572  163.7600    2.7300    0.0500    0.4400    7.1600   23.0000   23.0000 
3201.0096  153.2900    2.5100    0.0100    0.4000    5.7400   23.0000   23.0000 
3201.1620  140.8600    2.4000    0.0500    0.3800    4.7900   37.0000   37.0000 
3201.3144  127.1000    2.3300    0.0500    0.4200    4.7900   37.0000   37.0000 
3201.4668  123.7000    2.2800    0.0300    0.4700    4.9000   37.0000   37.0000 
3201.6192  133.4000    2.2800    0.0300    0.5000    4.7300   37.0000   37.0000 
3201.7716  146.9100    2.2900    0.0300    0.5000    4.5100   37.0000   37.0000 
3201.9240  159.2300    2.3600    0.0400    0.5100    5.2500   37.0000   37.0000 
3202.0764  161.1700    2.4100    0.0200    0.5100    5.6000   37.0000   37.0000 
3202.2288  156.2000    2.4600    0.0300    0.5200    5.4700   37.0000   37.0000 
3202.3812  148.8500    2.3700    0.0200    0.5100    4.7600   37.0000   37.0000 
3202.5336  148.5700    2.3300    0.0400    0.5100    4.5700   37.0000   37.0000 
3202.6860  150.4400    2.2900    0.0200    0.4800    4.6300   37.0000   37.0000 
3202.8384  152.5600    2.3000    0.0200    0.4500    4.5600   37.0000   37.0000 
3202.9908  153.5600    2.3100    0.0200    0.4400    4.3000   37.0000   37.0000 
3203.1432  156.2700    2.3200    0.0200    0.4200    4.2200   37.0000   37.0000 
3203.2956  157.3900    2.3400    0.0200    0.4200    4.0900   37.0000   37.0000 
3203.4480  155.9300    2.3600    0.0300    0.4200    4.0900   37.0000   37.0000 
3203.6004  154.4800    2.3600    0.0200    0.4500    4.0900   37.0000   37.0000 
3203.7528  152.5600    2.3500    0.0200    0.4600    4.0800   37.0000   37.0000 
3203.9052  151.9900    2.3200    0.0200    0.4600    4.2800   37.0000   37.0000 
3204.0576  149.0400    2.3000    0.0200    0.4400    4.4100   37.0000   37.0000 
3204.2100  151.4700    2.3100    0.0200    0.4500    4.6600   37.0000   37.0000 
3204.3624  153.6600    2.3300    0.0300    0.4700    5.0000   37.0000   37.0000 
3204.5148  158.2600    2.3500    0.0300    0.4600    4.8300   37.0000   37.0000 
3204.6672  154.9600    2.3500    0.0300    0.4600    4.4800   37.0000   37.0000 
3204.8196  150.4100    2.3400    0.0200    0.4500    3.7800   37.0000   37.0000 
3204.9720  147.5700    2.3100    0.0200    0.4800    3.9000   37.0000   37.0000 
3205.1244  153.1500    2.2900    0.0300    0.4900    4.1300   37.0000   37.0000 
3205.2768  162.6800    2.3200    0.0300    0.5000    5.2700   37.0000   37.0000 
3205.4292  167.9500    2.3700    0.0200    0.4800    5.4000   37.0000   37.0000 
3205.5816  159.9600    2.4000    0.0300    0.4400    5.3700   37.0000   37.0000 
3205.7340  147.6600    2.3300    0.0300    0.3900    4.5900   37.0000   37.0000 
3205.8864  142.8500    2.3000    0.0400    0.3800    4.5700   37.0000   37.0000 
3206.0388  146.7800    2.2900    0.0400    0.4300    4.9400   37.0000   37.0000 
3206.1912  153.1800    2.3300    0.0600    0.4900    5.1900   37.0000   37.0000 
3206.3436  153.3700    2.3200    0.0600    0.5200    5.6200   37.0000   37.0000 
3206.4960  157.4400    2.3400    0.0600    0.5200    5.6700   37.0000   37.0000 
3206.6484  160.0700    2.3200    0.0500    0.5200    5.4500   37.0000   37.0000 
3206.8008  163.2000    2.3400    0.0500    0.4900    5.0600   37.0000   37.0000 
3206.9532  160.2500    2.3400    0.0600    0.4500    4.9500   37.0000   37.0000 
3207.1056  157.8800    2.4000    0.0700    0.4500    4.9000   37.0000   37.0000 
3207.2580  155.0300    2.4500    0.0800    0.4500    5.0500   37.0000   37.0000 
3207.4104  152.0300    2.4500    0.0600    0.4500    5.1100   37.0000   37.0000 
3207.5628  149.9300    2.3600    0.0400    0.4400    5.2000   37.0000   37.0000 
3207.7152  152.2800    2.3200    0.0300    0.5000    4.9300   37.0000   37.0000 
3207.8676  159.7800    2.3000    0.0200    0.5100    4.4000   37.0000   37.0000 
3208.0200  163.3200    2.3100    0.0300    0.5100    4.2200   37.0000   37.0000 
3208.1724  161.7600    2.3200    0.0300    0.4900    4.2600   37.0000   37.0000 
3208.3248  154.2400    2.4600    0.0700    0.4500    4.3000   37.0000   37.0000 
3208.4772  141.5700    2.5600    0.0600    0.4400    4.8800   23.0000   23.0000 
3208.6296  140.4200    2.6500    0.0900    0.4100    4.4900   23.0000   23.0000 
3208.7820  148.0800    2.4700    0.0300    0.4200    4.5200   37.0000   37.0000 
3208.9344  160.2200    2.4000    0.0500    0.4300    3.8200   37.0000   37.0000 
3209.0868  162.4500    2.3300    0.0300    0.4600    3.8800   37.0000   37.0000 
3209.2392  158.8800    2.3300    0.0300    0.4900    3.9100   37.0000   37.0000 
3209.3916  157.8700    2.3000    0.0200    0.4900    3.9300   37.0000   37.0000 
3209.5440  155.3900    2.2900   -0.0300    0.4800    4.3600   37.0000   37.0000 
3209.6964  150.6000    2.3000   -0.1200    0.4600    4.5000   37.0000   37.0000 
3209.8488  146.1000    2.3900   -0.1000    0.4700    4.7400   37.0000   37.0000 
3210.0012  142.6000    2.4400   -0.0400    0.4600    4.3000   37.0000   37.0000 
3210.1536  145.2200    2.4200    0.0700    0.4500    4.4200   37.0000   37.0000 
3210.3060  146.8600    2.4500    0.0800    0.4800    4.6300   37.0000   37.0000 
3210.4584  141.5500    2.4600    0.0800    0.5100    4.9400   37.0000   37.0000 
3210.6108  134.1200    2.4300    0.0600    0.5100    5.1400   37.0000   37.0000 
3210.7632  131.0900    2.3300    0.0300    0.4700    5.0600   37.0000   37.0000 
3210.9156  138.7500    2.2700    0.0300    0.4800    5.1200   37.0000   37.0000 
3211.0680  144.8500    2.2700    0.0500    0.5100    5.1200   37.0000   37.0000 
3211.2204  149.1500    2.2700    0.0500    0.5500    5.3200   37.0000   37.0000 
3211.3728  152.4100    2.2900    0.0600    0.5600    5.3300   37.0000   37.0000 
3211.5252  153.3400    2.3400    0.0700    0.5300    5.4600   37.0000   37.0000 
3211.6776  148.6300    2.3500    0.0600    0.4800    6.1800   37.0000   37.0000 
3211.8300  143.6500    2.3500    0.0600    0.4200    6.3100   37.0000   37.0000 
3211.9824  140.0800    2.3100    0.0600    0.4100    6.2500   37.0000   37.0000 
3212.1348  143.7900    2.3000    0.0600    0.4300    5.6400   37.0000   37.0000 
3212.2872  146.5100    2.2900    0.0600    0.4600    5.6500   37.0000   37.0000 
3212.4396  153.6400    2.3000    0.0600    0.5100    5.5900   37.0000   37.0000 
3212.5920  158.4900    2.3000    0.0600    0.5300    5.6200   37.0000   37.0000 
3212.7444  163.3400    2.2900    0.0600    0.5500    5.7900   37.0000   37.0000 
3212.8968  162.8300    2.2800    0.0600    0.5300    6.0400   37.0000   37.0000 
3213.0492  159.5800    2.2700    0.0600    0.5300    5.8600   37.0000   37.0000 
3213.2016  153.8900    2.2800    0.0500    0.5200    5.5400   37.0000   37.0000 
3213.3540  146.3800    2.3200    0.0400    0.5700    5.6900   37.0000   37.0000 
3213.5064  141.3200    2.3700    0.0500    0.5600    5.5600   37.0000   37.0000 
