~VERSION INFORMATION
 VERS.                 2.0:   CWLS LOG ASCII STANDARD - VERSION 2.0
 WRAP.                  NO:   SINGLE LINE PER DEPTH STEP
 CREA.                 03/01/2018 15:42:06
#CREATED USING DSPetro VERSION 5000.10.1.3 BY H191660 ON 03/01/2018 15:42:06
~WELL INFORMATION
#MNEM.UNIT       DATA                          DESCRIPTION MNEMONIC
#---------      ---------------------------   --------------------------
 STRT    .M         0.0000                    : START DEPTH
 STOP    .M         4299.9660                 : STOP DEPTH
 STEP    .M         0.1524                    : STEP VALUE
 NULL    .      -999.0000                     : NULL VALUE
 DATE    .      03/01/2018                    : LAS file Creation Date
 WELL .      961_Atlas-1                 : Well Name
 COMP .      Neftex Exploration Insights : Company
 FLD  .                                  : Field
 UWI  .      ZAUWL_005200                : Unique Well Identifier (UWI)
 LOC  .                                  : Location
 RWS  .      -999                        : Def_Rw
 WST  .      -999                        : Def_Rwt
 SRVC .                                  : Contractor
~CURVE INFORMATION
#MNEM              UNIT       API CODE   Curve Type Comments
#----------  --------------- ----------  ---------- -----------
 DEPTH      .M                         : Depth       
 GR_API     .API                       : gammaRay    Gamma Ray (API) - Measures the intensity of natural gamma-ray radiation emitted from formations containing radioactive elements, such as K, Th and U
 RHOB_G_CC  .g/cc                      : density     Bulk Density - Measures the density of bulk material, including any void space or other materials contained in the subject volume
 DRHO_G_CC  .g/cc                      : drho        Density Correction - Investigates the correction to the Bulk Density log; used as an indication of hole condition to validate the Bulk Density measure
 NPHI_v_v   .ratio                     : neutron     Neutron Porosity - Measured with an neutron logging device calibrated to a given matrix (limestone, sandstone and dolomite)
 PEF_B_E    .b/e-                      : PEF         Photoelectric Factor - A log of photoelectric absorption properties. Often expressed in an approximation unit barns/electron (b/e-)
 LITH       .                          : LITH        Lithology Curve
 LITH_v2    .                          : LITH        Lithology Curve
~A  DEPTH   GR_API   RHOB_G_C  DRHO_G_C  NPHI_v_v  PEF_B_E     LITH    LITH_v2  
# ...
3621.0240   65.2900    2.5700    0.0400    0.2200    4.8000   22.0000   22.0000 
3621.1764   66.3000    2.5700    0.0400    0.2400    4.7500   22.0000   22.0000 
3621.3288   67.6000    2.5500    0.0400    0.2500    4.8100   22.0000   22.0000 
3621.4812   70.1700    2.5400    0.0500    0.2600    4.6500   22.0000   22.0000 
3621.6336   71.5900    2.5300    0.0400    0.2600    4.6600   22.0000   22.0000 
3621.7860   74.4600    2.5300    0.0400    0.2600    4.6400   22.0000   22.0000 
3621.9384   83.5400    2.5400    0.0400    0.2700    4.2900   22.0000   22.0000 
3622.0908   94.7600    2.5400    0.0400    0.2900    3.7700   22.0000   37.0000 
3622.2432  106.8200    2.5100    0.0300    0.3300    3.3500   22.0000   37.0000 
3622.3956  115.2100    2.5200    0.0300    0.3400    3.8000   22.0000   37.0000 
3622.5480  116.5000    2.5300    0.0300    0.3100    4.4500   22.0000   37.0000 
3622.7004  109.3500    2.5500    0.0300    0.2500    5.0600   22.0000   22.0000 
3622.8528   93.2400    2.5500    0.0300    0.2200    4.9600   22.0000   22.0000 
3623.0052   79.0000    2.5600    0.0300    0.2000    4.9100   22.0000   22.0000 
3623.1576   68.2500    2.5900    0.0300    0.1900    4.7800   22.0000   22.0000 
3623.3100   63.3100    2.5900    0.0300    0.1800    4.5800   22.0000   22.0000 
3623.4624   61.9100    2.5800    0.0200    0.1800    4.3700   22.0000   22.0000 
3623.6148   65.1400    2.5700    0.0200    0.1800    4.5500   22.0000   22.0000 
3623.7672   67.3100    2.5700    0.0200    0.1900    4.6700   22.0000   22.0000 
3623.9196   66.2000    2.5700    0.0200    0.1800    4.7700   22.0000   22.0000 
3624.0720   61.0800    2.5700    0.0300    0.1700    4.8000   22.0000   22.0000 
3624.2244   56.9300    2.5500    0.0200    0.1700    4.7600   22.0000   22.0000 
3624.3768   55.8700    2.5600    0.0300    0.1800    4.7300   22.0000   22.0000 
3624.5292   60.9300    2.5500    0.0300    0.2000    4.6900   22.0000   22.0000 
3624.6816   66.2400    2.5700    0.0400    0.2100    4.8200   22.0000   22.0000 
3624.8340   70.6900    2.5600    0.0400    0.2300    4.8600   22.0000   22.0000 
3624.9864   71.6600    2.5900    0.0500    0.2400    4.7900   22.0000   22.0000 
3625.1388   72.8700    2.5900    0.0400    0.2400    4.8800   22.0000   22.0000 
3625.2912   72.3000    2.5900    0.0400    0.2400    4.8400   22.0000   22.0000 
3625.4436   70.5900    2.5600    0.0300    0.2400    4.7100   22.0000   22.0000 
3625.5960   73.2600    2.5500    0.0300    0.2400    4.5800   22.0000   22.0000 
3625.7484   77.9300    2.5500    0.0300    0.2300    4.7900   22.0000   22.0000 
3625.9008   76.5100    2.5600    0.0300    0.2100    4.6700   22.0000   22.0000 
3626.0532   68.7700    2.5700    0.0400    0.2100    4.5700   22.0000   22.0000 
3626.2056   61.9300    2.5800    0.0400    0.2200    4.3400   22.0000   22.0000 
3626.3580   63.3600    2.5700    0.0300    0.2300    4.7500   22.0000   22.0000 
3626.5104   68.4400    2.5600    0.0200    0.2200    4.8100   22.0000   22.0000 
3626.6628   68.7800    2.5500    0.0200    0.2200    4.8300   22.0000   22.0000 
3626.8152   66.8300    2.5500    0.0300    0.2300    4.6900   22.0000   22.0000 
3626.9676   67.5600    2.5600    0.0400    0.2500    4.6300   22.0000   22.0000 
3627.1200   72.8900    2.5600    0.0400    0.2700    4.5500   22.0000   22.0000 
3627.2724   79.3300    2.5500    0.0400    0.2800    4.5400   22.0000   22.0000 
3627.4248   81.7300    2.5400    0.0300    0.2800    4.5500   22.0000   22.0000 
3627.5772   84.1100    2.5300    0.0300    0.2800    4.7600   22.0000   22.0000 
3627.7296   87.0200    2.5300    0.0300    0.3000    4.6800   22.0000   22.0000 
3627.8820   88.8800    2.5200    0.0300    0.2900    4.6600   22.0000   22.0000 
3628.0344   88.2600    2.5200    0.0200    0.2700    4.5800   22.0000   22.0000 
3628.1868   85.9800    2.5200    0.0300    0.2500    4.8100   22.0000   22.0000 
3628.3392   82.5300    2.5300    0.0300    0.2400    4.9400   22.0000   22.0000 
3628.4916   77.7500    2.5800    0.0500    0.2300    4.9900   22.0000   22.0000 
3628.6440   71.8400    2.6000    0.0500    0.2200    4.9700   22.0000   22.0000 
3628.7964   66.6700    2.6100    0.0500    0.2100    4.8900   22.0000   22.0000 
3628.9488   66.6900    2.5800    0.0300    0.1900    4.6900   22.0000   22.0000 
3629.1012   70.7600    2.5600    0.0400    0.1900    4.4400   22.0000   22.0000 
3629.2536   75.0900    2.5700    0.0400    0.2000    4.3400   22.0000   22.0000 
3629.4060   70.5800    2.6000    0.0500    0.2100    4.5700   22.0000   22.0000 
3629.5584   65.7900    2.6100    0.0400    0.2000    4.7300   22.0000   22.0000 
3629.7108   60.6900    2.5900    0.0400    0.1800    5.0600   22.0000   22.0000 
3629.8632   62.0900    2.5700    0.0400    0.1800    4.9500   22.0000   22.0000 
3630.0156   64.0100    2.5600    0.0300    0.2000    4.8100   22.0000   22.0000 
3630.1680   70.5200    2.5600    0.0300    0.2200    4.4400   22.0000   22.0000 
3630.3204   78.8200    2.5500    0.0300    0.2300    4.3300   22.0000   22.0000 
3630.4728   83.6700    2.5400    0.0400    0.2300    4.3500   22.0000   22.0000 
3630.6252   84.5800    2.5400    0.0400    0.2400    4.6800   22.0000   22.0000 
3630.7776   83.0100    2.5500    0.0300    0.2400    4.8400   22.0000   22.0000 
3630.9300   80.8900    2.5900    0.0400    0.2200    5.1100   22.0000   22.0000 
3631.0824   75.3200    2.5900    0.0400    0.2100    5.1300   22.0000   22.0000 
3631.2348   75.9200    2.5900    0.0500    0.2000    5.1700   22.0000   22.0000 
3631.3872   79.2000    2.5400    0.0400    0.2100    4.9100   22.0000   22.0000 
3631.5396   84.7100    2.5400    0.0400    0.2300    4.7600   22.0000   22.0000 
3631.6920   82.5700    2.5400    0.0400    0.2500    4.7000   22.0000   22.0000 
3631.8444   79.4400    2.5300    0.0400    0.2500    4.9500   22.0000   22.0000 
3631.9968   77.8100    2.5400    0.0500    0.2400    5.2500   22.0000   22.0000 
3632.1492   76.6300    2.5600    0.0600    0.2200    6.2400   22.0000   22.0000 
3632.3016   71.0700    2.6100    0.0700    0.2000    6.3500   22.0000   22.0000 
3632.4540   66.9000    2.5900    0.0600    0.1900    6.0300   22.0000   22.0000 
3632.6064   66.0100    2.5600    0.0500    0.1900    4.9000   22.0000   22.0000 
3632.7588   69.7200    2.5300    0.0400    0.2100    4.6800   22.0000   22.0000 
3632.9112   69.7200    2.5300    0.0400    0.2500    4.6900   22.0000   22.0000 
3633.0636   65.4500    2.5900    0.0400    0.2400    4.9400   22.0000   22.0000 
3633.2160   62.6200    2.5900    0.0400    0.2200    5.0600   22.0000   22.0000 
3633.3684   65.3000    2.5800    0.0400    0.2000    5.1300   22.0000   22.0000 
3633.5208   70.9700    2.5400    0.0500    0.2100    5.4100   22.0000   22.0000 
3633.6732   73.2100    2.5600    0.0600    0.2300    5.4000   22.0000   22.0000 
3633.8256   73.3500    2.5600    0.0600    0.2500    5.4800   22.0000   22.0000 
3633.9780   74.6800    2.5500    0.0500    0.2500    5.2100   22.0000   22.0000 
3634.1304   78.2300    2.5400    0.0500    0.2600    5.2200   22.0000   22.0000 
3634.2828   80.0600    2.5500    0.0400    0.2600    5.3400   22.0000   22.0000 
3634.4352   79.7100    2.5500    0.0400    0.2700    5.5200   22.0000   22.0000 
3634.5876   77.7500    2.5400    0.0400    0.2700    5.6600   22.0000   22.0000 
3634.7400   76.7200    2.5300    0.0300    0.2800    5.3900   22.0000   22.0000 
3634.8924   79.8600    2.5300    0.0400    0.2800    5.1400   22.0000   22.0000 
3635.0448   85.1600    2.5600    0.0500    0.2800    4.9800   22.0000   22.0000 
3635.1972   90.3300    2.5600    0.0600    0.2700    4.8200   22.0000   22.0000 
3635.3496   88.7500    2.5600    0.0600    0.2700    4.9300   22.0000   22.0000 
3635.5020   79.8100    2.5500    0.0600    0.2500    5.1300   22.0000   22.0000 
3635.6544   71.2600    2.5700    0.0600    0.2300    5.2100   22.0000   22.0000 
3635.8068   70.6800    2.5100    0.0100    0.2200    4.9800   11.0000   11.0000 
3635.9592   77.6900    2.3900   -0.1400    0.2200    4.7000   11.0000   11.0000 
