~VERSION INFORMATION
 VERS.                 2.0:   CWLS LOG ASCII STANDARD - VERSION 2.0
 WRAP.                  NO:   SINGLE LINE PER DEPTH STEP
 CREA.                 03/01/2018 15:42:06
#CREATED USING DSPetro VERSION 5000.10.1.3 BY H191660 ON 03/01/2018 15:42:06
~WELL INFORMATION
#MNEM.UNIT       DATA                          DESCRIPTION MNEMONIC
#---------      ---------------------------   --------------------------
 STRT    .M         0.0000                    : START DEPTH
 STOP    .M         4299.9660                 : STOP DEPTH
 STEP    .M         0.1524                    : STEP VALUE
 NULL    .      -999.0000                     : NULL VALUE
 DATE    .      03/01/2018                    : LAS file Creation Date
 WELL .      961_Atlas-1                 : Well Name
 COMP .      Neftex Exploration Insights : Company
 FLD  .                                  : Field
 UWI  .      ZAUWL_005200                : Unique Well Identifier (UWI)
 LOC  .                                  : Location
 RWS  .      -999                        : Def_Rw
 WST  .      -999                        : Def_Rwt
 SRVC .                                  : Contractor
~CURVE INFORMATION
#MNEM              UNIT       API CODE   Curve Type Comments
#----------  --------------- ----------  ---------- -----------
 DEPTH      .M                         : Depth       
 GR_API     .API                       : gammaRay    Gamma Ray (API) - Measures the intensity of natural gamma-ray radiation emitted from formations containing radioactive elements, such as K, Th and U
 RHOB_G_CC  .g/cc                      : density     Bulk Density - Measures the density of bulk material, including any void space or other materials contained in the subject volume
 DRHO_G_CC  .g/cc                      : drho        Density Correction - Investigates the correction to the Bulk Density log; used as an indication of hole condition to validate the Bulk Density measure
 NPHI_v_v   .ratio                     : neutron     Neutron Porosity - Measured with an neutron logging device calibrated to a given matrix (limestone, sandstone and dolomite)
 PEF_B_E    .b/e-                      : PEF         Photoelectric Factor - A log of photoelectric absorption properties. Often expressed in an approximation unit barns/electron (b/e-)
 LITH       .                          : LITH        Lithology Curve
 LITH_v2    .                          : LITH        Lithology Curve
~A  DEPTH   GR_API   RHOB_G_C  DRHO_G_C  NPHI_v_v  PEF_B_E     LITH    LITH_v2  
# ...
2761.0308   60.0400    2.1900    0.0300    0.4100    5.3000   22.0000   22.0000 
2761.1832   62.0000    2.1900    0.0300    0.3900    5.0900   22.0000   22.0000 
2761.3356   62.9400    2.2000    0.0300    0.4000    4.9100   22.0000   22.0000 
2761.4880   63.4500    2.1900    0.0200    0.4100    4.7400   22.0000   22.0000 
2761.6404   63.3700    2.1900    0.0300    0.4300    4.9300   22.0000   22.0000 
2761.7928   62.6400    2.1800    0.0400    0.4300    5.1500   22.0000   22.0000 
2761.9452   60.9700    2.1800    0.0300    0.4400    5.2500   22.0000   22.0000 
2762.0976   59.5300    2.1700    0.0300    0.4500    5.1000   22.0000   22.0000 
2762.2500   58.6300    2.1800    0.0300    0.4200    5.0900   22.0000   22.0000 
2762.4024   59.0800    2.1900    0.0400    0.3800    5.3200   22.0000   22.0000 
2762.5548   59.0900    2.2000    0.0400    0.3600    5.6000   22.0000   22.0000 
2762.7072   58.8700    2.2000    0.0500    0.3700    5.6200   22.0000   22.0000 
2762.8596   58.6100    2.1900    0.0400    0.3700    5.5700   22.0000   22.0000 
2763.0120   58.7300    2.2000    0.0400    0.3500    5.2100   22.0000   22.0000 
2763.1644   59.4200    2.2100    0.0400    0.3500    5.0400   22.0000   22.0000 
2763.3168   59.5700    2.2300    0.0400    0.3500    4.8500   22.0000   22.0000 
2763.4692   59.7100    2.2200    0.0300    0.3800    4.8300   22.0000   22.0000 
2763.6216   58.7700    2.2100    0.0300    0.3900    4.7100   22.0000   22.0000 
2763.7740   58.4200    2.2000    0.0300    0.4000    4.6100   22.0000   22.0000 
2763.9264   58.1100    2.1900    0.0300    0.4000    4.5200   22.0000   22.0000 
2764.0788   58.7900    2.1800    0.0200    0.3800    4.6000   22.0000   22.0000 
2764.2312   59.6900    2.1700    0.0200    0.3500    4.4300   22.0000   22.0000 
2764.3836   60.5400    2.1800    0.0200    0.3400    4.3500   22.0000   22.0000 
2764.5360   60.6700    2.1800    0.0200    0.3600    4.1200   22.0000   22.0000 
2764.6884   60.1800    2.1800    0.0100    0.3900    4.0900   22.0000   22.0000 
2764.8408   59.2000    2.1800    0.0100    0.4200    4.2100   22.0000   22.0000 
2764.9932   59.4000    2.1800    0.0100    0.4300    4.3200   22.0000   22.0000 
2765.1456   59.6100    2.1900    0.0100    0.4100    4.5500   22.0000   22.0000 
2765.2980   61.5200    2.2200    0.0200    0.4000    4.5600   22.0000   22.0000 
2765.4504   63.8800    2.2400    0.0200    0.3700    4.7500   22.0000   22.0000 
2765.6028   65.4000    2.2900    0.0300    0.3900    4.8000   22.0000   22.0000 
2765.7552   64.4700    2.2900    0.0300    0.3900    4.9300   22.0000   22.0000 
2765.9076   62.3700    2.3200    0.0400    0.4100    4.8300   22.0000   22.0000 
2766.0600   62.1700    2.3000    0.0400    0.4000    4.8300   22.0000   22.0000 
2766.2124   63.2000    2.2900    0.0300    0.4100    4.7400   22.0000   22.0000 
2766.3648   66.2400    2.2600    0.0300    0.4100    4.7100   22.0000   22.0000 
2766.5172   68.2300    2.2700    0.0300    0.4200    4.7700   22.0000   22.0000 
2766.6696   69.5700    2.2700    0.0200    0.3900    5.0700   22.0000   22.0000 
2766.8220   68.9100    2.3200    0.0300    0.3200    5.2700   22.0000   18.0000 
2766.9744   66.1100    2.3700    0.0300    0.2900    5.4200   22.0000   18.0000 
2767.1268   60.2500    2.4600    0.0500    0.2600    5.3500   22.0000   12.0000 
2767.2792   54.3900    2.4600    0.0400    0.2600    5.4900   22.0000   12.0000 
2767.4316   47.3200    2.4600    0.0400    0.2300    5.5100   22.0000   18.0000 
2767.5840   41.9000    2.4400    0.0400    0.2300    5.5700   22.0000   18.0000 
2767.7364   36.4800    2.4400    0.0300    0.2200    5.5700   22.0000   18.0000 
2767.8888   33.7800    2.4400    0.0300    0.2100    5.5700   22.0000   18.0000 
2768.0412   33.1400    2.4500    0.0300    0.2000    5.5600   22.0000   18.0000 
2768.1936   32.0200    2.4300    0.0200    0.2000    5.7100   18.0000   18.0000 
2768.3460   30.8900    2.4400    0.0200    0.2000    5.7900   18.0000   18.0000 
2768.4984   29.7500    2.4400    0.0200    0.2100    5.8800   22.0000   18.0000 
2768.6508   28.5100    2.4400    0.0300    0.2000    5.9000   18.0000   18.0000 
2768.8032   27.1000    2.4300    0.0400    0.2100    5.9300   18.0000   18.0000 
2768.9556   25.7000    2.4500    0.0400    0.2100    5.9400   22.0000   18.0000 
2769.1080   24.6700    2.4600    0.0500    0.2200    5.7900   22.0000   18.0000 
2769.2604   24.4600    2.4400    0.0500    0.2200    5.7900   22.0000   18.0000 
2769.4128   24.4400    2.4400    0.0400    0.2200    5.7700   22.0000   18.0000 
2769.5652   24.4200    2.4300    0.0400    0.2200    5.8200   22.0000   18.0000 
2769.7176   24.7100    2.4200    0.0400    0.2200    5.8900   22.0000   18.0000 
2769.8700   24.8000    2.4100    0.0400    0.2200    5.9600   18.0000   18.0000 
2770.0224   25.0900    2.4000    0.0400    0.2200    6.1200   18.0000   18.0000 
2770.1748   25.0800    2.4200    0.0400    0.2200    6.0900   22.0000   18.0000 
2770.3272   26.0100    2.4000    0.0400    0.2200    6.1200   18.0000   18.0000 
2770.4796   27.5200    2.4000    0.0400    0.2300    5.9800   22.0000   18.0000 
2770.6320   29.0300    2.3800    0.0300    0.2400    5.8300   22.0000   18.0000 
2770.7844   30.2600    2.3700    0.0300    0.2500    5.6800   22.0000   18.0000 
2770.9368   30.0900    2.3700    0.0300    0.2500    5.7000   22.0000   18.0000 
2771.0892   29.9000    2.3600    0.0300    0.2600    5.7400   22.0000   18.0000 
2771.2416   29.0600    2.3800    0.0400    0.2700    5.7800   22.0000   18.0000 
2771.3940   29.8000    2.3900    0.0300    0.2800    5.8500   22.0000   18.0000 
2771.5464   31.2700    2.4000    0.0400    0.2800    5.9400   22.0000   18.0000 
2771.6988   32.7500    2.3900    0.0300    0.2800    6.0600   22.0000   18.0000 
2771.8512   34.1000    2.3700    0.0300    0.2800    6.1400   22.0000   18.0000 
2772.0036   33.9700    2.3500    0.0300    0.2800    6.3200   22.0000   18.0000 
2772.1560   33.8400    2.3500    0.0400    0.2700    6.2400   22.0000   18.0000 
2772.3084   32.4500    2.3500    0.0400    0.2500    6.1800   18.0000   18.0000 
2772.4608   30.9700    2.3600    0.0400    0.2500    5.9200   18.0000   18.0000 
2772.6132   29.5000    2.3700    0.0400    0.2600    5.8300   22.0000   18.0000 
2772.7656   29.0300    2.3900    0.0400    0.2500    5.7600   22.0000   18.0000 
2772.9180   29.4100    2.4000    0.0400    0.2400    5.7100   22.0000   18.0000 
2773.0704   30.3900    2.4000    0.0300    0.2400    5.6700   22.0000   18.0000 
2773.2228   32.0800    2.3900    0.0300    0.2400    5.6700   22.0000   18.0000 
2773.3752   33.7900    2.3900    0.0300    0.2400    5.7500   22.0000   18.0000 
2773.5276   35.0800    2.3900    0.0400    0.2500    5.8100   22.0000   18.0000 
2773.6800   35.2700    2.3900    0.0400    0.2600    5.8100   22.0000   18.0000 
2773.8324   35.2200    2.3900    0.0400    0.2700    5.9400   22.0000   18.0000 
2773.9848   35.0000    2.3900    0.0500    0.2800    6.0800   22.0000   18.0000 
2774.1372   34.7900    2.3900    0.0500    0.2800    6.1200   22.0000   18.0000 
2774.2896   34.9500    2.3800    0.0400    0.2900    6.0400   22.0000   18.0000 
2774.4420   34.8000    2.3800    0.0400    0.2900    6.0900   22.0000   18.0000 
2774.5944   34.5300    2.3700    0.0400    0.2800    6.2400   22.0000   18.0000 
2774.7468   34.1000    2.3700    0.0400    0.2600    6.2700   22.0000   18.0000 
2774.8992   33.8100    2.3800    0.0400    0.2500    6.1600   22.0000   18.0000 
2775.0516   33.4400    2.3800    0.0400    0.2400    6.0100   22.0000   18.0000 
2775.2040   33.0600    2.3700    0.0400    0.2400    6.0000   18.0000   18.0000 
2775.3564   32.8400    2.3500    0.0300    0.2500    6.0300   18.0000   18.0000 
2775.5088   32.7700    2.3500    0.0300    0.2900    6.0600   22.0000   18.0000 
2775.6612   33.0400    2.3600    0.0400    0.3300    6.0300   22.0000   18.0000 
2775.8136   33.1200    2.3700    0.0400    0.3200    5.9800   22.0000   12.0000 
2775.9660   32.4500    2.3600    0.0500    0.3000    6.1400   22.0000   18.0000 
