~VERSION INFORMATION
 VERS.                 2.0:   CWLS LOG ASCII STANDARD - VERSION 2.0
 WRAP.                  NO:   SINGLE LINE PER DEPTH STEP
 CREA.                 03/01/2018 15:42:06
#CREATED USING DSPetro VERSION 5000.10.1.3 BY H191660 ON 03/01/2018 15:42:06
~WELL INFORMATION
#MNEM.UNIT       DATA                          DESCRIPTION MNEMONIC
#---------      ---------------------------   --------------------------
 STRT    .M         0.0000                    : START DEPTH
 STOP    .M         4299.9660                 : STOP DEPTH
 STEP    .M         0.1524                    : STEP VALUE
 NULL    .      -999.0000                     : NULL VALUE
 DATE    .      03/01/2018                    : LAS file Creation Date
 WELL .      961_Atlas-1                 : Well Name
 COMP .      Neftex Exploration Insights : Company
 FLD  .                                  : Field
 UWI  .      ZAUWL_005200                : Unique Well Identifier (UWI)
 LOC  .                                  : Location
 RWS  .      -999                        : Def_Rw
 WST  .      -999                        : Def_Rwt
 SRVC .                                  : Contractor
~CURVE INFORMATION
#MNEM              UNIT       API CODE   Curve Type Comments
#----------  --------------- ----------  ---------- -----------
 DEPTH      .M                         : Depth       
 GR_API     .API                       : gammaRay    Gamma Ray (API) - Measures the intensity of natural gamma-ray radiation emitted from formations containing radioactive elements, such as K, Th and U
 RHOB_G_CC  .g/cc                      : density     Bulk Density - Measures the density of bulk material, including any void space or other materials contained in the subject volume
 DRHO_G_CC  .g/cc                      : drho        Density Correction - Investigates the correction to the Bulk Density log; used as an indication of hole condition to validate the Bulk Density measure
 NPHI_v_v   .ratio                     : neutron     Neutron Porosity - Measured with an neutron logging device calibrated to a given matrix (limestone, sandstone and dolomite)
 PEF_B_E    .b/e-                      : PEF         Photoelectric Factor - A log of photoelectric absorption properties. Often expressed in an approximation unit barns/electron (b/e-)
 LITH       .                          : LITH        Lithology Curve
 LITH_v2    .                          : LITH        Lithology Curve
~A  DEPTH   GR_API   RHOB_G_C  DRHO_G_C  NPHI_v_v  PEF_B_E     LITH    LITH_v2  
# ...
2549.8044   27.9000    2.5000   -0.3800    0.5300   19.1900 -999.0000   11.0000 
2549.9568   27.9000    2.5000   -0.3800    0.5200   19.1900 -999.0000   11.0000 
2550.1092   27.9000    2.4900   -0.3900    0.5100   17.9800 -999.0000   11.0000 
2550.2616   27.9000    2.5100   -0.4000    0.5000   18.1900 -999.0000   11.0000 
2550.4140   27.9000    2.5400   -0.4000    0.5100   18.0400 -999.0000   11.0000 
2550.5664   27.9000    2.6100   -0.3900    0.5300   17.6200 -999.0000   11.0000 
2550.7188   27.9000    2.6200   -0.4000    0.5100   16.7000 -999.0000   11.0000 
2550.8712   27.9000    2.6000   -0.3900    0.5200   17.1400 -999.0000   11.0000 
2551.0236   27.9000    2.5300   -0.4000    0.5200   18.0100 -999.0000   11.0000 
2551.1760   27.9000    2.4900   -0.3900    0.5400   19.4500 -999.0000   11.0000 
2551.3284   27.9000    2.4800   -0.3900    0.5200   19.8800 -999.0000   11.0000 
2551.4808   27.9000    2.4800   -0.3900    0.5100   20.1300 -999.0000   11.0000 
2551.6332   27.9000    2.4900   -0.3900    0.5100   19.3800 -999.0000   11.0000 
2551.7856   27.9000    2.4900   -0.3900    0.5100   18.8600 -999.0000   11.0000 
2551.9380   27.9000    2.5000   -0.3900    0.4900   18.5900 -999.0000   11.0000 
2552.0904   27.9000    2.5000   -0.3900    0.4700   18.8100 -999.0000   11.0000 
2552.2428   27.9000    2.4800   -0.4000    0.4800   19.0300 -999.0000   11.0000 
2552.3952   27.9000    2.4800   -0.3900    0.5100   18.9200 -999.0000   11.0000 
2552.5476   27.9000    2.4500   -0.4200    0.4900   18.7200 -999.0000   11.0000 
2552.7000   27.9000    2.4700   -0.4000    0.4400   18.4300 -999.0000   11.0000 
2552.8524   27.9000    2.4700   -0.4100    0.4300   18.7300 -999.0000   11.0000 
2553.0048   27.9000    2.4900   -0.3900    0.4400   18.8800 -999.0000   11.0000 
2553.1572   27.9000    2.4800   -0.4000    0.4900   18.3900 -999.0000   11.0000 
2553.3096   27.9000    2.4900   -0.4000    0.5000   18.0800 -999.0000   11.0000 
2553.4620   27.9000    2.6100   -0.3800    0.5000   17.5900 -999.0000   11.0000 
2553.6144   27.9000    2.7100   -0.4100    0.4900   15.9000 -999.0000   11.0000 
2553.7668   27.9000    2.9600   -0.4000    0.4500   13.3700 -999.0000   11.0000 
2553.9192   27.9000    3.0100   -0.4400    0.4500   12.2100 -999.0000   11.0000 
2554.0716   27.9000    3.1000   -0.4300    0.4700   12.0600 -999.0000   11.0000 
2554.2240   27.9000    3.0900   -0.4400    0.5200   12.0500 -999.0000   11.0000 
2554.3764   27.9000    2.9400   -0.4500    0.5300   12.7800 -999.0000   11.0000 
2554.5288   27.9000    2.7200   -0.4300    0.5200   15.0500 -999.0000   11.0000 
2554.6812   27.9000    2.5700   -0.4100    0.5300   16.5300 -999.0000   11.0000 
2554.8336   27.9000    2.4900   -0.4000    0.5400   17.8900 -999.0000   11.0000 
2554.9860   27.9000    2.5000   -0.4000    0.5300   18.4300 -999.0000   11.0000 
2555.1384   27.9000    2.5000   -0.3900    0.5600   18.8600 -999.0000   11.0000 
2555.2908   27.9000    2.5200   -0.3800    0.5600   18.7100 -999.0000   11.0000 
2555.4432   27.9000    2.5100   -0.3900    0.5600   18.3500 -999.0000   11.0000 
2555.5956   27.9000    2.5100   -0.3900    0.5300   19.1900 -999.0000   11.0000 
2555.7480   27.9000    2.5100   -0.3900    0.5000   19.6600 -999.0000   11.0000 
2555.9004   27.9000    2.5000   -0.3800    0.5000   19.8900 -999.0000   11.0000 
2556.0528   27.9000    2.4900   -0.3800    0.5100   19.0900 -999.0000   11.0000 
2556.2052   27.9000    2.4800   -0.3900    0.5100   19.2600 -999.0000   11.0000 
2556.3576   27.9000    2.4800   -0.3900    0.4800   18.7700 -999.0000   11.0000 
2556.5100   27.9000    2.4900   -0.3900    0.4800   19.0200 -999.0000   11.0000 
2556.6624   27.9000    2.5000   -0.3900    0.4800   18.9300 -999.0000   11.0000 
2556.8148   27.9000    2.5000   -0.3900    0.4900   19.3200 -999.0000   11.0000 
2556.9672   27.9000    2.4900   -0.3900    0.4700   19.0400 -999.0000   11.0000 
2557.1196   27.9000    2.4800   -0.3900    0.4400   18.8700 -999.0000   11.0000 
2557.2720   27.9000    2.4700   -0.3900    0.4300   19.0400 -999.0000   11.0000 
2557.4244   27.9000    2.4900   -0.3900    0.4300   19.3500 -999.0000   11.0000 
2557.5768   27.9000    2.5200   -0.3900    0.4300   19.0600 -999.0000   11.0000 
2557.7292   27.9000    2.5500   -0.3900    0.4800   18.5400 -999.0000   11.0000 
2557.8816   27.9000    2.5600   -0.3900    0.5300   17.8300 -999.0000   11.0000 
2558.0340   27.9000    2.5500   -0.3900    0.5800   17.6800 -999.0000   11.0000 
2558.1864   27.9000    2.5300   -0.3900    0.5800   17.4500 -999.0000   11.0000 
2558.3388   27.9000    2.5100   -0.4000    0.5800   17.7600 -999.0000   11.0000 
2558.4912   27.9000    2.4900   -0.4000    0.5500   18.2900 -999.0000   11.0000 
2558.6436   27.9000    2.4900   -0.4000    0.5200   18.2900 -999.0000   11.0000 
2558.7960   27.9000    2.5000   -0.4000    0.4900   17.7100 -999.0000   11.0000 
2558.9484   27.9000    2.5100   -0.4100    0.4900   17.3700 -999.0000   11.0000 
2559.1008   27.9000    2.5200   -0.4100    0.5100   17.1900 -999.0000   11.0000 
2559.2532   27.9000    2.5200   -0.4100    0.5200   17.1900 -999.0000   11.0000 
2559.4056   27.9000    2.5200   -0.4100    0.5000   17.1900 -999.0000   11.0000 
2559.5580   27.9000    2.5300   -0.3900    0.4700   17.8300 -999.0000   11.0000 
2559.7104   27.9000    2.5300   -0.3700    0.4500   18.5800 -999.0000   11.0000 
2559.8628   27.9000    2.5400   -0.3600    0.4600   19.4700 -999.0000   11.0000 
2560.0152   27.9000    2.5400   -0.3600    0.4700   19.4700 -999.0000   11.0000 
2560.1676   27.9000    2.5200   -0.3700    0.4700   18.7900 -999.0000   11.0000 
2560.3200   27.9000    2.5100   -0.3700    0.5000   18.4900 -999.0000   11.0000 
2560.4724   27.9000    2.5200   -0.3700    0.5000   18.1600 -999.0000   11.0000 
2560.6248   27.9000    2.5200   -0.3800    0.4600   18.8400 -999.0000   11.0000 
2560.7772   27.9000    2.5100   -0.3800    0.4700   18.5700 -999.0000   11.0000 
2560.9296   27.9000    2.4900   -0.3800    0.5000   18.3000 -999.0000   11.0000 
2561.0820   27.9000    2.5000   -0.3800    0.5300   18.1800 -999.0000   11.0000 
2561.2344   27.9000    2.5100   -0.3800    0.5200   18.7800 -999.0000   11.0000 
2561.3868   27.9000    2.5200   -0.3800    0.5100   18.5300 -999.0000   11.0000 
2561.5392   27.9000    2.5300   -0.3800    0.5000   17.8200 -999.0000   11.0000 
2561.6916   27.9000    2.5200   -0.3900    0.4800   17.3000 -999.0000   11.0000 
2561.8440   27.9000    2.5000   -0.3900    0.4800   17.5700 -999.0000   11.0000 
2561.9964   27.9000    2.5000   -0.4000    0.4600   18.0000 -999.0000   11.0000 
2562.1488   27.9000    2.5200   -0.4000    0.4700   18.1200 -999.0000   11.0000 
2562.3012   27.9000    2.5600   -0.3900    0.4700   17.8000 -999.0000   11.0000 
2562.4536   27.9000    2.5600   -0.4000    0.5000   17.3600 -999.0000   11.0000 
2562.6060   27.9000    2.5700   -0.4300    0.5000   17.1600 -999.0000   11.0000 
2562.7584   27.9000    2.5700   -0.4300    0.4700   17.5100 -999.0000   11.0000 
2562.9108   27.9000    2.5600   -0.4200    0.4700   18.3600 -999.0000   11.0000 
2563.0632   27.9000    2.5400   -0.3900    0.4700   18.7400 -999.0000   11.0000 
2563.2156   27.9000    2.5100   -0.4000    0.4700   19.0600 -999.0000   11.0000 
2563.3680   27.9000    2.5100   -0.4000    0.4700   18.6000 -999.0000   11.0000 
2563.5204   27.9000    2.5100   -0.4000    0.4900   18.5400 -999.0000   11.0000 
2563.6728   27.9000    2.5200   -0.3900    0.4900   18.0900 -999.0000   11.0000 
2563.8252   27.9000    2.4700   -0.4000    0.4800   18.8200 -999.0000   11.0000 
2563.9776   27.9000    2.4900   -0.3900    0.4500   18.7000 -999.0000   11.0000 
2564.1300   27.9000    2.4900   -0.3800    0.4900   18.9100 -999.0000   11.0000 
2564.2824   27.9000    2.5500   -0.3700    0.4800   18.5200 -999.0000   11.0000 
2564.4348   27.9000    2.5300   -0.3800    0.5000   18.6100 -999.0000   11.0000 
2564.5872   27.9000    2.5000   -0.3900    0.5000   19.0500 -999.0000   11.0000 
2564.7396   27.9000    2.4700   -0.4000    0.5100   18.8900 -999.0000   11.0000 
