~VERSION INFORMATION
 VERS.                 2.0:   CWLS LOG ASCII STANDARD - VERSION 2.0
 WRAP.                  NO:   SINGLE LINE PER DEPTH STEP
 CREA.                 03/01/2018 15:42:06
#CREATED USING DSPetro VERSION 5000.10.1.3 BY H191660 ON 03/01/2018 15:42:06
~WELL INFORMATION
#MNEM.UNIT       DATA                          DESCRIPTION MNEMONIC
#---------      ---------------------------   --------------------------
 STRT    .M         0.0000                    : START DEPTH
 STOP    .M         4299.9660                 : STOP DEPTH
 STEP    .M         0.1524                    : STEP VALUE
 NULL    .      -999.0000                     : NULL VALUE
 DATE    .      03/01/2018                    : LAS file Creation Date
 WELL .      961_Atlas-1                 : Well Name
 COMP .      Neftex Exploration Insights : Company
 FLD  .                                  : Field
 UWI  .      ZAUWL_005200                : Unique Well Identifier (UWI)
 LOC  .                                  : Location
 RWS  .      -999                        : Def_Rw
 WST  .      -999                        : Def_Rwt
 SRVC .                                  : Contractor
~CURVE INFORMATION
#MNEM              UNIT       API CODE   Curve Type Comments
#----------  --------------- ----------  ---------- -----------
 DEPTH      .M                         : Depth       
 GR_API     .API                       : gammaRay    Gamma Ray (API) - Measures the intensity of natural gamma-ray radiation emitted from formations containing radioactive elements, such as K, Th and U
 RHOB_G_CC  .g/cc                      : density     Bulk Density - Measures the density of bulk material, including any void space or other materials contained in the subject volume
 DRHO_G_CC  .g/cc                      : drho        Density Correction - Investigates the correction to the Bulk Density log; used as an indication of hole condition to validate the Bulk Density measure
 NPHI_v_v   .ratio                     : neutron     Neutron Porosity - Measured with an neutron logging device calibrated to a given matrix (limestone, sandstone and dolomite)
 PEF_B_E    .b/e-                      : PEF         Photoelectric Factor - A log of photoelectric absorption properties. Often expressed in an approximation unit barns/electron (b/e-)
 LITH       .                          : LITH        Lithology Curve
 LITH_v2    .                          : LITH        Lithology Curve
~A  DEPTH   GR_API   RHOB_G_C  DRHO_G_C  NPHI_v_v  PEF_B_E     LITH    LITH_v2  
# ...
2866.6440   38.3700    2.0600    0.0200    0.3900    4.7200   36.0000   36.0000 
2866.7964   38.6600    2.0700    0.0300    0.3800    4.8000   36.0000   36.0000 
2866.9488   39.0400    2.0800    0.0400    0.3900    5.0600   36.0000   36.0000 
2867.1012   39.6900    2.0400   -0.0100    0.3800    5.5600   36.0000   36.0000 
2867.2536   39.9600    2.0300   -0.0500    0.3900    5.7000   36.0000   36.0000 
2867.4060   40.9800    2.0200   -0.0900    0.3800    5.8800   36.0000   36.0000 
2867.5584   41.7500    2.0400    0.0200    0.3600    5.3100   36.0000   36.0000 
2867.7108   42.9200    2.0400    0.0200    0.3700    5.0500   36.0000   36.0000 
2867.8632   43.2400    2.0500    0.0200    0.3900    4.8200   36.0000   36.0000 
2868.0156   43.5600    2.1200   -0.5000    0.3800    3.8400   36.0000   36.0000 
2868.1680   42.6600    2.0700   -0.2700    0.3600    4.6800   36.0000   36.0000 
2868.3204   41.5400    2.0600   -0.1700    0.3400    4.8800   36.0000   36.0000 
2868.4728   40.4200    2.0500   -0.1000    0.3500    4.9900   36.0000   36.0000 
2868.6252   40.0600    2.0600    0.0100    0.3700    4.4900   36.0000   36.0000 
2868.7776   40.0100    2.0700    0.0200    0.3900    4.6700   36.0000   36.0000 
2868.9300   39.9500    2.0800    0.0300    0.3900    4.8700   36.0000   36.0000 
2869.0824   40.4000    2.1300   -0.2900    0.4000    4.3100   36.0000   36.0000 
2869.2348   40.8500    2.0900   -0.1700    0.3700    4.6300   36.0000   36.0000 
2869.3872   41.7200    2.0900   -0.1200    0.3500    4.5800   36.0000   36.0000 
2869.5396   42.1500    1.9000   -0.2800    0.3400    4.6600   11.0000   11.0000 
2869.6920   42.5700    1.8200   -0.5100    0.3500    4.4500   11.0000   11.0000 
2869.8444   41.9000    2.1100   -0.4400    0.3600    4.0000   36.0000   36.0000 
2869.9968   41.2300    2.3800   -0.1700    0.3800    3.8700   11.0000   11.0000 
2870.1492   39.6300    2.2700   -0.0600    0.3700    4.1300   36.0000   36.0000 
2870.3016   38.7000    2.0900   -0.2600    0.3500    4.2300   36.0000   36.0000 
2870.4540   37.7800    2.1100   -0.4800    0.3300    3.7600   36.0000   36.0000 
2870.6064   36.2800    2.8800   -0.2100    0.3100    2.8800   11.0000   11.0000 
2870.7588   34.7900    2.4200   -0.0800    0.3000    3.6300   36.0000   36.0000 
2870.9112   33.3000    2.3400    0.1000    0.2900    3.8800   36.0000   18.0000 
2871.0636   33.3000    2.0800   -0.0100    0.2800    4.2000   36.0000   36.0000 
2871.2160   33.9200    2.0900   -0.0200    0.2900    4.0800   36.0000   36.0000 
2871.3684   34.5400    2.1200   -0.0100    0.3000    3.8300   36.0000   36.0000 
2871.5208   35.1600    2.1400    0.0100    0.3100    3.7600   36.0000   36.0000 
2871.6732   36.0000    2.1400    0.0300    0.3100    3.8700   36.0000   36.0000 
2871.8256   36.8400    2.1200    0.0300    0.3000    4.0400   36.0000   36.0000 
2871.9780   37.6800    2.0900    0.0000    0.3100    4.1400   36.0000   36.0000 
2872.1304   38.9700    2.0800   -0.0200    0.3200    4.0400   36.0000   36.0000 
2872.2828   40.2600    2.0700   -0.0500    0.3300    3.9800   36.0000   36.0000 
2872.4352   41.5600    2.1000   -0.0400    0.3200    3.9400   36.0000   36.0000 
2872.5876   41.5700    2.0900    0.0200    0.3100    4.4800   36.0000   36.0000 
2872.7400   41.5900    2.1000    0.0300    0.3200    4.4300   36.0000   36.0000 
2872.8924   41.7300    2.1800   -0.4300    0.3200    3.4400   36.0000   36.0000 
2873.0448   42.2100    2.4700   -0.1500    0.3400    3.7500   11.0000   11.0000 
2873.1972   42.6900    2.2700   -0.1000    0.3600    4.1100   36.0000   36.0000 
2873.3496   43.2800    2.0700   -0.1800    0.3600    4.3200   36.0000   36.0000 
2873.5020   43.5200    1.9200   -0.3800    0.3400    4.1900   11.0000   11.0000 
2873.6544   43.9700    1.7400   -0.7400    0.3300    3.2100   11.0000   11.0000 
2873.8068   45.3400    2.6300   -0.2300    0.3400    3.1700   11.0000   11.0000 
2873.9592   47.4000    2.3500   -0.1500    0.3500    3.7000   36.0000   36.0000 
2874.1116   49.2400    2.0500   -0.2900    0.3500    4.0900   36.0000   36.0000 
2874.2640   48.0200    1.8300   -0.5800    0.3500    3.9100   11.0000   11.0000 
2874.4164   45.9500    2.2900   -0.3800    0.3600    3.0400   36.0000   36.0000 
2874.5688   43.8900    2.4900   -0.0700    0.3600    3.1300   11.0000   11.0000 
2874.7212   43.7400    2.4300    0.1400    0.3400    3.3300   11.0000   11.0000 
2874.8736   43.7400    2.1300    0.0300    0.3200    3.7200   36.0000   36.0000 
2875.0260   44.3100    2.1300    0.0300    0.3100    3.7600   36.0000   36.0000 
2875.1784   44.8800    2.1200    0.0300    0.3300    3.8500   36.0000   36.0000 
2875.3308   45.5200    2.1000    0.0200    0.3400    3.9600   36.0000   36.0000 
2875.4832   45.5900    2.0800    0.0200    0.3400    4.0400   36.0000   36.0000 
2875.6356   45.6600    2.0800    0.0200    0.3300    4.0900   36.0000   36.0000 
2875.7880   46.2800    2.0900    0.0200    0.3300    4.1300   36.0000   36.0000 
2875.9404   47.1000    2.0900    0.0200    0.3200    4.1200   36.0000   36.0000 
2876.0928   47.9200    2.1000    0.0300    0.3200    4.2500   36.0000   36.0000 
2876.2452   48.1200    2.1100    0.0400    0.3300    4.3800   36.0000   36.0000 
2876.3976   47.7600    2.1100    0.0400    0.3400    4.5500   36.0000   36.0000 
2876.5500   47.4200    2.1200    0.0400    0.3500    4.1900   36.0000   36.0000 
2876.7024   47.0800    2.1300    0.0300    0.3200    3.8500   36.0000   36.0000 
2876.8548   47.1200    2.1200    0.0200    0.3000    3.7600   36.0000   36.0000 
2877.0072   47.1400    2.1100    0.0100    0.2800    3.9800   36.0000   36.0000 
2877.1596   47.5600    2.1000    0.0000    0.2900    4.2600   36.0000   36.0000 
2877.3120   47.9500    2.0800   -0.0400    0.3200    4.3900   36.0000   36.0000 
2877.4644   51.1600    2.0500   -0.0900    0.3500    4.4300   36.0000   36.0000 
2877.6168   53.9700    2.0700   -0.0700    0.3700    4.0900   36.0000   36.0000 
2877.7692   58.4100    2.1300   -0.0100    0.3700    3.9400   36.0000   36.0000 
2877.9216   60.0300    2.1300    0.0200    0.3600    3.8800   36.0000   36.0000 
2878.0740   62.2800    2.1200    0.0200    0.3600    4.1700   36.0000   36.0000 
2878.2264   62.9300    2.1000    0.0200    0.3600    4.2200   36.0000   36.0000 
2878.3788   62.5900    2.1100    0.0200    0.3700    4.1600   36.0000   36.0000 
2878.5312   61.6200    2.1000    0.0300    0.3700    4.0900   36.0000   36.0000 
2878.6836   59.4800    2.1000    0.0300    0.3600    4.0400   36.0000   36.0000 
2878.8360   58.3200    2.1000    0.0300    0.3500    4.2700   36.0000   36.0000 
2878.9884   56.7400    2.1200    0.0400    0.3300    4.5000   36.0000   36.0000 
2879.1408   56.3200    2.0800    0.0000    0.3300    4.6500   36.0000   36.0000 
2879.2932   55.4900    2.0700   -0.0400    0.3200    4.4700   36.0000   36.0000 
2879.4456   55.0800    2.0600   -0.0800    0.3200    4.3000   36.0000   36.0000 
2879.5980   54.6700    2.1000   -0.1800    0.3300    4.0500   36.0000   36.0000 
2879.7504   54.1400    2.3900   -0.0700    0.3300    3.6800   36.0000   36.0000 
2879.9028   53.6000    2.3500   -0.0400    0.3200    3.4900   36.0000   36.0000 
2880.0552   52.2400    2.3000    0.0900    0.3100    3.5700   36.0000   36.0000 
2880.2076   51.4300    2.1000    0.0200    0.3200    3.8200   36.0000   36.0000 
2880.3600   50.2000    2.1000    0.0200    0.3200    3.9700   36.0000   36.0000 
2880.5124   49.8000    2.1000    0.0200    0.3300    3.8400   36.0000   36.0000 
2880.6648   49.3900    2.0900    0.0100    0.3400    3.3700   36.0000   36.0000 
2880.8172   49.5700    2.0800    0.0100    0.3400    3.0700   36.0000   36.0000 
2880.9696   49.7500    2.0800    0.0000    0.3300    2.9800   36.0000   36.0000 
2881.1220   49.4800    2.0900    0.0100    0.3400    3.0700   36.0000   36.0000 
2881.2744   49.0400    2.1000    0.0200    0.3500    3.3100   36.0000   36.0000 
2881.4268   48.3800    2.1000    0.0200    0.3500    3.5700   36.0000   36.0000 
2881.5792   48.1700    2.1200    0.0300    0.3300    3.9200   36.0000   36.0000 
