~VERSION INFORMATION
 VERS.                 2.0:   CWLS LOG ASCII STANDARD - VERSION 2.0
 WRAP.                  NO:   SINGLE LINE PER DEPTH STEP
 CREA.                 03/01/2018 15:42:06
#CREATED USING DSPetro VERSION 5000.10.1.3 BY H191660 ON 03/01/2018 15:42:06
~WELL INFORMATION
#MNEM.UNIT       DATA                          DESCRIPTION MNEMONIC
#---------      ---------------------------   --------------------------
 STRT    .M         0.0000                    : START DEPTH
 STOP    .M         4299.9660                 : STOP DEPTH
 STEP    .M         0.1524                    : STEP VALUE
 NULL    .      -999.0000                     : NULL VALUE
 DATE    .      03/01/2018                    : LAS file Creation Date
 WELL .      961_Atlas-1                 : Well Name
 COMP .      Neftex Exploration Insights : Company
 FLD  .                                  : Field
 UWI  .      ZAUWL_005200                : Unique Well Identifier (UWI)
 LOC  .                                  : Location
 RWS  .      -999                        : Def_Rw
 WST  .      -999                        : Def_Rwt
 SRVC .                                  : Contractor
~CURVE INFORMATION
#MNEM              UNIT       API CODE   Curve Type Comments
#----------  --------------- ----------  ---------- -----------
 DEPTH      .M                         : Depth       
 GR_API     .API                       : gammaRay    Gamma Ray (API) - Measures the intensity of natural gamma-ray radiation emitted from formations containing radioactive elements, such as K, Th and U
 RHOB_G_CC  .g/cc                      : density     Bulk Density - Measures the density of bulk material, including any void space or other materials contained in the subject volume
 DRHO_G_CC  .g/cc                      : drho        Density Correction - Investigates the correction to the Bulk Density log; used as an indication of hole condition to validate the Bulk Density measure
 NPHI_v_v   .ratio                     : neutron     Neutron Porosity - Measured with an neutron logging device calibrated to a given matrix (limestone, sandstone and dolomite)
 PEF_B_E    .b/e-                      : PEF         Photoelectric Factor - A log of photoelectric absorption properties. Often expressed in an approximation unit barns/electron (b/e-)
 LITH       .                          : LITH        Lithology Curve
 LITH_v2    .                          : LITH        Lithology Curve
~A  DEPTH   GR_API   RHOB_G_C  DRHO_G_C  NPHI_v_v  PEF_B_E     LITH    LITH_v2  
# ...
3092.9580   45.2900    2.4400    0.0300    0.2500    5.5700   22.0000   12.0000 
3093.1104   44.9700    2.4300    0.0300    0.2300    5.6100   18.0000   18.0000 
3093.2628   46.5700    2.4300    0.0300    0.2300    5.7300   18.0000   18.0000 
3093.4152   49.2700    2.4300    0.0400    0.2300    5.8600   18.0000   18.0000 
3093.5676   48.7600    2.4400    0.0500    0.2300    5.9200   22.0000   18.0000 
3093.7200   43.8900    2.4600    0.0500    0.2300    6.0100   22.0000   12.0000 
3093.8724   38.3800    2.4600    0.0500    0.2300    6.2200   22.0000   12.0000 
3094.0248   36.2100    2.4600    0.0500    0.2300    6.2500   22.0000   12.0000 
3094.1772   37.1900    2.4500    0.0500    0.2200    6.4800   18.0000   18.0000 
3094.3296   38.5400    2.4500    0.0500    0.2200    6.6100   18.0000   18.0000 
3094.4820   39.0200    2.4500    0.0500    0.2200    6.6700   18.0000   18.0000 
3094.6344   38.5900    2.4500    0.0500    0.2100    6.5200   18.0000   18.0000 
3094.7868   39.0700    2.4500    0.0500    0.2000    6.5300   18.0000   18.0000 
3094.9392   40.9400    2.4400    0.0500    0.2000    6.6100   18.0000   18.0000 
3095.0916   43.2400    2.4300    0.0500    0.2000    6.6200   18.0000   18.0000 
3095.2440   43.6300    2.4300    0.0500    0.2000    6.4800   18.0000   18.0000 
3095.3964   44.0100    2.4400    0.0500    0.2100    6.3500   18.0000   18.0000 
3095.5488   44.0300    2.4500    0.0500    0.2100    6.2400   18.0000   18.0000 
3095.7012   43.4600    2.4500    0.0500    0.2100    6.1600   18.0000   18.0000 
3095.8536   41.0300    2.4600    0.0500    0.2100    6.2400   18.0000   18.0000 
3096.0060   38.5600    2.4700    0.0500    0.2100    6.1300   22.0000   18.0000 
3096.1584   37.8500    2.4700    0.0500    0.2100    6.0800   22.0000   18.0000 
3096.3108   37.7000    2.4500    0.0400    0.2100    5.9200   18.0000   18.0000 
3096.4632   37.6200    2.4400    0.0400    0.2100    5.9200   18.0000   18.0000 
3096.6156   36.7600    2.4400    0.0400    0.2200    5.9400   18.0000   18.0000 
3096.7680   36.2000    2.4400    0.0400    0.2300    5.9100   22.0000   18.0000 
3096.9204   36.7600    2.4500    0.0500    0.2300    6.1000   22.0000   18.0000 
3097.0728   39.0400    2.4400    0.0500    0.2300    6.2400   22.0000   18.0000 
3097.2252   41.5100    2.4600    0.0500    0.2200    6.1800   22.0000   18.0000 
3097.3776   42.4300    2.4700    0.0400    0.2100    6.0800   22.0000   18.0000 
3097.5300   41.8600    2.4700    0.0400    0.2000    6.0200   18.0000   18.0000 
3097.6824   39.9600    2.4600    0.0400    0.2000    6.2400   18.0000   18.0000 
3097.8348   37.9200    2.4500    0.0400    0.2100    6.2800   18.0000   18.0000 
3097.9872   36.0600    2.4500    0.0400    0.2000    6.1400   18.0000   18.0000 
3098.1396   34.8900    2.4400    0.0400    0.2000    5.9900   18.0000   18.0000 
3098.2920   33.4800    2.4400    0.0300    0.2000    5.8600   18.0000   18.0000 
3098.4444   33.0000    2.4300    0.0400    0.2100    5.9400   18.0000   18.0000 
3098.5968   33.2000    2.4300    0.0400    0.2200    5.9700   18.0000   18.0000 
3098.7492   33.8800    2.4300    0.0400    0.2200    5.9200   18.0000   18.0000 
3098.9016   33.8700    2.4200    0.0300    0.2300    5.6700   18.0000   18.0000 
3099.0540   34.8300    2.4100    0.0200    0.2300    5.5000   18.0000   18.0000 
3099.2064   37.2100    2.4200    0.0200    0.2300    5.4300   18.0000   18.0000 
3099.3588   38.8300    2.4400    0.0300    0.2200    5.4900   18.0000   18.0000 
3099.5112   38.5000    2.4600    0.0400    0.2100    5.5200   18.0000   18.0000 
3099.6636   36.0000    2.4600    0.0400    0.2100    5.6000   18.0000   18.0000 
3099.8160   33.6600    2.4300    0.0400    0.2200    5.6500   18.0000   18.0000 
3099.9684   34.4400    2.4200    0.0400    0.2400    5.6400   22.0000   18.0000 
3100.1208   37.8400    2.4200    0.0300    0.2400    5.5000   22.0000   18.0000 
3100.2732   42.0600    2.4300    0.0200    0.2600    5.1900   22.0000   22.0000 
3100.4256   43.2600    2.4300    0.0200    0.2300    5.1200   18.0000   18.0000 
3100.5780   40.7000    2.4400    0.0200    0.2200    5.1300   18.0000   18.0000 
3100.7304   37.2200    2.4400    0.0200    0.2000    5.3400   18.0000   18.0000 
3100.8828   34.3400    2.4400    0.0200    0.2000    5.3000   18.0000   18.0000 
3101.0352   32.9400    2.4500    0.0300    0.2000    5.3200   18.0000   18.0000 
3101.1876   32.1100    2.4600    0.0300    0.2000    5.3800   18.0000   18.0000 
3101.3400   32.0000    2.4500    0.0300    0.2000    5.5400   18.0000   18.0000 
3101.4924   33.4600    2.4500    0.0400    0.2200    5.5600   18.0000   18.0000 
3101.6448   35.3800    2.4400    0.0400    0.2400    5.4600   22.0000   12.0000 
3101.7972   36.5500    2.4500    0.0400    0.2500    5.3900   22.0000   12.0000 
3101.9496   36.6700    2.4300    0.0300    0.2500    5.4000   22.0000   12.0000 
3102.1020   36.3900    2.4200    0.0300    0.2400    5.4600   22.0000   18.0000 
3102.2544   36.5500    2.4100    0.0300    0.2300    5.4500   18.0000   18.0000 
3102.4068   37.6300    2.4200    0.0300    0.2200    5.4700   18.0000   18.0000 
3102.5592   38.7200    2.4100    0.0300    0.2200    5.3900   18.0000   18.0000 
3102.7116   39.1600    2.4000    0.0300    0.2200    5.3400   18.0000   18.0000 
3102.8640   37.8100    2.4100    0.0300    0.2200    5.1800   18.0000   18.0000 
3103.0164   35.8000    2.4100    0.0400    0.2300    5.2100   18.0000   18.0000 
3103.1688   33.7700    2.4100    0.0500    0.2400    5.3200   22.0000   18.0000 
3103.3212   32.7000    2.3800    0.0500    0.2400    5.6100   22.0000   18.0000 
3103.4736   32.6600    2.3800    0.0500    0.2400    5.6900   22.0000   18.0000 
3103.6260   33.0300    2.3900    0.0400    0.2500    5.7900   22.0000   18.0000 
3103.7784   33.3700    2.4000    0.0300    0.2400    5.8400   18.0000   18.0000 
3103.9308   33.3400    2.4100    0.0400    0.2300    6.1500   18.0000   18.0000 
3104.0832   33.2000    2.4100    0.0300    0.2100    6.2000   18.0000   18.0000 
3104.2356   33.0800    2.4200    0.0400    0.2100    6.5100   18.0000   18.0000 
3104.3880   31.6800    2.4400    0.0500    0.2100    6.8600   18.0000   18.0000 
3104.5404   30.3900    2.4500    0.0600    0.2100    7.4000   18.0000   18.0000 
3104.6928   28.3900    2.4700    0.0500    0.2000    7.3300   18.0000   18.0000 
3104.8452   28.4900    2.4600    0.0500    0.1900    6.8700   18.0000   18.0000 
3104.9976   28.6000    2.4600    0.0500    0.1800    6.6200   18.0000   18.0000 
3105.1500   30.0900    2.4600    0.0400    0.1800    6.4200   18.0000   18.0000 
3105.3024   30.7600    2.4600    0.0500    0.1800    6.6100   18.0000   18.0000 
3105.4548   30.9200    2.4900    0.0600    0.1800    6.3400   18.0000   18.0000 
3105.6072   30.4000    2.5000    0.0600    0.1800    6.3800   18.0000   18.0000 
3105.7596   29.8900    2.4800    0.0500    0.1800    6.3100   18.0000   18.0000 
3105.9120   28.4000    2.4600    0.0400    0.1800    6.3100   18.0000   18.0000 
3106.0644   26.2700    2.4700    0.0400    0.1800    6.3900   18.0000   18.0000 
3106.2168   24.1300    2.4900    0.0500    0.1800    6.6700   18.0000   18.0000 
3106.3692   23.6500    2.4900    0.0600    0.1800    6.8800   18.0000   18.0000 
3106.5216   23.8100    2.4800    0.0500    0.1800    6.9800   18.0000   18.0000 
3106.6740   24.3800    2.4800    0.0500    0.1800    6.8600   18.0000   18.0000 
3106.8264   25.1000    2.4600    0.0500    0.1700    6.8200   18.0000   18.0000 
3106.9788   25.7700    2.4500    0.0500    0.1800    6.3600   18.0000   18.0000 
3107.1312   26.0300    2.4600    0.0500    0.1800    6.0000   18.0000   18.0000 
3107.2836   26.0300    2.4400    0.0400    0.1800    5.9800   18.0000   18.0000 
3107.4360   26.3700    2.4400    0.0400    0.1900    6.1100   18.0000   18.0000 
3107.5884   27.1900    2.4300    0.0400    0.2000    6.1900   18.0000   18.0000 
3107.7408   28.8900    2.4300    0.0400    0.2100    6.0400   18.0000   18.0000 
3107.8932   30.0700    2.4300    0.0300    0.2000    5.9600   18.0000   18.0000 
