~VERSION INFORMATION
 VERS.                 2.0:   CWLS LOG ASCII STANDARD - VERSION 2.0
 WRAP.                  NO:   SINGLE LINE PER DEPTH STEP
 CREA.                 03/01/2018 15:42:06
#CREATED USING DSPetro VERSION 5000.10.1.3 BY H191660 ON 03/01/2018 15:42:06
~WELL INFORMATION
#MNEM.UNIT       DATA                          DESCRIPTION MNEMONIC
#---------      ---------------------------   --------------------------
 STRT    .M         0.0000                    : START DEPTH
 STOP    .M         4299.9660                 : STOP DEPTH
 STEP    .M         0.1524                    : STEP VALUE
 NULL    .      -999.0000                     : NULL VALUE
 DATE    .      03/01/2018                    : LAS file Creation Date
 WELL .      961_Atlas-1                 : Well Name
 COMP .      Neftex Exploration Insights : Company
 FLD  .                                  : Field
 UWI  .      ZAUWL_005200                : Unique Well Identifier (UWI)
 LOC  .                                  : Location
 RWS  .      -999                        : Def_Rw
 WST  .      -999                        : Def_Rwt
 SRVC .                                  : Contractor
~CURVE INFORMATION
#MNEM              UNIT       API CODE   Curve Type Comments
#----------  --------------- ----------  ---------- -----------
 DEPTH      .M                         : Depth       
 GR_API     .API                       : gammaRay    Gamma Ray (API) - Measures the intensity of natural gamma-ray radiation emitted from formations containing radioactive elements, such as K, Th and U
 RHOB_G_CC  .g/cc                      : density     Bulk Density - Measures the density of bulk material, including any void space or other materials contained in the subject volume
 DRHO_G_CC  .g/cc                      : drho        Density Correction - Investigates the correction to the Bulk Density log; used as an indication of hole condition to validate the Bulk Density measure
 NPHI_v_v   .ratio                     : neutron     Neutron Porosity - Measured with an neutron logging device calibrated to a given matrix (limestone, sandstone and dolomite)
 PEF_B_E    .b/e-                      : PEF         Photoelectric Factor - A log of photoelectric absorption properties. Often expressed in an approximation unit barns/electron (b/e-)
 LITH       .                          : LITH        Lithology Curve
 LITH_v2    .                          : LITH        Lithology Curve
~A  DEPTH   GR_API   RHOB_G_C  DRHO_G_C  NPHI_v_v  PEF_B_E     LITH    LITH_v2  
# ...
3726.6372  119.1600    2.4800    0.0500    0.2600    4.4100   37.0000   37.0000 
3726.7896  123.8300    2.4900    0.0500    0.2500    4.5700   37.0000   37.0000 
3726.9420  127.4500    2.4700    0.0400    0.2600    4.4700   37.0000   37.0000 
3727.0944  131.6800    2.4500    0.0400    0.2800    4.2400   37.0000   37.0000 
3727.2468  130.8600    2.4500    0.0400    0.2900    3.9600   37.0000   37.0000 
3727.3992  128.8800    2.4600    0.0400    0.2900    3.8700   37.0000   37.0000 
3727.5516  123.9500    2.4700    0.0500    0.2700    3.8500   37.0000   37.0000 
3727.7040  119.6500    2.4800    0.0500    0.2600    3.9900   37.0000   37.0000 
3727.8564  115.3500    2.4800    0.0500    0.2500    4.1700   37.0000   37.0000 
3728.0088  114.4600    2.4800    0.0500    0.2500    4.3000   37.0000   37.0000 
3728.1612  117.5400    2.4900    0.0600    0.2700    4.3700   37.0000   37.0000 
3728.3136  120.8500    2.4900    0.0600    0.2800    4.4400   37.0000   37.0000 
3728.4660  124.8900    2.4900    0.0600    0.2800    4.4300   37.0000   37.0000 
3728.6184  127.5700    2.4800    0.0500    0.2900    4.3600   37.0000   37.0000 
3728.7708  130.2400    2.5100    0.0600    0.2900    4.2500   37.0000   37.0000 
3728.9232  130.9500    2.5400    0.0700    0.3000    4.3400   37.0000   37.0000 
3729.0756  130.2600    2.5500    0.0700    0.2900    4.5700   37.0000   37.0000 
3729.2280  130.1300    2.5300    0.0600    0.2900    4.8500   37.0000   37.0000 
3729.3804  129.6500    2.5000    0.0400    0.2800    5.0000   37.0000   37.0000 
3729.5328  127.3800    2.4800    0.0400    0.3000    4.7900   37.0000   37.0000 
3729.6852  128.8700    2.4800    0.0300    0.3500    4.7000   37.0000   37.0000 
3729.8376  133.4200    2.4800    0.0400    0.4000    4.5800   37.0000   37.0000 
3729.9900  137.5900    2.4800    0.0500    0.4000    4.7500   37.0000   37.0000 
3730.1424  139.3600    2.4600    0.0500    0.3800    4.8000   37.0000   37.0000 
3730.2948  138.6100    2.4500    0.0500    0.3500    4.7900   37.0000   37.0000 
3730.4472  142.5200    2.4400    0.0400    0.3200    4.5600   37.0000   37.0000 
3730.5996  145.9100    2.4500    0.0400    0.3200    4.3300   37.0000   37.0000 
3730.7520  150.8600    2.4600    0.0400    0.3100    4.1100   37.0000   37.0000 
3730.9044  152.0700    2.4800    0.0400    0.3000    4.0800   37.0000   37.0000 
3731.0568  153.0800    2.5000    0.0400    0.2500    3.9200   37.0000   37.0000 
3731.2092  153.6200    2.7000    0.1200    0.2200    3.6700   37.0000   37.0000 
3731.3616  155.6800    2.5600   -0.0100    0.2000    3.7200   37.0000   37.0000 
3731.5140  153.9900    2.7000    0.0300    0.2100    3.9200   37.0000   37.0000 
3731.6664  151.2200    2.4900   -0.0200    0.2200    4.4200   37.0000   37.0000 
3731.8188  149.4000    2.6200    0.1100    0.2400    4.2400   37.0000   37.0000 
3731.9712  148.0300    2.4700    0.0400    0.2500    4.1100   37.0000   37.0000 
3732.1236  146.6700    2.4800    0.0400    0.2600    3.8800   37.0000   37.0000 
3732.2760  144.2900    2.4800    0.0400    0.2700    3.9900   37.0000   37.0000 
3732.4284  143.4700    2.5000    0.0500    0.2900    4.1300   37.0000   37.0000 
3732.5808  138.7700    2.5000    0.0500    0.2800    4.2300   37.0000   37.0000 
3732.7332  135.1100    2.5000    0.0500    0.2600    4.1600   37.0000   37.0000 
3732.8856  134.9500    2.5000    0.0400    0.2400    4.0400   37.0000   37.0000 
3733.0380  138.5000    2.5100    0.0500    0.2200    3.9400   37.0000   37.0000 
3733.1904  141.1800    2.4900    0.0400    0.2300    3.9700   37.0000   37.0000 
3733.3428  140.0900    2.4800    0.0400    0.2500    4.0300   37.0000   37.0000 
3733.4952  138.2200    2.4600    0.0300    0.2900    4.0200   37.0000   37.0000 
3733.6476  137.7800    2.4600    0.0300    0.3200    3.8200   37.0000   37.0000 
3733.8000  138.2500    2.5200    0.0500    0.3100    3.9400   37.0000   37.0000 
3733.9524  138.9200    2.6200    0.0700    0.2900    4.5500   37.0000   37.0000 
3734.1048  138.1600    2.7200    0.0900    0.1800    5.3300   37.0000   37.0000 
3734.2572  135.9100    2.7200    0.0700    0.1300    6.0500   37.0000   37.0000 
3734.4096  125.9200    2.7300    0.0800    0.1000    5.6000   37.0000   37.0000 
3734.5620   95.9400    2.6700    0.0800    0.1000    5.2300   36.0000   37.0000 
3734.7144   63.9400    2.6200    0.0700    0.1100    4.7600   36.0000   22.0000 
3734.8668   46.7600    2.5600    0.0500    0.1300    4.8700   36.0000   22.0000 
3735.0192   54.1500    2.5500    0.0500    0.1600    4.9600   36.0000   22.0000 
3735.1716   71.2800    2.5500    0.0700    0.2100    4.4100   37.0000   37.0000 
3735.3240   85.1800    2.5200    0.0900    0.2600    4.0000   37.0000   37.0000 
3735.4764   94.2700    2.4900    0.0800    0.2800    4.0500   37.0000   37.0000 
3735.6288   95.3700    2.4900    0.0600    0.2700    4.5600   37.0000   37.0000 
3735.7812   92.4400    2.5300    0.0400    0.2100    4.8100   37.0000   37.0000 
3735.9336   89.5200    2.5600    0.0500    0.1500    4.4200   37.0000   37.0000 
3736.0860   87.1000    2.5200    0.0600    0.1200    4.1900   37.0000   37.0000 
3736.2384   84.4900    2.4400    0.0500    0.1200    4.1100   37.0000   37.0000 
3736.3908   80.2000    2.4000    0.0500    0.1400    4.0900   37.0000   37.0000 
3736.5432   77.2900    2.3900    0.0500    0.1900    4.1300   37.0000   37.0000 
3736.6956   78.8300    2.3900    0.0600    0.2300    4.2200   37.0000   37.0000 
3736.8480   87.2000    2.3700    0.0600    0.2500    4.2800   11.0000   11.0000 
3737.0004   90.9400    2.2400   -0.0600    0.2500    4.3000   11.0000   11.0000 
3737.1528   94.7400    2.1000   -0.2600    0.2500    4.1200   11.0000   11.0000 
3737.3052   93.9400    2.0900   -0.2600    0.2500    3.9300   11.0000   11.0000 
3737.4576   97.3400    2.2100   -0.1400    0.2500    3.7900   11.0000   11.0000 
3737.6100  106.2100    2.3300    0.0400    0.2500    3.8400   37.0000   37.0000 
3737.7624  114.3200    2.3600    0.0200    0.2400    4.0400   37.0000   37.0000 
3737.9148  108.5300    2.4000    0.0200    0.2300    4.1000   37.0000   37.0000 
3738.0672   94.0700    2.4200    0.0300    0.2300    4.0200   37.0000   37.0000 
3738.2196   81.2100    2.4400    0.0400    0.2300    3.6800   37.0000   37.0000 
3738.3720   83.3100    2.4300    0.0500    0.2300    3.4700   37.0000   37.0000 
3738.5244   89.0100    2.4200    0.0500    0.2500    3.4300   37.0000   37.0000 
3738.6768   95.8700    2.2700   -0.1000    0.2600    3.6700   37.0000   37.0000 
3738.8292  102.0400    2.3000   -0.0900    0.2700    3.9300   37.0000   37.0000 
3738.9816  104.2100    2.3100   -0.1000    0.2600    4.0000   37.0000   37.0000 
3739.1340  101.7200    2.4800    0.0600    0.2500    3.8000   37.0000   37.0000 
3739.2864   98.5800    2.4600    0.0500    0.2500    3.8100   37.0000   37.0000 
3739.4388   96.7700    2.4600    0.0500    0.2500    3.8400   37.0000   37.0000 
3739.5912   99.0000    2.4800    0.0500    0.2700    4.2100   37.0000   37.0000 
3739.7436  104.3200    2.5200    0.0800    0.2700    4.4000   37.0000   37.0000 
3739.8960  110.8700    2.4700    0.0800    0.2600    4.5000   37.0000   37.0000 
3740.0484  115.5100    2.4100    0.0700    0.2600    4.3200   37.0000   37.0000 
3740.2008  112.1000    2.3400    0.0500    0.2600    4.2900   37.0000   37.0000 
3740.3532  102.9900    2.3500    0.0500    0.2600    4.3800   37.0000   37.0000 
3740.5056   90.6600    2.3300    0.0500    0.2500    4.2700   37.0000   37.0000 
3740.6580   83.3900    2.3500    0.0500    0.2400    4.1400   37.0000   37.0000 
3740.8104   79.0800    2.3600    0.0500    0.2500    3.9700   37.0000   37.0000 
3740.9628   78.7100    2.3900    0.0600    0.2500    3.9700   37.0000   37.0000 
3741.1152   78.5000    2.4000    0.0600    0.2600    3.9700   37.0000   37.0000 
3741.2676   80.3500    2.4100    0.0700    0.2400    4.0600   37.0000   37.0000 
3741.4200   82.6600    2.4400    0.0600    0.2200    4.3200   37.0000   37.0000 
3741.5724   86.4500    2.4500    0.0500    0.2200    4.5000   37.0000   37.0000 
