~VERSION INFORMATION
 VERS.                 2.0:   CWLS LOG ASCII STANDARD - VERSION 2.0
 WRAP.                  NO:   SINGLE LINE PER DEPTH STEP
 CREA.                 03/01/2018 15:42:06
#CREATED USING DSPetro VERSION 5000.10.1.3 BY H191660 ON 03/01/2018 15:42:06
~WELL INFORMATION
#MNEM.UNIT       DATA                          DESCRIPTION MNEMONIC
#---------      ---------------------------   --------------------------
 STRT    .M         0.0000                    : START DEPTH
 STOP    .M         4299.9660                 : STOP DEPTH
 STEP    .M         0.1524                    : STEP VALUE
 NULL    .      -999.0000                     : NULL VALUE
 DATE    .      03/01/2018                    : LAS file Creation Date
 WELL .      961_Atlas-1                 : Well Name
 COMP .      Neftex Exploration Insights : Company
 FLD  .                                  : Field
 UWI  .      ZAUWL_005200                : Unique Well Identifier (UWI)
 LOC  .                                  : Location
 RWS  .      -999                        : Def_Rw
 WST  .      -999                        : Def_Rwt
 SRVC .                                  : Contractor
~CURVE INFORMATION
#MNEM              UNIT       API CODE   Curve Type Comments
#----------  --------------- ----------  ---------- -----------
 DEPTH      .M                         : Depth       
 GR_API     .API                       : gammaRay    Gamma Ray (API) - Measures the intensity of natural gamma-ray radiation emitted from formations containing radioactive elements, such as K, Th and U
 RHOB_G_CC  .g/cc                      : density     Bulk Density - Measures the density of bulk material, including any void space or other materials contained in the subject volume
 DRHO_G_CC  .g/cc                      : drho        Density Correction - Investigates the correction to the Bulk Density log; used as an indication of hole condition to validate the Bulk Density measure
 NPHI_v_v   .ratio                     : neutron     Neutron Porosity - Measured with an neutron logging device calibrated to a given matrix (limestone, sandstone and dolomite)
 PEF_B_E    .b/e-                      : PEF         Photoelectric Factor - A log of photoelectric absorption properties. Often expressed in an approximation unit barns/electron (b/e-)
 LITH       .                          : LITH        Lithology Curve
 LITH_v2    .                          : LITH        Lithology Curve
~A  DEPTH   GR_API   RHOB_G_C  DRHO_G_C  NPHI_v_v  PEF_B_E     LITH    LITH_v2  
# ...
3952.9512  129.3300    1.7700   -0.0300    0.4600    3.5900   10.0000   10.0000 
3953.1036  120.6200    1.7800   -0.0400    0.4900    3.4300   10.0000   10.0000 
3953.2560  109.0800    2.0400    0.0000    0.4700    3.1400   10.0000   10.0000 
3953.4084  116.9800    2.3800   -0.0100    0.3600    2.8000   37.0000   37.0000 
3953.5608  135.8700    2.4600    0.0200    0.2700    2.8000   37.0000   37.0000 
3953.7132  156.7600    2.4500    0.0200    0.2400    2.7700   37.0000   37.0000 
3953.8656  157.6600    2.4500    0.0100    0.2300    2.8400   37.0000   37.0000 
3954.0180  151.1700    2.4600    0.0200    0.2400    2.9400   37.0000   37.0000 
3954.1704  145.0900    2.4700    0.0300    0.2300    3.0000   37.0000   37.0000 
3954.3228  145.2500    2.4700    0.0300    0.2300    3.0500   37.0000   37.0000 
3954.4752  147.3400    2.4500    0.0200    0.2400    2.9700   37.0000   37.0000 
3954.6276  150.5600    2.4400    0.0200    0.2600    2.8300   37.0000   37.0000 
3954.7800  153.4400    2.4300    0.0300    0.2800    2.7500   37.0000   37.0000 
3954.9324  156.7300    2.4100    0.0200    0.3000    2.6200   37.0000   37.0000 
3955.0848  160.1100    2.4100    0.0300    0.3100    2.7300   37.0000   37.0000 
3955.2372  164.6900    2.3900    0.0200    0.3100    2.8000   37.0000   37.0000 
3955.3896  168.5600    2.4100    0.0300    0.3100    2.8300   37.0000   37.0000 
3955.5420  171.5300    2.4000    0.0300    0.2900    2.8300   37.0000   37.0000 
3955.6944  171.7400    2.4000    0.0300    0.2700    2.8700   37.0000   37.0000 
3955.8468  168.9000    2.3800    0.0300    0.2400    3.1200   37.0000   37.0000 
3955.9992  162.8900    2.3900    0.0300    0.2100    3.1700   37.0000   37.0000 
3956.1516  147.3000    2.4100    0.0400    0.2100    3.2300   37.0000   37.0000 
3956.3040  132.8000    2.4300    0.0400    0.2200    3.0800   37.0000   37.0000 
3956.4564  122.4000    2.4300    0.0300    0.2400    3.0900   37.0000   37.0000 
3956.6088  123.8700    2.4300    0.0200    0.2600    3.1800   37.0000   37.0000 
3956.7612  128.0500    2.4300    0.0300    0.2700    3.5800   37.0000   37.0000 
3956.9136  130.5900    2.3900    0.0400    0.3100    3.7600   37.0000   37.0000 
3957.0660  130.8800    2.3200    0.0300    0.3500    3.6900   37.0000   37.0000 
3957.2184  133.8800    2.3200    0.0400    0.3500    3.3000   37.0000   37.0000 
3957.3708  138.0700    2.3600    0.0400    0.3400    3.1500   37.0000   37.0000 
3957.5232  152.0100    2.4300    0.0500    0.3100    3.1000   37.0000   37.0000 
3957.6756  159.5100    2.4500    0.0400    0.2900    3.0300   37.0000   37.0000 
3957.8280  159.9200    2.4700    0.0300    0.2700    3.0100   37.0000   37.0000 
3957.9804  150.8200    2.4800    0.0300    0.2400    2.9900   37.0000   37.0000 
3958.1328  145.6300    2.4700    0.0300    0.2400    3.0800   37.0000   37.0000 
3958.2852  155.4700    2.4600    0.0300    0.2400    2.9900   37.0000   37.0000 
3958.4376  163.2900    2.4600    0.0300    0.2600    2.9300   37.0000   37.0000 
3958.5900  166.9100    2.4800    0.0400    0.2700    3.0600   37.0000   37.0000 
3958.7424  163.4000    2.4700    0.0500    0.2600    3.2800   37.0000   37.0000 
3958.8948  162.9200    2.4600    0.0500    0.2700    3.3300   37.0000   37.0000 
3959.0472  163.7600    2.4300    0.0400    0.2500    3.1100   37.0000   37.0000 
3959.1996  159.7200    2.4300    0.0300    0.2300    2.8500   37.0000   37.0000 
3959.3520  139.1300    2.4100    0.0300    0.2000    2.8000   37.0000   37.0000 
3959.5044  119.8200    2.4100    0.0300    0.2000    2.7600   37.0000   37.0000 
3959.6568  103.6100    2.3900    0.0300    0.2000    2.8100   37.0000   37.0000 
3959.8092  108.6300    2.3900    0.0300    0.2200    2.8400   37.0000   37.0000 
3959.9616  114.5100    2.3900    0.0200    0.2200    2.9100   37.0000   37.0000 
3960.1140  121.5000    2.4000    0.0200    0.2200    2.9200   37.0000   37.0000 
3960.2664  123.8300    2.4100    0.0300    0.2200    2.9200   37.0000   37.0000 
3960.4188  124.7600    2.4200    0.0300    0.2200    3.0000   37.0000   37.0000 
3960.5712  126.1600    2.4300    0.0400    0.2300    3.2100   37.0000   37.0000 
3960.7236  132.9000    2.4400    0.0500    0.2400    3.4700   37.0000   37.0000 
3960.8760  140.8200    2.4300    0.0500    0.2600    3.5900   37.0000   37.0000 
3961.0284  146.0100    2.4100    0.0400    0.2500    3.3900   37.0000   37.0000 
3961.1808  144.4200    2.4000    0.0300    0.2500    3.2700   37.0000   37.0000 
3961.3332  141.0600    2.3900    0.0200    0.2400    3.2500   37.0000   37.0000 
3961.4856  138.4200    2.4000    0.0200    0.2500    3.4500   37.0000   37.0000 
3961.6380  133.5000    2.4100    0.0300    0.2800    3.5900   37.0000   37.0000 
3961.7904  135.6400    2.4300    0.0300    0.2800    3.7100   37.0000   37.0000 
3961.9428  141.1900    2.4200    0.0200    0.3100    3.9100   37.0000   37.0000 
3962.0952  149.2100    2.4100    0.0200    0.3100    3.6600   37.0000   37.0000 
3962.2476  152.1700    2.3900    0.0200    0.3500    3.3200   37.0000   37.0000 
3962.4000  151.4800    2.3500    0.0300    0.3400    2.9800   37.0000   37.0000 
3962.5524  153.1700    2.3500    0.0400    0.3300    3.1100   37.0000   37.0000 
3962.7048  155.4000    2.3800    0.0600    0.3400    3.3100   37.0000   37.0000 
3962.8572  158.0400    2.4100    0.0500    0.3400    3.2600   37.0000   37.0000 
3963.0096  157.0600    2.4000    0.0400    0.3200    3.3100   37.0000   37.0000 
3963.1620  149.6300    2.3900    0.0200    0.2800    3.2100   37.0000   37.0000 
3963.3144  143.1300    2.4100    0.0400    0.2600    3.3800   37.0000   37.0000 
3963.4668  137.0000    2.4000    0.0400    0.2500    3.2200   37.0000   37.0000 
3963.6192  138.6700    2.3800    0.0300    0.2500    3.3300   37.0000   37.0000 
3963.7716  139.3000    2.3900    0.0400    0.2400    3.3900   37.0000   37.0000 
3963.9240  138.9200    2.4200    0.0500    0.2500    3.4600   37.0000   37.0000 
3964.0764  137.1700    2.4300    0.0600    0.2600    3.5000   37.0000   37.0000 
3964.2288  137.2700    2.4100    0.0500    0.2700    3.4700   37.0000   37.0000 
3964.3812  139.2600    2.3900    0.0400    0.2900    3.4400   37.0000   37.0000 
3964.5336  141.0300    2.3900    0.0400    0.2900    3.2300   37.0000   37.0000 
3964.6860  145.6900    2.3900    0.0300    0.3200    3.0800   37.0000   37.0000 
3964.8384  170.6800    2.4300    0.0600    0.3300    2.8300   37.0000   37.0000 
3964.9908  191.2800    2.4300    0.0800    0.3900    2.7200   37.0000   37.0000 
3965.1432  200.7000    2.4000    0.0700    0.3700    2.8800   37.0000   37.0000 
3965.2956  186.0700    2.3700    0.0300    0.3700    2.9500   37.0000   37.0000 
3965.4480  174.0800    2.3800    0.0000    0.3400    3.2000   37.0000   37.0000 
3965.6004  170.3000    2.4100    0.0000    0.3300    3.0700   37.0000   37.0000 
3965.7528  171.3000    2.4700    0.0300    0.3100    3.2700   37.0000   37.0000 
3965.9052  171.6500    2.5000    0.0400    0.2900    3.1700   37.0000   37.0000 
3966.0576  171.7400    2.5600    0.0600    0.2700    3.2700   37.0000   37.0000 
3966.2100  167.4800    2.4000   -0.0600    0.2600    3.3600   37.0000   37.0000 
3966.3624  163.5900    2.4300   -0.0500    0.2600    3.3100   37.0000   37.0000 
3966.5148  160.2400    2.4000   -0.0600    0.2600    3.3300   37.0000   37.0000 
3966.6672  159.3600    2.5400    0.0600    0.2600    3.1800   37.0000   37.0000 
3966.8196  160.7700    2.4600    0.0300    0.2500    3.4500   37.0000   37.0000 
3966.9720  158.8700    2.4500    0.0300    0.2600    3.5400   37.0000   37.0000 
3967.1244  158.4100    2.4300    0.0300    0.2600    3.5800   37.0000   37.0000 
3967.2768  154.2100    2.4000    0.0100    0.2600    3.4100   37.0000   37.0000 
3967.4292  151.0000    2.4200    0.0100    0.2500    3.1500   37.0000   37.0000 
3967.5816  144.8900    2.4400    0.0100    0.2400    3.0800   37.0000   37.0000 
3967.7340  140.1300    2.4400    0.0100    0.2300    2.9800   37.0000   37.0000 
3967.8864  136.7400    2.4200    0.0200    0.2200    3.1000   37.0000   37.0000 
