~VERSION INFORMATION
 VERS.                 2.0:   CWLS LOG ASCII STANDARD - VERSION 2.0
 WRAP.                  NO:   SINGLE LINE PER DEPTH STEP
 CREA.                 03/01/2018 15:42:06
#CREATED USING DSPetro VERSION 5000.10.1.3 BY H191660 ON 03/01/2018 15:42:06
~WELL INFORMATION
#MNEM.UNIT       DATA                          DESCRIPTION MNEMONIC
#---------      ---------------------------   --------------------------
 STRT    .M         0.0000                    : START DEPTH
 STOP    .M         4299.9660                 : STOP DEPTH
 STEP    .M         0.1524                    : STEP VALUE
 NULL    .      -999.0000                     : NULL VALUE
 DATE    .      03/01/2018                    : LAS file Creation Date
 WELL .      961_Atlas-1                 : Well Name
 COMP .      Neftex Exploration Insights : Company
 FLD  .                                  : Field
 UWI  .      ZAUWL_005200                : Unique Well Identifier (UWI)
 LOC  .                                  : Location
 RWS  .      -999                        : Def_Rw
 WST  .      -999                        : Def_Rwt
 SRVC .                                  : Contractor
~CURVE INFORMATION
#MNEM              UNIT       API CODE   Curve Type Comments
#----------  --------------- ----------  ---------- -----------
 DEPTH      .M                         : Depth       
 GR_API     .API                       : gammaRay    Gamma Ray (API) - Measures the intensity of natural gamma-ray radiation emitted from formations containing radioactive elements, such as K, Th and U
 RHOB_G_CC  .g/cc                      : density     Bulk Density - Measures the density of bulk material, including any void space or other materials contained in the subject volume
 DRHO_G_CC  .g/cc                      : drho        Density Correction - Investigates the correction to the Bulk Density log; used as an indication of hole condition to validate the Bulk Density measure
 NPHI_v_v   .ratio                     : neutron     Neutron Porosity - Measured with an neutron logging device calibrated to a given matrix (limestone, sandstone and dolomite)
 PEF_B_E    .b/e-                      : PEF         Photoelectric Factor - A log of photoelectric absorption properties. Often expressed in an approximation unit barns/electron (b/e-)
 LITH       .                          : LITH        Lithology Curve
 LITH_v2    .                          : LITH        Lithology Curve
~A  DEPTH   GR_API   RHOB_G_C  DRHO_G_C  NPHI_v_v  PEF_B_E     LITH    LITH_v2  
# ...
3515.4108   98.9300    2.5000    0.0600    0.3500    5.5900   37.0000   37.0000 
3515.5632  107.8900    2.5000    0.0700    0.3600    5.6200   37.0000   37.0000 
3515.7156  115.0900    2.5000    0.0700    0.3700    5.6700   37.0000   37.0000 
3515.8680  121.0100    2.5000    0.0700    0.3700    5.4600   37.0000   37.0000 
3516.0204  124.5100    2.4800    0.0600    0.4000    5.2600   37.0000   37.0000 
3516.1728  124.9500    2.4800    0.0500    0.3900    5.0900   37.0000   37.0000 
3516.3252  122.6900    2.4800    0.0600    0.3900    5.1200   37.0000   37.0000 
3516.4776  119.9200    2.5100    0.0600    0.3800    4.9600   37.0000   37.0000 
3516.6300  117.9600    2.5300    0.0600    0.3600    4.8800   37.0000   37.0000 
3516.7824  116.9700    2.5300    0.0600    0.3400    4.7300   37.0000   37.0000 
3516.9348  115.0500    2.5000    0.0500    0.3300    4.8800   37.0000   37.0000 
3517.0872  113.1700    2.4800    0.0500    0.3200    5.0800   37.0000   37.0000 
3517.2396  109.8600    2.5000    0.0600    0.3200    5.2600   37.0000   37.0000 
3517.3920  104.5800    2.5200    0.0700    0.3000    5.3000   37.0000   37.0000 
3517.5444  100.6200    2.5400    0.0700    0.3100    5.1900   37.0000   37.0000 
3517.6968   99.0400    2.5400    0.0700    0.3000    5.1300   37.0000   37.0000 
3517.8492   99.4500    2.5400    0.0700    0.3000    5.1600   37.0000   37.0000 
3518.0016   99.3000    2.5200    0.0500    0.2800    5.0800   37.0000   37.0000 
3518.1540  100.8600    2.5200    0.0600    0.2800    5.2900   37.0000   37.0000 
3518.3064  103.3200    2.5200    0.0600    0.2800    5.1000   37.0000   37.0000 
3518.4588  104.0100    2.5300    0.0600    0.2800    5.0900   37.0000   37.0000 
3518.6112  104.2600    2.5200    0.0600    0.3100    4.9300   37.0000   37.0000 
3518.7636  107.9100    2.5200    0.0600    0.3300    4.9800   37.0000   37.0000 
3518.9160  115.4100    2.5400    0.0600    0.3400    5.0200   37.0000   37.0000 
3519.0684  123.2000    2.5300    0.0700    0.3300    5.2000   37.0000   37.0000 
3519.2208  125.3700    2.5100    0.0800    0.3100    5.5000   37.0000   37.0000 
3519.3732  124.9900    2.4800    0.0700    0.3300    5.3300   37.0000   37.0000 
3519.5256  122.5300    2.4600    0.0500    0.3300    4.9900   37.0000   37.0000 
3519.6780  123.2500    2.4600    0.0400    0.3600    4.5400   37.0000   37.0000 
3519.8304  123.7100    2.4600    0.0400    0.3400    4.6800   37.0000   37.0000 
3519.9828  123.0100    2.4500    0.0400    0.3500    4.7700   37.0000   37.0000 
3520.1352  122.6300    2.4500    0.0400    0.3500    4.9000   37.0000   37.0000 
3520.2876  123.7500    2.4600    0.0400    0.3600    4.8200   37.0000   37.0000 
3520.4400  125.1700    2.4800    0.0400    0.3800    4.6900   37.0000   37.0000 
3520.5924  124.8100    2.4900    0.0500    0.3700    4.6000   37.0000   37.0000 
3520.7448  124.5900    2.5000    0.0500    0.3600    4.6100   37.0000   37.0000 
3520.8972  125.1200    2.5200    0.0600    0.3400    4.7600   37.0000   37.0000 
3521.0496  125.2600    2.5100    0.0600    0.3400    4.9100   37.0000   37.0000 
3521.2020  124.5300    2.5100    0.0600    0.3600    4.9400   37.0000   37.0000 
3521.3544  122.1300    2.4900    0.0500    0.3600    4.8000   37.0000   37.0000 
3521.5068  119.3300    2.5000    0.0500    0.3600    4.6400   37.0000   37.0000 
3521.6592  115.2300    2.4900    0.0400    0.3500    4.4100   37.0000   37.0000 
3521.8116  113.3100    2.4800    0.0300    0.3200    4.4500   37.0000   37.0000 
3521.9640  114.3300    2.4900    0.0200    0.3200    4.2400   37.0000   37.0000 
3522.1164  116.2500    2.5000    0.0200    0.3200    4.6500   37.0000   37.0000 
3522.2688  117.5900    2.5200    0.0400    0.3300    4.8500   37.0000   37.0000 
3522.4212  116.2700    2.5100    0.0500    0.3200    5.3400   37.0000   37.0000 
3522.5736  115.3500    2.5100    0.0600    0.3200    5.0800   37.0000   37.0000 
3522.7260  115.0700    2.5100    0.0600    0.3100    4.8900   37.0000   37.0000 
3522.8784  118.9400    2.5100    0.0600    0.3100    4.8800   37.0000   37.0000 
3523.0308  122.5100    2.4900    0.0500    0.3100    4.9100   37.0000   37.0000 
3523.1832  124.7000    2.4800    0.0500    0.3200    5.0700   37.0000   37.0000 
3523.3356  122.6600    2.4800    0.0400    0.3400    5.0700   37.0000   37.0000 
3523.4880  120.2200    2.5100    0.0600    0.3400    5.0600   37.0000   37.0000 
3523.6404  119.6000    2.5200    0.0700    0.3100    5.2900   37.0000   37.0000 
3523.7928  118.4900    2.5200    0.0700    0.2800    5.2500   37.0000   37.0000 
3523.9452  118.6800    2.5200    0.0600    0.2600    5.2800   37.0000   37.0000 
3524.0976  118.2700    2.5300    0.0500    0.2500    5.1700   37.0000   37.0000 
3524.2500  115.8200    2.5500    0.0500    0.2500    5.4800   37.0000   37.0000 
3524.4024  108.0400    2.5400    0.0600    0.2600    5.8000   37.0000   37.0000 
3524.5548   97.3100    2.5500    0.0600    0.3100    5.6800   37.0000   37.0000 
3524.7072   93.9000    2.5100    0.0600    0.3300    5.4200   37.0000   37.0000 
3524.8596   99.4400    2.5100    0.0600    0.3400    5.1400   37.0000   37.0000 
3525.0120  111.6200    2.5100    0.0600    0.3100    5.1300   37.0000   37.0000 
3525.1644  120.8600    2.5400    0.0700    0.3000    5.0500   37.0000   37.0000 
3525.3168  124.2200    2.5500    0.0700    0.2800    5.0900   37.0000   37.0000 
3525.4692  117.8900    2.5300    0.0600    0.2700    5.0800   37.0000   37.0000 
3525.6216  106.7200    2.5100    0.0500    0.2700    5.0400   37.0000   37.0000 
3525.7740   99.9000    2.5100    0.0500    0.2800    5.0000   37.0000   37.0000 
3525.9264   98.6800    2.5100    0.0500    0.2900    5.0000   37.0000   37.0000 
3526.0788  102.9700    2.5200    0.0500    0.3000    4.8100   37.0000   37.0000 
3526.2312  105.6200    2.5100    0.0500    0.3100    4.7100   37.0000   37.0000 
3526.3836  108.5800    2.5300    0.0600    0.3300    4.5800   37.0000   37.0000 
3526.5360  112.7500    2.5200    0.0600    0.3300    4.6900   37.0000   37.0000 
3526.6884  111.7900    2.5600    0.0600    0.3200    4.6100   37.0000   37.0000 
3526.8408  108.4000    2.5900    0.0600    0.2700    4.6700   37.0000   37.0000 
3526.9932  100.5300    2.6000    0.0600    0.2400    4.7800   37.0000   37.0000 
3527.1456   91.5100    2.5900    0.0700    0.2200    5.1300   37.0000   37.0000 
3527.2980   86.2600    2.5500    0.0600    0.2200    5.1800   37.0000   37.0000 
3527.4504   89.0700    2.5500    0.0700    0.2400    5.1300   37.0000   37.0000 
3527.6028   99.6700    2.5700    0.0700    0.2700    4.9800   37.0000   37.0000 
3527.7552  103.9000    2.5600    0.0700    0.2900    4.9100   37.0000   37.0000 
3527.9076  102.7600    2.5400    0.0600    0.3000    4.9000   37.0000   37.0000 
3528.0600  103.2300    2.5200    0.0500    0.3000    4.7700   37.0000   37.0000 
3528.2124  108.9800    2.5300    0.0600    0.2900    4.7300   37.0000   37.0000 
3528.3648  112.5600    2.5500    0.0600    0.3000    4.8200   37.0000   37.0000 
3528.5172  110.1300    2.5500    0.0500    0.3100    4.8400   37.0000   37.0000 
3528.6696  105.7800    2.5200    0.0400    0.3000    4.6300   37.0000   37.0000 
3528.8220  102.6000    2.5000    0.0400    0.3000    4.3500   37.0000   37.0000 
3528.9744  105.6100    2.4900    0.0400    0.3000    4.2300   37.0000   37.0000 
3529.1268  109.0200    2.5100    0.0400    0.3000    4.2900   37.0000   37.0000 
3529.2792  112.2600    2.5300    0.0400    0.3000    4.2800   37.0000   37.0000 
3529.4316  110.0100    2.5300    0.0300    0.3000    4.2700   37.0000   37.0000 
3529.5840  106.9000    2.5500    0.0400    0.3000    4.3800   37.0000   37.0000 
3529.7364  103.0500    2.5300    0.0400    0.3000    4.7000   37.0000   37.0000 
3529.8888   98.9800    2.5300    0.0500    0.2900    4.9900   37.0000   37.0000 
3530.0412   96.7400    2.5000    0.0400    0.2800    5.0900   37.0000   37.0000 
3530.1936   96.7200    2.4900    0.0400    0.2800    4.9100   37.0000   37.0000 
3530.3460  102.0300    2.5000    0.0400    0.2900    4.7300   37.0000   37.0000 
