~VERSION INFORMATION
 VERS.                 2.0:   CWLS LOG ASCII STANDARD - VERSION 2.0
 WRAP.                  NO:   SINGLE LINE PER DEPTH STEP
 CREA.                 03/01/2018 15:42:06
#CREATED USING DSPetro VERSION 5000.10.1.3 BY H191660 ON 03/01/2018 15:42:06
~WELL INFORMATION
#MNEM.UNIT       DATA                          DESCRIPTION MNEMONIC
#---------      ---------------------------   --------------------------
 STRT    .M         0.0000                    : START DEPTH
 STOP    .M         4299.9660                 : STOP DEPTH
 STEP    .M         0.1524                    : STEP VALUE
 NULL    .      -999.0000                     : NULL VALUE
 DATE    .      03/01/2018                    : LAS file Creation Date
 WELL .      961_Atlas-1                 : Well Name
 COMP .      Neftex Exploration Insights : Company
 FLD  .                                  : Field
 UWI  .      ZAUWL_005200                : Unique Well Identifier (UWI)
 LOC  .                                  : Location
 RWS  .      -999                        : Def_Rw
 WST  .      -999                        : Def_Rwt
 SRVC .                                  : Contractor
~CURVE INFORMATION
#MNEM              UNIT       API CODE   Curve Type Comments
#----------  --------------- ----------  ---------- -----------
 DEPTH      .M                         : Depth       
 GR_API     .API                       : gammaRay    Gamma Ray (API) - Measures the intensity of natural gamma-ray radiation emitted from formations containing radioactive elements, such as K, Th and U
 RHOB_G_CC  .g/cc                      : density     Bulk Density - Measures the density of bulk material, including any void space or other materials contained in the subject volume
 DRHO_G_CC  .g/cc                      : drho        Density Correction - Investigates the correction to the Bulk Density log; used as an indication of hole condition to validate the Bulk Density measure
 NPHI_v_v   .ratio                     : neutron     Neutron Porosity - Measured with an neutron logging device calibrated to a given matrix (limestone, sandstone and dolomite)
 PEF_B_E    .b/e-                      : PEF         Photoelectric Factor - A log of photoelectric absorption properties. Often expressed in an approximation unit barns/electron (b/e-)
 LITH       .                          : LITH        Lithology Curve
 LITH_v2    .                          : LITH        Lithology Curve
~A  DEPTH   GR_API   RHOB_G_C  DRHO_G_C  NPHI_v_v  PEF_B_E     LITH    LITH_v2  
# ...
2655.4176   30.9000    2.3400    0.0300    0.2600    5.3300   22.0000   18.0000 
2655.5700   31.0300    2.3400    0.0300    0.2700    5.3500   22.0000   18.0000 
2655.7224   32.0900    2.3400    0.0300    0.2800    5.2900   22.0000   18.0000 
2655.8748   35.0900    2.3500    0.0300    0.2700    5.2100   22.0000   18.0000 
2656.0272   37.4600    2.3500    0.0300    0.2600    5.2200   22.0000   18.0000 
2656.1796   38.6300    2.3500    0.0300    0.2500    5.2500   22.0000   18.0000 
2656.3320   37.1000    2.3400    0.0300    0.2500    5.3200   22.0000   18.0000 
2656.4844   35.4700    2.3200    0.0200    0.2500    5.1600   18.0000   18.0000 
2656.6368   33.5000    2.3200    0.0200    0.2400    5.1400   18.0000   18.0000 
2656.7892   32.9600    2.3300    0.0200    0.2500    5.1200   18.0000   18.0000 
2656.9416   32.9300    2.3400    0.0300    0.2600    5.3400   22.0000   18.0000 
2657.0940   33.6000    2.3300    0.0300    0.2700    5.3100   22.0000   18.0000 
2657.2464   33.8000    2.3200    0.0300    0.2700    5.4800   22.0000   18.0000 
2657.3988   33.5000    2.3300    0.0400    0.2800    5.5500   22.0000   18.0000 
2657.5512   33.4800    2.3300    0.0400    0.2700    5.7100   22.0000   18.0000 
2657.7036   34.1100    2.3500    0.0400    0.2700    5.5200   22.0000   18.0000 
2657.8560   35.1500    2.3500    0.0400    0.2600    5.3700   22.0000   18.0000 
2658.0084   36.1500    2.3500    0.0400    0.2800    5.2300   22.0000   18.0000 
2658.1608   37.2000    2.3300    0.0200    0.2900    5.0300   22.0000   18.0000 
2658.3132   37.6500    2.3200    0.0200    0.2800    5.0200   22.0000   18.0000 
2658.4656   36.4800    2.3100    0.0200    0.2600    4.9800   18.0000   18.0000 
2658.6180   34.8300    2.3300    0.0300    0.2700    5.2400   22.0000   18.0000 
2658.7704   33.6500    2.3100    0.0200    0.2900    5.2700   22.0000   18.0000 
2658.9228   34.4400    2.3100    0.0300    0.3000    5.3100   22.0000   18.0000 
2659.0752   36.0000    2.3000    0.0200    0.3000    5.2900   22.0000   18.0000 
2659.2276   38.0900    2.3100    0.0200    0.2800    5.2900   22.0000   18.0000 
2659.3800   39.3500    2.3100    0.0200    0.2600    5.2200   22.0000   18.0000 
2659.5324   39.0400    2.3100    0.0200    0.2500    5.1800   18.0000   18.0000 
2659.6848   36.8200    2.3100    0.0200    0.2600    5.1400   18.0000   18.0000 
2659.8372   34.7300    2.3200    0.0300    0.2500    5.2700   22.0000   18.0000 
2659.9896   34.1500    2.3300    0.0400    0.2500    5.4200   22.0000   18.0000 
2660.1420   35.2700    2.3300    0.0400    0.2600    5.5700   22.0000   18.0000 
2660.2944   35.8000    2.3300    0.0400    0.2800    5.5400   22.0000   18.0000 
2660.4468   34.6600    2.3300    0.0400    0.2900    5.3600   22.0000   18.0000 
2660.5992   33.0700    2.3300    0.0300    0.2800    5.1800   22.0000   18.0000 
2660.7516   32.3400    2.3300    0.0300    0.2800    5.0700   22.0000   18.0000 
2660.9040   34.3900    2.3400    0.0200    0.2700    4.8800   22.0000   18.0000 
2661.0564   36.1200    2.3500    0.0300    0.2700    4.8500   22.0000   18.0000 
2661.2088   36.6000    2.3400    0.0200    0.2500    4.8500   18.0000   18.0000 
2661.3612   35.8800    2.3300    0.0100    0.2500    4.8800   18.0000   18.0000 
2661.5136   34.8800    2.3200    0.0100    0.2500    4.7500   18.0000   18.0000 
2661.6660   33.1800    2.3400    0.0100    0.2700    4.7100   18.0000   18.0000 
2661.8184   30.7600    2.3500    0.0300    0.2700    4.9100   22.0000   18.0000 
2661.9708   28.6800    2.3400    0.0300    0.2700    5.0800   22.0000   18.0000 
2662.1232   28.6400    2.3400    0.0300    0.2600    5.1100   22.0000   18.0000 
2662.2756   29.4800    2.3300    0.0200    0.2600    4.9600   18.0000   18.0000 
2662.4280   31.5700    2.3400    0.0200    0.2500    4.9600   18.0000   18.0000 
2662.5804   32.8900    2.3500    0.0300    0.2600    4.9700   22.0000   18.0000 
2662.7328   33.5700    2.3600    0.0300    0.2700    5.0300   22.0000   18.0000 
2662.8852   32.3600    2.3700    0.0300    0.2700    5.0700   22.0000   18.0000 
2663.0376   32.2000    2.3600    0.0300    0.2800    5.0600   22.0000   18.0000 
2663.1900   32.7500    2.3500    0.0300    0.2800    5.0900   22.0000   18.0000 
2663.3424   34.5000    2.3300    0.0200    0.2600    5.0400   22.0000   18.0000 
2663.4948   35.5300    2.3400    0.0200    0.2600    5.0600   22.0000   18.0000 
2663.6472   35.3800    2.3500    0.0200    0.2500    4.9900   18.0000   18.0000 
2663.7996   34.4200    2.3500    0.0200    0.2600    4.9800   22.0000   18.0000 
2663.9520   34.2000    2.3400    0.0200    0.2600    4.9400   18.0000   18.0000 
2664.1044   34.8100    2.3300    0.0200    0.2800    5.0300   22.0000   18.0000 
2664.2568   35.9500    2.3300    0.0200    0.2800    4.9900   22.0000   18.0000 
2664.4092   36.3100    2.3200    0.0200    0.2800    5.0000   22.0000   18.0000 
2664.5616   35.8800    2.3100    0.0100    0.3000    4.9700   22.0000   18.0000 
2664.7140   35.5500    2.3100    0.0100    0.3000    4.8000   22.0000   18.0000 
2664.8664   36.1400    2.3100    0.0100    0.3000    4.7600   22.0000   18.0000 
2665.0188   38.0900    2.3000    0.0200    0.2900    4.8600   18.0000   18.0000 
2665.1712   40.8100    2.2900    0.0300    0.3100    5.1300   22.0000   18.0000 
2665.3236   42.7600    2.3000    0.0300    0.3100    5.3400   22.0000   18.0000 
2665.4760   43.3100    2.3100    0.0300    0.3100    5.2200   22.0000   18.0000 
2665.6284   42.6400    2.3300    0.0300    0.3000    5.1100   22.0000   18.0000 
2665.7808   40.8000    2.3400    0.0300    0.2900    4.9700   22.0000   18.0000 
2665.9332   39.4300    2.3200    0.0300    0.2900    5.1000   22.0000   18.0000 
2666.0856   38.8700    2.3200    0.0300    0.2800    5.1900   22.0000   18.0000 
2666.2380   39.9800    2.3000    0.0300    0.2800    5.1000   22.0000   18.0000 
2666.3904   41.0000    2.3000    0.0300    0.2700    5.0800   18.0000   18.0000 
2666.5428   41.5000    2.2900    0.0300    0.2800    4.9300   18.0000   18.0000 
2666.6952   41.0300    2.2800    0.0200    0.2800    4.9900   18.0000   18.0000 
2666.8476   40.8500    2.2800    0.0100    0.3100    4.9400   22.0000   18.0000 
2667.0000   39.6500    2.2800    0.0100    0.3100    5.0300   22.0000   18.0000 
2667.1524   38.3500    2.2800    0.0100    0.3000    4.8300   18.0000   18.0000 
2667.3048   37.1000    2.2900    0.0200    0.2800    4.7700   18.0000   18.0000 
2667.4572   36.6400    2.3100    0.0200    0.2900    4.7500   18.0000   18.0000 
2667.6096   36.5000    2.3300    0.0300    0.2900    4.9900   22.0000   18.0000 
2667.7620   36.1200    2.3300    0.0300    0.3000    5.0900   22.0000   18.0000 
2667.9144   35.9600    2.3300    0.0300    0.2900    5.1000   22.0000   18.0000 
2668.0668   37.1100    2.3200    0.0300    0.2900    5.1100   22.0000   18.0000 
2668.2192   38.4500    2.3200    0.0300    0.2900    5.0100   22.0000   18.0000 
2668.3716   40.0800    2.3300    0.0300    0.2900    4.9400   22.0000   18.0000 
2668.5240   40.2000    2.3300    0.0200    0.2800    4.8700   22.0000   18.0000 
2668.6764   40.1300    2.3400    0.0300    0.2700    4.8900   22.0000   18.0000 
2668.8288   39.6900    2.3300    0.0200    0.2600    5.0200   18.0000   18.0000 
2668.9812   39.1100    2.3500    0.0300    0.2400    4.9400   18.0000   18.0000 
2669.1336   38.1900    2.3600    0.0300    0.2400    4.9800   18.0000   18.0000 
2669.2860   37.5300    2.3600    0.0300    0.2400    4.9000   18.0000   18.0000 
2669.4384   37.4200    2.3500    0.0200    0.2600    4.9300   22.0000   18.0000 
2669.5908   37.4900    2.3500    0.0200    0.2600    4.8300   18.0000   18.0000 
2669.7432   37.0800    2.3500    0.0200    0.2700    4.7200   18.0000   18.0000 
2669.8956   36.1600    2.3500    0.0200    0.2700    4.7600   18.0000   18.0000 
2670.0480   35.1800    2.3400    0.0100    0.2700    4.7600   18.0000   18.0000 
2670.2004   35.2300    2.3400    0.0100    0.2700    4.8300   18.0000   18.0000 
2670.3528   35.1600    2.3500    0.0100    0.2700    4.7900   18.0000   18.0000 
