~VERSION INFORMATION
 VERS.                 2.0:   CWLS LOG ASCII STANDARD - VERSION 2.0
 WRAP.                  NO:   SINGLE LINE PER DEPTH STEP
 CREA.                 03/01/2018 15:42:06
#CREATED USING DSPetro VERSION 5000.10.1.3 BY H191660 ON 03/01/2018 15:42:06
~WELL INFORMATION
#MNEM.UNIT       DATA                          DESCRIPTION MNEMONIC
#---------      ---------------------------   --------------------------
 STRT    .M         0.0000                    : START DEPTH
 STOP    .M         4299.9660                 : STOP DEPTH
 STEP    .M         0.1524                    : STEP VALUE
 NULL    .      -999.0000                     : NULL VALUE
 DATE    .      03/01/2018                    : LAS file Creation Date
 WELL .      961_Atlas-1                 : Well Name
 COMP .      Neftex Exploration Insights : Company
 FLD  .                                  : Field
 UWI  .      ZAUWL_005200                : Unique Well Identifier (UWI)
 LOC  .                                  : Location
 RWS  .      -999                        : Def_Rw
 WST  .      -999                        : Def_Rwt
 SRVC .                                  : Contractor
~CURVE INFORMATION
#MNEM              UNIT       API CODE   Curve Type Comments
#----------  --------------- ----------  ---------- -----------
 DEPTH      .M                         : Depth       
 GR_API     .API                       : gammaRay    Gamma Ray (API) - Measures the intensity of natural gamma-ray radiation emitted from formations containing radioactive elements, such as K, Th and U
 RHOB_G_CC  .g/cc                      : density     Bulk Density - Measures the density of bulk material, including any void space or other materials contained in the subject volume
 DRHO_G_CC  .g/cc                      : drho        Density Correction - Investigates the correction to the Bulk Density log; used as an indication of hole condition to validate the Bulk Density measure
 NPHI_v_v   .ratio                     : neutron     Neutron Porosity - Measured with an neutron logging device calibrated to a given matrix (limestone, sandstone and dolomite)
 PEF_B_E    .b/e-                      : PEF         Photoelectric Factor - A log of photoelectric absorption properties. Often expressed in an approximation unit barns/electron (b/e-)
 LITH       .                          : LITH        Lithology Curve
 LITH_v2    .                          : LITH        Lithology Curve
~A  DEPTH   GR_API   RHOB_G_C  DRHO_G_C  NPHI_v_v  PEF_B_E     LITH    LITH_v2  
# ...
3409.7976  113.2300    2.5300    0.0500    0.2500    5.1300   37.0000   37.0000 
3409.9500  108.9900    2.5200    0.0400    0.2500    5.0800   37.0000   37.0000 
3410.1024  107.0400    2.5000    0.0500    0.2800    4.7000   37.0000   37.0000 
3410.2548  111.0200    2.4800    0.0400    0.3200    4.5700   37.0000   37.0000 
3410.4072  120.2600    2.4600    0.0400    0.3300    4.6400   37.0000   37.0000 
3410.5596  124.2500    2.4600    0.0400    0.3300    4.6100   37.0000   37.0000 
3410.7120  125.0300    2.4900    0.0500    0.3200    4.6000   37.0000   37.0000 
3410.8644  122.4000    2.4900    0.0400    0.3000    4.7700   37.0000   37.0000 
3411.0168  118.7400    2.5100    0.0500    0.2800    4.6200   37.0000   37.0000 
3411.1692  115.1600    2.5300    0.0300    0.2500    5.1600   37.0000   37.0000 
3411.3216  113.0500    2.6000    0.0400    0.2100    5.0800   37.0000   22.0000 
3411.4740  109.7700    2.6600    0.0500    0.1600    5.6800   37.0000   22.0000 
3411.6264   99.0400    2.6600    0.0500    0.1300    5.7000   18.0000   22.0000 
3411.7788   83.1800    2.6500    0.0600    0.1200    5.8500   18.0000   22.0000 
3411.9312   69.7900    2.6400    0.0500    0.1300    5.9300   18.0000   22.0000 
3412.0836   61.3400    2.6200    0.0500    0.1300    5.7200   18.0000   22.0000 
3412.2360   60.0300    2.6200    0.0400    0.1400    5.6300   18.0000   22.0000 
3412.3884   62.1800    2.6000    0.0300    0.1600    5.4000   18.0000   22.0000 
3412.5408   73.2900    2.5700    0.0200    0.1800    4.9300   18.0000   22.0000 
3412.6932   90.0800    2.5200    0.0200    0.2300    4.3800   37.0000   37.0000 
3412.8456  107.4800    2.4800    0.0200    0.2700    4.0400   37.0000   37.0000 
3412.9980  124.8900    2.4400    0.0200    0.3400    4.0300   37.0000   37.0000 
3413.1504  137.5100    2.4200    0.0300    0.3800    4.1100   37.0000   37.0000 
3413.3028  147.7800    2.4300    0.0400    0.4000    4.3800   37.0000   37.0000 
3413.4552  147.2500    2.4500    0.0500    0.4100    4.3200   37.0000   37.0000 
3413.6076  143.4700    2.4500    0.0500    0.4000    4.5100   37.0000   37.0000 
3413.7600  144.0500    2.4400    0.0400    0.4000    4.4800   37.0000   37.0000 
3413.9124  147.5200    2.4300    0.0400    0.3900    4.6000   37.0000   37.0000 
3414.0648  150.0000    2.4500    0.0400    0.4000    4.6200   37.0000   37.0000 
3414.2172  149.6400    2.4500    0.0500    0.4100    4.8100   37.0000   37.0000 
3414.3696  149.3400    2.4600    0.0500    0.4000    4.9400   37.0000   37.0000 
3414.5220  146.4500    2.4500    0.0500    0.3900    5.0600   37.0000   37.0000 
3414.6744  145.3700    2.4500    0.0500    0.3900    4.8300   37.0000   37.0000 
3414.8268  141.3200    2.4500    0.0500    0.4000    4.8400   37.0000   37.0000 
3414.9792  142.4100    2.4400    0.0400    0.4000    4.8800   37.0000   37.0000 
3415.1316  140.1700    2.4300    0.0400    0.3900    5.0200   37.0000   37.0000 
3415.2840  141.9200    2.4400    0.0400    0.4000    5.1000   37.0000   37.0000 
3415.4364  137.6800    2.4700    0.0400    0.4000    4.9800   37.0000   37.0000 
3415.5888  131.7800    2.4800    0.0400    0.3900    4.8200   37.0000   37.0000 
3415.7412  124.0000    2.5000    0.0400    0.3400    4.7000   37.0000   37.0000 
3415.8936  121.2800    2.5000    0.0400    0.3200    4.6400   37.0000   37.0000 
3416.0460  120.8000    2.5000    0.0400    0.3100    4.6500   37.0000   37.0000 
3416.1984  119.2500    2.4900    0.0300    0.3200    4.5400   37.0000   37.0000 
3416.3508  114.7400    2.5000    0.0300    0.3300    4.5900   37.0000   37.0000 
3416.5032  112.0700    2.5100    0.0300    0.3200    4.6500   37.0000   37.0000 
3416.6556  111.4200    2.5000    0.0300    0.3100    4.9300   37.0000   37.0000 
3416.8080  111.3100    2.5300    0.0200    0.3100    5.3400   37.0000   37.0000 
3416.9604  108.4000    2.5500    0.0200    0.3100    5.5700   37.0000   37.0000 
3417.1128  101.0200    2.6200    0.0200    0.2800    5.3400   37.0000   37.0000 
3417.2652   95.6900    2.6200    0.0300    0.2600    4.8900   37.0000   37.0000 
3417.4176   91.6600    2.5900    0.0300    0.2600    4.7400   37.0000   37.0000 
3417.5700   92.7000    2.5600    0.0400    0.2800    4.5500   37.0000   37.0000 
3417.7224   96.2800    2.5200    0.0400    0.3000    4.4900   37.0000   37.0000 
3417.8748  104.4700    2.5100    0.0500    0.2900    4.4000   37.0000   37.0000 
3418.0272  112.4700    2.5200    0.0500    0.2800    4.7200   37.0000   37.0000 
3418.1796  117.0200    2.5500    0.0400    0.2600    5.0500   37.0000   37.0000 
3418.3320  113.2600    2.5900    0.0600    0.2500    4.8900   37.0000   37.0000 
3418.4844  105.2000    2.5400    0.0500    0.2600    4.6400   37.0000   37.0000 
3418.6368   97.6200    2.5200    0.0600    0.3000    4.2900   37.0000   37.0000 
3418.7892  102.0100    2.4700    0.0400    0.3700    4.3800   37.0000   37.0000 
3418.9416  114.1700    2.4600    0.0500    0.3900    4.4500   37.0000   37.0000 
3419.0940  126.6900    2.4800    0.0600    0.4100    4.6500   37.0000   37.0000 
3419.2464  129.3900    2.5000    0.0700    0.4200    4.8600   37.0000   37.0000 
3419.3988  129.1300    2.5100    0.0600    0.4100    5.2600   37.0000   37.0000 
3419.5512  128.4900    2.5000    0.0600    0.3700    5.2600   37.0000   37.0000 
3419.7036  126.9500    2.4900    0.0500    0.3500    5.4200   37.0000   37.0000 
3419.8560  123.8500    2.5000    0.0600    0.3300    5.2500   37.0000   37.0000 
3420.0084  119.6800    2.5200    0.0700    0.3200    5.2900   37.0000   37.0000 
3420.1608  114.5800    2.5300    0.0600    0.3100    5.5800   37.0000   37.0000 
3420.3132  108.9600    2.5800    0.0700    0.2900    5.5300   37.0000   37.0000 
3420.4656  104.3600    2.5900    0.0700    0.2700    6.1000   37.0000   37.0000 
3420.6180  101.6200    2.6200    0.0900    0.2700    5.6500   37.0000   37.0000 
3420.7704  100.2100    2.5900    0.0800    0.2900    5.4500   37.0000   37.0000 
3420.9228  101.7100    2.5500    0.0800    0.3000    4.7800   37.0000   37.0000 
3421.0752  105.3000    2.5500    0.0700    0.3300    4.8800   37.0000   37.0000 
3421.2276  110.0300    2.6000    0.0800    0.3200    5.0200   37.0000   37.0000 
3421.3800  108.0400    2.5900    0.0700    0.3300    5.0700   37.0000   37.0000 
3421.5324  105.2700    2.5900    0.0700    0.3200    4.8700   37.0000   37.0000 
3421.6848  104.6600    2.5600    0.0400    0.3400    5.3000   37.0000   37.0000 
3421.8372  108.0400    2.6500    0.0600    0.3400    5.4700   37.0000   37.0000 
3421.9896  111.3900    2.6200    0.0500    0.3500    5.3200   37.0000   37.0000 
3422.1420  109.7600    2.5500    0.0500    0.3300    4.7700   37.0000   37.0000 
3422.2944  110.3300    2.4800    0.0500    0.3300    4.7300   37.0000   37.0000 
3422.4468  114.9500    2.4700    0.0400    0.3300    4.7200   37.0000   37.0000 
3422.5992  118.2500    2.4800    0.0400    0.3500    4.8300   37.0000   37.0000 
3422.7516  119.5300    2.4600    0.0300    0.3700    4.5000   37.0000   37.0000 
3422.9040  118.9200    2.4500    0.0300    0.3900    4.3700   37.0000   37.0000 
3423.0564  120.8500    2.4300    0.0200    0.4100    4.3600   37.0000   37.0000 
3423.2088  125.7000    2.4400    0.0400    0.4000    4.6900   37.0000   37.0000 
3423.3612  130.5500    2.4600    0.0500    0.3900    4.9500   37.0000   37.0000 
3423.5136  134.8800    2.4900    0.0600    0.3800    5.0500   37.0000   37.0000 
3423.6660  133.4200    2.4900    0.0500    0.3800    4.9400   37.0000   37.0000 
3423.8184  127.9300    2.5100    0.0500    0.3500    4.9500   37.0000   37.0000 
3423.9708  120.3800    2.5500    0.0500    0.3100    5.2400   37.0000   37.0000 
3424.1232  112.6900    2.6000    0.0500    0.2200    5.5700   37.0000   22.0000 
3424.2756  103.9900    2.6300    0.0400    0.1500    6.0000   18.0000   18.0000 
3424.4280   87.6600    2.6600    0.0400    0.1100    5.7900   18.0000   18.0000 
3424.5804   67.3300    2.6600    0.0400    0.0900    5.7800   18.0000   18.0000 
3424.7328   49.4200    2.6700    0.0500    0.0900    5.5800   18.0000   18.0000 
