~VERSION INFORMATION
 VERS.                 2.0:   CWLS LOG ASCII STANDARD - VERSION 2.0
 WRAP.                  NO:   SINGLE LINE PER DEPTH STEP
 CREA.                 03/01/2018 15:42:06
#CREATED USING DSPetro VERSION 5000.10.1.3 BY H191660 ON 03/01/2018 15:42:06
~WELL INFORMATION
#MNEM.UNIT       DATA                          DESCRIPTION MNEMONIC
#---------      ---------------------------   --------------------------
 STRT    .M         0.0000                    : START DEPTH
 STOP    .M         4299.9660                 : STOP DEPTH
 STEP    .M         0.1524                    : STEP VALUE
 NULL    .      -999.0000                     : NULL VALUE
 DATE    .      03/01/2018                    : LAS file Creation Date
 WELL .      961_Atlas-1                 : Well Name
 COMP .      Neftex Exploration Insights : Company
 FLD  .                                  : Field
 UWI  .      ZAUWL_005200                : Unique Well Identifier (UWI)
 LOC  .                                  : Location
 RWS  .      -999                        : Def_Rw
 WST  .      -999                        : Def_Rwt
 SRVC .                                  : Contractor
~CURVE INFORMATION
#MNEM              UNIT       API CODE   Curve Type Comments
#----------  --------------- ----------  ---------- -----------
 DEPTH      .M                         : Depth       
 GR_API     .API                       : gammaRay    Gamma Ray (API) - Measures the intensity of natural gamma-ray radiation emitted from formations containing radioactive elements, such as K, Th and U
 RHOB_G_CC  .g/cc                      : density     Bulk Density - Measures the density of bulk material, including any void space or other materials contained in the subject volume
 DRHO_G_CC  .g/cc                      : drho        Density Correction - Investigates the correction to the Bulk Density log; used as an indication of hole condition to validate the Bulk Density measure
 NPHI_v_v   .ratio                     : neutron     Neutron Porosity - Measured with an neutron logging device calibrated to a given matrix (limestone, sandstone and dolomite)
 PEF_B_E    .b/e-                      : PEF         Photoelectric Factor - A log of photoelectric absorption properties. Often expressed in an approximation unit barns/electron (b/e-)
 LITH       .                          : LITH        Lithology Curve
 LITH_v2    .                          : LITH        Lithology Curve
~A  DEPTH   GR_API   RHOB_G_C  DRHO_G_C  NPHI_v_v  PEF_B_E     LITH    LITH_v2  
# ...
4164.1776  146.5400    2.4500    0.0400    0.2100    2.9000   37.0000   37.0000 
4164.3300  126.8500    2.4700    0.0400    0.1700    2.8200   37.0000   37.0000 
4164.4824  106.8200    2.4400    0.0300    0.1600    2.7900   36.0000   36.0000 
4164.6348   92.6300    2.4400    0.0400    0.1600    2.9200   36.0000   36.0000 
4164.7872   97.2900    2.4400    0.0400    0.1800    2.9900   36.0000   36.0000 
4164.9396  114.0400    2.4600    0.0400    0.1800    2.9300   37.0000   37.0000 
4165.0920  131.3800    2.4600    0.0300    0.1900    3.0300   37.0000   37.0000 
4165.2444  140.0600    2.4700    0.0300    0.2100    3.0300   37.0000   37.0000 
4165.3968  143.2600    2.4900    0.0400    0.2400    2.9400   37.0000   37.0000 
4165.5492  145.8700    2.4600    0.0300    0.2600    2.7100   37.0000   37.0000 
4165.7016  149.7300    2.5000    0.0400    0.2700    2.5700   37.0000   37.0000 
4165.8540  153.1200    2.4800    0.0300    0.2600    2.7900   37.0000   37.0000 
4166.0064  153.8500    2.4900    0.0300    0.2700    2.8700   37.0000   37.0000 
4166.1588  152.0000    2.4500    0.0200    0.2400    2.8000   37.0000   37.0000 
4166.3112  149.3900    2.4500    0.0200    0.3200    2.7400   37.0000   37.0000 
4166.4636  151.2900    2.3000    0.0000    0.3400    2.8800   37.0000   37.0000 
4166.6160  152.4000    2.0800   -0.0100    0.4400    3.2400   10.0000   10.0000 
4166.7684  151.1500    1.9300    0.0100    0.3600    2.9800   10.0000   10.0000 
4166.9208  148.6000    1.8700   -0.0100    0.4000    2.9200   10.0000   10.0000 
4167.0732  146.7700    2.0100   -0.0100    0.4200    2.7400   10.0000   10.0000 
4167.2256  146.9700    2.2300    0.0000    0.4700    3.0400   10.0000   10.0000 
4167.3780  151.3800    2.4600    0.0900    0.4100    3.1200   37.0000   37.0000 
4167.5304  160.2400    2.4400    0.0800    0.3800    3.2000   37.0000   37.0000 
4167.6828  166.3500    2.3600    0.0400    0.3400    3.1900   37.0000   37.0000 
4167.8352  165.5500    2.4100    0.0100    0.3200    2.9300   37.0000   37.0000 
4167.9876  161.9200    2.4300    0.0200    0.3300    2.8500   37.0000   37.0000 
4168.1400  160.1500    2.4200    0.0200    0.3600    2.9000   37.0000   37.0000 
4168.2924  163.0400    2.3800    0.0300    0.3900    3.0000   37.0000   37.0000 
4168.4448  164.9400    2.2000    0.0200    0.4100    2.8700   10.0000   10.0000 
4168.5972  160.3800    2.0600    0.0000    0.4100    2.7400   10.0000   10.0000 
4168.7496  149.8100    2.0200    0.0000    0.3900    2.8400   10.0000   10.0000 
4168.9020  135.8700    2.1300   -0.0100    0.3500    3.1400   10.0000   10.0000 
4169.0544  131.1500    2.3200    0.0300    0.3000    3.2200   37.0000   37.0000 
4169.2068  129.7600    2.4100    0.0400    0.2800    3.0900   37.0000   37.0000 
4169.3592  133.6800    2.6200    0.0500    0.2700    2.5700   37.0000   37.0000 
4169.5116  135.0600    2.6200    0.0400    0.2700    2.4500   37.0000   37.0000 
4169.6640  137.9700    2.5900    0.0300    0.2700    2.4000   37.0000   37.0000 
4169.8164  143.6000    2.3900    0.0300    0.2700    2.8800   37.0000   37.0000 
4169.9688  143.7700    2.4000    0.0400    0.2700    2.9600   37.0000   37.0000 
4170.1212  142.8500    2.4100    0.0500    0.2800    2.9200   37.0000   37.0000 
4170.2736  138.5800    2.4200    0.0500    0.2800    2.7800   37.0000   37.0000 
4170.4260  137.5700    2.6900    0.1700    0.2700    2.4600   37.0000   37.0000 
4170.5784  133.2400    2.4400    0.0600    0.2400    3.0700   37.0000   37.0000 
4170.7308  127.3000    2.4300    0.0600    0.2100    3.2000   37.0000   37.0000 
4170.8832  121.9200    2.4600   -0.0100    0.1900    2.8300   37.0000   37.0000 
4171.0356  113.0100    2.4800    0.0500    0.1800    3.0200   37.0000   37.0000 
4171.1880  108.3000    2.4200    0.0300    0.1800    3.2700   37.0000   37.0000 
4171.3404  107.1500    2.4200    0.0300    0.1900    3.2000   37.0000   37.0000 
4171.4928  112.9500    2.7100    0.1500    0.1900    2.7600   37.0000   36.0000 
4171.6452  116.3300    2.6800    0.1300    0.2000    2.6800   37.0000   36.0000 
4171.7976  116.2300    2.6800    0.1400    0.1900    2.5000   37.0000   36.0000 
4171.9500  114.7300    2.2400   -0.1300    0.2000    2.7900   36.0000   36.0000 
4172.1024  111.6600    2.2800   -0.1200    0.1900    2.6700   36.0000   36.0000 
4172.2548  109.0600    2.2500   -0.1200    0.2000    2.7800   36.0000   36.0000 
4172.4072  106.3300    2.3900    0.0200    0.2100    2.5500   36.0000   36.0000 
4172.5596  101.1300    2.3500    0.0100    0.2000    2.4300   37.0000   36.0000 
4172.7120   95.0900    2.3600    0.0100    0.2000    2.3200   37.0000   36.0000 
4172.8644   90.6300    2.3700    0.0100    0.2000    2.4000   37.0000   36.0000 
4173.0168   87.1500    2.3700    0.0300    0.2100    2.8600   37.0000   36.0000 
4173.1692   90.6200    2.4400    0.0200    0.2300    2.9800   37.0000   36.0000 
4173.3216  101.3700    2.5200   -0.0300    0.2300    3.0800   37.0000   36.0000 
4173.4740  119.1000    2.5100    0.0600    0.2100    3.2000   37.0000   36.0000 
4173.6264  122.8700    2.3700   -0.0600    0.1900    2.8400   37.0000   36.0000 
4173.7788  111.0500    2.4100    0.0200    0.1800    2.6600   37.0000   36.0000 
4173.9312   87.0400    2.3800    0.0200    0.1900    2.7700   37.0000   36.0000 
4174.0836   73.3400    2.3800    0.0300    0.1900    2.8000   37.0000   36.0000 
4174.2360   69.9200    2.3900    0.0200    0.1900    2.7900   37.0000   36.0000 
4174.3884   80.5000    2.4300    0.0300    0.2000    3.0300   37.0000   36.0000 
4174.5408   95.3500    2.4600    0.0300    0.2100    3.1800   37.0000   36.0000 
4174.6932  117.8100    2.4800    0.0500    0.2500    3.4200   37.0000   36.0000 
4174.8456  137.0400    2.4900    0.0400    0.2900    3.1500   37.0000   36.0000 
4174.9980  152.9100    2.4200    0.0800    0.3100    2.8500   37.0000   37.0000 
4175.1504  159.3400    2.3600    0.1000    0.3200    2.5900   37.0000   37.0000 
4175.3028  160.4200    2.2900    0.0900    0.3400    2.6400   37.0000   37.0000 
4175.4552  165.3800    2.3000    0.0500    0.3700    2.8000   37.0000   37.0000 
4175.6076  174.0800    2.3400    0.0300    0.3700    3.1100   37.0000   37.0000 
4175.7600  188.5600    2.4100    0.0400    0.3400    2.9900   37.0000   37.0000 
4175.9124  190.5900    2.4500    0.0400    0.3300    2.9700   37.0000   37.0000 
4176.0648  185.8700    2.4900    0.0500    0.3200    2.8800   37.0000   37.0000 
4176.2172  171.8100    2.5200    0.0500    0.3000    2.9500   37.0000   37.0000 
4176.3696  160.7000    2.5000    0.0300    0.2800    3.0100   37.0000   37.0000 
4176.5220  153.2600    2.4900    0.0300    0.2700    2.9000   37.0000   37.0000 
4176.6744  156.2400    2.3300   -0.1200    0.2600    2.9700   37.0000   37.0000 
4176.8268  163.8300    2.4000   -0.0900    0.2500    3.0500   37.0000   37.0000 
4176.9792  167.7100    2.3800   -0.1000    0.2500    3.4300   37.0000   37.0000 
4177.1316  165.4300    2.5300    0.0700    0.2600    3.3200   37.0000   37.0000 
4177.2840  160.5200    2.4500    0.0500    0.2700    3.5000   37.0000   37.0000 
4177.4364  159.0300    2.4500    0.0500    0.2900    3.2900   37.0000   37.0000 
4177.5888  159.6100    2.4600    0.0400    0.2900    3.1900   37.0000   37.0000 
4177.7412  161.6200    2.4500    0.0300    0.2900    2.9700   37.0000   37.0000 
4177.8936  165.0400    2.4700    0.0400    0.2800    2.9700   37.0000   37.0000 
4178.0460  171.2500    2.4800    0.0400    0.2800    3.0700   37.0000   37.0000 
4178.1984  174.4600    2.4800    0.0400    0.2800    3.1400   37.0000   37.0000 
4178.3508  174.2400    2.4700    0.0400    0.2800    2.9800   37.0000   37.0000 
4178.5032  169.7800    2.4700    0.0300    0.2700    2.8100   37.0000   37.0000 
4178.6556  163.0000    2.5000    0.0300    0.2500    2.7200   37.0000   37.0000 
4178.8080  155.2400    2.5200    0.0400    0.2400    2.9600   37.0000   37.0000 
4178.9604  150.2300    2.5000    0.0400    0.2400    3.1100   37.0000   37.0000 
4179.1128  149.9400    2.4800    0.0300    0.2500    3.2200   37.0000   37.0000 
