~VERSION INFORMATION
 VERS.                 2.0:   CWLS LOG ASCII STANDARD - VERSION 2.0
 WRAP.                  NO:   SINGLE LINE PER DEPTH STEP
 CREA.                 03/01/2018 15:42:06
#CREATED USING DSPetro VERSION 5000.10.1.3 BY H191660 ON 03/01/2018 15:42:06
~WELL INFORMATION
#MNEM.UNIT       DATA                          DESCRIPTION MNEMONIC
#---------      ---------------------------   --------------------------
 STRT    .M         0.0000                    : START DEPTH
 STOP    .M         4299.9660                 : STOP DEPTH
 STEP    .M         0.1524                    : STEP VALUE
 NULL    .      -999.0000                     : NULL VALUE
 DATE    .      03/01/2018                    : LAS file Creation Date
 WELL .      961_Atlas-1                 : Well Name
 COMP .      Neftex Exploration Insights : Company
 FLD  .                                  : Field
 UWI  .      ZAUWL_005200                : Unique Well Identifier (UWI)
 LOC  .                                  : Location
 RWS  .      -999                        : Def_Rw
 WST  .      -999                        : Def_Rwt
 SRVC .                                  : Contractor
~CURVE INFORMATION
#MNEM              UNIT       API CODE   Curve Type Comments
#----------  --------------- ----------  ---------- -----------
 DEPTH      .M                         : Depth       
 GR_API     .API                       : gammaRay    Gamma Ray (API) - Measures the intensity of natural gamma-ray radiation emitted from formations containing radioactive elements, such as K, Th and U
 RHOB_G_CC  .g/cc                      : density     Bulk Density - Measures the density of bulk material, including any void space or other materials contained in the subject volume
 DRHO_G_CC  .g/cc                      : drho        Density Correction - Investigates the correction to the Bulk Density log; used as an indication of hole condition to validate the Bulk Density measure
 NPHI_v_v   .ratio                     : neutron     Neutron Porosity - Measured with an neutron logging device calibrated to a given matrix (limestone, sandstone and dolomite)
 PEF_B_E    .b/e-                      : PEF         Photoelectric Factor - A log of photoelectric absorption properties. Often expressed in an approximation unit barns/electron (b/e-)
 LITH       .                          : LITH        Lithology Curve
 LITH_v2    .                          : LITH        Lithology Curve
~A  DEPTH   GR_API   RHOB_G_C  DRHO_G_C  NPHI_v_v  PEF_B_E     LITH    LITH_v2  
# ...
3304.1844  129.0300    2.3400    0.0600    0.4900    5.4400   37.0000   37.0000 
3304.3368  132.8400    2.3400    0.0600    0.4600    5.3400   37.0000   37.0000 
3304.4892  134.5400    2.3400    0.0500    0.4300    5.0600   37.0000   37.0000 
3304.6416  138.2200    2.3500    0.0500    0.4200    4.8800   37.0000   37.0000 
3304.7940  141.5800    2.3500    0.0600    0.4500    4.9600   37.0000   37.0000 
3304.9464  142.3800    2.3400    0.0600    0.4900    5.1500   37.0000   37.0000 
3305.0988  135.9300    2.3200    0.0500    0.4900    5.2100   37.0000   37.0000 
3305.2512  130.7300    2.3100    0.0500    0.4700    5.1300   37.0000   37.0000 
3305.4036  127.6900    2.3100    0.0500    0.4500    4.9500   37.0000   37.0000 
3305.5560  131.0400    2.3100    0.0400    0.4400    4.7600   37.0000   37.0000 
3305.7084  131.1200    2.3100    0.0400    0.4500    4.6900   37.0000   37.0000 
3305.8608  129.7800    2.3400    0.0500    0.4700    4.6900   37.0000   37.0000 
3306.0132  127.6600    2.3500    0.0500    0.4900    4.9000   37.0000   37.0000 
3306.1656  128.0800    2.3600    0.0500    0.4700    4.8500   37.0000   37.0000 
3306.3180  128.8300    2.3400    0.0500    0.4700    4.9800   37.0000   37.0000 
3306.4704  131.6900    2.3200    0.0500    0.4600    4.8300   37.0000   37.0000 
3306.6228  134.8900    2.3200    0.0500    0.4600    4.9100   37.0000   37.0000 
3306.7752  135.7100    2.3000    0.0400    0.4400    4.9100   37.0000   37.0000 
3306.9276  133.2700    2.3000    0.0400    0.4400    4.9700   37.0000   37.0000 
3307.0800  129.4400    2.2900    0.0400    0.4700    4.8600   37.0000   37.0000 
3307.2324  123.0600    2.2900    0.0300    0.5000    4.7800   37.0000   37.0000 
3307.3848  116.8800    2.3200    0.0300    0.5100    4.6900   37.0000   37.0000 
3307.5372  113.1600    2.3300    0.0300    0.4900    4.4900   37.0000   37.0000 
3307.6896  116.0300    2.3300    0.0300    0.4600    4.2800   37.0000   37.0000 
3307.8420  121.1600    2.3100    0.0200    0.4500    4.1900   37.0000   37.0000 
3307.9944  125.1200    2.3300    0.0300    0.4500    4.2900   37.0000   37.0000 
3308.1468  126.3600    2.3200    0.0300    0.4600    4.1600   37.0000   37.0000 
3308.2992  128.1000    2.3100    0.0300    0.4600    4.0200   37.0000   37.0000 
3308.4516  130.0900    2.3000    0.0200    0.4700    3.8900   37.0000   37.0000 
3308.6040  132.1500    2.3000    0.0200    0.4900    4.0200   37.0000   37.0000 
3308.7564  131.4100    2.3200    0.0300    0.4900    3.9800   37.0000   37.0000 
3308.9088  131.1000    2.3200    0.0300    0.5100    3.9900   37.0000   37.0000 
3309.0612  131.3700    2.3300    0.0300    0.5100    4.0900   37.0000   37.0000 
3309.2136  130.8800    2.3400    0.0400    0.5000    4.2900   37.0000   37.0000 
3309.3660  125.5100    2.3700    0.0400    0.4500    4.8000   37.0000   37.0000 
3309.5184  121.4200    2.3600    0.0300    0.4400    5.2400   37.0000   37.0000 
3309.6708  118.1700    2.3500    0.0300    0.4700    5.4600   37.0000   37.0000 
3309.8232  119.0000    2.3100    0.0300    0.5100    5.0900   37.0000   37.0000 
3309.9756  118.3500    2.3200    0.0500    0.5000    4.7800   37.0000   37.0000 
3310.1280  119.4000    2.3100    0.0400    0.5100    4.7200   37.0000   37.0000 
3310.2804  120.5400    2.3100    0.0400    0.5100    4.8500   37.0000   37.0000 
3310.4328  121.2200    2.2900    0.0400    0.5000    4.9600   37.0000   37.0000 
3310.5852  120.8800    2.2900    0.0400    0.5000    4.8600   37.0000   37.0000 
3310.7376  121.0700    2.3000    0.0400    0.5100    4.7200   37.0000   37.0000 
3310.8900  122.0300    2.3000    0.0400    0.5100    4.5300   37.0000   37.0000 
3311.0424  124.8600    2.3000    0.0400    0.5100    4.5700   37.0000   37.0000 
3311.1948  126.7200    2.2800    0.0400    0.5000    4.6900   37.0000   37.0000 
3311.3472  125.3700    2.2800    0.0300    0.5000    4.8200   37.0000   37.0000 
3311.4996  122.4800    2.2800    0.0300    0.4800    4.7700   37.0000   37.0000 
3311.6520  120.4500    2.2900    0.0300    0.5000    4.6100   37.0000   37.0000 
3311.8044  120.2700    2.3000    0.0400    0.5000    4.4200   37.0000   37.0000 
3311.9568  119.7800    2.3100    0.0500    0.5100    4.3700   37.0000   37.0000 
3312.1092  118.8700    2.3200    0.0500    0.4500    4.4900   37.0000   37.0000 
3312.2616  119.1400    2.3100    0.0500    0.4200    4.8400   37.0000   37.0000 
3312.4140  119.6200    2.3300    0.0500    0.4200    5.1700   37.0000   37.0000 
3312.5664  118.9200    2.3200    0.0400    0.4500    5.4400   37.0000   37.0000 
3312.7188  116.8700    2.3400    0.0400    0.4800    5.0900   37.0000   37.0000 
3312.8712  115.8600    2.3300    0.0400    0.5100    5.0000   37.0000   37.0000 
3313.0236  116.5400    2.3200    0.0400    0.5300    4.8300   37.0000   37.0000 
3313.1760  117.2500    2.3000    0.0400    0.5300    4.8400   37.0000   37.0000 
3313.3284  117.1700    2.2900    0.0300    0.5200    4.6900   37.0000   37.0000 
3313.4808  117.8700    2.2900    0.0300    0.5100    4.5300   37.0000   37.0000 
3313.6332  119.3000    2.3000    0.0300    0.4900    4.2900   37.0000   37.0000 
3313.7856  121.9200    2.3100    0.0200    0.4700    4.0500   37.0000   37.0000 
3313.9380  123.8700    2.3000    0.0100    0.4400    3.8800   37.0000   37.0000 
3314.0904  126.7700    2.3100    0.0100    0.4300    3.8200   37.0000   37.0000 
3314.2428  128.3100    2.3100    0.0100    0.4500    3.5500   37.0000   37.0000 
3314.3952  127.7000    2.3200    0.0100    0.4900    3.2400   37.0000   37.0000 
3314.5476  125.2500    2.3300    0.0000    0.5300    3.3000   37.0000   37.0000 
3314.7000  122.9000    2.3300    0.0100    0.5000    3.5300   37.0000   37.0000 
3314.8524  123.2900    2.3400    0.0100    0.4900    3.7200   37.0000   37.0000 
3315.0048  125.0000    2.3500    0.0100    0.4700    3.7200   37.0000   37.0000 
3315.1572  127.8700    2.3400    0.0000    0.4700    3.7000   37.0000   37.0000 
3315.3096  130.1200    2.3400    0.0100    0.4400    3.7800   37.0000   37.0000 
3315.4620  130.5900    2.3600    0.0000    0.4400    4.0200   37.0000   37.0000 
3315.6144  129.8400    2.4600   -0.0200    0.4500    4.9500   37.0000   37.0000 
3315.7668  126.0400    2.5500    0.0000    0.4400    4.5000   23.0000   23.0000 
3315.9192  118.7000    2.5200    0.0000    0.4400    4.0600   23.0000   23.0000 
3316.0716  109.2600    2.4200    0.0200    0.4500    3.1200   37.0000   37.0000 
3316.2240  104.8600    2.3300    0.0000    0.4700    3.1800   37.0000   37.0000 
3316.3764  116.0500    2.3300    0.0100    0.4700    3.2200   37.0000   37.0000 
3316.5288  129.4300    2.3300    0.0100    0.4700    3.4500   37.0000   37.0000 
3316.6812  139.4500    2.3200    0.0200    0.4900    3.9400   37.0000   37.0000 
3316.8336  138.8500    2.3200    0.0200    0.4900    4.1400   37.0000   37.0000 
3316.9860  138.4600    2.3100    0.0300    0.4500    4.1300   37.0000   37.0000 
3317.1384  138.8200    2.3200    0.0300    0.4400    4.0300   37.0000   37.0000 
3317.2908  138.2300    2.3500    0.0500    0.4500    4.3000   37.0000   37.0000 
3317.4432  136.3500    2.3400    0.0500    0.4600    4.6200   37.0000   37.0000 
3317.5956  133.0900    2.3200    0.0500    0.4600    4.7300   37.0000   37.0000 
3317.7480  130.7400    2.2900    0.0400    0.4200    4.6500   37.0000   37.0000 
3317.9004  130.1600    2.3000    0.0400    0.4300    4.5200   37.0000   37.0000 
3318.0528  130.9500    2.3100    0.0400    0.4200    4.3800   37.0000   37.0000 
3318.2052  133.4700    2.3100    0.0400    0.4500    4.2700   37.0000   37.0000 
3318.3576  135.2000    2.3400    0.0500    0.4600    4.2400   37.0000   37.0000 
3318.5100  136.5200    2.3700    0.0500    0.4900    4.2200   37.0000   37.0000 
3318.6624  133.6300    2.3700    0.0400    0.5000    4.8000   37.0000   37.0000 
3318.8148  128.0700    2.3400    0.0200    0.5100    4.8900   37.0000   37.0000 
3318.9672  123.3200    2.3100    0.0300    0.5300    5.3600   37.0000   37.0000 
3319.1196  121.0700    2.3100    0.0400    0.5300    5.0400   37.0000   37.0000 
