~VERSION INFORMATION
 VERS.                 2.0:   CWLS LOG ASCII STANDARD - VERSION 2.0
 WRAP.                  NO:   SINGLE LINE PER DEPTH STEP
 CREA.                 05/01/2018 16:27:01
#CREATED USING DSPetro VERSION 5000.10.1.3 BY H191660 ON 05/01/2018 16:27:01
~WELL INFORMATION
#MNEM.UNIT       DATA                          DESCRIPTION MNEMONIC
#---------      ---------------------------   --------------------------
 STRT    .M         31.0896                   : START DEPTH
 STOP    .M         2498.4456                 : STOP DEPTH
 STEP    .M         0.3048                    : STEP VALUE
 NULL    .      -999.0000                     : NULL VALUE
 DATE    .      05/01/2018                    : LAS file Creation Date
 WELL .      BALDINO_1_36_M4998          : Well Name
 COMP .      Neftex Exploration Insights : Company
 FLD  .      HERSEY SEC 36               : Field
 UWI  .      DUSWL_BALDIN                : Unique Well Identifier (UWI)
 LOC  .                                  : Location
 RWS  .      -999                        : Def_Rw
 WST  .      -999                        : Def_Rwt
 SRVC .                                  : Contractor
~CURVE INFORMATION
#MNEM              UNIT       API CODE   Curve Type Comments
#----------  --------------- ----------  ---------- -----------
 DEPTH      .M                         : Depth       
 GR_API     .API                       : GammaRay    Gamma Ray (API) - Measures the intensity of natural gamma-ray radiation emitted from formations containing radioactive elements, such as K, Th and U
 RHOZ_G_CC  .g/cc                      :             Formation Density - Measures the density of formation, including any void space or other materials contained in the subject volume
 NPHI_v_v   .dec                       : Neutron     
 PEF_B_E    .b/e-                      : PEF         Photoelectric Factor - A log of photoelectric absorption properties. Often expressed in an approximation unit barns/electron (b/e-)
 LITH       .                          : LITH        Lithology Curve
~A  DEPTH   GR_API  RHOZ_G_C~  NPHI_v_v  PEF_B_E     LITH   
# ...
1720.9008   26.5170    2.9160    0.0064    5.6250    1.0000 
1721.2056   25.5780    2.9310    0.0083    5.5490    1.0000 
1721.5104   24.2000    2.9430    0.0064    5.4810    1.0000 
1721.8152   21.2090    2.9570    0.0037    6.3900    1.0000 
1722.1200   22.2360    2.9650    0.0023    6.4420    1.0000 
1722.4248   24.9200    2.9370    0.0064    5.8270    1.0000 
1722.7296   25.9560    2.9140    0.0189    6.0500    1.0000 
1723.0344   21.0630    2.9500    0.0095    6.1220    1.0000 
1723.3392   19.6200    2.9620    0.0018    6.1970    1.0000 
1723.6440   18.6200    2.9480    0.0014    7.3400    1.0000 
1723.9488   19.1090    2.9660    0.0012    9.1630    1.0000 
1724.2536   20.3700    2.9750    0.0012    8.6730    1.0000 
1724.5584   23.1390    2.9460    0.0043    5.9190    1.0000 
1724.8632   29.5460    2.9120    0.0135    4.4680    1.0000 
1725.1680   34.4610    2.8800    0.0161    3.8360   12.0000 
1725.4728   37.5840    2.8560    0.0234    3.3590   12.0000 
1725.7776   40.1040    2.8430    0.0264    3.5670   12.0000 
1726.0824   40.8300    2.8350    0.0252    3.6960   12.0000 
1726.3872   40.2900    2.8430    0.0222    3.5560   12.0000 
1726.6920   37.3640    2.8590    0.0222    3.8770   12.0000 
1726.9968   36.0470    2.8600    0.0265    4.2980   12.0000 
1727.3016   36.1280    2.7960    0.0360    3.8950   12.0000 
1727.6064   34.5230    2.8170    0.0495    3.7010   12.0000 
1727.9112   32.3180    2.8370    0.0364    4.0120   12.0000 
1728.2160   32.0280    2.8220    0.0246    3.9160   12.0000 
1728.5208   32.3300    2.8130    0.0310    4.2190   12.0000 
1728.8256   32.2790    2.8550    0.0446    5.1270    1.0000 
1729.1304   33.4200    2.8930    0.0426    6.7180    1.0000 
1729.4352   34.1030    2.8850    0.0265    5.5070   12.0000 
1729.7400   28.1690    2.9080    0.0197    5.7430   12.0000 
1730.0448   20.3310    2.9430    0.0123    5.6250   12.0000 
1730.3496   22.2020    2.9470    0.0082    6.0820   12.0000 
1730.6544   23.8310    2.9430    0.0085    7.9980    1.0000 
1730.9592   21.0170    2.9760    0.0111    9.2900    1.0000 
1731.2640   21.0830    2.9610    0.0090    7.0270    1.0000 
1731.5688   21.3330    2.9810    0.0082    7.0770    1.0000 
1731.8736   20.3640    2.9950    0.0033    6.9090    1.0000 
1732.1784   17.6210    3.0010   -0.0010    6.6080    1.0000 
1732.4832   20.4920    3.0010   -0.0021    6.9950    1.0000 
1732.7880   25.5990    3.0300    0.0028   10.0070    1.0000 
1733.0928   22.0170    3.0080    0.0062    7.2070    1.0000 
1733.3976   25.3320    2.9180    0.0055    4.4260    1.0000 
1733.7024   28.9190    2.8630    0.0142    3.8300   12.0000 
1734.0072   27.8070    2.8300    0.0231    3.5190   12.0000 
1734.3120   29.6730    2.8530    0.0220    3.4750   12.0000 
1734.6168   30.9240    2.8490    0.0299    3.5820   12.0000 
1734.9216   31.7690    2.8420    0.0232    3.7220   12.0000 
1735.2264   31.3020    2.8290    0.0175    3.9350   12.0000 
1735.5312   30.1770    2.8400    0.0254    3.8590   12.0000 
1735.8360   29.0360    2.8410    0.0472    4.1220   12.0000 
1736.1408   29.6850    2.8520    0.0370    4.8090    1.0000 
1736.4456   31.9260    2.8760    0.0308    6.1600    1.0000 
1736.7504   32.7180    2.9090    0.0336    8.1290    1.0000 
1737.0552   31.4600    2.9200    0.0297    8.8060    1.0000 
1737.3600   28.4160    2.9150    0.0328    6.9710    1.0000 
1737.6648   28.0070    2.8760    0.0517    4.8280    1.0000 
1737.9696   24.5840    2.8430    0.0429    3.8630   12.0000 
1738.2744   20.9400    2.8270    0.0331    3.7190   12.0000 
1738.5792   25.5060    2.8060    0.0352    3.6430   12.0000 
1738.8840   29.9930    2.8320    0.0537    4.0120   12.0000 
1739.1888   33.4700    2.8680    0.0365    4.6200    1.0000 
1739.4936   33.7920    2.8830    0.0233    4.6520    1.0000 
1739.7984   35.5940    2.8730    0.0195    5.1050    1.0000 
1740.1032   30.5720    2.8960    0.0165    5.6820    1.0000 
1740.4080   24.8900    2.9200    0.0092    6.6360    1.0000 
1740.7128   24.0500    2.9310    0.0059    6.9870    1.0000 
1741.0176   26.6040    2.9280    0.0093    6.4700    1.0000 
1741.3224   24.0240    2.9370    0.0129    6.7630    1.0000 
1741.6272   28.5230    2.9490    0.0072    6.9290    1.0000 
1741.9320   28.8990    2.9280    0.0121    6.8670    1.0000 
1742.2368   22.7280    2.9480    0.0079    7.5470    1.0000 
1742.5416   22.3200    2.9450    0.0030    7.0370    1.0000 
1742.8464   22.9260    2.9620    0.0026    6.7020    1.0000 
1743.1512   22.4510    2.9800    0.0019    6.7730    1.0000 
1743.4560   21.6110    3.0120    0.0023    7.3500    1.0000 
1743.7608   21.0320    2.9900    0.0015    6.3950    1.0000 
1744.0656   19.7730    2.9760    0.0002    6.8620    1.0000 
1744.3704   16.1880    2.9870   -0.0020    7.2210    1.0000 
1744.6752   14.5730    2.9670   -0.0038    7.3170    1.0000 
1744.9800   14.4690    2.9780   -0.0049    6.7490    1.0000 
1745.2848   14.4750    2.9820   -0.0044    6.9690    1.0000 
1745.5896   15.3780    2.9790   -0.0030    6.8720    1.0000 
1745.8944   20.9640    2.9850   -0.0008    7.3160    1.0000 
1746.1992   26.3450    2.9510    0.0044    6.4510    1.0000 
1746.5040   28.8740    2.9210    0.0211    5.9780    1.0000 
1746.8088   26.8440    2.8990    0.0152    6.4070    1.0000 
1747.1136   22.9050    2.9120    0.0070    6.4480    1.0000 
1747.4184   25.7390    2.9270    0.0051    6.1390    1.0000 
1747.7232   33.5400    2.9060    0.0127    6.1180    1.0000 
1748.0280   36.4610    2.8650    0.0333    5.8220    1.0000 
1748.3328   36.5930    2.9020    0.0404    5.2850    1.0000 
1748.6376   32.4030    2.9420    0.0127    6.0280    1.0000 
1748.9424   29.2790    2.9350    0.0049    5.9470    1.0000 
1749.2472   31.7570    2.9220    0.0039    6.1830    1.0000 
1749.5520   32.7170    2.9110    0.0050    5.6960    1.0000 
1749.8568   35.0060    2.8890    0.0081    5.3920    1.0000 
1750.1616   42.6450    2.8650    0.0190    5.4180    1.0000 
1750.4664   54.0060    2.8400    0.0458    5.3180    1.0000 
1750.7712   63.9020    2.7690    0.0966    4.8820   22.0000 
1751.0760   62.7050    2.7330    0.1228    4.1770   22.0000 
1751.3808   60.4980    2.7450    0.1341    4.3340   22.0000 
1751.6856   55.8440    2.7590    0.1176    4.3280   22.0000 
1751.9904   61.5980    2.7610    0.0963    4.2320   22.0000 
1752.2952   67.8420    2.7250    0.1195    4.1820   22.0000 
1752.6000   59.7170    2.7530    0.1445    4.4670    1.0000 
1752.9048   33.3530    2.8770    0.0497    6.0990    1.0000 
1753.2096   15.2660    2.9630    0.0109    6.0140    1.0000 
1753.5144   19.4730    2.9720    0.0027    5.1890    1.0000 
1753.8192   23.9720    2.9120    0.0070    4.6400    1.0000 
1754.1240   25.7100    2.8750    0.0125    4.6420    1.0000 
1754.4288   26.4330    2.8520    0.0209    4.0880   12.0000 
1754.7336   25.8450    2.8690    0.0188    4.5810    1.0000 
1755.0384   22.5510    2.9070    0.0137    5.1160    1.0000 
1755.3432   21.4230    2.9290    0.0082    4.6860    1.0000 
1755.6480   22.4960    2.9040    0.0049    3.8380   12.0000 
1755.9528   23.2800    2.8100    0.0104    4.0750   12.0000 
1756.2576   22.2600    2.7520    0.0296    4.3580   18.0000 
1756.5624   18.8040    2.7300    0.0510    4.2560   18.0000 
1756.8672   16.8470    2.6970    0.0423    4.2180   18.0000 
1757.1720   15.7100    2.7180    0.0375    4.5850   18.0000 
1757.4768   16.0910    2.7330    0.0402    4.2390   18.0000 
1757.7816   16.2810    2.7540    0.0489    4.0540   18.0000 
1758.0864   16.0370    2.7740    0.0548    4.0930   12.0000 
1758.3912   17.1800    2.7460    0.0456    3.9230   18.0000 
1758.6960   17.5560    2.7380    0.0453    4.1700   18.0000 
1759.0008   16.3640    2.7350    0.0472    4.4750   18.0000 
1759.3056   17.9900    2.7160    0.0332    4.6310   18.0000 
1759.6104   18.8930    2.7290    0.0400    4.3190   18.0000 
1759.9152   18.7760    2.7050    0.0362    4.1740   18.0000 
1760.2200   16.6410    2.6930    0.0378    4.0930   18.0000 
1760.5248   15.8100    2.7330    0.0493    4.3780   18.0000 
1760.8296   26.0450    2.7820    0.0604    4.1250   12.0000 
