~VERSION INFORMATION
 VERS.                 2.0:   CWLS LOG ASCII STANDARD - VERSION 2.0
 WRAP.                  NO:   SINGLE LINE PER DEPTH STEP
 CREA.                 05/01/2018 16:27:01
#CREATED USING DSPetro VERSION 5000.10.1.3 BY H191660 ON 05/01/2018 16:27:01
~WELL INFORMATION
#MNEM.UNIT       DATA                          DESCRIPTION MNEMONIC
#---------      ---------------------------   --------------------------
 STRT    .M         31.0896                   : START DEPTH
 STOP    .M         2498.4456                 : STOP DEPTH
 STEP    .M         0.3048                    : STEP VALUE
 NULL    .      -999.0000                     : NULL VALUE
 DATE    .      05/01/2018                    : LAS file Creation Date
 WELL .      BALDINO_1_36_M4998          : Well Name
 COMP .      Neftex Exploration Insights : Company
 FLD  .      HERSEY SEC 36               : Field
 UWI  .      DUSWL_BALDIN                : Unique Well Identifier (UWI)
 LOC  .                                  : Location
 RWS  .      -999                        : Def_Rw
 WST  .      -999                        : Def_Rwt
 SRVC .                                  : Contractor
~CURVE INFORMATION
#MNEM              UNIT       API CODE   Curve Type Comments
#----------  --------------- ----------  ---------- -----------
 DEPTH      .M                         : Depth       
 GR_API     .API                       : GammaRay    Gamma Ray (API) - Measures the intensity of natural gamma-ray radiation emitted from formations containing radioactive elements, such as K, Th and U
 RHOZ_G_CC  .g/cc                      :             Formation Density - Measures the density of formation, including any void space or other materials contained in the subject volume
 NPHI_v_v   .dec                       : Neutron     
 PEF_B_E    .b/e-                      : PEF         Photoelectric Factor - A log of photoelectric absorption properties. Often expressed in an approximation unit barns/electron (b/e-)
 LITH       .                          : LITH        Lithology Curve
~A  DEPTH   GR_API  RHOZ_G_C~  NPHI_v_v  PEF_B_E     LITH   
# ...
 715.0608   95.7890    2.6400    0.2088    3.2460   37.0000 
 715.3656   94.8620    2.6430    0.2198    3.4430   37.0000 
 715.6704   97.3970    2.6640    0.2283    3.6990   37.0000 
 715.9752   96.8760    2.6520    0.2182    3.4020   37.0000 
 716.2800   95.7920    2.5960    0.2179    2.9770   37.0000 
 716.5848   97.8420    2.5820    0.2248    3.0300   37.0000 
 716.8896   94.7630    2.6350    0.2740    3.1810   37.0000 
 717.1944   97.3010    2.6480    0.2911    3.2510   37.0000 
 717.4992   99.7110    2.6140    0.2517    3.2640   37.0000 
 717.8040   98.8370    2.5880    0.2315    3.1310   37.0000 
 718.1088   97.8900    2.6850    0.2639    3.0180   37.0000 
 718.4136  101.8650    2.6490    0.2658    3.1020   37.0000 
 718.7184  105.7310    2.6220    0.2315    3.2940   37.0000 
 719.0232  104.0900    2.6270    0.2269    3.1690   37.0000 
 719.3280   99.9230    2.6360    0.2411    3.1830   37.0000 
 719.6328   99.5970    2.6220    0.2494    3.1990   37.0000 
 719.9376  100.7040    2.6190    0.2576    3.0740   37.0000 
 720.2424   96.8360    2.6050    0.2355    2.9730   37.0000 
 720.5472   99.7860    2.6100    0.2564    3.0740   37.0000 
 720.8520  102.1680    2.6090    0.2712    3.0930   37.0000 
 721.1568   97.4000    2.6140    0.2665    3.1940   37.0000 
 721.4616   99.6020    2.6130    0.2444    3.2220   37.0000 
 721.7664   97.9950    2.6150    0.2386    3.4210   37.0000 
 722.0712   95.8530    2.6450    0.2506    3.6250   37.0000 
 722.3760   93.3680    2.6720    0.2397    3.7180   37.0000 
 722.6808   90.7430    2.6970    0.2253    3.8690   37.0000 
 722.9856   94.6160    2.6590    0.2104    3.4100   37.0000 
 723.2904   96.1170    2.6430    0.2321    3.1790   37.0000 
 723.5952   99.4110    2.6500    0.2509    3.1260   37.0000 
 723.9000   96.4400    2.6470    0.2450    3.1270   37.0000 
 724.2048   98.5100    2.6220    0.2346    3.3460   37.0000 
 724.5096  100.5780    2.6300    0.2491    3.2350   37.0000 
 724.8144   98.1270    2.6370    0.2741    3.2420   37.0000 
 725.1192  100.1060    2.6280    0.2763    3.1520   37.0000 
 725.4240  104.2760    2.6250    0.2567    3.1440   37.0000 
 725.7288  102.9260    2.5930    0.2334    3.2320   37.0000 
 726.0336   98.9370    2.5560    0.2513    2.9590   37.0000 
 726.3384  101.5880    2.5830    0.2695    3.0650   37.0000 
 726.6432  102.5610    2.6120    0.2490    3.2480   37.0000 
 726.9480  100.0010    2.6190    0.2486    3.3350   37.0000 
 727.2528   97.8150    2.6030    0.2367    3.2320   37.0000 
 727.5576   96.5360    2.5690    0.2193    2.9750   37.0000 
 727.8624  104.2490    2.5900    0.2548    3.2480   37.0000 
 728.1672  102.0440    2.6420    0.2733    3.6770   37.0000 
 728.4720   98.6460    2.6900    0.2630    3.8920   37.0000 
 728.7768  102.8960    2.6930    0.2314    3.3750   37.0000 
 729.0816  104.2940    2.6430    0.2360    3.1540   37.0000 
 729.3864  105.5130    2.6260    0.2348    3.2450   37.0000 
 729.6912  103.0760    2.6200    0.2327    3.4930   37.0000 
 729.9960   99.9810    2.6240    0.2382    3.2040   37.0000 
 730.3008  101.1000    2.5810    0.2340    3.1660   37.0000 
 730.6056  101.1350    2.5980    0.2304    3.1090   37.0000 
 730.9104  100.3080    2.6170    0.2780    3.0000   37.0000 
 731.2152  104.1210    2.6310    0.2658    3.2370   37.0000 
 731.5200  102.5390    2.6260    0.2629    3.4620   37.0000 
 731.8248  101.9610    2.6560    0.2545    3.3410   37.0000 
 732.1296   97.6820    2.6390    0.2348    3.3440   37.0000 
 732.4344  103.8080    2.6450    0.2484    3.3550   37.0000 
 732.7392  108.6150    2.6400    0.2726    3.4360   37.0000 
 733.0440  104.3150    2.6750    0.2389    3.4490   37.0000 
 733.3488  101.9340    2.6500    0.2598    3.3240   37.0000 
 733.6536  104.7990    2.6140    0.2946    3.4190   37.0000 
 733.9584  101.2760    2.6070    0.2868    3.3620   37.0000 
 734.2632  100.2890    2.6070    0.2834    3.0850   37.0000 
 734.5680  104.7450    2.6270    0.2820    2.9990   37.0000 
 734.8728  110.2820    2.6440    0.2949    3.1460   37.0000 
 735.1776  102.7790    2.6640    0.2677    3.4930   37.0000 
 735.4824   87.8190    2.7000    0.2244    4.0330   37.0000 
 735.7872   88.9310    2.7040    0.2079    3.9060   37.0000 
 736.0920   94.3440    2.6640    0.2137    3.6090   37.0000 
 736.3968   98.9880    2.6390    0.2299    3.5440   37.0000 
 736.7016   97.9850    2.6470    0.2389    3.8190   37.0000 
 737.0064  100.7090    2.6590    0.2507    3.6920   37.0000 
 737.3112  101.1480    2.6460    0.2466    3.5600   37.0000 
 737.6160   96.6900    2.6540    0.2318    3.6200   37.0000 
 737.9208   98.7020    2.6500    0.2547    3.4590   37.0000 
 738.2256  102.1560    2.6580    0.2781    3.5330   37.0000 
 738.5304  107.8730    2.6490    0.2687    3.3840   37.0000 
 738.8352  108.3150    2.6720    0.2760    3.5950   37.0000 
 739.1400  103.4330    2.6960    0.2626    3.2970   37.0000 
 739.4448  106.2710    2.6600    0.2760    3.0250   37.0000 
 739.7496  104.6270    2.6420    0.2637    3.1820   37.0000 
 740.0544  102.3540    2.6550    0.2420    2.9410   37.0000 
 740.3592  103.3410    2.6440    0.2380    3.1170   37.0000 
 740.6640  102.1140    2.6290    0.2504    3.3670   37.0000 
 740.9688   97.1240    2.6290    0.2465    3.3240   37.0000 
 741.2736   93.9860    2.6310    0.2539    3.1810   37.0000 
 741.5784   97.3070    2.6130    0.2600    3.1740   37.0000 
 741.8832  100.1850    2.5790    0.2318    2.9190   37.0000 
 742.1880   98.4720    2.4690    0.2121    2.6680   37.0000 
 742.4928   95.8380    2.5230    0.2437    2.9350   37.0000 
 742.7976   94.5390    2.5850    0.3175    3.0240   37.0000 
 743.1024   96.7880    2.6110    0.3091    3.0530   37.0000 
 743.4072   94.4570    2.6120    0.2756    3.0330   37.0000 
 743.7120   90.1880    2.6020    0.2454    2.9830   37.0000 
 744.0168   92.6730    2.6080    0.2318    3.0460   37.0000 
 744.3216   93.9180    2.6160    0.2346    3.0430   37.0000 
 744.6264   91.5180    2.6170    0.2488    3.1890   37.0000 
 744.9312   89.3910    2.6260    0.2478    3.1730   37.0000 
 745.2360   94.2510    2.6190    0.2297    3.0860   37.0000 
 745.5408   94.7940    2.6050    0.2205    3.1090   37.0000 
 745.8456   92.2220    2.6210    0.2504    3.1840   37.0000 
 746.1504   89.0660    2.6420    0.2232    2.8880   37.0000 
 746.4552   90.9470    2.6380    0.2130    3.0820   37.0000 
 746.7600   93.0780    2.6480    0.2406    3.3880   37.0000 
 747.0648   91.2980    2.6640    0.2509    3.6570   37.0000 
 747.3696   79.5360    2.6810    0.2486    3.4080   37.0000 
 747.6744   84.4800    2.6650    0.2231    3.1800   37.0000 
 747.9792   89.5490    2.6110    0.1982    3.6440   37.0000 
 748.2840   86.4380    2.6340    0.2389    3.0340   37.0000 
 748.5888   85.7060    2.5500    0.2222    2.6330   37.0000 
 748.8936   88.1670    2.2880    0.2537    3.2550   37.0000 
 749.1984   92.6450    2.4200    0.2978    3.4950   37.0000 
 749.5032   86.9550    2.6420    0.2704    3.6210   37.0000 
 749.8080   78.1770    2.6960    0.2203    3.3640   37.0000 
 750.1128   84.9860    2.6800    0.1854    3.2330   37.0000 
 750.4176   96.4250    2.6540    0.1888    3.0650   37.0000 
 750.7224  100.1490    2.6300    0.2093    3.6170   37.0000 
 751.0272   97.6620    2.6460    0.2247    3.4040   37.0000 
 751.3320   96.5450    2.6440    0.2400    3.1620   37.0000 
 751.6368   95.1080    2.6590    0.2481    3.5270   37.0000 
 751.9416   91.7210    2.6790    0.2415    3.8060   37.0000 
 752.2464   86.2950    2.6980    0.2419    3.6950   37.0000 
 752.5512   93.1820    2.6740    0.2143    3.4220   37.0000 
 752.8560  101.2920    2.6650    0.2226    3.4150   37.0000 
 753.1608  106.1000    2.6400    0.2804    3.2790   37.0000 
 753.4656  105.5130    2.6150    0.2796    3.2680   37.0000 
 753.7704  107.2400    2.6140    0.2722    3.4380   37.0000 
 754.0752  104.5130    2.6450    0.2644    3.5410   37.0000 
 754.3800  101.3990    2.6770    0.2717    3.3840   37.0000 
 754.6848   98.7840    2.6650    0.2846    3.2410   37.0000 
 754.9896  100.0160    2.6550    0.2590    3.1380   37.0000 
