~VERSION INFORMATION
 VERS.                 2.0:   CWLS LOG ASCII STANDARD - VERSION 2.0
 WRAP.                  NO:   SINGLE LINE PER DEPTH STEP
 CREA.                 05/01/2018 16:27:01
#CREATED USING DSPetro VERSION 5000.10.1.3 BY H191660 ON 05/01/2018 16:27:01
~WELL INFORMATION
#MNEM.UNIT       DATA                          DESCRIPTION MNEMONIC
#---------      ---------------------------   --------------------------
 STRT    .M         31.0896                   : START DEPTH
 STOP    .M         2498.4456                 : STOP DEPTH
 STEP    .M         0.3048                    : STEP VALUE
 NULL    .      -999.0000                     : NULL VALUE
 DATE    .      05/01/2018                    : LAS file Creation Date
 WELL .      BALDINO_1_36_M4998          : Well Name
 COMP .      Neftex Exploration Insights : Company
 FLD  .      HERSEY SEC 36               : Field
 UWI  .      DUSWL_BALDIN                : Unique Well Identifier (UWI)
 LOC  .                                  : Location
 RWS  .      -999                        : Def_Rw
 WST  .      -999                        : Def_Rwt
 SRVC .                                  : Contractor
~CURVE INFORMATION
#MNEM              UNIT       API CODE   Curve Type Comments
#----------  --------------- ----------  ---------- -----------
 DEPTH      .M                         : Depth       
 GR_API     .API                       : GammaRay    Gamma Ray (API) - Measures the intensity of natural gamma-ray radiation emitted from formations containing radioactive elements, such as K, Th and U
 RHOZ_G_CC  .g/cc                      :             Formation Density - Measures the density of formation, including any void space or other materials contained in the subject volume
 NPHI_v_v   .dec                       : Neutron     
 PEF_B_E    .b/e-                      : PEF         Photoelectric Factor - A log of photoelectric absorption properties. Often expressed in an approximation unit barns/electron (b/e-)
 LITH       .                          : LITH        Lithology Curve
~A  DEPTH   GR_API  RHOZ_G_C~  NPHI_v_v  PEF_B_E     LITH   
# ...
2002.5360   35.8280    2.8710    0.1307    5.4070    1.0000 
2002.8408   20.2020    2.8510    0.0175    4.8680   22.0000 
2003.1456   21.4760    2.6110    0.0041    4.2670   22.0000 
2003.4504   26.0430    2.4740    0.0099    3.9610   22.0000 
2003.7552   40.7490    2.5360    0.0136    4.0820   22.0000 
2004.0600   57.0080    2.6060    0.0441    3.9140   22.0000 
2004.3648   72.3500    2.6290    0.1056    4.0560   37.0000 
2004.6696   81.0540    2.6180    0.1295    4.6260   37.0000 
2004.9744   88.0610    2.5900    0.1591    4.1190   37.0000 
2005.2792   87.0600    2.5800    0.1941    3.6000   37.0000 
2005.5840   90.1790    2.5590    0.1896    3.7470   37.0000 
2005.8888   93.1880    2.5350    0.2352    3.9960   37.0000 
2006.1936   92.8950    2.5150    0.2533    4.0980   37.0000 
2006.4984   85.4780    2.5890    0.2445    3.8490   37.0000 
2006.8032   78.1190    2.6470    0.2057    3.9910   37.0000 
2007.1080   77.6430    2.6640    0.1297    4.0100   37.0000 
2007.4128   69.0650    2.6950    0.1181    4.6170   22.0000 
2007.7176   72.0750    2.7110    0.1050    4.1280   37.0000 
2008.0224   80.9270    2.5940    0.1296    3.6880   37.0000 
2008.3272   89.9300    2.5520    0.1723    3.4960   37.0000 
2008.6320   91.9670    2.5350    0.2017    3.7470   37.0000 
2008.9368   89.1720    2.5310    0.2325    3.6090   37.0000 
2009.2416   87.1980    2.5380    0.2458    3.8060   37.0000 
2009.5464   86.8550    2.5370    0.2498    3.9470   37.0000 
2009.8512   86.1980    2.5250    0.2402    3.5480   37.0000 
2010.1560   82.0830    2.5180    0.2055    3.6690   37.0000 
2010.4608   82.3370    2.5170    0.2107    3.8830   37.0000 
2010.7656   82.8110    2.6010    0.2205    4.0320   37.0000 
2011.0704   79.2440    2.6380    0.1817    4.7080   37.0000 
2011.3752   73.4300    2.6650    0.1445    4.9870   37.0000 
2011.6800   64.4700    2.6830    0.1107    5.2060   22.0000 
2011.9848   72.0960    2.6450    0.0754    4.8880   22.0000 
2012.2896   78.3410    2.6490    0.1000    4.2450   37.0000 
2012.5944   82.2300    2.5870    0.1098    3.7380   37.0000 
2012.8992   84.2070    2.5120    0.1418    3.9010   37.0000 
2013.2040   83.6280    2.4770    0.1456    4.0770   37.0000 
2013.5088   82.1900    2.4750    0.1570    4.0380   37.0000 
2013.8136   86.2610    2.4800    0.1879    3.8400   37.0000 
2014.1184   87.8940    2.4940    0.2125    3.6770   37.0000 
2014.4232   86.9030    2.5110    0.2463    3.6700   37.0000 
2014.7280   85.9050    2.5250    0.2457    3.5790   37.0000 
2015.0328   83.5290    2.5270    0.2453    3.6250   37.0000 
2015.3376   80.5400    2.5170    0.2481    3.6240   37.0000 
2015.6424   72.8970    2.5570    0.2526    4.1070   37.0000 
2015.9472   67.6370    2.6030    0.2113    5.1230   22.0000 
2016.2520   71.6550    2.6420    0.1269    4.4720   37.0000 
2016.5568   80.4570    2.6150    0.1043    3.7050   37.0000 
2016.8616   83.2890    2.5430    0.1225    4.0140   37.0000 
2017.1664   74.6150    2.6040    0.1541    4.3290   37.0000 
2017.4712   64.7960    2.6730    0.1749    4.6460   22.0000 
2017.7760   58.4660    2.6180    0.1239    4.5320   22.0000 
2018.0808   51.5780    2.5430    0.0612    4.6050   22.0000 
2018.3856   32.7410    2.3540    0.0071    4.6870   16.0000 
2018.6904   20.2010    2.1670   -0.0142    4.5330   16.0000 
2018.9952   16.1310    2.0950   -0.0187    4.3650   16.0000 
2019.3000   14.5910    2.0900   -0.0193    4.4980   16.0000 
2019.6048   14.1270    2.0860   -0.0186    4.5160   16.0000 
2019.9096   12.3410    2.0790   -0.0195    4.5190   16.0000 
2020.2144   13.3110    2.0630   -0.0203    4.5520   16.0000 
2020.5192   14.5260    2.0550   -0.0200    4.7500   16.0000 
2020.8240   14.8230    2.0860   -0.0196    4.9320   16.0000 
2021.1288   13.9920    2.1880   -0.0179    5.2640   16.0000 
2021.4336   11.6660    2.2300   -0.0159    4.9920   16.0000 
2021.7384   12.5040    2.1730   -0.0178    4.6490   16.0000 
2022.0432   14.0640    2.1040   -0.0192    4.7180   16.0000 
2022.3480   13.3470    2.0920   -0.0186    4.6320   16.0000 
2022.6528   17.1360    2.1340   -0.0162    5.0070   16.0000 
2022.9576   24.8690    2.4730   -0.0068    5.3380   16.0000 
2023.2624   34.2150    2.7820    0.0030    4.5330   18.0000 
2023.5672   32.5050    2.6870    0.0094    3.9860   18.0000 
2023.8720   30.6020    2.6560    0.0143    3.7540   18.0000 
2024.1768   27.3200    2.6550    0.0112    3.8370   18.0000 
2024.4816   28.2150    2.6030    0.0077    4.0190   18.0000 
2024.7864   29.6010    2.5220    0.0071    4.1260   16.0000 
2025.0912   34.6800    2.4820    0.0123    4.0040   16.0000 
2025.3960   57.8490    2.5420    0.0444    3.6890   22.0000 
2025.7008   76.9410    2.6240    0.1423    4.0230   22.0000 
2026.0056   77.4420    2.6510    0.1651    4.2420   22.0000 
2026.3104   69.7880    2.6990    0.1270    4.5150   22.0000 
2026.6152   57.2100    2.7550    0.0680    4.8010   22.0000 
2026.9200   52.3620    2.7250    0.0472    4.8140   22.0000 
2027.2248   62.1600    2.6400    0.1119    4.4760   22.0000 
2027.5296   61.2740    2.6540    0.0603    4.7030   22.0000 
2027.8344   43.2480    2.5490    0.0013    5.0460   16.0000 
2028.1392   24.6890    2.2370   -0.0118    4.9620   16.0000 
2028.4440   16.8080    2.1180   -0.0165    4.9040   16.0000 
2028.7488   15.6750    2.1170   -0.0181    4.9570   16.0000 
2029.0536   15.4610    2.1010   -0.0182    4.8640   16.0000 
2029.3584   18.2900    2.0810   -0.0179    4.9830   16.0000 
2029.6632   30.1550    2.1950   -0.0110    4.4520   16.0000 
2029.9680   49.9700    2.3870    0.0169    3.7780   16.0000 
2030.2728   74.3520    2.5070    0.0754    4.0390   22.0000 
2030.5776   81.1320    2.5280    0.0835    4.3050   22.0000 
2030.8824   70.4130    2.5370    0.0867    4.5180   22.0000 
2031.1872   46.4120    2.3510    0.0473    4.6500   16.0000 
2031.4920   22.9220    2.1240   -0.0113    4.7170   16.0000 
2031.7968   29.3340    2.2100   -0.0118    4.4870   16.0000 
2032.1016   37.7780    2.3600    0.0198    4.2590   16.0000 
2032.4064   30.6210    2.2260    0.0014    4.5760   16.0000 
2032.7112   20.8080    2.1510   -0.0131    4.6650   16.0000 
2033.0160   16.2600    2.1200   -0.0170    4.7770   16.0000 
2033.3208   15.3230    2.1190   -0.0180    4.7840   16.0000 
2033.6256   14.8850    2.1480   -0.0165    4.8600   16.0000 
2033.9304   13.6850    2.1800   -0.0178    4.8050   16.0000 
2034.2352   14.1710    2.1350   -0.0196    4.7830   16.0000 
2034.5400   13.3440    2.1310   -0.0198    4.7870   16.0000 
2034.8448   11.5470    2.1190   -0.0197    4.6870   16.0000 
2035.1496   12.0350    2.0890   -0.0193    4.8020   16.0000 
2035.4544   11.8620    2.0960   -0.0194    4.6640   16.0000 
2035.7592   12.5160    2.0960   -0.0192    4.8890   16.0000 
2036.0640   14.3940    2.0870   -0.0199    4.9060   16.0000 
2036.3688   15.4980    2.0890   -0.0204    4.7290   16.0000 
2036.6736   14.6670    2.0630   -0.0205    4.6820   16.0000 
2036.9784   11.5160    2.0650   -0.0208    4.6760   16.0000 
2037.2832   12.3020    2.0630   -0.0206    4.8390   16.0000 
2037.5880   13.1330    2.0580   -0.0202    4.7570   16.0000 
2037.8928   13.9380    2.0530   -0.0197    4.9020   16.0000 
2038.1976   14.0520    2.0510   -0.0191    5.1260   16.0000 
2038.5024   11.2670    2.0480   -0.0192    5.2510   16.0000 
2038.8072   13.1820    2.0590   -0.0189    5.2160   16.0000 
2039.1120   15.4040    2.0800   -0.0171    5.2500   16.0000 
2039.4168   14.8950    2.1080   -0.0172    5.3000   16.0000 
2039.7216   14.0580    2.0770   -0.0190    5.1260   16.0000 
2040.0264   13.9610    2.1080   -0.0187    4.8150   16.0000 
2040.3312   14.5590    2.1980   -0.0152    5.1820   16.0000 
2040.6360   20.9150    2.4480   -0.0045    5.3420   16.0000 
2040.9408   27.4020    2.6040    0.0086    4.4490   18.0000 
2041.2456   31.1780    2.6470    0.0186    4.0130   18.0000 
2041.5504   39.2220    2.6380    0.0334    4.1790   18.0000 
2041.8552   52.1930    2.6720    0.0894    4.1720    1.0000 
2042.1600   64.3820    2.7060    0.1175    4.4080    1.0000 
2042.4648   64.8480    2.6930    0.1338    4.6890    1.0000 
