~VERSION INFORMATION
 VERS.                 2.0:   CWLS LOG ASCII STANDARD - VERSION 2.0
 WRAP.                  NO:   SINGLE LINE PER DEPTH STEP
 CREA.                 05/01/2018 16:27:01
#CREATED USING DSPetro VERSION 5000.10.1.3 BY H191660 ON 05/01/2018 16:27:01
~WELL INFORMATION
#MNEM.UNIT       DATA                          DESCRIPTION MNEMONIC
#---------      ---------------------------   --------------------------
 STRT    .M         31.0896                   : START DEPTH
 STOP    .M         2498.4456                 : STOP DEPTH
 STEP    .M         0.3048                    : STEP VALUE
 NULL    .      -999.0000                     : NULL VALUE
 DATE    .      05/01/2018                    : LAS file Creation Date
 WELL .      BALDINO_1_36_M4998          : Well Name
 COMP .      Neftex Exploration Insights : Company
 FLD  .      HERSEY SEC 36               : Field
 UWI  .      DUSWL_BALDIN                : Unique Well Identifier (UWI)
 LOC  .                                  : Location
 RWS  .      -999                        : Def_Rw
 WST  .      -999                        : Def_Rwt
 SRVC .                                  : Contractor
~CURVE INFORMATION
#MNEM              UNIT       API CODE   Curve Type Comments
#----------  --------------- ----------  ---------- -----------
 DEPTH      .M                         : Depth       
 GR_API     .API                       : GammaRay    Gamma Ray (API) - Measures the intensity of natural gamma-ray radiation emitted from formations containing radioactive elements, such as K, Th and U
 RHOZ_G_CC  .g/cc                      :             Formation Density - Measures the density of formation, including any void space or other materials contained in the subject volume
 NPHI_v_v   .dec                       : Neutron     
 PEF_B_E    .b/e-                      : PEF         Photoelectric Factor - A log of photoelectric absorption properties. Often expressed in an approximation unit barns/electron (b/e-)
 LITH       .                          : LITH        Lithology Curve
~A  DEPTH   GR_API  RHOZ_G_C~  NPHI_v_v  PEF_B_E     LITH   
# ...
1439.2656    8.6490    2.9690   -0.0131    5.2220    1.0000 
1439.5704    8.4890    2.9640   -0.0129    4.9190    1.0000 
1439.8752    8.9940    2.9520   -0.0114    5.0250    1.0000 
1440.1800   11.4140    2.9560   -0.0114    5.2800    1.0000 
1440.4848   15.6380    2.9580   -0.0109    5.3390    1.0000 
1440.7896   22.4330    2.9050   -0.0039    3.6420   12.0000 
1441.0944   28.9940    2.8560    0.0009    3.0590   12.0000 
1441.3992   33.5550    2.8280    0.0021    2.9420   12.0000 
1441.7040   31.2060    2.8250    0.0027    2.8510   12.0000 
1442.0088   25.6580    2.8120    0.0076    2.9010   12.0000 
1442.3136   21.6620    2.7960    0.0195    2.7630   12.0000 
1442.6184   18.8490    2.7880    0.0420    2.8780   12.0000 
1442.9232   23.9820    2.8070    0.0495    3.1210   12.0000 
1443.2280   27.8870    2.8360    0.0083    3.6800   12.0000 
1443.5328   20.0850    2.9010   -0.0074    4.6740    1.0000 
1443.8376    9.9210    2.9580   -0.0124    5.1420    1.0000 
1444.1424    6.7040    2.9540   -0.0146    5.4550    1.0000 
1444.4472    6.8570    2.9550   -0.0150    5.1800    1.0000 
1444.7520    7.6670    2.9660   -0.0148    4.8870    1.0000 
1445.0568   10.5030    2.9500   -0.0140    4.8480    1.0000 
1445.3616   17.9810    2.9130   -0.0100    3.6880   12.0000 
1445.6664   25.0740    2.8700   -0.0022    2.9550   12.0000 
1445.9712   30.2610    2.8410   -0.0046    2.8700   12.0000 
1446.2760   28.7480    2.8590   -0.0069    3.7400   12.0000 
1446.5808   20.3550    2.9080   -0.0095    5.2970    1.0000 
1446.8856   14.1450    2.9580   -0.0115    4.9600    1.0000 
1447.1904   25.6370    2.8960   -0.0072    3.3590   12.0000 
1447.4952   29.0190    2.8330   -0.0013    3.0580   12.0000 
1447.8000   28.6050    2.8080    0.0013    2.9310   12.0000 
1448.1048   25.8210    2.8250    0.0009    3.1840   12.0000 
1448.4096   24.5870    2.8650   -0.0041    4.0970    1.0000 
1448.7144   16.9160    2.9120   -0.0088    4.9080    1.0000 
1449.0192    9.2780    2.9520   -0.0127    5.1190    1.0000 
1449.3240    8.2890    2.9530   -0.0138    5.0310    1.0000 
1449.6288    6.8820    2.9650   -0.0137    5.0390    1.0000 
1449.9336    6.3710    2.9620   -0.0134    5.1860    1.0000 
1450.2384    6.9180    2.9530   -0.0132    5.5610    1.0000 
1450.5432    7.6140    2.9490   -0.0123    5.5660    1.0000 
1450.8480    7.5020    2.9550   -0.0135    5.6480    1.0000 
1451.1528    7.2170    2.9670   -0.0137    5.1010    1.0000 
1451.4576    7.3380    2.9610   -0.0122    4.8120    1.0000 
1451.7624    8.0850    2.9710   -0.0116    5.0050    1.0000 
1452.0672    8.9690    2.9770   -0.0107    5.2640    1.0000 
1452.3720   10.3580    2.9470   -0.0098    4.9470    1.0000 
1452.6768   10.5620    2.9370   -0.0089    4.7740    1.0000 
1452.9816    9.4410    2.9390   -0.0097    5.3370    1.0000 
1453.2864    8.6220    2.9430   -0.0106    5.3470    1.0000 
1453.5912    9.0050    2.9470   -0.0111    5.0780    1.0000 
1453.8960    8.1320    2.9490   -0.0119    4.9370    1.0000 
1454.2008    7.7280    2.9420   -0.0119    5.3260    1.0000 
1454.5056    7.3290    2.9560   -0.0117    4.7900    1.0000 
1454.8104    7.5440    2.9670   -0.0118    5.0060    1.0000 
1455.1152    8.7410    2.9520   -0.0117    5.2380    1.0000 
1455.4200    9.1140    2.9330   -0.0098    5.0560    1.0000 
1455.7248    8.5910    2.9420   -0.0105    5.2780    1.0000 
1456.0296    7.0010    2.9460   -0.0120    5.7060    1.0000 
1456.3344    8.6660    2.9430   -0.0131    5.3930    1.0000 
1456.6392    9.1610    2.9310   -0.0104    4.8790    1.0000 
1456.9440    8.0390    2.9530   -0.0121    4.7310    1.0000 
1457.2488    6.8460    2.9510   -0.0133    4.9250    1.0000 
1457.5536    7.0790    2.9540   -0.0138    5.2030    1.0000 
1457.8584    6.6120    2.9580   -0.0129    5.0970    1.0000 
1458.1632   11.0270    2.9580   -0.0124    4.3730    1.0000 
1458.4680   14.9280    2.9210   -0.0077    4.2460    1.0000 
1458.7728   14.1260    2.9180   -0.0093    5.1580    1.0000 
1459.0776    9.8810    2.9440   -0.0117    5.1850    1.0000 
1459.3824    7.7610    2.9500   -0.0132    4.7230    1.0000 
1459.6872    8.0870    2.9510   -0.0131    4.7160    1.0000 
1459.9920    8.7230    2.9510   -0.0117    4.5700    1.0000 
1460.2968    9.7560    2.9490   -0.0106    4.4810    1.0000 
1460.6016   10.6790    2.9370   -0.0111    4.9620    1.0000 
1460.9064    9.5610    2.9420   -0.0122    5.2900    1.0000 
1461.2112    7.2620    2.9520   -0.0128    5.3170    1.0000 
1461.5160    7.8860    2.9600   -0.0130    5.1280    1.0000 
1461.8208    7.1030    2.9690   -0.0144    5.1910    1.0000 
1462.1256    6.7730    2.9710   -0.0142    5.0190    1.0000 
1462.4304    7.5210    2.9660   -0.0138    5.0270    1.0000 
1462.7352    8.8130    2.9510   -0.0133    4.9700    1.0000 
1463.0400    8.7180    2.9540   -0.0129    4.9770    1.0000 
1463.3448   11.1570    2.9410   -0.0110    4.5540    1.0000 
1463.6496   12.8630    2.9200   -0.0084    3.8970    1.0000 
1463.9544   14.4560    2.9140   -0.0079    4.0570    1.0000 
1464.2592   13.5260    2.9240   -0.0097    4.5830    1.0000 
1464.5640   10.6110    2.9290   -0.0115    4.9220    1.0000 
1464.8688    9.3120    2.9310   -0.0120    4.9870    1.0000 
1465.1736    9.3180    2.9500   -0.0117    5.1000    1.0000 
1465.4784    9.8030    2.9620   -0.0115    5.3470    1.0000 
1465.7832   14.5050    2.9680   -0.0099    4.9500    1.0000 
1466.0880   24.4140    2.9080   -0.0033    3.4910   12.0000 
1466.3928   27.2690    2.8500    0.0041    2.9800   12.0000 
1466.6976   22.4430    2.8370    0.0024    3.1330   12.0000 
1467.0024   24.2580    2.8400    0.0022    3.2640   12.0000 
1467.3072   22.1300    2.8770   -0.0012    3.8840    1.0000 
1467.6120   15.0110    2.9200   -0.0062    4.4670    1.0000 
1467.9168    9.8190    2.9330   -0.0103    4.2880    1.0000 
1468.2216   10.1970    2.9400   -0.0100    4.4320    1.0000 
1468.5264    8.7240    2.9560   -0.0129    4.5930    1.0000 
1468.8312    7.7880    2.9600   -0.0132    4.4620    1.0000 
1469.1360    8.3120    2.9680   -0.0131    4.6060    1.0000 
1469.4408    8.5070    2.9640   -0.0130    4.5400    1.0000 
1469.7456    9.1320    2.9590   -0.0126    4.4740    1.0000 
1470.0504   10.1840    2.9590   -0.0122    4.8950    1.0000 
1470.3552   13.2510    2.9490   -0.0111    5.8490    1.0000 
1470.6600   17.7170    2.9510   -0.0077    5.6300    1.0000 
1470.9648   16.2470    2.9370   -0.0044    4.5800    1.0000 
1471.2696   18.8460    2.8930   -0.0035    3.6120   12.0000 
1471.5744   19.8420    2.8840   -0.0050    4.0030    1.0000 
1471.8792   15.2990    2.9330   -0.0099    4.6350    1.0000 
1472.1840   10.5260    2.9600   -0.0126    4.9970    1.0000 
1472.4888    7.0790    2.9610   -0.0129    4.9660    1.0000 
1472.7936    7.4720    2.9450   -0.0132    5.0970    1.0000 
1473.0984    8.5200    2.9480   -0.0131    4.8190    1.0000 
1473.4032   12.9210    2.9080   -0.0118    4.2000    1.0000 
1473.7080   15.8400    2.8520   -0.0014    3.1090   12.0000 
1474.0128   17.7230    2.8420   -0.0026    3.4790   12.0000 
1474.3176   14.7410    2.8870   -0.0058    3.9640    1.0000 
1474.6224   12.0060    2.9290   -0.0096    4.1810    1.0000 
1474.9272   12.2820    2.9170   -0.0067    3.7860   12.0000 
1475.2320   14.8760    2.8910   -0.0022    3.6870   12.0000 
1475.5368   16.1660    2.8840   -0.0078    4.0860    1.0000 
1475.8416   12.6710    2.9300   -0.0107    4.3930    1.0000 
1476.1464   11.5980    2.9470   -0.0101    4.9580    1.0000 
1476.4512   11.0190    2.9440   -0.0114    4.9970    1.0000 
1476.7560    9.8360    2.9510   -0.0129    5.1910    1.0000 
1477.0608    8.7330    2.9640   -0.0135    5.0260    1.0000 
1477.3656    7.6110    2.9680   -0.0137    4.7390    1.0000 
1477.6704    8.4780    2.9690   -0.0128    4.9370    1.0000 
1477.9752   13.0770    2.9460   -0.0106    4.2070    1.0000 
1478.2800   16.4600    2.9010   -0.0067    3.4140   12.0000 
1478.5848   18.2570    2.8490   -0.0008    3.1200   12.0000 
1478.8896   19.7850    2.8210    0.0055    2.9630   12.0000 
1479.1944   19.9250    2.7980    0.0318    3.1100   12.0000 
