~VERSION INFORMATION
 VERS.                 2.0:   CWLS LOG ASCII STANDARD - VERSION 2.0
 WRAP.                  NO:   SINGLE LINE PER DEPTH STEP
 CREA.                 05/01/2018 16:27:01
#CREATED USING DSPetro VERSION 5000.10.1.3 BY H191660 ON 05/01/2018 16:27:01
~WELL INFORMATION
#MNEM.UNIT       DATA                          DESCRIPTION MNEMONIC
#---------      ---------------------------   --------------------------
 STRT    .M         31.0896                   : START DEPTH
 STOP    .M         2498.4456                 : STOP DEPTH
 STEP    .M         0.3048                    : STEP VALUE
 NULL    .      -999.0000                     : NULL VALUE
 DATE    .      05/01/2018                    : LAS file Creation Date
 WELL .      BALDINO_1_36_M4998          : Well Name
 COMP .      Neftex Exploration Insights : Company
 FLD  .      HERSEY SEC 36               : Field
 UWI  .      DUSWL_BALDIN                : Unique Well Identifier (UWI)
 LOC  .                                  : Location
 RWS  .      -999                        : Def_Rw
 WST  .      -999                        : Def_Rwt
 SRVC .                                  : Contractor
~CURVE INFORMATION
#MNEM              UNIT       API CODE   Curve Type Comments
#----------  --------------- ----------  ---------- -----------
 DEPTH      .M                         : Depth       
 GR_API     .API                       : GammaRay    Gamma Ray (API) - Measures the intensity of natural gamma-ray radiation emitted from formations containing radioactive elements, such as K, Th and U
 RHOZ_G_CC  .g/cc                      :             Formation Density - Measures the density of formation, including any void space or other materials contained in the subject volume
 NPHI_v_v   .dec                       : Neutron     
 PEF_B_E    .b/e-                      : PEF         Photoelectric Factor - A log of photoelectric absorption properties. Often expressed in an approximation unit barns/electron (b/e-)
 LITH       .                          : LITH        Lithology Curve
~A  DEPTH   GR_API  RHOZ_G_C~  NPHI_v_v  PEF_B_E     LITH   
# ...
1157.6304   24.1760    2.7100    0.0109    4.4940   18.0000 
1157.9352   21.6150    2.6930    0.0061    4.4010   18.0000 
1158.2400   25.2690    2.6850    0.0023    4.7310   18.0000 
1158.5448   27.1140    2.6970    0.0070    5.0510   18.0000 
1158.8496   21.7440    2.6980    0.0022    4.9340   18.0000 
1159.1544   23.5040    2.6980   -0.0007    4.7130   18.0000 
1159.4592   27.8340    2.6970   -0.0002    4.7960   18.0000 
1159.7640   25.9820    2.7050    0.0028    4.6440   18.0000 
1160.0688   21.5840    2.7170    0.0023    4.8340   18.0000 
1160.3736   24.8510    2.7110    0.0016    4.6940   18.0000 
1160.6784   31.1580    2.6960    0.0064    4.7070   18.0000 
1160.9832   29.3990    2.7020    0.0138    4.6630   18.0000 
1161.2880   31.3190    2.7090    0.0114    4.4420   18.0000 
1161.5928   30.9110    2.7140    0.0136    4.5430   18.0000 
1161.8976   25.8260    2.7070    0.0123    4.5720   18.0000 
1162.2024   25.8360    2.6920    0.0100    4.4270   18.0000 
1162.5072   25.2920    2.7010    0.0076    4.7060   18.0000 
1162.8120   18.9270    2.6870    0.0055    4.9530   18.0000 
1163.1168   20.4440    2.6930    0.0035    4.7340   18.0000 
1163.4216   27.8450    2.6880    0.0051    4.7970   18.0000 
1163.7264   37.6760    2.6920    0.0123    4.7370   18.0000 
1164.0312   40.9400    2.6930    0.0283    4.8010   18.0000 
1164.3360   45.6630    2.6880    0.0449    4.6100   18.0000 
1164.6408   43.6440    2.6810    0.0688    4.3680   18.0000 
1164.9456   36.8210    2.6820    0.0500    4.6050   18.0000 
1165.2504   33.0360    2.6900    0.0229    4.3200   18.0000 
1165.5552   33.0390    2.6950    0.0250    4.1550   18.0000 
1165.8600   32.0940    2.7030    0.0200    4.1920   18.0000 
1166.1648   36.0980    2.7120    0.0182    4.0270   18.0000 
1166.4696   36.1910    2.7000    0.0235    4.2670   18.0000 
1166.7744   30.6960    2.6860    0.0111    4.2740   18.0000 
1167.0792   23.7270    2.6840    0.0069    4.0950   18.0000 
1167.3840   25.3380    2.6940    0.0022    4.4290   18.0000 
1167.6888   23.8710    2.6890    0.0060    4.2140   18.0000 
1167.9936   28.9430    2.6820    0.0081    4.0450   18.0000 
1168.2984   33.1140    2.6800    0.0167    4.0190   18.0000 
1168.6032   35.6160    2.6970    0.0295    4.0740   18.0000 
1168.9080   30.7770    2.7040    0.0178    4.3070   18.0000 
1169.2128   24.4680    2.6970    0.0080    4.4400   18.0000 
1169.5176   19.2840    2.6990    0.0005    4.2900   18.0000 
1169.8224   22.1580    2.7060   -0.0011    4.2960   18.0000 
1170.1272   23.6070    2.7060    0.0033    4.3610   18.0000 
1170.4320   23.7810    2.7000    0.0046    4.5230   18.0000 
1170.7368   22.0110    2.7030    0.0028    4.6900   18.0000 
1171.0416   20.6880    2.7070    0.0001    4.6600   18.0000 
1171.3464   22.6340    2.7020    0.0013    4.4320   18.0000 
1171.6512   24.3440    2.7050    0.0072    4.4820   18.0000 
1171.9560   21.6210    2.7070    0.0067    4.4800   18.0000 
1172.2608   19.9790    2.7050    0.0052    4.2520   18.0000 
1172.5656   24.1410    2.6920    0.0055    4.0940   18.0000 
1172.8704   29.0840    2.6810    0.0102    4.0510   18.0000 
1173.1752   29.7210    2.6750    0.0195    3.8560   18.0000 
1173.4800   37.0110    2.6600    0.0293    3.9750   18.0000 
1173.7848   60.7410    2.6740    0.0430    3.6700   22.0000 
1174.0896   84.2640    2.6840    0.0943    3.3020   37.0000 
1174.3944   98.4540    2.6740    0.1836    3.1450   37.0000 
1174.6992   96.1680    2.6780    0.2242    3.4220   37.0000 
1175.0040   86.0600    2.6730    0.2129    3.5370   37.0000 
1175.3088   73.8320    2.6840    0.1831    3.8220   37.0000 
1175.6136   58.9160    2.6940    0.1593    4.1390   22.0000 
1175.9184   43.6100    2.6880    0.1076    4.4260   22.0000 
1176.2232   33.6330    2.7030    0.0556    4.2930   18.0000 
1176.5280   28.5570    2.7150    0.0382    4.0720   18.0000 
1176.8328   43.5260    2.7160    0.0380    3.9800   18.0000 
1177.1376   74.8760    2.6880    0.0903    3.4830   22.0000 
1177.4424   94.9650    2.6630    0.1590    3.0590   37.0000 
1177.7472  101.2550    2.6480    0.2053    3.1310   37.0000 
1178.0520  101.5850    2.6320    0.2043    3.0190   37.0000 
1178.3568  101.3240    2.6380    0.2206    2.8750   37.0000 
1178.6616  103.0980    2.6480    0.2251    3.0010   37.0000 
1178.9664  106.5060    2.6430    0.2208    3.0240   37.0000 
1179.2712  106.5330    2.6500    0.2226    2.9110   37.0000 
1179.5760  106.3940    2.6420    0.2346    3.0850   37.0000 
1179.8808  106.1390    2.6380    0.2323    3.0880   37.0000 
1180.1856  106.8450    2.6350    0.2352    3.0840   37.0000 
1180.4904  106.9860    2.6400    0.2249    3.1030   37.0000 
1180.7952  105.1200    2.6520    0.2324    3.0230   37.0000 
1181.1000  106.0470    2.6490    0.2299    3.0100   37.0000 
1181.4048  106.3020    2.6440    0.2358    3.1590   37.0000 
1181.7096  105.9890    2.6460    0.2454    3.2110   37.0000 
1182.0144  105.2780    2.6510    0.2441    3.0770   37.0000 
1182.3192  104.8100    2.6550    0.2490    3.1030   37.0000 
1182.6240  106.5050    2.6530    0.2455    3.2180   37.0000 
1182.9288  107.7020    2.6510    0.2425    3.0740   37.0000 
1183.2336  109.1220    2.6520    0.2527    3.1770   37.0000 
1183.5384  108.8180    2.6520    0.2635    3.1220   37.0000 
1183.8432  107.3510    2.6480    0.2615    3.0350   37.0000 
1184.1480  104.2140    2.6460    0.2495    2.9520   37.0000 
1184.4528  106.6160    2.6570    0.2356    2.8890   37.0000 
1184.7576  106.0460    2.6560    0.2316    2.9780   37.0000 
1185.0624  104.1620    2.6600    0.2369    3.1710   37.0000 
1185.3672  102.9890    2.6590    0.2322    3.1260   37.0000 
1185.6720  104.9550    2.6520    0.2271    3.0310   37.0000 
1185.9768  104.6760    2.6420    0.2439    2.8500   37.0000 
1186.2816  105.6290    2.6560    0.2681    3.0480   37.0000 
1186.5864  107.3430    2.6620    0.2608    3.1370   37.0000 
1186.8912  106.5870    2.6630    0.2563    3.2020   37.0000 
1187.1960  107.1680    2.6440    0.2652    3.1810   37.0000 
1187.5008  109.1180    2.6530    0.2580    3.1310   37.0000 
1187.8056  106.6380    2.6490    0.2536    3.0510   37.0000 
1188.1104  108.9380    2.6580    0.2594    3.0900   37.0000 
1188.4152  110.9630    2.6580    0.2474    3.1670   37.0000 
1188.7200  111.9000    2.6520    0.2599    3.2310   37.0000 
1189.0248  108.1100    2.6560    0.2682    3.3150   37.0000 
1189.3296  104.6790    2.6560    0.2505    3.3570   37.0000 
1189.6344  102.4820    2.6660    0.2488    3.2660   37.0000 
1189.9392  105.3560    2.6790    0.2540    3.3520   37.0000 
1190.2440  103.7540    2.6810    0.2456    3.4140   37.0000 
1190.5488   97.8440    2.6780    0.2451    3.4530   37.0000 
1190.8536   89.5070    2.6710    0.2365    3.4400   37.0000 
1191.1584   84.9570    2.6810    0.2164    3.4870   37.0000 
1191.4632   82.9410    2.6880    0.2096    3.4630   37.0000 
1191.7680   86.4890    2.6870    0.2004    3.3910   37.0000 
1192.0728   89.1630    2.6840    0.1950    3.5180   37.0000 
1192.3776   95.2110    2.6820    0.1933    3.5150   37.0000 
1192.6824   92.9540    2.6730    0.2091    3.4760   37.0000 
1192.9872   85.9890    2.6670    0.2140    3.6860   37.0000 
1193.2920   91.1100    2.6740    0.1821    3.8370   37.0000 
1193.5968   94.6610    2.6700    0.1950    3.9210   37.0000 
1193.9016   74.6000    2.6860    0.1971    4.2240   37.0000 
1194.2064   43.0070    2.7030    0.1235    4.4320   18.0000 
1194.5112   22.0230    2.7050    0.0084    4.6830   18.0000 
1194.8160   19.7090    2.6890    0.0003    4.8920   18.0000 
1195.1208   18.7910    2.6670   -0.0017    4.6850   18.0000 
1195.4256   15.7110    2.6670   -0.0003    4.6040   18.0000 
1195.7304   14.1800    2.6600    0.0027    4.5030   18.0000 
1196.0352   15.2910    2.6620    0.0072    4.4740   18.0000 
1196.3400   14.8400    2.6770    0.0070    4.3950   18.0000 
1196.6448   13.4840    2.6750    0.0121    4.2690   18.0000 
1196.9496   12.6800    2.6800    0.0084    4.4490   18.0000 
1197.2544   12.9540    2.6850    0.0029    4.5020   18.0000 
1197.5592   12.1050    2.6700    0.0024    4.5410   18.0000 
