~VERSION INFORMATION
 VERS.                 2.0:   CWLS LOG ASCII STANDARD - VERSION 2.0
 WRAP.                  NO:   SINGLE LINE PER DEPTH STEP
 CREA.                 05/01/2018 16:27:01
#CREATED USING DSPetro VERSION 5000.10.1.3 BY H191660 ON 05/01/2018 16:27:01
~WELL INFORMATION
#MNEM.UNIT       DATA                          DESCRIPTION MNEMONIC
#---------      ---------------------------   --------------------------
 STRT    .M         31.0896                   : START DEPTH
 STOP    .M         2498.4456                 : STOP DEPTH
 STEP    .M         0.3048                    : STEP VALUE
 NULL    .      -999.0000                     : NULL VALUE
 DATE    .      05/01/2018                    : LAS file Creation Date
 WELL .      BALDINO_1_36_M4998          : Well Name
 COMP .      Neftex Exploration Insights : Company
 FLD  .      HERSEY SEC 36               : Field
 UWI  .      DUSWL_BALDIN                : Unique Well Identifier (UWI)
 LOC  .                                  : Location
 RWS  .      -999                        : Def_Rw
 WST  .      -999                        : Def_Rwt
 SRVC .                                  : Contractor
~CURVE INFORMATION
#MNEM              UNIT       API CODE   Curve Type Comments
#----------  --------------- ----------  ---------- -----------
 DEPTH      .M                         : Depth       
 GR_API     .API                       : GammaRay    Gamma Ray (API) - Measures the intensity of natural gamma-ray radiation emitted from formations containing radioactive elements, such as K, Th and U
 RHOZ_G_CC  .g/cc                      :             Formation Density - Measures the density of formation, including any void space or other materials contained in the subject volume
 NPHI_v_v   .dec                       : Neutron     
 PEF_B_E    .b/e-                      : PEF         Photoelectric Factor - A log of photoelectric absorption properties. Often expressed in an approximation unit barns/electron (b/e-)
 LITH       .                          : LITH        Lithology Curve
~A  DEPTH   GR_API  RHOZ_G_C~  NPHI_v_v  PEF_B_E     LITH   
# ...
 272.4912   28.1370 -999.0000 -999.0000 -999.0000 -999.0000 
 272.7960   34.4000 -999.0000 -999.0000 -999.0000 -999.0000 
 273.1008   39.0450 -999.0000 -999.0000 -999.0000 -999.0000 
 273.4056   41.3480 -999.0000 -999.0000 -999.0000 -999.0000 
 273.7104   44.2130 -999.0000 -999.0000 -999.0000 -999.0000 
 274.0152   41.4260 -999.0000 -999.0000 -999.0000 -999.0000 
 274.3200   38.4650 -999.0000 -999.0000 -999.0000 -999.0000 
 274.6248   35.3300 -999.0000 -999.0000 -999.0000 -999.0000 
 274.9296   38.5410 -999.0000 -999.0000 -999.0000 -999.0000 
 275.2344   40.6040 -999.0000 -999.0000 -999.0000 -999.0000 
 275.5392   40.3500 -999.0000 -999.0000 -999.0000 -999.0000 
 275.8440   41.6970 -999.0000 -999.0000 -999.0000 -999.0000 
 276.1488   40.4810 -999.0000 -999.0000 -999.0000 -999.0000 
 276.4536   41.3510 -999.0000 -999.0000 -999.0000 -999.0000 
 276.7584   42.3410 -999.0000 -999.0000 -999.0000 -999.0000 
 277.0632   39.2090 -999.0000 -999.0000 -999.0000 -999.0000 
 277.3680   37.8650 -999.0000 -999.0000 -999.0000 -999.0000 
 277.6728   32.9300 -999.0000 -999.0000 -999.0000 -999.0000 
 277.9776   29.0190 -999.0000 -999.0000 -999.0000 -999.0000 
 278.2824   35.9390 -999.0000 -999.0000 -999.0000 -999.0000 
 278.5872   45.6120 -999.0000 -999.0000 -999.0000 -999.0000 
 278.8920   43.3710 -999.0000 -999.0000 -999.0000 -999.0000 
 279.1968   33.1100 -999.0000 -999.0000 -999.0000 -999.0000 
 279.5016   23.8580 -999.0000 -999.0000 -999.0000 -999.0000 
 279.8064   16.1690 -999.0000 -999.0000 -999.0000 -999.0000 
 280.1112   16.1340 -999.0000 -999.0000 -999.0000 -999.0000 
 280.4160   23.3580 -999.0000 -999.0000 -999.0000 -999.0000 
 280.7208   35.7890 -999.0000 -999.0000 -999.0000 -999.0000 
 281.0256   39.3000 -999.0000 -999.0000 -999.0000 -999.0000 
 281.3304   34.4250 -999.0000 -999.0000 -999.0000 -999.0000 
 281.6352   28.7780 -999.0000 -999.0000 -999.0000 -999.0000 
 281.9400   21.9800 -999.0000 -999.0000 -999.0000 -999.0000 
 282.2448   18.6630 -999.0000 -999.0000 -999.0000 -999.0000 
 282.5496   18.7530 -999.0000 -999.0000 -999.0000 -999.0000 
 282.8544   18.1860 -999.0000 -999.0000 -999.0000 -999.0000 
 283.1592   20.0750 -999.0000 -999.0000 -999.0000 -999.0000 
 283.4640   20.3510 -999.0000 -999.0000 -999.0000 -999.0000 
 283.7688   19.7390 -999.0000 -999.0000 -999.0000 -999.0000 
 284.0736   23.1860 -999.0000 -999.0000 -999.0000 -999.0000 
 284.3784   24.9570 -999.0000 -999.0000 -999.0000 -999.0000 
 284.6832   22.7720 -999.0000 -999.0000 -999.0000 -999.0000 
 284.9880   19.5750    2.2370 -999.0000 -999.0000 -999.0000 
 285.2928   17.5740    2.2340 -999.0000 -999.0000 -999.0000 
 285.5976   21.7380    2.1950 -999.0000 -999.0000 -999.0000 
 285.9024   26.7530    2.1770 -999.0000 -999.0000 -999.0000 
 286.2072   34.2720    2.2190 -999.0000 -999.0000 -999.0000 
 286.5120   44.7240    2.2830 -999.0000 -999.0000 -999.0000 
 286.8168   52.4240    2.1970 -999.0000 -999.0000 -999.0000 
 287.1216   51.0860    1.9780 -999.0000 -999.0000 -999.0000 
 287.4264   39.3290    2.0350 -999.0000 -999.0000 -999.0000 
 287.7312   26.4740    2.1070 -999.0000 -999.0000 -999.0000 
 288.0360   19.6280    2.1040 -999.0000 -999.0000 -999.0000 
 288.3408   18.3480    2.0830 -999.0000 -999.0000 -999.0000 
 288.6456   20.8320    2.0860 -999.0000 -999.0000 -999.0000 
 288.9504   32.5590    2.1260 -999.0000 -999.0000 -999.0000 
 289.2552   49.9620    2.1710 -999.0000 -999.0000 -999.0000 
 289.5600   58.1940    2.1950 -999.0000 -999.0000 -999.0000 
 289.8648   58.7150    2.2220 -999.0000 -999.0000 -999.0000 
 290.1696   55.2810    2.1380 -999.0000 -999.0000 -999.0000 
 290.4744   53.0940    2.1730 -999.0000 -999.0000 -999.0000 
 290.7792   56.9720    2.2190 -999.0000   10.0120 -999.0000 
 291.0840   59.3970    2.3550 -999.0000    5.5830 -999.0000 
 291.3888   78.1670    2.5330 -999.0000    2.9280 -999.0000 
 291.6936   97.3650    2.4950    0.4245    2.7180   37.0000 
 291.9984  100.8770    2.5580    0.3835    3.0170   37.0000 
 292.3032  103.9650    2.5520    0.3690    2.7020   37.0000 
 292.6080  105.0170    2.4830    0.3721    2.4680   37.0000 
 292.9128   89.4240    2.4850    0.3485    1.9980   37.0000 
 293.2176   77.8430    2.5120    0.3198    2.1680   37.0000 
 293.5224   74.2860    2.5220    0.3587    2.0750   37.0000 
 293.8272   72.9410    2.4290    0.3947    1.9540   37.0000 
 294.1320   71.7200    2.2330    0.3609    1.9280   37.0000 
 294.4368   68.6960    2.4360    0.2844    2.0990   37.0000 
 294.7416   71.1240    2.6270    0.2603    2.8290   22.0000 
 295.0464   75.1250    2.7100    0.2455    2.5600   22.0000 
 295.3512   72.5220    2.5940    0.2239    2.1280   22.0000 
 295.6560   65.4330    2.5230    0.2075    2.2670   22.0000 
 295.9608   57.5090    2.5240    0.1862    2.4200   22.0000 
 296.2656   57.0000    2.5220    0.1631    2.0620   22.0000 
 296.5704   54.0350    2.4830    0.1829    2.0540   22.0000 
 296.8752   57.7920    2.4900    0.2342    2.0820   22.0000 
 297.1800   61.4160    2.5200    0.2141    1.9410   22.0000 
 297.4848   68.1000    2.4490    0.2299    2.1180   22.0000 
 297.7896   77.9600    2.3180    0.3347    2.4890   37.0000 
 298.0944   84.5160    2.4400    0.4126    3.0430   37.0000 
 298.3992   89.0450    2.5710    0.3499    3.1300   37.0000 
 298.7040   87.2930    2.6080    0.3268    3.1630   37.0000 
 299.0088   86.9070    2.5980    0.3431    2.9790   37.0000 
 299.3136   89.5130    2.5860    0.3541    2.7540   37.0000 
 299.6184   87.2790    2.5960    0.3411    2.8370   37.0000 
 299.9232   83.8980    2.5870    0.3269    2.9300   37.0000 
 300.2280   79.6200    2.3970    0.3894    2.4100   37.0000 
 300.5328   73.1910    1.9330    0.4837    2.0400   11.0000 
 300.8376   69.0270    2.0300    0.4700    2.1970   11.0000 
 301.1424   67.8150    2.1760    0.5221    1.8310   11.0000 
 301.4472   70.7910    2.9590    0.5122    2.0450   11.0000 
 301.7520   75.9030    2.0800    0.4773    2.7780   11.0000 
 302.0568   81.8690    2.5960    0.4446    2.6490   37.0000 
 302.3616   84.5990    2.6010    0.3949    2.5040   37.0000 
 302.6664   82.7870    2.5510    0.3113    2.6210   37.0000 
 302.9712   85.0880    2.5460    0.3238    2.6340   37.0000 
 303.2760   86.1950    2.5030    0.3361    2.2760   37.0000 
 303.5808   82.3980    2.4120    0.4360    2.6480   37.0000 
 303.8856   71.8320    2.3880    0.4484    3.0170   37.0000 
 304.1904   67.7910    2.3680    0.4119    3.0140   37.0000 
 304.4952   65.0720    2.3350    0.4417    2.8170   37.0000 
 304.8000   52.2240    1.8970    0.5508    1.9150   11.0000 
 305.1048   35.2520    1.5250    0.5495    1.3790   11.0000 
 305.4096   29.9510    1.4230    0.5318    1.5070   11.0000 
 305.7144   50.3580    1.5920    0.6626    1.9710   11.0000 
 306.0192   66.8660    2.0380    0.6096    2.4980   11.0000 
 306.3240   72.7110    2.3610    0.4530    3.0500   37.0000 
 306.6288   81.3120    2.5480    0.2982    2.6840   37.0000 
 306.9336   95.7210    2.4530    0.3389    2.3910   37.0000 
 307.2384  102.8820    2.3210    0.3862    2.4160   37.0000 
 307.5432   93.4530    2.4190    0.3729    2.6170   37.0000 
 307.8480   81.7650    2.5150    0.3900    2.8660   37.0000 
 308.1528   83.4060    2.5330    0.3771    2.8410   37.0000 
 308.4576   88.8980    2.5370    0.3559    2.5730   37.0000 
 308.7624   86.1780    2.5040    0.3356    2.6000   37.0000 
 309.0672   88.1880    2.4760    0.3443    2.5430   37.0000 
 309.3720   91.6310    2.4760    0.3647    2.6400   37.0000 
 309.6768   97.1150    2.4720    0.3485    2.7410   37.0000 
 309.9816  100.8030    2.4500    0.3226    2.7020   37.0000 
 310.2864   92.2200    2.2970    0.3917    2.3680   37.0000 
 310.5912   84.8340    2.1570    0.4191    2.1790   11.0000 
 310.8960   87.5010    2.4130    0.3876    2.3760   37.0000 
 311.2008   81.5580    2.5970    0.3498    2.5510   37.0000 
 311.5056   78.1080    2.6010    0.3326    2.4320   37.0000 
 311.8104   79.8300    2.5800    0.2683    2.4330   22.0000 
 312.1152   77.9360    2.5480    0.2329    2.4400   22.0000 
 312.4200   75.0530    2.5570    0.2232    2.3790   22.0000 
