~VERSION INFORMATION
 VERS.                 2.0:   CWLS LOG ASCII STANDARD - VERSION 2.0
 WRAP.                  NO:   SINGLE LINE PER DEPTH STEP
 CREA.                 05/01/2018 16:27:01
#CREATED USING DSPetro VERSION 5000.10.1.3 BY H191660 ON 05/01/2018 16:27:01
~WELL INFORMATION
#MNEM.UNIT       DATA                          DESCRIPTION MNEMONIC
#---------      ---------------------------   --------------------------
 STRT    .M         31.0896                   : START DEPTH
 STOP    .M         2498.4456                 : STOP DEPTH
 STEP    .M         0.3048                    : STEP VALUE
 NULL    .      -999.0000                     : NULL VALUE
 DATE    .      05/01/2018                    : LAS file Creation Date
 WELL .      BALDINO_1_36_M4998          : Well Name
 COMP .      Neftex Exploration Insights : Company
 FLD  .      HERSEY SEC 36               : Field
 UWI  .      DUSWL_BALDIN                : Unique Well Identifier (UWI)
 LOC  .                                  : Location
 RWS  .      -999                        : Def_Rw
 WST  .      -999                        : Def_Rwt
 SRVC .                                  : Contractor
~CURVE INFORMATION
#MNEM              UNIT       API CODE   Curve Type Comments
#----------  --------------- ----------  ---------- -----------
 DEPTH      .M                         : Depth       
 GR_API     .API                       : GammaRay    Gamma Ray (API) - Measures the intensity of natural gamma-ray radiation emitted from formations containing radioactive elements, such as K, Th and U
 RHOZ_G_CC  .g/cc                      :             Formation Density - Measures the density of formation, including any void space or other materials contained in the subject volume
 NPHI_v_v   .dec                       : Neutron     
 PEF_B_E    .b/e-                      : PEF         Photoelectric Factor - A log of photoelectric absorption properties. Often expressed in an approximation unit barns/electron (b/e-)
 LITH       .                          : LITH        Lithology Curve
~A  DEPTH   GR_API  RHOZ_G_C~  NPHI_v_v  PEF_B_E     LITH   
# ...
 433.4256    8.2590    2.9520   -0.0057    5.3620    1.0000 
 433.7304   13.5740    2.9230    0.0064    4.5250    1.0000 
 434.0352   25.7190    2.8280    0.0394    3.6730   12.0000 
 434.3400   32.3010    2.7620    0.0890    4.1900    1.0000 
 434.6448   18.8670    2.8720    0.0531    5.3150    1.0000 
 434.9496    9.9800    2.9420    0.0103    4.9830    1.0000 
 435.2544    9.4880    2.9670    0.0003    4.4670    1.0000 
 435.5592   11.5550    2.9630   -0.0016    4.3570    1.0000 
 435.8640   18.6740    2.9610    0.0025    4.5110    1.0000 
 436.1688   29.6210    2.8870    0.0242    3.8060   12.0000 
 436.4736   54.8870    2.7100    0.0934    3.0100   12.0000 
 436.7784   81.4770    2.5500    0.2188    2.7140   12.0000 
 437.0832   82.1280    2.5690    0.2894    3.1430   12.0000 
 437.3880   59.3250    2.6720    0.3006    3.8680   12.0000 
 437.6928   57.0330    2.7490    0.2427    3.5390   12.0000 
 437.9976   68.0360    2.6160    0.1663    2.8450   12.0000 
 438.3024   68.0820    2.5190    0.2957    3.1540   12.0000 
 438.6072   39.7160    2.6420    0.3219    4.1970    1.0000 
 438.9120   16.8660    2.9530    0.1751    4.7810    1.0000 
 439.2168    8.8130    2.9850   -0.0021    5.3290    1.0000 
 439.5216   12.5690    2.9600   -0.0044    5.5050    1.0000 
 439.8264   17.4710    2.9410    0.0016    5.2430    1.0000 
 440.1312   29.6790    2.7110    0.0542    3.1530   12.0000 
 440.4360   48.1770    2.0050    0.4066    1.8040   27.0000 
 440.7408   50.5010    1.9730    0.4704    2.3320   11.0000 
 441.0456   48.3180    2.2900    0.4539    3.5090    1.0000 
 441.3504   44.8910    2.6730    0.3055    3.9320   22.0000 
 441.6552   28.4450    2.8800    0.2002    4.2570    1.0000 
 441.9600   15.2970    2.9380    0.0449    4.4240    1.0000 
 442.2648   25.4070    2.7340    0.0761    3.4000   12.0000 
 442.5696   50.9870    2.5460    0.1969    3.0340   12.0000 
 442.8744   62.0120    2.6480    0.2805    3.6330   22.0000 
 443.1792   41.3070    2.7960    0.1833    3.9500    1.0000 
 443.4840   42.4280    2.8080    0.1220    3.7070   12.0000 
 443.7888   55.1790    2.5430    0.2535    3.1810   12.0000 
 444.0936   65.2250    2.0010    0.3954    1.9890   11.0000 
 444.3984   70.3100    1.9930    0.4243    2.4640   11.0000 
 444.7032   81.9240    2.2300    0.3965    3.0150   12.0000 
 445.0080   90.5970    2.5500    0.3771    3.0760   12.0000 
 445.3128   81.5210    2.5880    0.3525    3.1940   12.0000 
 445.6176   68.0120    2.6060    0.3426    3.2070   12.0000 
 445.9224   52.6580    2.6640    0.3091    3.4690   12.0000 
 446.2272   36.5060    2.7920    0.2692    3.7040   12.0000 
 446.5320   39.5510    2.7310    0.2612    3.1860   12.0000 
 446.8368   46.4180    2.3740    0.2935    2.4370   12.0000 
 447.1416   44.7270    2.1580    0.3511    3.1140   11.0000 
 447.4464   38.5830    2.6380    0.2978    3.5990   12.0000 
 447.7512   32.2100    2.8160    0.2499    3.9090   12.0000 
 448.0560   33.0380    2.7920    0.2014    4.0280    1.0000 
 448.3608   34.0320    2.7650    0.2231    3.7270   12.0000 
 448.6656   27.7790    2.6840    0.2656    2.8440   12.0000 
 448.9704   34.8390    2.0050    0.3231    1.7210   11.0000 
 449.2752   45.7310    1.7390    0.4471    1.5780   11.0000 
 449.5800   51.5220    1.9870    0.4439    2.2850   11.0000 
 449.8848   47.7890    2.3980    0.3404    2.9700   12.0000 
 450.1896   51.5400    2.2150    0.2916    2.0820   27.0000 
 450.4944   57.8820    2.0510    0.4411    2.7290   11.0000 
 450.7992   42.6480    2.5130    0.4016    3.6610   22.0000 
 451.1040   21.9450    2.8340    0.2392    4.2560   22.0000 
 451.4088    8.4380    2.9340    0.0475    4.5290    1.0000 
 451.7136    8.4180    2.9440    0.0250    4.6940    1.0000 
 452.0184   18.7190    2.9310    0.0435    4.5560    1.0000 
 452.3232   29.6630    2.8370    0.0643    4.6350    1.0000 
 452.6280   37.1960    2.7360    0.1037    4.4630    1.0000 
 452.9328   34.7840    2.7070    0.1438    4.0680    1.0000 
 453.2376   28.3550    2.6610    0.2117    3.6700   12.0000 
 453.5424   26.5410    2.6030    0.2469    3.4390   12.0000 
 453.8472   27.8910    2.5470    0.2666    3.2450   12.0000 
 454.1520   31.6010    2.5830    0.2837    3.1360   12.0000 
 454.4568   30.0150    2.6190    0.2745    3.1590   12.0000 
 454.7616   22.2650    2.6220    0.2565    3.2380   12.0000 
 455.0664   23.6280    2.6460    0.2385    3.1420   12.0000 
 455.3712   24.3270    2.7130    0.2378    3.4530   12.0000 
 455.6760   19.8080    2.7690    0.2129    3.6160   12.0000 
 455.9808   19.2590    2.7110    0.1908    3.6860   12.0000 
 456.2856   18.4620    2.6210    0.2308    3.4980   12.0000 
 456.5904   17.7170    2.6090    0.2801    3.2810   12.0000 
 456.8952   17.4030    2.6410    0.3053    3.0280   12.0000 
 457.2000   25.1670    2.6600    0.2860    3.2230   12.0000 
 457.5048   36.7370    2.6830    0.2527    3.3670   12.0000 
 457.8096   43.0620    2.6530    0.2513    3.3180   12.0000 
 458.1144   56.1150    2.6100    0.2565    3.2360   12.0000 
 458.4192   65.0840    2.5910    0.2883    3.0550   22.0000 
 458.7240   61.9460    2.5990    0.3012    2.9260   22.0000 
 459.0288   72.2960    2.6010    0.3107    2.9560   22.0000 
 459.3336   84.6680    2.5730    0.3271    2.9470   22.0000 
 459.6384   85.8570    2.3370    0.3452    2.4230   12.0000 
 459.9432   71.6360    2.1530    0.3941    2.8500   11.0000 
 460.2480   60.1700    2.4130    0.3432    3.5310   12.0000 
 460.5528   64.6470    2.6820    0.2716    3.2310   22.0000 
 460.8576   62.4360    2.7190    0.2478    3.4680   22.0000 
 461.1624   68.9310    2.7310    0.2123    3.5830   22.0000 
 461.4672   83.8950    2.6870    0.2855    3.8030   22.0000 
 461.7720   76.8210    2.6430    0.3084    3.6980   22.0000 
 462.0768   60.7350    2.4290    0.2566    3.1160   12.0000 
 462.3816   61.4270    2.0010    0.2956    2.2380   11.0000 
 462.6864   58.5300    2.0580    0.4016    2.4630   11.0000 
 462.9912   54.1250    2.4550    0.2772    2.5920   12.0000 
 463.2960   60.2300    2.6170    0.1820    2.4120   12.0000 
 463.6008   41.6990    2.6210    0.1543    2.4610   12.0000 
 463.9056   29.8710    2.6230    0.1000    2.5580   12.0000 
 464.2104   29.9690    2.6130    0.0738    2.5780   12.0000 
 464.5152   32.9490    2.5990    0.1062    2.5170   12.0000 
 464.8200   37.1810    2.5960    0.1319    2.5820   12.0000 
 465.1248   38.6600    2.5990    0.1395    2.4600   12.0000 
 465.4296   38.8250    2.6000    0.1327    2.5070   12.0000 
 465.7344   47.9810    2.5990    0.1271    2.5860   12.0000 
 466.0392   60.0630    2.5900    0.1655    2.7300   12.0000 
 466.3440   70.7180    2.6130    0.1956    3.0290   12.0000 
 466.6488   81.9690    2.6120    0.2454    3.2240   12.0000 
 466.9536   71.1020    2.6360    0.2656    3.3130   22.0000 
 467.2584   54.4770    2.6970    0.2422    3.8230   22.0000 
 467.5632   44.3930    2.7840    0.2131    4.4360    1.0000 
 467.8680   49.7030    2.8280    0.1690    3.9920    1.0000 
 468.1728   60.7710    2.7740    0.2022    3.0870   22.0000 
 468.4776   67.1670    2.6660    0.2709    2.9390   22.0000 
 468.7824   71.2860    2.6900    0.3097    3.0180   22.0000 
 469.0872   62.8770    2.7060    0.3171    3.5590   22.0000 
 469.3920   53.5050    2.7240    0.2761    3.6800   22.0000 
 469.6968   58.2840    2.7100    0.2474    3.2120   22.0000 
 470.0016   58.1610    2.7110    0.2445    3.2850   22.0000 
 470.3064   58.6200    2.6930    0.2352    3.2490   22.0000 
 470.6112   58.8920    2.7210    0.2500    3.6460   22.0000 
 470.9160   43.1130    2.7520    0.2122    4.0090    1.0000 
 471.2208   52.8060    2.7010    0.1905    3.5740   12.0000 
 471.5256   68.6150    2.5330    0.2122    3.0380   12.0000 
 471.8304   66.7290    1.9440    0.3134    1.7560   11.0000 
 472.1352   66.4110    1.6900    0.4238    2.0030   11.0000 
 472.4400   70.7130    1.9930    0.4500    2.3060   11.0000 
 472.7448   61.8260    1.9390    0.3961    1.9480   11.0000 
 473.0496   54.8510    1.9720    0.4459    2.4370   11.0000 
 473.3544   49.1960    2.3930    0.4468    3.1680   11.0000 
