~VERSION INFORMATION
 VERS.                 2.0:   CWLS LOG ASCII STANDARD - VERSION 2.0
 WRAP.                  NO:   SINGLE LINE PER DEPTH STEP
 CREA.                 05/01/2018 16:27:01
#CREATED USING DSPetro VERSION 5000.10.1.3 BY H191660 ON 05/01/2018 16:27:01
~WELL INFORMATION
#MNEM.UNIT       DATA                          DESCRIPTION MNEMONIC
#---------      ---------------------------   --------------------------
 STRT    .M         31.0896                   : START DEPTH
 STOP    .M         2498.4456                 : STOP DEPTH
 STEP    .M         0.3048                    : STEP VALUE
 NULL    .      -999.0000                     : NULL VALUE
 DATE    .      05/01/2018                    : LAS file Creation Date
 WELL .      BALDINO_1_36_M4998          : Well Name
 COMP .      Neftex Exploration Insights : Company
 FLD  .      HERSEY SEC 36               : Field
 UWI  .      DUSWL_BALDIN                : Unique Well Identifier (UWI)
 LOC  .                                  : Location
 RWS  .      -999                        : Def_Rw
 WST  .      -999                        : Def_Rwt
 SRVC .                                  : Contractor
~CURVE INFORMATION
#MNEM              UNIT       API CODE   Curve Type Comments
#----------  --------------- ----------  ---------- -----------
 DEPTH      .M                         : Depth       
 GR_API     .API                       : GammaRay    Gamma Ray (API) - Measures the intensity of natural gamma-ray radiation emitted from formations containing radioactive elements, such as K, Th and U
 RHOZ_G_CC  .g/cc                      :             Formation Density - Measures the density of formation, including any void space or other materials contained in the subject volume
 NPHI_v_v   .dec                       : Neutron     
 PEF_B_E    .b/e-                      : PEF         Photoelectric Factor - A log of photoelectric absorption properties. Often expressed in an approximation unit barns/electron (b/e-)
 LITH       .                          : LITH        Lithology Curve
~A  DEPTH   GR_API  RHOZ_G_C~  NPHI_v_v  PEF_B_E     LITH   
# ...
1881.8352   69.4880    2.6340    0.1660    3.8710   22.0000 
1882.1400   59.5790    2.6750    0.1479    4.1690   22.0000 
1882.4448   51.4310    2.6340    0.1035    4.7420   22.0000 
1882.7496   40.1810    2.4490    0.0248    5.1320   16.0000 
1883.0544   26.0630    2.1880   -0.0063    4.8990   16.0000 
1883.3592   20.8640    2.1160   -0.0159    4.7570   16.0000 
1883.6640   17.5980    2.0960   -0.0182    4.6910   16.0000 
1883.9688   15.5660    2.0880   -0.0181    4.5890   16.0000 
1884.2736   15.5760    2.0710   -0.0177    4.7240   16.0000 
1884.5784   20.1980    2.1040   -0.0149    4.8690   16.0000 
1884.8832   36.1920    2.2240    0.0045    4.7010   16.0000 
1885.1880   54.8340    2.4020    0.0615    4.0600   22.0000 
1885.4928   58.4240    2.4680    0.0915    4.4920   22.0000 
1885.7976   42.6470    2.2420    0.0438    4.9450   16.0000 
1886.1024   37.1900    2.2470    0.0134    4.7990   16.0000 
1886.4072   33.5690    2.2220    0.0014    4.9230   16.0000 
1886.7120   25.6170    2.1620   -0.0102    5.0630   16.0000 
1887.0168   21.2450    2.1130   -0.0146    5.0000   16.0000 
1887.3216   24.7280    2.1320   -0.0152    4.9200   16.0000 
1887.6264   29.4530    2.1750   -0.0105    4.8940   16.0000 
1887.9312   32.1110    2.2000   -0.0052    4.9430   16.0000 
1888.2360   27.6500    2.1610   -0.0090    4.9070   16.0000 
1888.5408   22.1480    2.1190   -0.0158    4.7100   16.0000 
1888.8456   19.9230    2.1340   -0.0165    4.7260   16.0000 
1889.1504   19.6620    2.1580   -0.0140    4.9770   16.0000 
1889.4552   18.8300    2.1880   -0.0138    5.1070   16.0000 
1889.7600   16.1430    2.1740   -0.0157    5.2480   16.0000 
1890.0648   13.5800    2.1280   -0.0187    5.0860   16.0000 
1890.3696   16.7060    2.1120   -0.0173    4.8880   16.0000 
1890.6744   19.9400    2.1740   -0.0095    4.4280   16.0000 
1890.9792   21.6870    2.1490   -0.0133    4.6270   16.0000 
1891.2840   16.7430    2.0950   -0.0169    4.8470   16.0000 
1891.5888   13.5030    2.0770   -0.0189    4.6610   16.0000 
1891.8936   13.4630    2.0820   -0.0198    4.5410   16.0000 
1892.1984   14.1950    2.0760   -0.0193    4.5070   16.0000 
1892.5032   15.6990    2.1160   -0.0175    4.6560   16.0000 
1892.8080   17.2110    2.1580   -0.0147    4.7970   16.0000 
1893.1128   16.2530    2.1210   -0.0147    4.8680   16.0000 
1893.4176   13.9340    2.1020   -0.0174    4.6900   16.0000 
1893.7224   12.5520    2.0920   -0.0192    4.7590   16.0000 
1894.0272   12.2700    2.0690   -0.0193    4.6890   16.0000 
1894.3320   12.8910    2.0500   -0.0191    4.6990   16.0000 
1894.6368   13.1480    2.0550   -0.0189    4.7660   16.0000 
1894.9416   14.3010    2.0620   -0.0185    4.9120   16.0000 
1895.2464   16.0340    2.0800   -0.0186    5.0130   16.0000 
1895.5512   18.2030    2.1410   -0.0175    4.9710   16.0000 
1895.8560   18.5030    2.1500   -0.0137    4.8670   16.0000 
1896.1608   16.7280    2.1170   -0.0156    4.8030   16.0000 
1896.4656   17.2380    2.1000   -0.0177    4.7900   16.0000 
1896.7704   17.6990    2.1140   -0.0179    4.8540   16.0000 
1897.0752   18.6800    2.1270   -0.0163    5.0300   16.0000 
1897.3800   18.4520    2.1320   -0.0159    4.9330   16.0000 
1897.6848   17.2850    2.1120   -0.0170    5.0160   16.0000 
1897.9896   17.7110    2.0920   -0.0183    5.1200   16.0000 
1898.2944   19.5110    2.1100   -0.0181    5.0900   16.0000 
1898.5992   20.1750    2.1520   -0.0168    5.1580   16.0000 
1898.9040   20.4680    2.1670   -0.0149    5.4040   16.0000 
1899.2088   22.1120    2.1750   -0.0122    5.5640   16.0000 
1899.5136   23.8490    2.2170   -0.0092    5.5510   16.0000 
1899.8184   24.0390    2.3030   -0.0054    5.6590   16.0000 
1900.1232   20.7630    2.5090    0.0003    5.7300   16.0000 
1900.4280   15.6260    2.6870    0.0005    5.6430   18.0000 
1900.7328   13.8930    2.7380   -0.0021    5.7260   18.0000 
1901.0376   15.1740    2.7180   -0.0029    5.1370   18.0000 
1901.3424   17.4470    2.7030   -0.0003    4.7410   18.0000 
1901.6472   20.3820    2.7100    0.0126    4.7030   18.0000 
1901.9520   28.1240    2.7630    0.0402    4.3230   12.0000 
1902.2568   36.0950    2.8350    0.0558    3.9880    1.0000 
1902.5616   34.8960    2.8760    0.0402    5.4740    1.0000 
1902.8664   28.6340    2.8200    0.0193    4.7050   18.0000 
1903.1712   29.1290    2.7190    0.0183    4.3290   18.0000 
1903.4760   26.8620    2.6670    0.0332    4.3730   18.0000 
1903.7808   24.4130    2.6880    0.0406    4.0130   18.0000 
1904.0856   25.5470    2.7260    0.0429    3.8890   18.0000 
1904.3904   24.7440    2.7360    0.0440    3.8090   18.0000 
1904.6952   25.7130    2.7140    0.0521    3.6950   18.0000 
1905.0000   31.5180    2.7870    0.0664    4.1890    1.0000 
1905.3048   33.4560    2.8910    0.0360    6.2030    1.0000 
1905.6096   27.1880    2.9340    0.0094    5.5760    1.0000 
1905.9144   25.3910    2.7640    0.0081    3.7980   18.0000 
1906.2192   26.1870    2.6470    0.0169    3.9120   18.0000 
1906.5240   25.0500    2.6280    0.0182    3.8680   18.0000 
1906.8288   31.1720    2.6390    0.0274    3.6620   18.0000 
1907.1336   49.9260    2.6530    0.0672    4.1980   18.0000 
1907.4384   59.6990    2.7320    0.1082    5.0010   22.0000 
1907.7432   42.6500    2.5610    0.0536    5.3810   22.0000 
1908.0480   26.0150    2.1650    0.0039    5.3340   16.0000 
1908.3528   18.5970    2.0840   -0.0104    5.3290   16.0000 
1908.6576   14.5370    2.1080   -0.0165    5.5560   16.0000 
1908.9624   14.9730    2.1680   -0.0178    5.7000   16.0000 
1909.2672   15.7620    2.2140   -0.0157    5.8230   16.0000 
1909.5720   17.1410    2.2520   -0.0138    5.9500   15.0000 
1909.8768   20.2020    2.3720   -0.0134    5.3790   15.0000 
1910.1816   22.7390    2.6180   -0.0099    4.2580   27.0000 
1910.4864   22.8660    2.6080    0.0038    4.1420   27.0000 
1910.7912   23.8910    2.4850    0.0065    4.3460   16.0000 
1911.0960   24.1350    2.4600    0.0061    4.5070   16.0000 
1911.4008   23.3780    2.5420    0.0059    4.3030   16.0000 
1911.7056   43.6880    2.6050    0.0085    4.0330   22.0000 
1912.0104   67.6950    2.6650    0.0250    3.8560   22.0000 
1912.3152   68.8590    2.6790    0.0822    3.9570   22.0000 
1912.6200   66.6410    2.6800    0.1199    3.9860   22.0000 
1912.9248   67.4850    2.6970    0.1132    4.1430   22.0000 
1913.2296   62.0640    2.6680    0.1210    4.5610   22.0000 
1913.5344   45.6200    2.3700    0.0986    5.0460   22.0000 
1913.8392   25.4900    2.1970    0.0260    4.7580   16.0000 
1914.1440   19.1550    2.1160   -0.0049    4.5120   16.0000 
1914.4488   17.4210    2.0920   -0.0165    4.6290   16.0000 
1914.7536   16.4820    2.0740   -0.0184    4.5270   16.0000 
1915.0584   15.0150    2.0740   -0.0185    4.6400   16.0000 
1915.3632   12.5780    2.0830   -0.0187    4.7470   16.0000 
1915.6680   12.5960    2.0800   -0.0190    4.7270   16.0000 
1915.9728   14.5080    2.0920   -0.0191    4.9210   16.0000 
1916.2776   18.7680    2.2160   -0.0175    5.1660   16.0000 
1916.5824   26.4960    2.3630   -0.0131    4.8040   15.0000 
1916.8872   38.5920    2.4710    0.0044    4.1180   15.0000 
1917.1920   47.2880    2.4940    0.0327    4.3610   22.0000 
1917.4968   51.3590    2.5440    0.0604    4.3010   22.0000 
1917.8016   55.7070    2.5810    0.0849    4.0660   22.0000 
1918.1064   56.4200    2.5920    0.0919    3.9750   22.0000 
1918.4112   55.8900    2.5910    0.0846    4.0090   22.0000 
1918.7160   54.2310    2.6190    0.0749    3.8230   22.0000 
1919.0208   53.0330    2.6640    0.0666    3.8560   22.0000 
1919.3256   59.0310    2.6970    0.0754    4.1790   22.0000 
1919.6304   59.2160    2.6570    0.0775    4.6220   22.0000 
1919.9352   41.1150    2.3910    0.0158    4.5700   16.0000 
1920.2400   26.0360    2.1760   -0.0103    4.4440   16.0000 
1920.5448   19.2120    2.0990   -0.0187    4.3160   16.0000 
1920.8496   15.9260    2.0810   -0.0194    4.2820   16.0000 
1921.1544   16.0470    2.0830   -0.0182    4.4910   16.0000 
1921.4592   15.6450    2.0910   -0.0184    4.5420   16.0000 
1921.7640   14.7630    2.0810   -0.0190    4.5060   16.0000 
