~VERSION INFORMATION
 VERS.                 2.0:   CWLS LOG ASCII STANDARD - VERSION 2.0
 WRAP.                  NO:   SINGLE LINE PER DEPTH STEP
 CREA.                 05/01/2018 16:27:01
#CREATED USING DSPetro VERSION 5000.10.1.3 BY H191660 ON 05/01/2018 16:27:01
~WELL INFORMATION
#MNEM.UNIT       DATA                          DESCRIPTION MNEMONIC
#---------      ---------------------------   --------------------------
 STRT    .M         31.0896                   : START DEPTH
 STOP    .M         2498.4456                 : STOP DEPTH
 STEP    .M         0.3048                    : STEP VALUE
 NULL    .      -999.0000                     : NULL VALUE
 DATE    .      05/01/2018                    : LAS file Creation Date
 WELL .      BALDINO_1_36_M4998          : Well Name
 COMP .      Neftex Exploration Insights : Company
 FLD  .      HERSEY SEC 36               : Field
 UWI  .      DUSWL_BALDIN                : Unique Well Identifier (UWI)
 LOC  .                                  : Location
 RWS  .      -999                        : Def_Rw
 WST  .      -999                        : Def_Rwt
 SRVC .                                  : Contractor
~CURVE INFORMATION
#MNEM              UNIT       API CODE   Curve Type Comments
#----------  --------------- ----------  ---------- -----------
 DEPTH      .M                         : Depth       
 GR_API     .API                       : GammaRay    Gamma Ray (API) - Measures the intensity of natural gamma-ray radiation emitted from formations containing radioactive elements, such as K, Th and U
 RHOZ_G_CC  .g/cc                      :             Formation Density - Measures the density of formation, including any void space or other materials contained in the subject volume
 NPHI_v_v   .dec                       : Neutron     
 PEF_B_E    .b/e-                      : PEF         Photoelectric Factor - A log of photoelectric absorption properties. Often expressed in an approximation unit barns/electron (b/e-)
 LITH       .                          : LITH        Lithology Curve
~A  DEPTH   GR_API  RHOZ_G_C~  NPHI_v_v  PEF_B_E     LITH   
# ...
 996.6960  202.0800    2.4460    0.2694    3.0320   37.0000 
 997.0008  161.1830    2.5200    0.2678    3.2420   37.0000 
 997.3056  105.8510    2.5870    0.2192    3.6170   37.0000 
 997.6104  100.1460    2.6140    0.1392    3.4400   22.0000 
 997.9152  113.2020    2.5970    0.1806    3.1800   37.0000 
 998.2200  119.6780    2.5680    0.2186    3.1250   37.0000 
 998.5248  131.7020    2.5720    0.2201    3.0000   37.0000 
 998.8296  148.5200    2.5740    0.2166    2.8820   37.0000 
 999.1344  160.8810    2.5550    0.2327    3.0780   37.0000 
 999.4392  162.7040    2.5420    0.2596    3.0570   37.0000 
 999.7440  160.2330    2.5290    0.2771    2.9620   37.0000 
1000.0488  154.5570    2.5450    0.2697    2.9660   37.0000 
1000.3536  151.1820    2.5360    0.2773    2.8970   37.0000 
1000.6584  129.8960    2.5620    0.2545    3.3070   37.0000 
1000.9632  138.5150    2.5940    0.2147    3.7550   37.0000 
1001.2680  151.9430    2.5650    0.2080    3.4300   37.0000 
1001.5728  143.1030    2.5240    0.2451    3.0500   37.0000 
1001.8776  108.4260    2.5380    0.2579    3.4670   37.0000 
1002.1824  109.1730    2.5680    0.1974    3.6780   37.0000 
1002.4872  117.8240    2.5570    0.1637    2.9010   37.0000 
1002.7920  118.8750    2.5630    0.1944    3.1210   37.0000 
1003.0968  111.4100    2.5600    0.2238    3.1790   37.0000 
1003.4016  112.0260    2.5530    0.2268    3.1020   37.0000 
1003.7064  107.1800    2.5640    0.2095    3.2390   37.0000 
1004.0112   94.3250    2.5910    0.1901    3.3050   37.0000 
1004.3160   95.9870    2.5980    0.1808    3.2520   37.0000 
1004.6208   95.2070    2.6040    0.1825    3.2630   37.0000 
1004.9256   76.1150    2.6260    0.1687    3.6420   22.0000 
1005.2304   59.0850    2.6510    0.1257    3.9010   22.0000 
1005.5352   63.3780    2.6590    0.0942    3.7760   22.0000 
1005.8400   74.7930    2.6460    0.1083    3.8160   22.0000 
1006.1448   85.7030    2.6360    0.1513    3.5750   22.0000 
1006.4496   81.7310    2.6480    0.1718    3.6210   37.0000 
1006.7544   74.6280    2.6500    0.1559    3.7620   22.0000 
1007.0592   66.4440    2.6670    0.1382    4.0970   22.0000 
1007.3640   57.1320    2.6610    0.1107    4.2030   22.0000 
1007.6688   54.6860    2.6480    0.1074    4.2910   22.0000 
1007.9736   53.9910    2.6570    0.0966    3.8730   22.0000 
1008.2784   60.6180    2.6510    0.1006    3.6080   22.0000 
1008.5832   67.1460    2.6540    0.1258    3.6330   22.0000 
1008.8880   70.3070    2.6620    0.1318    3.7820   22.0000 
1009.1928   70.5230    2.6520    0.1394    3.7910   22.0000 
1009.4976   69.1770    2.6470    0.1471    4.0420   22.0000 
1009.8024   70.4810    2.6400    0.1486    3.9750   22.0000 
1010.1072   73.0440    2.6300    0.1521    3.9680   22.0000 
1010.4120   74.5850    2.6340    0.1523    3.9210   22.0000 
1010.7168   75.4100    2.6380    0.1572    3.8160   22.0000 
1011.0216   74.2730    2.6340    0.1689    3.8550   22.0000 
1011.3264   72.7410    2.6320    0.1727    3.7560   22.0000 
1011.6312   77.2040    2.6350    0.1651    3.5030   22.0000 
1011.9360   80.6660    2.6380    0.1774    3.4010   22.0000 
1012.2408   73.7820    2.6410    0.1866    3.7240   22.0000 
1012.5456   67.0610    2.6500    0.1581    3.9460   22.0000 
1012.8504   63.1860    2.6480    0.1321    3.9430   22.0000 
1013.1552   58.7480    2.6590    0.1222    3.9630   22.0000 
1013.4600   60.7670    2.6670    0.1178    3.8320   22.0000 
1013.7648   64.4190    2.6710    0.1222    3.9490   22.0000 
1014.0696   65.3520    2.6590    0.1386    3.8750   22.0000 
1014.3744   61.5510    2.6500    0.1295    4.1000   22.0000 
1014.6792   51.9330    2.6740    0.1023    4.3600   22.0000 
1014.9840   38.0750    2.6920    0.0586    4.4790   18.0000 
1015.2888   40.4510    2.6780    0.0315    4.0940   18.0000 
1015.5936   54.1760    2.6830    0.0451    4.1020   18.0000 
1015.8984   75.8270    2.6770    0.0852    3.4640   22.0000 
1016.2032   75.3680    2.6610    0.1383    3.6210   22.0000 
1016.5080   74.2560    2.6680    0.1241    3.6860   22.0000 
1016.8128   79.9280    2.6510    0.1210    3.6130   22.0000 
1017.1176   80.7200    2.6550    0.1435    3.9110   22.0000 
1017.4224   72.2930    2.6690    0.1236    3.7640   22.0000 
1017.7272   76.5350    2.6650    0.1107    3.5740   22.0000 
1018.0320   77.2370    2.6580    0.1253    3.7700   22.0000 
1018.3368   68.9940    2.6720    0.1172    3.8010   22.0000 
1018.6416   57.5280    2.6880    0.0959    3.8090   22.0000 
1018.9464   42.3960    2.7090    0.0592    4.2420   22.0000 
1019.2512   27.8700    2.7440    0.0253    4.0720   18.0000 
1019.5560   17.2230    2.7540    0.0298    3.6270   18.0000 
1019.8608   19.1520    2.7550    0.0648    3.7290   18.0000 
1020.1656   16.9590    2.7640    0.0383    3.5360   18.0000 
1020.4704   15.8630    2.7610    0.0510    3.6250   18.0000 
1020.7752   14.1870    2.7320    0.0675    3.8570   18.0000 
1021.0800   14.5920    2.7040    0.0386    4.2540   18.0000 
1021.3848   16.2480    2.7060    0.0124    4.5260   18.0000 
1021.6896   17.3790    2.7120    0.0082    4.1770   18.0000 
1021.9944   16.0370    2.7100    0.0125    4.3490   18.0000 
1022.2992   13.3160    2.6940    0.0205    4.5040   18.0000 
1022.6040   13.3020    2.7170    0.0265    4.2440   18.0000 
1022.9088   15.7490    2.7270    0.0211    4.5250   18.0000 
1023.2136   18.3650    2.7350    0.0149    4.2860   18.0000 
1023.5184   17.3780    2.7520    0.0134    3.8350   18.0000 
1023.8232   15.1400    2.7630    0.0164    4.1450   18.0000 
1024.1280   16.8090    2.7350    0.0080    4.5400   18.0000 
1024.4328   17.9490    2.7180    0.0001    4.8870   18.0000 
1024.7376   18.8900    2.7070   -0.0018    5.0370   18.0000 
1025.0424   17.4240    2.6930   -0.0017    4.9310   18.0000 
1025.3472   17.1620    2.6960   -0.0032    4.7840   18.0000 
1025.6520   18.3470    2.7130   -0.0036    4.7520   18.0000 
1025.9568   19.5800    2.7120   -0.0038    4.7780   18.0000 
1026.2616   18.6050    2.6930   -0.0019    5.1310   18.0000 
1026.5664   19.2120    2.6820   -0.0004    5.1310   18.0000 
1026.8712   17.9190    2.6880   -0.0014    4.9000   18.0000 
1027.1760   15.0840    2.7010   -0.0018    4.8730   18.0000 
1027.4808   13.0070    2.6800   -0.0006    4.4740   18.0000 
1027.7856   11.3820    2.6530    0.0003    3.3770   18.0000 
1028.0904   10.3410    2.6260    0.0035    3.0510   27.0000 
1028.3952   12.8100    2.6520    0.0052    3.5140   18.0000 
1028.7000   11.9880    2.6710    0.0054    3.6390   18.0000 
1029.0048    9.2160    2.6970    0.0149    3.3910   18.0000 
1029.3096    9.4340    2.7240    0.0391    3.6080   18.0000 
1029.6144    9.8760    2.7140    0.0180    4.1550   18.0000 
1029.9192    9.3020    2.7010    0.0053    4.4650   18.0000 
1030.2240    8.4330    2.7210    0.0094    3.7540   18.0000 
1030.5288    8.4170    2.6480    0.0444    2.6800   27.0000 
1030.8336    8.9570    2.5870    0.0369    3.0910   27.0000 
1031.1384    8.1390    2.6140    0.0186    4.6530   18.0000 
1031.4432    6.7670    2.6320    0.0210    5.1380   18.0000 
1031.7480    6.2010    2.6160    0.0498    5.0670   18.0000 
1032.0528    5.7810    2.6060    0.0784    4.7510   18.0000 
1032.3576    5.9880    2.6470    0.0762    4.5070   18.0000 
1032.6624    7.2800    2.6860    0.0448    4.3350   18.0000 
1032.9672    8.5730    2.6770    0.0320    4.5580   18.0000 
1033.2720    7.4400    2.6680    0.0261    4.6340   18.0000 
1033.5768    8.7350    2.6770    0.0226    4.7050   18.0000 
1033.8816   10.2900    2.6740    0.0195    4.4430   18.0000 
1034.1864   13.3760    2.6710    0.0208    4.6400   18.0000 
1034.4912   17.5140    2.6880    0.0156    5.0890   18.0000 
1034.7960   16.2380    2.6790    0.0146    4.8560   18.0000 
1035.1008   12.0770    2.6730    0.0111    4.4890   18.0000 
1035.4056   11.7470    2.6800    0.0073    4.5790   18.0000 
1035.7104   12.2600    2.6760    0.0046    4.6310   18.0000 
1036.0152   10.8660    2.6600    0.0093    4.5820   18.0000 
1036.3200   10.1340    2.6510    0.0175    4.5450   18.0000 
1036.6248    9.5760    2.6610    0.0313    4.3700   18.0000 
