~VERSION INFORMATION
 VERS.                 2.0:   CWLS LOG ASCII STANDARD - VERSION 2.0
 WRAP.                  NO:   SINGLE LINE PER DEPTH STEP
 CREA.                 05/01/2018 16:27:01
#CREATED USING DSPetro VERSION 5000.10.1.3 BY H191660 ON 05/01/2018 16:27:01
~WELL INFORMATION
#MNEM.UNIT       DATA                          DESCRIPTION MNEMONIC
#---------      ---------------------------   --------------------------
 STRT    .M         31.0896                   : START DEPTH
 STOP    .M         2498.4456                 : STOP DEPTH
 STEP    .M         0.3048                    : STEP VALUE
 NULL    .      -999.0000                     : NULL VALUE
 DATE    .      05/01/2018                    : LAS file Creation Date
 WELL .      BALDINO_1_36_M4998          : Well Name
 COMP .      Neftex Exploration Insights : Company
 FLD  .      HERSEY SEC 36               : Field
 UWI  .      DUSWL_BALDIN                : Unique Well Identifier (UWI)
 LOC  .                                  : Location
 RWS  .      -999                        : Def_Rw
 WST  .      -999                        : Def_Rwt
 SRVC .                                  : Contractor
~CURVE INFORMATION
#MNEM              UNIT       API CODE   Curve Type Comments
#----------  --------------- ----------  ---------- -----------
 DEPTH      .M                         : Depth       
 GR_API     .API                       : GammaRay    Gamma Ray (API) - Measures the intensity of natural gamma-ray radiation emitted from formations containing radioactive elements, such as K, Th and U
 RHOZ_G_CC  .g/cc                      :             Formation Density - Measures the density of formation, including any void space or other materials contained in the subject volume
 NPHI_v_v   .dec                       : Neutron     
 PEF_B_E    .b/e-                      : PEF         Photoelectric Factor - A log of photoelectric absorption properties. Often expressed in an approximation unit barns/electron (b/e-)
 LITH       .                          : LITH        Lithology Curve
~A  DEPTH   GR_API  RHOZ_G_C~  NPHI_v_v  PEF_B_E     LITH   
# ...
2284.1712   14.3870    2.0920   -0.0180    4.6240   16.0000 
2284.4760   11.7150    2.1000   -0.0173    4.5960   16.0000 
2284.7808   14.1300    2.0890   -0.0175    4.7060   16.0000 
2285.0856   14.9360    2.0790   -0.0181    4.8590   16.0000 
2285.3904   14.4060    2.0830   -0.0172    4.9840   16.0000 
2285.6952   13.0460    2.0790   -0.0166    4.9650   16.0000 
2286.0000   13.5740    2.0700   -0.0162    4.9900   16.0000 
2286.3048   14.1380    2.0730   -0.0173    5.0590   16.0000 
2286.6096   14.4950    2.0700   -0.0175    4.8600   16.0000 
2286.9144   13.7840    2.0700   -0.0176    5.2910   16.0000 
2287.2192   12.8100    2.0990   -0.0167    5.7050   16.0000 
2287.5240   13.4750    2.1320   -0.0157    5.2250   16.0000 
2287.8288   15.1880    2.1820   -0.0121    5.1350   16.0000 
2288.1336   18.6900    2.3980    0.0033    4.5830   16.0000 
2288.4384   21.1620    2.7230    0.0261    3.9530   18.0000 
2288.7432   24.2400    2.7540    0.0370    3.6850   18.0000 
2289.0480   26.4740    2.7350    0.0460    3.4920   18.0000 
2289.3528   25.2570    2.7010    0.0540    3.4690   18.0000 
2289.6576   26.6550    2.7020    0.0615    3.8850   18.0000 
2289.9624   26.8050    2.7000    0.0551    4.0220   18.0000 
2290.2672   26.7060    2.6810    0.0541    4.1350   18.0000 
2290.5720   25.2800    2.7140    0.0688    4.1400   18.0000 
2290.8768   28.7990    2.7450    0.0773    3.5630   18.0000 
2291.1816   29.2140    2.7490    0.0715    3.7330   18.0000 
2291.4864   29.8220    2.7350    0.0687    4.1050   18.0000 
2291.7912   31.5150    2.7450    0.0741    3.9370   18.0000 
2292.0960   30.0650    2.7500    0.0754    4.1090   18.0000 
2292.4008   28.2200    2.7470    0.0702    4.3010   18.0000 
2292.7056   26.7590    2.7600    0.0641    4.5450   18.0000 
2293.0104   28.0410    2.7670    0.0588    4.1720   18.0000 
2293.3152   29.5190    2.7400    0.0648    4.4960   18.0000 
2293.6200   27.7340    2.7200    0.0751    4.9430   18.0000 
2293.9248   25.7810    2.7020    0.0600    5.2880   18.0000 
2294.2296   27.3650    2.7190    0.0460    4.5300   18.0000 
2294.5344   28.8290    2.7340    0.0584    4.3910   18.0000 
2294.8392   27.3450    2.7390    0.0662    4.6050   18.0000 
2295.1440   27.1280    2.7310    0.0454    4.8430   18.0000 
2295.4488   26.6190    2.7220    0.0428    5.1590   18.0000 
2295.7536   25.6910    2.7330    0.0392    5.3620   18.0000 
2296.0584   27.1770    2.7490    0.0310    5.5310   18.0000 
2296.3632   26.3430    2.7440    0.0247    5.7170   18.0000 
2296.6680   25.5930    2.7170    0.0276    5.3220   18.0000 
2296.9728   28.0970    2.7160    0.0341    5.2590   18.0000 
2297.2776   27.3350    2.7260    0.0273    5.2680   18.0000 
2297.5824   27.8540    2.7170    0.0196    5.1370   18.0000 
2297.8872   26.8410    2.7310    0.0141    5.4140   18.0000 
2298.1920   26.2050    2.7430    0.0091    5.5110   18.0000 
2298.4968   28.1070    2.7280    0.0140    5.5100   18.0000 
2298.8016   28.7190    2.7120    0.0211    5.6900   18.0000 
2299.1064   27.2970    2.7240    0.0165    5.4970   18.0000 
2299.4112   25.5270    2.7200    0.0131    5.2880   18.0000 
2299.7160   25.1640    2.7050    0.0130    5.5960   18.0000 
2300.0208   25.4880    2.7100    0.0203    5.7070   18.0000 
2300.3256   26.4200    2.7160    0.0271    5.2070   18.0000 
2300.6304   27.1050    2.7260    0.0339    4.8900   18.0000 
2300.9352   27.8460    2.7450    0.0456    5.0850   18.0000 
2301.2400   28.7630    2.7340    0.0600    5.2420   18.0000 
2301.5448   28.4310    2.7270    0.0504    5.2080   18.0000 
2301.8496   30.8630    2.7390    0.0428    5.4920   18.0000 
2302.1544   34.8420    2.7370    0.0397    5.0900   18.0000 
2302.4592   39.0060    2.7270    0.0291    4.7220   18.0000 
2302.7640   38.6730    2.6470    0.0185    4.6810   18.0000 
2303.0688   40.0850    2.6100    0.0131    4.4080   18.0000 
2303.3736   39.0170    2.6740    0.0232    4.5870   18.0000 
2303.6784   30.5880    2.4520    0.0002    4.6440   16.0000 
2303.9832   20.1890    2.1670   -0.0115    4.6060   16.0000 
2304.2880   12.1440    2.0680   -0.0168    4.7280   16.0000 
2304.5928   12.7020    2.0600   -0.0176    4.6730   16.0000 
2304.8976   13.9670    2.0690   -0.0178    4.6470   16.0000 
2305.2024   14.2460    2.0750   -0.0180    4.7410   16.0000 
2305.5072   14.3810    2.0710   -0.0172    4.8540   16.0000 
2305.8120   15.2660    2.0600   -0.0171    4.9350   16.0000 
2306.1168   14.7350    2.0590   -0.0179    4.8290   16.0000 
2306.4216   13.1430    2.0520   -0.0181    4.7720   16.0000 
2306.7264   13.5480    2.0460   -0.0172    4.6750   16.0000 
2307.0312   14.3520    2.0530   -0.0169    4.5690   16.0000 
2307.3360   14.4140    2.0570   -0.0169    4.8640   16.0000 
2307.6408   13.6740    2.0520   -0.0172    4.8470   16.0000 
2307.9456   13.0380    2.0600   -0.0169    4.7990   16.0000 
2308.2504   13.4960    2.0560   -0.0171    4.8030   16.0000 
2308.5552   14.7260    2.0630   -0.0184    4.6030   16.0000 
2308.8600   15.4790    2.0700   -0.0179    4.6160   16.0000 
2309.1648   13.5320    2.0700   -0.0177    4.6210   16.0000 
2309.4696   14.2040    2.0670   -0.0177    4.5900   16.0000 
2309.7744   15.3150    2.0780   -0.0174    4.6670   16.0000 
2310.0792   13.2420    2.0790   -0.0175    4.6350   16.0000 
2310.3840   13.9220    2.0600   -0.0180    4.5260   16.0000 
2310.6888   15.7340    2.0460   -0.0180    4.4300   16.0000 
2310.9936   14.2760    2.0590   -0.0178    4.4640   16.0000 
2311.2984   13.5240    2.0560   -0.0177    4.4970   16.0000 
2311.6032   14.2880    2.0540   -0.0175    4.4780   16.0000 
2311.9080   13.8270    2.0500   -0.0182    4.4120   16.0000 
2312.2128   13.4210    2.0540   -0.0178    4.4130   16.0000 
2312.5176   13.0950    2.0510   -0.0169    4.4460   16.0000 
2312.8224   13.2950    2.0460   -0.0168    4.4470   16.0000 
2313.1272   14.0870    2.0610   -0.0166    4.3910   16.0000 
2313.4320   14.1060    2.0610   -0.0168    4.5420   16.0000 
2313.7368   13.5230    2.0500   -0.0182    4.6770   16.0000 
2314.0416   14.4540    2.0460   -0.0184    4.5960   16.0000 
2314.3464   13.7010    2.0540   -0.0169    4.4910   16.0000 
2314.6512   13.0170    2.0490   -0.0162    4.5210   16.0000 
2314.9560   13.6520    2.0510   -0.0171    4.4970   16.0000 
2315.2608   13.2590    2.0570   -0.0175    4.5320   16.0000 
2315.5656   12.7530    2.0550   -0.0177    4.4910   16.0000 
2315.8704   14.3940    2.0630   -0.0179    4.5720   16.0000 
2316.1752   14.6660    2.0600   -0.0181    4.5210   16.0000 
2316.4800   14.2350    2.0670   -0.0181    4.3130   16.0000 
2316.7848    0.0000    2.0660   -0.0182    4.4620   16.0000 
2317.0896    0.0000    2.0570   -0.0184    4.6510   16.0000 
2317.3944    0.0000    2.0520   -0.0184    4.5480   16.0000 
2317.6992    0.0000    2.0580   -0.0185    4.6230   16.0000 
2318.0040    0.0000    2.0510   -0.0187    4.6170   16.0000 
2318.3088    0.0000    2.0440   -0.0179    4.4870   16.0000 
2318.6136    0.0000    2.0470   -0.0177    4.4310   16.0000 
2318.9184    0.0000    2.0540   -0.0181    4.4080   16.0000 
2319.2232    0.0000    2.0570   -0.0183    4.4410   16.0000 
2319.5280    0.0000    2.0570   -0.0186    4.4700   16.0000 
2319.8328    0.0000    2.0640   -0.0187    4.3510   16.0000 
2320.1376    0.0000    2.0650   -0.0183    4.4580   16.0000 
2320.4424    0.0000    2.0620   -0.0178    4.3850   16.0000 
2320.7472    0.0000    2.0660   -0.0172    4.3200   16.0000 
2321.0520    0.0000    2.0610   -0.0162    4.4310   16.0000 
2321.3568    0.0000    2.0650   -0.0163    4.5350   16.0000 
2321.6616    0.0000    2.0530   -0.0177    4.5850   16.0000 
2321.9664    0.0000    2.0510   -0.0183    4.6210   16.0000 
2322.2712    0.0000    2.0470   -0.0189    4.4700   16.0000 
2322.5760    0.0000    2.0580   -0.0185    4.7280   16.0000 
2322.8808    0.0000    2.0060   -0.0176    5.4240    5.0000 
2323.1856    0.0000    1.9800   -0.0160    5.8260    5.0000 
2323.4904    0.0000    2.0160   -0.0166    5.2730    5.0000 
2323.7952    0.0000    2.0510   -0.0183    4.9210   16.0000 
2324.1000    0.0000    2.0510   -0.0177    4.9240   16.0000 
