~VERSION INFORMATION
 VERS.                 2.0:   CWLS LOG ASCII STANDARD - VERSION 2.0
 WRAP.                  NO:   SINGLE LINE PER DEPTH STEP
 CREA.                 05/01/2018 16:27:01
#CREATED USING DSPetro VERSION 5000.10.1.3 BY H191660 ON 05/01/2018 16:27:01
~WELL INFORMATION
#MNEM.UNIT       DATA                          DESCRIPTION MNEMONIC
#---------      ---------------------------   --------------------------
 STRT    .M         31.0896                   : START DEPTH
 STOP    .M         2498.4456                 : STOP DEPTH
 STEP    .M         0.3048                    : STEP VALUE
 NULL    .      -999.0000                     : NULL VALUE
 DATE    .      05/01/2018                    : LAS file Creation Date
 WELL .      BALDINO_1_36_M4998          : Well Name
 COMP .      Neftex Exploration Insights : Company
 FLD  .      HERSEY SEC 36               : Field
 UWI  .      DUSWL_BALDIN                : Unique Well Identifier (UWI)
 LOC  .                                  : Location
 RWS  .      -999                        : Def_Rw
 WST  .      -999                        : Def_Rwt
 SRVC .                                  : Contractor
~CURVE INFORMATION
#MNEM              UNIT       API CODE   Curve Type Comments
#----------  --------------- ----------  ---------- -----------
 DEPTH      .M                         : Depth       
 GR_API     .API                       : GammaRay    Gamma Ray (API) - Measures the intensity of natural gamma-ray radiation emitted from formations containing radioactive elements, such as K, Th and U
 RHOZ_G_CC  .g/cc                      :             Formation Density - Measures the density of formation, including any void space or other materials contained in the subject volume
 NPHI_v_v   .dec                       : Neutron     
 PEF_B_E    .b/e-                      : PEF         Photoelectric Factor - A log of photoelectric absorption properties. Often expressed in an approximation unit barns/electron (b/e-)
 LITH       .                          : LITH        Lithology Curve
~A  DEPTH   GR_API  RHOZ_G_C~  NPHI_v_v  PEF_B_E     LITH   
# ...
 554.1264   43.6700    2.4780    0.2833    2.7510   12.0000 
 554.4312   45.0900    2.4650    0.2811    2.8110   12.0000 
 554.7360   44.1710    2.4740    0.2844    2.7420   12.0000 
 555.0408   43.5000    2.4780    0.2907    2.6050   12.0000 
 555.3456   43.7240    2.4660    0.3010    2.7250   12.0000 
 555.6504   44.7200    2.4650    0.2921    2.7480   12.0000 
 555.9552   46.1940    2.4680    0.2753    2.6900   12.0000 
 556.2600   46.6070    2.4660    0.2644    2.6510   12.0000 
 556.5648   42.9270    2.4610    0.2630    2.6120   12.0000 
 556.8696   42.2550    2.4610    0.2783    2.6570   12.0000 
 557.1744   45.3470    2.4640    0.2658    2.6210   12.0000 
 557.4792   46.7060    2.4650    0.2674    2.6400   12.0000 
 557.7840   45.0210    2.4690    0.2705    2.4980   12.0000 
 558.0888   41.5320    2.4680    0.2816    2.4830   12.0000 
 558.3936   42.3480    2.4710    0.3008    2.5130   12.0000 
 558.6984   44.8430    2.4570    0.3017    2.5300   12.0000 
 559.0032   44.2320    2.4620    0.2946    2.6080   12.0000 
 559.3080   44.8680    2.4690    0.2943    2.5890   12.0000 
 559.6128   47.6730    2.4830    0.2798    2.6640   12.0000 
 559.9176   46.4480    2.4730    0.2743    2.6220   12.0000 
 560.2224   43.9730    2.4790    0.2895    2.4730   12.0000 
 560.5272   44.5550    2.4700    0.2871    2.5970   12.0000 
 560.8320   43.2720    2.4560    0.2896    2.7600   12.0000 
 561.1368   45.9510    2.4570    0.3202    2.6290   12.0000 
 561.4416   47.9660    2.4720    0.3092    2.4650   12.0000 
 561.7464   48.2600    2.4570    0.3246    2.4560   12.0000 
 562.0512   45.0560    2.4630    0.3026    2.3430   12.0000 
 562.3560   44.5560    2.4630    0.2667    2.3810   12.0000 
 562.6608   42.5520    2.4440    0.2849    2.5220   12.0000 
 562.9656   45.8390    2.4640    0.3065    2.6070   12.0000 
 563.2704   50.6180    2.4900    0.3444    2.7670   12.0000 
 563.5752   50.5410    2.4940    0.3025    2.8490   12.0000 
 563.8800   48.3570    2.5060    0.2524    2.9940   12.0000 
 564.1848   49.5330    2.5140    0.2776    3.0810   12.0000 
 564.4896   49.2230    2.5270    0.2901    3.1760   12.0000 
 564.7944   45.4860    2.5370    0.2948    3.1180   12.0000 
 565.0992   44.0330    2.5270    0.3000    3.0470   12.0000 
 565.4040   47.9660    2.5270    0.3256    3.0900   12.0000 
 565.7088   52.8720    2.5350    0.3004    3.0620   12.0000 
 566.0136   51.1160    2.5310    0.2784    2.8830   12.0000 
 566.3184   53.3250    2.5420    0.3019    2.8800   12.0000 
 566.6232   52.2360    2.5420    0.2831    2.9880   12.0000 
 566.9280   48.9080    2.5550    0.2731    3.1550   12.0000 
 567.2328   43.9680    2.5970    0.2994    3.4450   12.0000 
 567.5376   37.5860    2.6990    0.2782    3.8880   12.0000 
 567.8424   36.5040    2.6650    0.2545    3.4070   12.0000 
 568.1472   43.9110    2.5400    0.2822    2.8990   12.0000 
 568.4520   47.3100    2.4740    0.3325    2.5720   12.0000 
 568.7568   48.4880    2.4840    0.3398    2.6580   12.0000 
 569.0616   51.1730    2.4990    0.2735    2.7910   12.0000 
 569.3664   50.2580    2.5120    0.2779    2.8070   12.0000 
 569.6712   51.9170    2.5030    0.2785    2.9040   12.0000 
 569.9760   52.0200    2.4980    0.2926    2.9710   12.0000 
 570.2808   53.2620    2.5130    0.3188    3.0040   12.0000 
 570.5856   55.3410    2.5030    0.2999    3.0120   12.0000 
 570.8904   56.9300    2.5060    0.3324    2.8530   12.0000 
 571.1952   58.7090    2.5100    0.3021    2.9430   12.0000 
 571.5000   57.0630    2.5010    0.2897    3.1160   12.0000 
 571.8048   54.3440    2.4820    0.2943    3.1310   12.0000 
 572.1096   53.9720    2.4900    0.2736    3.0970   22.0000 
 572.4144   58.7610    2.5060    0.2837    3.2100   22.0000 
 572.7192   65.6990    2.5300    0.2779    3.3690   22.0000 
 573.0240   72.1520    2.5680    0.3032    3.3830   22.0000 
 573.3288   67.6310    2.5850    0.3342    3.6760   22.0000 
 573.6336   57.1760    2.6010    0.2897    3.9070   12.0000 
 573.9384   48.1760    2.6160    0.2434    4.0150   12.0000 
 574.2432   55.8830    2.6200    0.2312    3.5680   12.0000 
 574.5480   72.1730    2.5600    0.2580    2.9450   37.0000 
 574.8528   83.6730    2.5260    0.3071    2.9370   37.0000 
 575.1576   95.5130    2.5600    0.3564    3.1360   37.0000 
 575.4624  102.8670    2.5610    0.3736    3.2700   37.0000 
 575.7672  102.3800    2.5810    0.3503    3.1150   37.0000 
 576.0720   96.4790    2.6110    0.3481    3.2750   37.0000 
 576.3768   82.2540    2.6790    0.3123    3.5200   37.0000 
 576.6816   77.1500    2.6570    0.2704    3.2000   37.0000 
 576.9864   90.0750    2.5930    0.2925    3.0610   37.0000 
 577.2912   98.1000    2.5950    0.3068    3.3900   37.0000 
 577.5960   95.5530    2.6110    0.2990    3.3500   37.0000 
 577.9008   93.1320    2.6410    0.2916    3.5010   37.0000 
 578.2056   99.1680    2.6290    0.3514    3.3170   37.0000 
 578.5104  102.6750    2.6080    0.3176    3.1780   37.0000 
 578.8152  100.5140    2.6130    0.3348    3.0650   37.0000 
 579.1200   90.0720    2.6110    0.3153    3.6630   37.0000 
 579.4248   65.4230    2.6450    0.2818    4.6070   22.0000 
 579.7296   62.1050    2.6500    0.2580    3.7710   22.0000 
 580.0344   72.9410    2.5700    0.2689    3.0850   37.0000 
 580.3392   82.0970    2.5630    0.2723    2.9860   37.0000 
 580.6440   80.1480    2.5660    0.2842    2.8490   37.0000 
 580.9488   67.5960    2.5400    0.3000    2.9930   37.0000 
 581.2536   50.9190    2.5420    0.2604    2.9020   22.0000 
 581.5584   65.7630    2.5070    0.2110    2.7510   22.0000 
 581.8632   81.3900    2.5320    0.2416    2.9920   37.0000 
 582.1680   92.8850    2.5820    0.2646    3.1580   37.0000 
 582.4728   93.0360    2.5750    0.3211    3.0050   37.0000 
 582.7776   91.5740    2.5900    0.3462    3.2760   37.0000 
 583.0824   86.4630    2.6210    0.3594    3.5900   37.0000 
 583.3872   81.6560    2.6120    0.3300    3.4650   37.0000 
 583.6920   88.6490    2.6010    0.2870    3.1910   37.0000 
 583.9968   87.7940    2.5980    0.3002    3.2720   37.0000 
 584.3016   84.5930    2.5900    0.3171    3.2930   37.0000 
 584.6064   86.0180    2.5790    0.2995    3.5870   37.0000 
 584.9112   88.2170    2.5690    0.3096    3.4130   37.0000 
 585.2160   91.5510    2.5720    0.2952    3.2700   37.0000 
 585.5208   94.7690    2.5850    0.2811    3.0350   37.0000 
 585.8256   92.0520    2.6160    0.3216    3.4440   37.0000 
 586.1304   86.9480    2.6460    0.3019    3.8640   37.0000 
 586.4352   96.9980    2.6110    0.2854    3.3410   37.0000 
 586.7400   98.7830    2.5800    0.2787    3.0970   37.0000 
 587.0448   94.4520    2.5920    0.2573    3.1560   37.0000 
 587.3496   88.3170    2.5830    0.2810    3.1500   37.0000 
 587.6544   91.1130    2.5970    0.2921    3.0270   37.0000 
 587.9592   90.6180    2.5890    0.2954    3.5450   37.0000 
 588.2640   88.9760    2.5810    0.2636    3.2520   37.0000 
 588.5688   88.7840    2.5690    0.2813    2.9890   37.0000 
 588.8736   92.8490    2.5910    0.2929    3.2790   37.0000 
 589.1784   93.4250    2.6210    0.3066    3.5420   37.0000 
 589.4832   93.4590    2.6040    0.3291    3.2200   37.0000 
 589.7880   90.8630    2.5610    0.2989    3.0530   37.0000 
 590.0928   93.0090    2.5580    0.2815    3.1360   37.0000 
 590.3976   97.7790    2.5450    0.2704    3.0520   37.0000 
 590.7024   98.3090    2.5410    0.2463    2.8730   37.0000 
 591.0072   95.0420    2.5600    0.2531    2.8660   37.0000 
 591.3120   92.2700    2.5690    0.2746    3.1410   37.0000 
 591.6168   91.2270    2.6070    0.2811    3.6030   37.0000 
 591.9216   91.2150    2.6200    0.2971    3.2480   37.0000 
 592.2264   89.3360    2.6010    0.3100    3.3570   37.0000 
 592.5312   91.5950    2.6000    0.3073    3.3130   37.0000 
 592.8360   91.5890    2.5780    0.3011    3.1840   37.0000 
 593.1408   88.2660    2.5510    0.3043    3.2330   37.0000 
 593.4456   84.4640    2.5600    0.2946    2.9110   37.0000 
 593.7504   83.3670    2.5260    0.2910    3.0280   37.0000 
 594.0552   83.0420    2.5620    0.2865    3.2060   37.0000 
