~VERSION INFORMATION
 VERS.                 2.0:   CWLS LOG ASCII STANDARD - VERSION 2.0
 WRAP.                  NO:   SINGLE LINE PER DEPTH STEP
 CREA.                 05/01/2018 16:27:01
#CREATED USING DSPetro VERSION 5000.10.1.3 BY H191660 ON 05/01/2018 16:27:01
~WELL INFORMATION
#MNEM.UNIT       DATA                          DESCRIPTION MNEMONIC
#---------      ---------------------------   --------------------------
 STRT    .M         31.0896                   : START DEPTH
 STOP    .M         2498.4456                 : STOP DEPTH
 STEP    .M         0.3048                    : STEP VALUE
 NULL    .      -999.0000                     : NULL VALUE
 DATE    .      05/01/2018                    : LAS file Creation Date
 WELL .      BALDINO_1_36_M4998          : Well Name
 COMP .      Neftex Exploration Insights : Company
 FLD  .      HERSEY SEC 36               : Field
 UWI  .      DUSWL_BALDIN                : Unique Well Identifier (UWI)
 LOC  .                                  : Location
 RWS  .      -999                        : Def_Rw
 WST  .      -999                        : Def_Rwt
 SRVC .                                  : Contractor
~CURVE INFORMATION
#MNEM              UNIT       API CODE   Curve Type Comments
#----------  --------------- ----------  ---------- -----------
 DEPTH      .M                         : Depth       
 GR_API     .API                       : GammaRay    Gamma Ray (API) - Measures the intensity of natural gamma-ray radiation emitted from formations containing radioactive elements, such as K, Th and U
 RHOZ_G_CC  .g/cc                      :             Formation Density - Measures the density of formation, including any void space or other materials contained in the subject volume
 NPHI_v_v   .dec                       : Neutron     
 PEF_B_E    .b/e-                      : PEF         Photoelectric Factor - A log of photoelectric absorption properties. Often expressed in an approximation unit barns/electron (b/e-)
 LITH       .                          : LITH        Lithology Curve
~A  DEPTH   GR_API  RHOZ_G_C~  NPHI_v_v  PEF_B_E     LITH   
# ...
 835.7616  119.2070    2.5830    0.2213    2.9460   37.0000 
 836.0664  122.7360    2.5900    0.2311    2.9190   37.0000 
 836.3712  122.2230    2.5980    0.2401    2.8030   37.0000 
 836.6760  123.8180    2.6010    0.2471    2.8310   37.0000 
 836.9808  119.6100    2.5930    0.2592    2.9290   37.0000 
 837.2856  114.2820    2.6120    0.2313    3.2410   37.0000 
 837.5904  102.0470    2.6630    0.2160    3.6270   22.0000 
 837.8952   83.1320    2.7030    0.1934    3.3140   22.0000 
 838.2000   94.7970    2.6780    0.1753    3.0040   37.0000 
 838.5048  110.5680    2.6060    0.2000    3.0850   37.0000 
 838.8096  119.4230    2.5870    0.2227    3.0880   37.0000 
 839.1144  119.2940    2.5890    0.2444    3.0670   37.0000 
 839.4192  112.1840    2.5860    0.2343    2.9010   37.0000 
 839.7240  115.1280    2.5890    0.2187    2.7760   37.0000 
 840.0288  110.5970    2.5870    0.2033    2.8130   37.0000 
 840.3336  105.1100    2.5770    0.2147    2.8550   37.0000 
 840.6384  104.1270    2.5640    0.2181    2.8180   37.0000 
 840.9432  105.4970    2.5630    0.2003    2.8080   37.0000 
 841.2480  101.4020    2.5580    0.1909    2.8750   37.0000 
 841.5528  103.9550    2.5680    0.2027    2.8240   37.0000 
 841.8576  107.4750    2.5870    0.2139    2.9260   37.0000 
 842.1624  103.6850    2.5960    0.2158    2.9140   37.0000 
 842.4672   99.7670    2.5960    0.2281    2.8590   37.0000 
 842.7720  100.7660    2.5960    0.2404    2.8540   37.0000 
 843.0768   98.2340    2.6040    0.2306    2.8030   37.0000 
 843.3816  100.7130    2.5960    0.2100    2.7390   37.0000 
 843.6864  105.4530    2.5860    0.1949    2.8680   37.0000 
 843.9912  106.0230    2.5970    0.1963    3.0310   37.0000 
 844.2960  103.4880    2.6030    0.2128    3.1370   37.0000 
 844.6008  105.0810    2.6060    0.2217    3.2100   37.0000 
 844.9056  107.7930    2.6020    0.2510    3.2650   37.0000 
 845.2104  108.4130    2.6090    0.2343    3.2830   37.0000 
 845.5152  106.3610    2.6140    0.2129    3.2080   37.0000 
 845.8200  109.1660    2.6120    0.2102    2.9740   37.0000 
 846.1248  107.5910    2.6170    0.2002    2.9070   37.0000 
 846.4296  108.2790    2.5910    0.2183    2.8450   37.0000 
 846.7344  109.4670    2.5770    0.2151    3.1090   37.0000 
 847.0392  109.9820    2.5960    0.2259    3.2930   37.0000 
 847.3440  111.0530    2.6170    0.2228    3.1590   37.0000 
 847.6488  110.7300    2.6160    0.2220    2.9860   37.0000 
 847.9536  110.2470    2.6200    0.2220    2.8760   37.0000 
 848.2584  111.3750    2.6060    0.2363    2.8630   37.0000 
 848.5632  111.0320    2.6110    0.2511    2.9680   37.0000 
 848.8680  108.4110    2.6150    0.2627    3.0750   37.0000 
 849.1728  106.5770    2.6170    0.2369    3.1510   37.0000 
 849.4776  108.2460    2.6050    0.2430    3.1380   37.0000 
 849.7824  105.1680    2.6190    0.2522    3.0600   37.0000 
 850.0872  102.2700    2.6290    0.2347    2.9220   37.0000 
 850.3920  104.2460    2.6180    0.2336    2.9310   37.0000 
 850.6968  102.3570    2.6300    0.2352    3.0250   37.0000 
 851.0016   99.6870    2.6280    0.2287    3.3170   37.0000 
 851.3064   99.4400    2.6100    0.2213    3.2500   37.0000 
 851.6112  103.5380    2.6190    0.2272    2.9700   37.0000 
 851.9160  104.1530    2.6340    0.2454    2.9650   37.0000 
 852.2208  100.0730    2.6270    0.2580    2.9890   37.0000 
 852.5256  101.6550    2.6020    0.2216    2.8190   37.0000 
 852.8304  104.8940    2.6080    0.2257    2.7770   37.0000 
 853.1352  103.2480    2.5950    0.2209    2.8450   37.0000 
 853.4400  101.6490    2.5780    0.2257    2.9440   37.0000 
 853.7448  105.3800    2.5850    0.2223    2.8940   37.0000 
 854.0496  110.1680    2.5980    0.2300    2.8330   37.0000 
 854.3544  105.8310    2.5920    0.2298    2.9790   37.0000 
 854.6592  101.4860    2.5810    0.2315    3.0510   37.0000 
 854.9640   98.2920    2.5960    0.2342    2.9540   37.0000 
 855.2688   98.0570    2.5940    0.2312    2.9890   37.0000 
 855.5736  102.3510    2.5870    0.2378    3.0780   37.0000 
 855.8784  107.6130    2.5900    0.2432    3.1400   37.0000 
 856.1832  107.5920    2.5780    0.2346    3.0480   37.0000 
 856.4880  104.3150    2.5980    0.2337    2.8150   37.0000 
 856.7928   99.9590    2.6200    0.2150    2.7200   37.0000 
 857.0976   98.1420    2.6140    0.2110    2.8540   37.0000 
 857.4024   99.7010    2.5850    0.2126    3.1880   37.0000 
 857.7072  104.7800    2.5680    0.2153    3.0390   37.0000 
 858.0120  108.1710    2.5910    0.2330    3.0270   37.0000 
 858.3168  110.9580    2.5900    0.2406    3.1560   37.0000 
 858.6216  109.5110    2.5890    0.2553    3.0550   37.0000 
 858.9264  108.4020    2.6080    0.2450    2.9990   37.0000 
 859.2312  105.6110    2.6180    0.2289    2.8700   37.0000 
 859.5360  100.9100    2.6120    0.2282    2.9430   37.0000 
 859.8408  104.2020    2.5990    0.2380    3.0070   37.0000 
 860.1456  101.3690    2.5920    0.2233    2.8760   37.0000 
 860.4504   99.0680    2.6040    0.2157    3.1710   37.0000 
 860.7552  100.6730    2.6120    0.2407    3.0300   37.0000 
 861.0600  100.5690    2.5950    0.2257    3.0050   37.0000 
 861.3648  100.5060    2.6070    0.2077    3.0420   37.0000 
 861.6696   97.3650    2.5950    0.1946    2.8470   37.0000 
 861.9744   99.7760    2.5900    0.2074    2.8270   37.0000 
 862.2792   99.7350    2.5840    0.2296    2.7760   37.0000 
 862.5840  104.0370    2.5990    0.2133    2.8710   37.0000 
 862.8888  108.8840    2.5910    0.2064    2.8000   37.0000 
 863.1936  108.3980    2.5990    0.2037    2.8930   37.0000 
 863.4984  102.4950    2.6100    0.2112    3.0390   37.0000 
 863.8032  101.9990    2.6180    0.2040    3.0920   37.0000 
 864.1080  105.3420    2.6010    0.2140    3.0830   37.0000 
 864.4128  102.3180    2.6170    0.2189    3.2450   37.0000 
 864.7176   97.3200    2.6120    0.2143    3.2500   37.0000 
 865.0224  101.4410    2.6040    0.2094    3.2430   37.0000 
 865.3272  106.4870    2.6090    0.2148    3.1300   37.0000 
 865.6320  108.5540    2.6180    0.2366    3.1260   37.0000 
 865.9368  106.1840    2.6260    0.2428    3.1300   37.0000 
 866.2416  102.6180    2.6310    0.2318    3.0210   37.0000 
 866.5464  100.1850    2.6290    0.2093    3.1300   37.0000 
 866.8512  106.1520    2.6060    0.2109    2.9620   37.0000 
 867.1560  107.0270    2.5850    0.2257    2.7350   37.0000 
 867.4608  106.0200    2.5830    0.2424    2.8260   37.0000 
 867.7656  104.4810    2.5850    0.2254    2.9590   37.0000 
 868.0704  104.0880    2.5980    0.2194    3.1870   37.0000 
 868.3752  102.2010    2.6080    0.2367    3.2740   37.0000 
 868.6800  104.2400    2.5990    0.2388    3.1190   37.0000 
 868.9848  102.6200    2.6010    0.2160    2.9680   37.0000 
 869.2896  100.1820    2.6130    0.2112    3.0560   37.0000 
 869.5944  102.8820    2.6250    0.2145    3.0680   37.0000 
 869.8992  103.0890    2.6250    0.2305    3.0550   37.0000 
 870.2040  101.8100    2.6010    0.2506    3.0140   37.0000 
 870.5088  102.8840    2.6020    0.2217    3.1920   37.0000 
 870.8136  102.5000    2.5940    0.2133    3.1070   37.0000 
 871.1184  100.9760    2.5820    0.2218    3.1960   37.0000 
 871.4232  105.5220    2.5980    0.2294    3.2110   37.0000 
 871.7280  107.9550    2.6060    0.2212    3.0210   37.0000 
 872.0328  111.3260    2.6070    0.2306    2.9620   37.0000 
 872.3376  109.0230    2.6190    0.2458    3.0100   37.0000 
 872.6424  104.5460    2.6150    0.2319    3.0260   37.0000 
 872.9472  100.5200    2.6220    0.2128    3.0570   37.0000 
 873.2520  102.3840    2.6140    0.2088    3.0440   37.0000 
 873.5568  103.9970    2.6210    0.2172    3.1510   37.0000 
 873.8616   99.7080    2.6300    0.2087    3.2330   37.0000 
 874.1664   95.9210    2.6450    0.2011    3.0130   37.0000 
 874.4712   97.8650    2.6410    0.1934    3.2000   37.0000 
 874.7760  100.6130    2.6260    0.2036    3.3210   37.0000 
 875.0808   99.2610    2.6380    0.2289    3.2320   37.0000 
 875.3856  104.2280    2.6280    0.2230    3.2560   37.0000 
 875.6904  107.9690    2.6310    0.2406    3.2540   37.0000 
