~VERSION INFORMATION
 VERS.                 2.0:   CWLS LOG ASCII STANDARD - VERSION 2.0
 WRAP.                  NO:   SINGLE LINE PER DEPTH STEP
 CREA.                 05/01/2018 16:27:01
#CREATED USING DSPetro VERSION 5000.10.1.3 BY H191660 ON 05/01/2018 16:27:01
~WELL INFORMATION
#MNEM.UNIT       DATA                          DESCRIPTION MNEMONIC
#---------      ---------------------------   --------------------------
 STRT    .M         31.0896                   : START DEPTH
 STOP    .M         2498.4456                 : STOP DEPTH
 STEP    .M         0.3048                    : STEP VALUE
 NULL    .      -999.0000                     : NULL VALUE
 DATE    .      05/01/2018                    : LAS file Creation Date
 WELL .      BALDINO_1_36_M4998          : Well Name
 COMP .      Neftex Exploration Insights : Company
 FLD  .      HERSEY SEC 36               : Field
 UWI  .      DUSWL_BALDIN                : Unique Well Identifier (UWI)
 LOC  .                                  : Location
 RWS  .      -999                        : Def_Rw
 WST  .      -999                        : Def_Rwt
 SRVC .                                  : Contractor
~CURVE INFORMATION
#MNEM              UNIT       API CODE   Curve Type Comments
#----------  --------------- ----------  ---------- -----------
 DEPTH      .M                         : Depth       
 GR_API     .API                       : GammaRay    Gamma Ray (API) - Measures the intensity of natural gamma-ray radiation emitted from formations containing radioactive elements, such as K, Th and U
 RHOZ_G_CC  .g/cc                      :             Formation Density - Measures the density of formation, including any void space or other materials contained in the subject volume
 NPHI_v_v   .dec                       : Neutron     
 PEF_B_E    .b/e-                      : PEF         Photoelectric Factor - A log of photoelectric absorption properties. Often expressed in an approximation unit barns/electron (b/e-)
 LITH       .                          : LITH        Lithology Curve
~A  DEPTH   GR_API  RHOZ_G_C~  NPHI_v_v  PEF_B_E     LITH   
# ...
2163.4704   26.9160    2.7210    0.0066    6.0840   18.0000 
2163.7752   26.7560    2.7230    0.0069    5.9760   18.0000 
2164.0800   27.7880    2.7300    0.0076    6.1690   18.0000 
2164.3848   28.3320    2.7380    0.0088    5.9360   18.0000 
2164.6896   28.9010    2.7390    0.0124    5.6720   18.0000 
2164.9944   26.7090    2.7480    0.0138    6.2160   18.0000 
2165.2992   29.5430    2.7450    0.0143    6.3040    6.0000 
2165.6040   32.4380    2.7600    0.0187    7.2230    6.0000 
2165.9088   32.5880    2.8080    0.0165    7.0950    6.0000 
2166.2136   27.4430    2.8730    0.0121    6.4710    1.0000 
2166.5184   22.9140    2.9330    0.0063    6.1730    1.0000 
2166.8232   24.3110    2.8990    0.0044    5.8790    1.0000 
2167.1280   28.2350    2.8360    0.0077    5.5510    1.0000 
2167.4328   28.4840    2.8770    0.0118    5.8920    1.0000 
2167.7376   26.2230    2.9170    0.0137    5.7490    1.0000 
2168.0424   27.7380    2.9150    0.0144    6.0120    1.0000 
2168.3472   28.5920    2.8960    0.0272    5.8300    1.0000 
2168.6520   25.9080    2.9180    0.0185    5.5040    1.0000 
2168.9568   22.1070    2.9460    0.0108    5.6200    1.0000 
2169.2616   22.4370    2.9410    0.0085    5.3280    1.0000 
2169.5664   23.0630    2.9440    0.0121    5.6990    1.0000 
2169.8712   22.6670    2.9290    0.0138    6.2440    1.0000 
2170.1760   25.3260    2.8800    0.0174    5.4110    1.0000 
2170.4808   28.2750    2.7620    0.0268    4.5590   18.0000 
2170.7856   30.5760    2.7340    0.0352    4.1570   18.0000 
2171.0904   31.1340    2.7490    0.0551    4.3880   18.0000 
2171.3952   30.0680    2.7520    0.0438    4.6250   18.0000 
2171.7000   29.0120    2.7470    0.0280    4.7420   18.0000 
2172.0048   28.1840    2.7520    0.0244    4.5900   18.0000 
2172.3096   26.2890    2.7580    0.0165    4.3780   18.0000 
2172.6144   23.9730    2.7390    0.0132    4.8410   18.0000 
2172.9192   23.4350    2.7060    0.0141    5.4320   18.0000 
2173.2240   24.8250    2.7200    0.0152    5.4980   18.0000 
2173.5288   23.9450    2.7720    0.0112    5.6250   18.0000 
2173.8336   17.1110    2.8960    0.0039    5.3670    1.0000 
2174.1384   14.5460    2.7170   -0.0064    4.9650   22.0000 
2174.4432   13.1310    2.3000   -0.0143    4.8010   16.0000 
2174.7480   11.7080    2.0850   -0.0164    4.7090   16.0000 
2175.0528   11.3070    2.0700   -0.0170    4.8490   16.0000 
2175.3576   11.7030    2.0710   -0.0173    4.7400   16.0000 
2175.6624   12.7370    2.0730   -0.0174    4.6260   16.0000 
2175.9672   11.4920    2.0820   -0.0175    4.6270   16.0000 
2176.2720   11.6870    2.0920   -0.0176    4.4930   16.0000 
2176.5768   11.6510    2.0840   -0.0176    4.6060   16.0000 
2176.8816   11.0730    2.0640   -0.0173    4.5560   16.0000 
2177.1864   10.5530    2.0590   -0.0176    4.5980   16.0000 
2177.4912    9.6110    2.0720   -0.0177    4.6100   16.0000 
2177.7960    9.4370    2.0730   -0.0176    4.4790   16.0000 
2178.1008   10.6020    2.0700   -0.0176    4.5040   16.0000 
2178.4056   11.2710    2.0540   -0.0176    4.4550   16.0000 
2178.7104   10.0230    2.0620   -0.0180    4.3880   16.0000 
2179.0152   12.3020    2.0640   -0.0181    4.4030   16.0000 
2179.3200   12.5870    2.0610   -0.0177    4.4470   16.0000 
2179.6248   11.9580    2.0560   -0.0174    4.5740   16.0000 
2179.9296   12.9990    2.0480   -0.0173    4.5750   16.0000 
2180.2344   10.2030    2.0510   -0.0170    4.4750   16.0000 
2180.5392   11.6520    2.0490   -0.0171    4.6910   16.0000 
2180.8440   12.5690    2.0450   -0.0179    4.6090   16.0000 
2181.1488   11.1650    2.0500   -0.0178    4.7020   16.0000 
2181.4536   10.6290    2.0480   -0.0173    4.5580   16.0000 
2181.7584   11.8980    2.0550   -0.0166    4.6910   16.0000 
2182.0632   10.5420    2.0580   -0.0169    4.7450   16.0000 
2182.3680   11.0930    2.0540   -0.0176    4.8590   16.0000 
2182.6728   11.4980    2.0620   -0.0177    4.8410   16.0000 
2182.9776   11.3960    2.0720   -0.0170    4.7640   16.0000 
2183.2824   10.0250    2.0660   -0.0170    4.6590   16.0000 
2183.5872   12.0980    2.0560   -0.0170    4.6470   16.0000 
2183.8920   11.2700    2.0600   -0.0167    4.5100   16.0000 
2184.1968   12.5660    2.0840   -0.0161    4.9630   16.0000 
2184.5016   13.4630    2.2390   -0.0112    5.6810   16.0000 
2184.8064   14.5100    2.3590   -0.0088    5.1820   16.0000 
2185.1112   13.6310    2.1850   -0.0147    4.5990   16.0000 
2185.4160   12.4950    2.0930   -0.0180    4.4890   16.0000 
2185.7208   10.8320    2.0650   -0.0181    4.5810   16.0000 
2186.0256    9.9030    2.0610   -0.0172    4.7480   16.0000 
2186.3304   10.1210    2.0570   -0.0175    4.7190   16.0000 
2186.6352   11.3060    2.0660   -0.0176    4.7400   16.0000 
2186.9400   11.3640    2.0530   -0.0173    4.7380   16.0000 
2187.2448   10.7150    2.0480   -0.0173    4.6280   16.0000 
2187.5496   11.3310    2.0690   -0.0174    4.7060   16.0000 
2187.8544   10.6430    2.0730   -0.0176    4.6060   16.0000 
2188.1592   10.8870    2.0650   -0.0176    4.5960   16.0000 
2188.4640   11.9310    2.0840   -0.0178    4.7010   16.0000 
2188.7688   11.3460    2.0960   -0.0174    4.7240   16.0000 
2189.0736   10.0380    2.0970   -0.0169    4.8680   16.0000 
2189.3784   10.7280    2.0770   -0.0170    4.7060   16.0000 
2189.6832   11.0480    2.0650   -0.0173    4.6120   16.0000 
2189.9880   11.6990    2.0720   -0.0174    4.5100   16.0000 
2190.2928   11.0690    2.0570   -0.0174    4.4840   16.0000 
2190.5976   10.8410    2.0630   -0.0181    4.6800   16.0000 
2190.9024   10.9290    2.0680   -0.0184    4.7790   16.0000 
2191.2072   12.2580    2.0630   -0.0188    4.6030   16.0000 
2191.5120   12.2270    2.0580   -0.0192    4.5120   16.0000 
2191.8168   10.7010    2.0620   -0.0192    4.6890   16.0000 
2192.1216   11.5590    2.0530   -0.0177    4.7470   16.0000 
2192.4264   12.3470    2.0630   -0.0176    4.6410   16.0000 
2192.7312   13.8830    2.0660   -0.0178    4.6630   16.0000 
2193.0360   11.7560    2.0670   -0.0179    4.4210   16.0000 
2193.3408   10.0880    2.0590   -0.0176    4.3090   16.0000 
2193.6456   11.4620    2.0690   -0.0170    4.2340   16.0000 
2193.9504   12.7910    2.0800   -0.0176    4.2990   16.0000 
2194.2552   12.3990    2.0810   -0.0185    4.3690   16.0000 
2194.5600   11.1590    2.0650   -0.0199    4.4720   16.0000 
2194.8648   10.2840    2.0520   -0.0197    4.4760   16.0000 
2195.1696   11.3880    2.0560   -0.0202    4.3850   16.0000 
2195.4744   10.9830    2.0610   -0.0179    4.4600   16.0000 
2195.7792   12.0150    2.0640   -0.0190    4.5360   16.0000 
2196.0840   12.8160    2.0450   -0.0174    4.3860   16.0000 
2196.3888   12.1190    2.0570   -0.0179    4.4550   16.0000 
2196.6936   12.0270    2.0600   -0.0184    4.4710   16.0000 
2196.9984   12.8330    2.0690   -0.0184    4.4800   16.0000 
2197.3032   13.6220    2.0780   -0.0185    4.4580   16.0000 
2197.6080   13.7700    2.0740   -0.0188    4.3580   16.0000 
2197.9128   13.0040    2.0690   -0.0178    4.2290   16.0000 
2198.2176   11.0330    2.0720   -0.0186    4.4810   16.0000 
2198.5224   10.5690    2.0730   -0.0188    4.5550   16.0000 
2198.8272   12.8370    2.0670   -0.0181    4.3670   16.0000 
2199.1320   11.5890    2.0730   -0.0185    4.2910   16.0000 
2199.4368    9.4350    2.0760   -0.0192    4.6890   16.0000 
2199.7416    9.7070    2.0560   -0.0194    4.5570   16.0000 
2200.0464   10.7990    2.0470   -0.0193    4.3830   16.0000 
2200.3512   11.8100    2.0610   -0.0194    4.5440   16.0000 
2200.6560   10.6580    2.0670   -0.0196    4.4830   16.0000 
2200.9608   11.8730    2.0710   -0.0193    4.5600   16.0000 
2201.2656   13.5690    2.0820   -0.0183    4.5280   16.0000 
2201.5704   12.0950    2.0860   -0.0182    4.4130   16.0000 
2201.8752   10.4940    2.0640   -0.0194    4.4880   16.0000 
2202.1800   11.3300    2.0690   -0.0194    4.5660   16.0000 
2202.4848   11.2980    2.0680   -0.0197    4.5110   16.0000 
2202.7896    9.8310    2.0660   -0.0188    4.3590   16.0000 
2203.0944   10.0350    2.0640   -0.0192    4.2920   16.0000 
2203.3992   10.3070    2.0630   -0.0194    4.4670   16.0000 
