~VERSION INFORMATION
 VERS.                 2.0:   CWLS LOG ASCII STANDARD - VERSION 2.0
 WRAP.                  NO:   SINGLE LINE PER DEPTH STEP
 CREA.                 05/01/2018 16:27:01
#CREATED USING DSPetro VERSION 5000.10.1.3 BY H191660 ON 05/01/2018 16:27:01
~WELL INFORMATION
#MNEM.UNIT       DATA                          DESCRIPTION MNEMONIC
#---------      ---------------------------   --------------------------
 STRT    .M         31.0896                   : START DEPTH
 STOP    .M         2498.4456                 : STOP DEPTH
 STEP    .M         0.3048                    : STEP VALUE
 NULL    .      -999.0000                     : NULL VALUE
 DATE    .      05/01/2018                    : LAS file Creation Date
 WELL .      BALDINO_1_36_M4998          : Well Name
 COMP .      Neftex Exploration Insights : Company
 FLD  .      HERSEY SEC 36               : Field
 UWI  .      DUSWL_BALDIN                : Unique Well Identifier (UWI)
 LOC  .                                  : Location
 RWS  .      -999                        : Def_Rw
 WST  .      -999                        : Def_Rwt
 SRVC .                                  : Contractor
~CURVE INFORMATION
#MNEM              UNIT       API CODE   Curve Type Comments
#----------  --------------- ----------  ---------- -----------
 DEPTH      .M                         : Depth       
 GR_API     .API                       : GammaRay    Gamma Ray (API) - Measures the intensity of natural gamma-ray radiation emitted from formations containing radioactive elements, such as K, Th and U
 RHOZ_G_CC  .g/cc                      :             Formation Density - Measures the density of formation, including any void space or other materials contained in the subject volume
 NPHI_v_v   .dec                       : Neutron     
 PEF_B_E    .b/e-                      : PEF         Photoelectric Factor - A log of photoelectric absorption properties. Often expressed in an approximation unit barns/electron (b/e-)
 LITH       .                          : LITH        Lithology Curve
~A  DEPTH   GR_API  RHOZ_G_C~  NPHI_v_v  PEF_B_E     LITH   
# ...
2445.1056   62.5820    2.7020    0.0158    5.5870   18.0000 
2445.4104   60.0920    2.7130    0.0165    5.1880   18.0000 
2445.7152   58.0770    2.7190    0.0165    5.5110   18.0000 
2446.0200   66.2600    2.7070    0.0148    5.9810   18.0000 
2446.3248   73.7280    2.6910    0.0168    5.9790   18.0000 
2446.6296   71.8320    2.7020    0.0193    5.4560   18.0000 
2446.9344   68.5430    2.7080    0.0184    5.5080   18.0000 
2447.2392   63.5900    2.7130    0.0163    5.6010   18.0000 
2447.5440   73.1630    2.7160    0.0148    5.3720   18.0000 
2447.8488   89.0550    2.7050    0.0253    4.9380   18.0000 
2448.1536   77.3960    2.7160    0.0211    5.2300   18.0000 
2448.4584   54.0180    2.7260    0.0151    5.4970   18.0000 
2448.7632   61.2240    2.7250    0.0111    5.5310   18.0000 
2449.0680   75.8180    2.7200    0.0155    5.2320   18.0000 
2449.3728   84.8900    2.7140    0.0276    5.2570   18.0000 
2449.6776   91.2050    2.7110    0.0428    5.2130   18.0000 
2449.9824   62.3610    2.7000    0.0320    5.3350   18.0000 
2450.2872   47.0390    2.7050    0.0158    5.3020   18.0000 
2450.5920   51.7970    2.7140    0.0067    5.3430   18.0000 
2450.8968   57.9720    2.7120    0.0073    5.7090   18.0000 
2451.2016   60.4890    2.7170    0.0104    5.9000   18.0000 
2451.5064   49.5440    2.7150    0.0082    5.6020   18.0000 
2451.8112   47.1470    2.7050    0.0059    5.2380   18.0000 
2452.1160   54.8550    2.6980    0.0063    5.3310   18.0000 
2452.4208   48.0740    2.7030    0.0088    5.6510   18.0000 
2452.7256   31.3700    2.7100    0.0056    5.9700   18.0000 
2453.0304   26.5490    2.7170    0.0022    5.9730   18.0000 
2453.3352   27.7070    2.7220    0.0017    5.7450   18.0000 
2453.6400   26.2350    2.7260    0.0015    5.7630   18.0000 
2453.9448   24.8070    2.7170    0.0010    5.6450   18.0000 
2454.2496   28.9190    2.7180    0.0009    5.2250   18.0000 
2454.5544   34.4630    2.7210    0.0016    5.6780   18.0000 
2454.8592   31.0620    2.7220    0.0034    5.4700   18.0000 
2455.1640   38.2410    2.7160    0.0029    5.6890   18.0000 
2455.4688   39.8750    2.7190    0.0033    5.8480   18.0000 
2455.7736   44.0280    2.7090    0.0060    5.4750   18.0000 
2456.0784   50.0640    2.7100    0.0068    5.6180   18.0000 
2456.3832   47.0280    2.7080    0.0062    5.6900   18.0000 
2456.6880   46.3920    2.6990    0.0046    5.5830   18.0000 
2456.9928   41.8580    2.7210    0.0037    5.6640   18.0000 
2457.2976   31.1630    2.7410    0.0044    5.6670   18.0000 
2457.6024   27.7130    2.7590    0.0064    5.2940   18.0000 
2457.9072   34.5240    2.7600    0.0072    4.8720   18.0000 
2458.2120   41.3220    2.7470    0.0065    4.8120   18.0000 
2458.5168   45.6060    2.7370    0.0044    5.1480   18.0000 
2458.8216   44.6580    2.7360    0.0023    5.2970   18.0000 
2459.1264   43.5930    2.7220    0.0017    5.0590   18.0000 
2459.4312   45.8660    2.7310    0.0016    5.1000   18.0000 
2459.7360   48.5150    2.7410    0.0026    5.2330   18.0000 
2460.0408   50.8890    2.7290    0.0067    5.3480   18.0000 
2460.3456   50.6790    2.7200    0.0048    5.4120   18.0000 
2460.6504   43.9310    2.7340    0.0030    5.6080   18.0000 
2460.9552   40.7090    2.7430    0.0018    5.2250   18.0000 
2461.2600   37.8050    2.7400    0.0016    5.5860   18.0000 
2461.5648   34.8390    2.7330    0.0022    5.8460   18.0000 
2461.8696   38.3370    2.7400    0.0033    5.2110   18.0000 
2462.1744   41.0550    2.7480    0.0029    5.3090   18.0000 
2462.4792   40.6620    2.7480    0.0032    5.2450   18.0000 
2462.7840   37.4390    2.7430    0.0035    5.2960   18.0000 
2463.0888   31.3740    2.7290    0.0033    5.0080   18.0000 
2463.3936   31.9500    2.7370    0.0029    4.8050   18.0000 
2463.6984   29.7170    2.7300    0.0032    5.5470   18.0000 
2464.0032   26.9000    2.7410    0.0061    5.7510   18.0000 
2464.3080   22.9080    2.7500    0.0231    4.2570   18.0000 
2464.6128   20.4630    2.7500    0.0466    3.8590   18.0000 
2464.9176   18.9210    2.7330    0.0629    3.9500   18.0000 
2465.2224   17.3370    2.7360    0.0637    4.5240   18.0000 
2465.5272   17.0630    2.7600    0.0403    5.2380   18.0000 
2465.8320   16.6890    2.7500    0.0175    5.4750   18.0000 
2466.1368   16.9410    2.7320    0.0078    4.9230   18.0000 
2466.4416   17.8760    2.7720    0.0096    4.4750   18.0000 
2466.7464   18.1980    2.8120    0.0246    4.1510   18.0000 
2467.0512   17.9250    2.7980    0.0521    3.8800   18.0000 
2467.3560   15.7370    2.7430    0.0682    3.7980   18.0000 
2467.6608   15.6540    2.7330    0.0662    3.9960   18.0000 
2467.9656   16.6350    2.7730    0.0494    4.5820   18.0000 
2468.2704   16.7910    2.7680    0.0280    5.1510   18.0000 
2468.5752   16.4400    2.7400    0.0134    5.3890   18.0000 
2468.8800   15.8030    2.7100    0.0096    5.4000   18.0000 
2469.1848   15.8490    2.6730    0.0115    5.3110   18.0000 
2469.4896   14.6700    2.7090    0.0204    5.0670   18.0000 
2469.7944   14.4500    2.7510    0.0143    4.9290   18.0000 
2470.0992   15.2100    2.7210    0.0115    5.1450   18.0000 
2470.4040   15.9680    2.7050    0.0139    4.9820   18.0000 
2470.7088   16.3670    2.7070    0.0162    4.4290   18.0000 
2471.0136   16.6170    2.6910    0.0256    4.3740   18.0000 
2471.3184   16.0410    2.7080    0.0538    4.5280   18.0000 
2471.6232   17.3360    2.6890    0.0916    4.1940   18.0000 
2471.9280   17.8880    2.6790    0.1022    3.9220   18.0000 
2472.2328   18.5210    2.6990    0.1032    4.1280   18.0000 
2472.5376   18.7980    2.7300    0.0909    4.5850   37.0000 
2472.8424   17.8530    2.7650    0.0561    4.5580   18.0000 
2473.1472   16.6100    2.7860    0.0254    4.2810   18.0000 
2473.4520   15.9830    2.8020    0.0122    4.4140   18.0000 
2473.7568   15.7740    2.7880    0.0113    4.4290   18.0000 
2474.0616   15.3680    2.7600    0.0236    4.6900   18.0000 
2474.3664   16.3070    2.7750    0.0138    4.7490   18.0000 
2474.6712   17.2880    2.7920    0.0100    4.4380   18.0000 
2474.9760   17.8500    2.7990    0.0104    4.2840   18.0000 
2475.2808   17.4540    2.7980    0.0143    4.1700   18.0000 
2475.5856   17.1800    2.7930    0.0244    4.3400   18.0000 
2475.8904   17.5590    2.7780    0.0353    4.2700   18.0000 
2476.1952   18.7940    2.7650    0.0472    4.2560   18.0000 
2476.5000   19.0010    2.7830    0.0499    4.5250   18.0000 
2476.8048   18.0680    2.7800    0.0398    4.7390   18.0000 
2477.1096   17.0070    2.7720    0.0299    4.3620   18.0000 
2477.4144   19.2150    2.7840    0.0343    4.6540   18.0000 
2477.7192   18.4530    2.7660    0.0291    4.9250   18.0000 
2478.0240   18.7950    2.7450    0.0211    4.9280   18.0000 
2478.3288   17.4990    2.7370    0.0286    5.3270   18.0000 
2478.6336   17.6960    2.7600    0.0193    5.6850   18.0000 
2478.9384   18.7580    2.7640    0.0077    5.4740   18.0000 
2479.2432   19.0290    2.7650    0.0047    5.0280   18.0000 
2479.5480   18.2970    2.7690    0.0045    5.1390   18.0000 
2479.8528   19.5030    2.7710    0.0052    5.1080   18.0000 
2480.1576   20.5730    2.7650    0.0076    4.7340   18.0000 
2480.4624   21.7580    2.7590    0.0082    4.5680   18.0000 
2480.7672   22.0100    2.7780    0.0064    4.7420   18.0000 
2481.0720   22.1030    2.7760    0.0051    5.3400   18.0000 
2481.3768   22.2780    2.7730    0.0066    5.9260   18.0000 
2481.6816   21.7790    2.7680    0.0049    5.9710   18.0000 
2481.9864   21.4620    2.7780    0.0025    5.7710   18.0000 
2482.2912   21.0200    2.7900    0.0038    5.6240   18.0000 
2482.5960   20.7800    2.7860    0.0072    5.0510   18.0000 
2482.9008   20.9910    2.7810    0.0081    5.3550   18.0000 
2483.2056   27.4820    2.7790    0.0071    5.3720   18.0000 
2483.5104   54.4880    2.7700    0.0079    5.2250   18.0000 
2483.8152  119.3400    2.7230    0.0507    4.7270   18.0000 
2484.1200  141.8720    2.7070    0.1453    4.9220   37.0000 
2484.4248  112.4630    2.7260    0.2182    5.0710   37.0000 
2484.7296   67.8530    2.7380    0.1693    5.5630   37.0000 
2485.0344   40.1400    2.7280    0.0633    6.0610   18.0000 
