~VERSION INFORMATION
 VERS.                 2.0:   CWLS LOG ASCII STANDARD - VERSION 2.0
 WRAP.                  NO:   SINGLE LINE PER DEPTH STEP
 CREA.                 05/01/2018 16:27:01
#CREATED USING DSPetro VERSION 5000.10.1.3 BY H191660 ON 05/01/2018 16:27:01
~WELL INFORMATION
#MNEM.UNIT       DATA                          DESCRIPTION MNEMONIC
#---------      ---------------------------   --------------------------
 STRT    .M         31.0896                   : START DEPTH
 STOP    .M         2498.4456                 : STOP DEPTH
 STEP    .M         0.3048                    : STEP VALUE
 NULL    .      -999.0000                     : NULL VALUE
 DATE    .      05/01/2018                    : LAS file Creation Date
 WELL .      BALDINO_1_36_M4998          : Well Name
 COMP .      Neftex Exploration Insights : Company
 FLD  .      HERSEY SEC 36               : Field
 UWI  .      DUSWL_BALDIN                : Unique Well Identifier (UWI)
 LOC  .                                  : Location
 RWS  .      -999                        : Def_Rw
 WST  .      -999                        : Def_Rwt
 SRVC .                                  : Contractor
~CURVE INFORMATION
#MNEM              UNIT       API CODE   Curve Type Comments
#----------  --------------- ----------  ---------- -----------
 DEPTH      .M                         : Depth       
 GR_API     .API                       : GammaRay    Gamma Ray (API) - Measures the intensity of natural gamma-ray radiation emitted from formations containing radioactive elements, such as K, Th and U
 RHOZ_G_CC  .g/cc                      :             Formation Density - Measures the density of formation, including any void space or other materials contained in the subject volume
 NPHI_v_v   .dec                       : Neutron     
 PEF_B_E    .b/e-                      : PEF         Photoelectric Factor - A log of photoelectric absorption properties. Often expressed in an approximation unit barns/electron (b/e-)
 LITH       .                          : LITH        Lithology Curve
~A  DEPTH   GR_API  RHOZ_G_C~  NPHI_v_v  PEF_B_E     LITH   
# ...
1278.3312   12.5040    2.9400   -0.0079    4.9510    1.0000 
1278.6360   10.9260    2.9430   -0.0093    4.6900    1.0000 
1278.9408   11.5580    2.9280   -0.0095    3.9940    1.0000 
1279.2456   13.6370    2.8640   -0.0042    3.1500   12.0000 
1279.5504   16.4610    2.8320    0.0002    3.0830   12.0000 
1279.8552   16.2900    2.8660   -0.0069    3.9870   12.0000 
1280.1600   11.8610    2.9170   -0.0104    4.7160    1.0000 
1280.4648    8.0540    2.9440   -0.0115    4.7440    1.0000 
1280.7696    8.6060    2.9540   -0.0133    4.6600    1.0000 
1281.0744    9.5070    2.9450   -0.0129    4.4320    1.0000 
1281.3792   10.4240    2.9400   -0.0111    4.1510    1.0000 
1281.6840   10.8410    2.9480   -0.0132    4.4690    1.0000 
1281.9888    9.6570    2.9540   -0.0135    4.6650    1.0000 
1282.2936   10.0230    2.9320   -0.0126    4.7070    1.0000 
1282.5984   11.3540    2.9280   -0.0116    4.9140    1.0000 
1282.9032   11.4810    2.9230   -0.0116    4.5270    1.0000 
1283.2080   11.7290    2.9070   -0.0118    4.1840    1.0000 
1283.5128   13.8930    2.8150   -0.0111    3.5310    1.0000 
1283.8176   15.0390    2.6160   -0.0072    3.3970    1.0000 
1284.1224   12.4070    2.1990   -0.0163    3.0060   16.0000 
1284.4272   10.8890    2.0370   -0.0196    3.1120   16.0000 
1284.7320    9.4040    2.0330   -0.0176    3.1540   16.0000 
1285.0368    8.2100    2.0390   -0.0144    3.3620   16.0000 
1285.3416    9.2180    2.0430   -0.0140    3.1970   16.0000 
1285.6464    9.0000    2.0540   -0.0090    3.1520   16.0000 
1285.9512    8.0280    2.1120   -0.0111    3.3270   16.0000 
1286.2560    8.4080    2.1000   -0.0144    3.3750   16.0000 
1286.5608    8.7530    2.0590   -0.0142    3.3330   16.0000 
1286.8656    9.0680    2.0440   -0.0128    2.9880   16.0000 
1287.1704    9.3360    2.0250   -0.0071    3.1470   16.0000 
1287.4752    8.6570    2.0720   -0.0054    3.3810   16.0000 
1287.7800    8.8290    2.1090   -0.0114    3.3860   16.0000 
1288.0848   10.0220    2.0830   -0.0126    3.4750   16.0000 
1288.3896    9.5340    2.0550   -0.0104    3.5350   16.0000 
1288.6944    8.6720    2.0480   -0.0091    3.5450   16.0000 
1288.9992    8.6640    2.0590   -0.0087    3.6100   16.0000 
1289.3040    8.6960    2.0720   -0.0067    3.6640   16.0000 
1289.6088    9.0870    2.0870   -0.0042    3.6000   16.0000 
1289.9136    9.6710    2.0980   -0.0010    3.6430   16.0000 
1290.2184    9.8450    2.0980    0.0008    3.4820   16.0000 
1290.5232   10.3620    2.1150    0.0034    3.3570   16.0000 
1290.8280   10.5570    2.1660    0.0125    3.3640   16.0000 
1291.1328   10.0380    2.2510    0.0335    3.4900   15.0000 
1291.4376    9.3870    2.3100    0.0241    3.6420   15.0000 
1291.7424    9.4910    2.2890    0.0086    3.6140   16.0000 
1292.0472    9.6770    2.2630    0.0088    3.6020   16.0000 
1292.3520   10.0460    2.2400    0.0133    3.6170   16.0000 
1292.6568   10.5110    2.2420    0.0199    3.4170   16.0000 
1292.9616   10.5680    2.2970    0.0369    3.5730   15.0000 
1293.2664   10.6950    2.3840    0.0470    3.6780   15.0000 
1293.5712    9.4190    2.1440    0.0191    3.6560   16.0000 
1293.8760    8.1090    2.0520   -0.0099    3.6140   16.0000 
1294.1808    8.4750    2.0480   -0.0093    3.6100   16.0000 
1294.4856    8.9070    2.0610   -0.0080    3.5960   16.0000 
1294.7904    9.3830    2.0660   -0.0097    3.6230   16.0000 
1295.0952    9.4340    2.0670   -0.0114    3.6190   16.0000 
1295.4000    9.1140    2.0670   -0.0136    3.6120   16.0000 
1295.7048    8.8160    2.0610   -0.0137    3.5000   16.0000 
1296.0096    9.2880    2.0600   -0.0132    3.5540   16.0000 
1296.3144    9.6660    2.0610   -0.0123    3.4730   16.0000 
1296.6192    9.6480    2.0670   -0.0103    3.4200   16.0000 
1296.9240    9.8940    2.0630   -0.0102    2.8990   16.0000 
1297.2288   10.3550    2.0950    0.0051    3.4260   16.0000 
1297.5336    9.9500    2.2600   -0.0039    3.8310   16.0000 
1297.8384    9.4530    2.0960   -0.0130    3.2470   16.0000 
1298.1432    9.7560    2.1200   -0.0081    2.9180   16.0000 
1298.4480    9.1950    2.3960    0.0000    4.1200   15.0000 
1298.7528    7.8410    2.6730   -0.0095    4.8530   18.0000 
1299.0576    8.5100    2.5700   -0.0144    4.5920   18.0000 
1299.3624    8.1240    2.5140   -0.0146    4.1180   15.0000 
1299.6672    7.9380    2.6310   -0.0089    4.2420   18.0000 
1299.9720    9.6890    2.8370   -0.0024    4.3650    1.0000 
1300.2768   12.5490    2.7570   -0.0098    3.5610   18.0000 
1300.5816   15.9680    2.6180   -0.0025    3.1430   27.0000 
1300.8864   18.9720    2.5910    0.0121    3.0670   27.0000 
1301.1912   18.0170    2.6600    0.0210    3.0210   27.0000 
1301.4960   15.3030    2.7170    0.0117    3.6060   18.0000 
1301.8008   12.9440    2.5330   -0.0018    3.4520   27.0000 
1302.1056    9.4700    2.1240   -0.0133    3.3700   16.0000 
1302.4104    9.5900    2.2550   -0.0081    3.8080   16.0000 
1302.7152   12.7370    2.5380   -0.0031    4.2030   18.0000 
1303.0200   15.0590    2.6150    0.0026    3.6420   18.0000 
1303.3248   17.1780    2.6320    0.0117    3.3200   27.0000 
1303.6296   17.1600    2.6550    0.0125    3.4230   27.0000 
1303.9344   15.3920    2.6530    0.0169    3.3480   27.0000 
1304.2392   15.2570    2.7480    0.0139    3.7610    1.0000 
1304.5440   16.2200    2.8550    0.0047    3.9870    1.0000 
1304.8488   15.2040    2.4950   -0.0019    3.1270   16.0000 
1305.1536   12.3620    2.0560   -0.0097    2.8280   16.0000 
1305.4584    9.5180    2.0260   -0.0085    2.9590   16.0000 
1305.7632    9.2210    2.0320   -0.0030    3.1130   16.0000 
1306.0680    9.4070    2.0470   -0.0052    3.2890   16.0000 
1306.3728    8.2530    2.0680   -0.0077    3.4910   16.0000 
1306.6776    8.6280    2.0610   -0.0087    3.6090   16.0000 
1306.9824    8.4810    2.0520   -0.0089    3.6430   16.0000 
1307.2872    9.2330    2.0470   -0.0083    3.4910   16.0000 
1307.5920    9.8720    2.0300   -0.0075    3.2530   16.0000 
1307.8968   10.1000    2.0500   -0.0029    3.0080   16.0000 
1308.2016   10.1330    2.0880   -0.0012    3.0690   16.0000 
1308.5064    9.6330    2.0810   -0.0064    3.2310   16.0000 
1308.8112    8.8370    2.0650   -0.0044    3.3160   16.0000 
1309.1160    9.3570    2.0460   -0.0052    3.2790   16.0000 
1309.4208   10.2900    2.0510   -0.0067    3.2990   16.0000 
1309.7256    9.8610    2.0700   -0.0032    3.1830   16.0000 
1310.0304    8.9850    2.0960   -0.0018    3.1070   16.0000 
1310.3352    9.0800    2.0800   -0.0040    2.8980   16.0000 
1310.6400    9.9950    1.9990    0.0027    2.7000   16.0000 
1310.9448   11.4650    2.2530    0.0636    3.7590   27.0000 
1311.2496   14.2320    2.5940    0.0336    3.3880   27.0000 
1311.5544   15.5390    2.5790    0.0136    3.1070   27.0000 
1311.8592   15.2640    2.5740    0.0211    3.3970   27.0000 
1312.1640   14.8220    2.6090    0.0173    3.4940   27.0000 
1312.4688   17.8040    2.6510    0.0206    3.8120   27.0000 
1312.7736   18.9140    2.7790    0.0105    4.5970    1.0000 
1313.0784   11.9390    2.9030   -0.0050    5.0760    1.0000 
1313.3832    5.6840    2.9350   -0.0110    5.1420    1.0000 
1313.6880    5.6780    2.9420   -0.0120    5.0010    1.0000 
1313.9928    5.4680    2.9390   -0.0145    4.8580    1.0000 
1314.2976    6.0530    2.9180   -0.0146    4.5540    1.0000 
1314.6024    7.4880    2.8880   -0.0105    4.6150    1.0000 
1314.9072    8.9190    2.9120   -0.0016    4.7430    1.0000 
1315.2120    7.1000    2.9240   -0.0055    4.9000    1.0000 
1315.5168    7.0220    2.9200   -0.0099    5.0440    1.0000 
1315.8216    7.9410    2.8770   -0.0101    4.4940    1.0000 
1316.1264    8.9670    2.8340   -0.0055    3.7310    1.0000 
1316.4312   10.1160    2.8640    0.0011    3.9750    1.0000 
1316.7360   10.6080    2.8790    0.0004    4.4610    1.0000 
1317.0408    8.4300    2.9130   -0.0049    4.2150    1.0000 
1317.3456    7.8060    2.6810   -0.0149    3.5370   16.0000 
1317.6504    7.7360    2.2180   -0.0149    2.8110   16.0000 
1317.9552    7.7120    2.0050   -0.0082    2.6030   16.0000 
1318.2600    7.9910    1.9100   -0.0139    2.8110   16.0000 
