~VERSION INFORMATION
 VERS.                 2.0:   CWLS LOG ASCII STANDARD - VERSION 2.0
 WRAP.                  NO:   SINGLE LINE PER DEPTH STEP
 CREA.                 05/01/2018 16:27:01
#CREATED USING DSPetro VERSION 5000.10.1.3 BY H191660 ON 05/01/2018 16:27:01
~WELL INFORMATION
#MNEM.UNIT       DATA                          DESCRIPTION MNEMONIC
#---------      ---------------------------   --------------------------
 STRT    .M         31.0896                   : START DEPTH
 STOP    .M         2498.4456                 : STOP DEPTH
 STEP    .M         0.3048                    : STEP VALUE
 NULL    .      -999.0000                     : NULL VALUE
 DATE    .      05/01/2018                    : LAS file Creation Date
 WELL .      BALDINO_1_36_M4998          : Well Name
 COMP .      Neftex Exploration Insights : Company
 FLD  .      HERSEY SEC 36               : Field
 UWI  .      DUSWL_BALDIN                : Unique Well Identifier (UWI)
 LOC  .                                  : Location
 RWS  .      -999                        : Def_Rw
 WST  .      -999                        : Def_Rwt
 SRVC .                                  : Contractor
~CURVE INFORMATION
#MNEM              UNIT       API CODE   Curve Type Comments
#----------  --------------- ----------  ---------- -----------
 DEPTH      .M                         : Depth       
 GR_API     .API                       : GammaRay    Gamma Ray (API) - Measures the intensity of natural gamma-ray radiation emitted from formations containing radioactive elements, such as K, Th and U
 RHOZ_G_CC  .g/cc                      :             Formation Density - Measures the density of formation, including any void space or other materials contained in the subject volume
 NPHI_v_v   .dec                       : Neutron     
 PEF_B_E    .b/e-                      : PEF         Photoelectric Factor - A log of photoelectric absorption properties. Often expressed in an approximation unit barns/electron (b/e-)
 LITH       .                          : LITH        Lithology Curve
~A  DEPTH   GR_API  RHOZ_G_C~  NPHI_v_v  PEF_B_E     LITH   
# ...
1559.9664   25.5500    2.7410    0.0086    3.6720   18.0000 
1560.2712   29.0970    2.7560    0.0075    3.4610   18.0000 
1560.5760   30.1560    2.7750    0.0091    3.3360   12.0000 
1560.8808   28.7270    2.7760    0.0136    3.3610   12.0000 
1561.1856   32.4440    2.7720    0.0119    3.2700   12.0000 
1561.4904   36.2450    2.7620    0.0142    3.5650   12.0000 
1561.7952   36.5030    2.7400    0.0192    3.7980   18.0000 
1562.1000   31.7880    2.7420    0.0141    3.6940   18.0000 
1562.4048   28.7370    2.7530    0.0139    3.3850   12.0000 
1562.7096   26.5260    2.7550    0.0160    3.2890   12.0000 
1563.0144   31.7180    2.7510    0.0202    3.3460   12.0000 
1563.3192   35.0340    2.7420    0.0289    3.4140   12.0000 
1563.6240   35.3180    2.7290    0.0366    3.5410   12.0000 
1563.9288   31.1430    2.7370    0.0268    3.6210   18.0000 
1564.2336   29.5280    2.7440    0.0205    3.6800   18.0000 
1564.5384   25.9250    2.7330    0.0172    3.5930   18.0000 
1564.8432   27.7550    2.7430    0.0153    3.6380   18.0000 
1565.1480   31.8800    2.7380    0.0178    3.5910   18.0000 
1565.4528   32.4710    2.7300    0.0214    3.4660   18.0000 
1565.7576   29.3670    2.7360    0.0267    3.5860   18.0000 
1566.0624   26.9420    2.7250    0.0315    3.7470   18.0000 
1566.3672   27.1350    2.7290    0.0385    3.8060   18.0000 
1566.6720   27.3560    2.7300    0.0330    3.8200   18.0000 
1566.9768   26.9420    2.7150    0.0261    3.7570   18.0000 
1567.2816   25.2330    2.7210    0.0180    3.9100   18.0000 
1567.5864   26.6810    2.7220    0.0173    4.0290   18.0000 
1567.8912   28.5210    2.7300    0.0129    3.6980   18.0000 
1568.1960   27.1550    2.7310    0.0082    4.0160   18.0000 
1568.5008   28.5690    2.7330    0.0046    4.1510   18.0000 
1568.8056   29.3730    2.7300    0.0063    4.1390   18.0000 
1569.1104   29.4740    2.7220    0.0058    4.2420   18.0000 
1569.4152   29.3240    2.7200    0.0047    4.2340   18.0000 
1569.7200   28.2110    2.7010    0.0030    4.1610   18.0000 
1570.0248   25.9520    2.7110   -0.0002    4.1520   18.0000 
1570.3296   30.0060    2.7210   -0.0016    3.9690   18.0000 
1570.6344   27.5180    2.7130   -0.0017    4.0980   18.0000 
1570.9392   30.7340    2.7150   -0.0031    4.1910   18.0000 
1571.2440   29.7270    2.7060   -0.0014    4.1900   18.0000 
1571.5488   26.5880    2.7140   -0.0006    4.3640   18.0000 
1571.8536   24.7380    2.7190   -0.0017    4.5210   18.0000 
1572.1584   25.5890    2.7130   -0.0013    4.2660   18.0000 
1572.4632   23.3220    2.7170    0.0002    3.8950   18.0000 
1572.7680   25.3460    2.7210    0.0036    3.7910   18.0000 
1573.0728   25.9670    2.7160    0.0053    3.8670   18.0000 
1573.3776   23.0600    2.7180    0.0050    3.6200   18.0000 
1573.6824   24.2910    2.7110    0.0089    3.5200   18.0000 
1573.9872   22.8230    2.7010    0.0109    3.9370   18.0000 
1574.2920   24.4590    2.6920    0.0046    3.8280   18.0000 
1574.5968   26.4800    2.6850    0.0021    3.9450   18.0000 
1574.9016   24.6290    2.6990    0.0029    4.0200   18.0000 
1575.2064   26.9940    2.7180    0.0029    4.2020   18.0000 
1575.5112   28.0950    2.7090    0.0026    4.3470   18.0000 
1575.8160   26.5170    2.7130    0.0032    4.1400   18.0000 
1576.1208   25.1540    2.7180    0.0083    3.9230   18.0000 
1576.4256   22.6980    2.7080    0.0122    4.2760   18.0000 
1576.7304   23.3580    2.6900    0.0110    4.0670   18.0000 
1577.0352   21.6680    2.7010    0.0142    3.7820   18.0000 
1577.3400   21.2190    2.7000    0.0221    3.9870   18.0000 
1577.6448   22.8470    2.6630    0.0198    3.6100   18.0000 
1577.9496   21.6180    2.6250    0.0334    2.9910   27.0000 
1578.2544   18.9530    2.5990    0.0498    3.0220   27.0000 
1578.5592   16.9880    2.5920    0.0594    2.9650   27.0000 
1578.8640   17.2380    2.5900    0.0868    2.7240   27.0000 
1579.1688   17.2200    2.5860    0.1264    2.6810   12.0000 
1579.4736   16.6470    2.5610    0.1449    2.6920   12.0000 
1579.7784   17.9870    2.5940    0.1376    3.0060   12.0000 
1580.0832   18.7350    2.6070    0.1211    2.8500   12.0000 
1580.3880   19.0680    2.5770    0.1378    2.6590   12.0000 
1580.6928   19.0280    2.5840    0.1321    2.8020   12.0000 
1580.9976   18.6710    2.5740    0.1281    2.7470   12.0000 
1581.3024   16.8060    2.5710    0.1218    2.8330   12.0000 
1581.6072   18.0930    2.6190    0.1024    3.0040   12.0000 
1581.9120   18.4140    2.6610    0.0712    3.2110   12.0000 
1582.2168   18.5450    2.6350    0.0523    3.3290   27.0000 
1582.5216   18.3210    2.5900    0.0765    2.9930   27.0000 
1582.8264   17.4600    2.5930    0.1094    2.6670   12.0000 
1583.1312   20.0090    2.6370    0.0883    2.7230   12.0000 
1583.4360   21.9440    2.6320    0.0648    2.6110   27.0000 
1583.7408   23.5280    2.6300    0.0718    2.8500   27.0000 
1584.0456   22.3370    2.6460    0.0618    3.1390   27.0000 
1584.3504   19.6070    2.6480    0.0602    2.9330   27.0000 
1584.6552   20.7260    2.6080    0.0865    2.6660   27.0000 
1584.9600   21.2900    2.5830    0.1311    2.6900   12.0000 
1585.2648   19.2830    2.6070    0.1392    2.7500   12.0000 
1585.5696   17.5080    2.6160    0.1344    2.6640   12.0000 
1585.8744   17.4780    2.5860    0.1306    2.4540   27.0000 
1586.1792   17.8020    2.5640    0.1325    2.3200   27.0000 
1586.4840   18.8400    2.5510    0.1454    2.2660   27.0000 
1586.7888   19.9560    2.5340    0.1740    2.3750   27.0000 
1587.0936   20.5040    2.5400    0.1693    2.2420   27.0000 
1587.3984   20.0340    2.5120    0.1747    2.3610   27.0000 
1587.7032   20.5740    2.5170    0.2115    2.5760   12.0000 
1588.0080   21.8780    2.5240    0.2147    2.7410   12.0000 
1588.3128   22.1970    2.5400    0.1955    2.6100   12.0000 
1588.6176   21.9090    2.5710    0.1807    2.4600   12.0000 
1588.9224   20.0900    2.5790    0.1753    2.5000   12.0000 
1589.2272   18.0710    2.5440    0.1782    2.4270   12.0000 
1589.5320   17.5490    2.5150    0.1860    2.2470   27.0000 
1589.8368   18.1470    2.5420    0.1767    2.5000   12.0000 
1590.1416   17.1840    2.5520    0.1674    2.5220   12.0000 
1590.4464   17.5130    2.4930    0.1771    2.3260   27.0000 
1590.7512   17.4270    2.5200    0.1943    2.4000   12.0000 
1591.0560   15.8390    2.5600    0.1679    2.5090   12.0000 
1591.3608   17.7860    2.5660    0.1654    2.4400   12.0000 
1591.6656   19.8860    2.5570    0.1729    2.5090   12.0000 
1591.9704   24.1020    2.5900    0.1517    2.7060   12.0000 
1592.2752   27.1830    2.6130    0.1314    2.6460   12.0000 
1592.5800   24.3180    2.6010    0.1264    2.3860   27.0000 
1592.8848   21.1200    2.6250    0.1282    2.5040   12.0000 
1593.1896   23.5290    2.6500    0.1234    2.5760   12.0000 
1593.4944   25.2920    2.6450    0.1232    2.5880   12.0000 
1593.7992   23.4600    2.6230    0.1421    2.6760   12.0000 
1594.1040   20.5650    2.6280    0.1550    2.6410   12.0000 
1594.4088   21.7800    2.5950    0.1492    2.4300   12.0000 
1594.7136   23.7360    2.5420    0.1753    2.5870   12.0000 
1595.0184   22.8570    2.5720    0.1859    2.7000   12.0000 
1595.3232   21.6390    2.5860    0.1596    2.5030   12.0000 
1595.6280   20.0300    2.5600    0.1391    2.1830   27.0000 
1595.9328   18.0230    2.5360    0.1487    2.2660   27.0000 
1596.2376   20.0790    2.5430    0.1570    2.2130   27.0000 
1596.5424   19.6820    2.4930    0.1709    2.1430   27.0000 
1596.8472   18.6780    2.4530    0.2116    2.2680   27.0000 
1597.1520   17.2430    2.4950    0.1898    2.3030   27.0000 
1597.4568   17.8220    2.5140    0.1707    2.2650   27.0000 
1597.7616   19.9440    2.5400    0.1629    2.3180   27.0000 
1598.0664   22.5590    2.5730    0.1382    2.2780   27.0000 
1598.3712   24.9890    2.6040    0.0824    2.1870   27.0000 
1598.6760   26.6090    2.6190    0.0583    2.4020   27.0000 
1598.9808   27.2270    2.6300    0.0726    2.5250   27.0000 
1599.2856   24.9860    2.6310    0.0885    2.5450   27.0000 
1599.5904   27.7880    2.6080    0.0974    2.6080   27.0000 
1599.8952   27.6180    2.6190    0.1063    2.6290   12.0000 
