~VERSION INFORMATION
 VERS.                 2.0:   CWLS LOG ASCII STANDARD - VERSION 2.0
 WRAP.                  NO:   SINGLE LINE PER DEPTH STEP
 CREA.                 05/01/2018 17:09:06
#CREATED USING DSPetro VERSION 5000.10.1.3 BY H191660 ON 05/01/2018 17:09:06
~WELL INFORMATION
#MNEM.UNIT       DATA                          DESCRIPTION MNEMONIC
#---------      ---------------------------   --------------------------
 STRT    .M         80.7720                   : START DEPTH
 STOP    .M         2461.5648                 : STOP DEPTH
 STEP    .M         0.3048                    : STEP VALUE
 NULL    .      -999.0000                     : NULL VALUE
 DATE    .      05/01/2018                    : LAS file Creation Date
 WELL .      JOHNSON_3_1                 : Well Name
 COMP .      Neftex Exploration Insights : Company
 FLD  .                                  : Field
 UWI  .      DUSWL_JO_3_1                : Unique Well Identifier (UWI)
 LOC  .                                  : Location
 RWS  .      -999                        : Def_Rw
 WST  .      -999                        : Def_Rwt
 SRVC .                                  : Contractor
~CURVE INFORMATION
#MNEM              UNIT       API CODE   Curve Type Comments
#----------  --------------- ----------  ---------- -----------
 DEPTH      .M                         : Depth       
 CAL_INCH   .inch                      :             Caliper Log - A representation of the measured diameter of a borehole along its depth
 GR_API     .API                       : GammaRay    Gamma Ray (API) - Measures the intensity of natural gamma-ray radiation emitted from formations containing radioactive elements, such as K, Th and U
 RHOZ_G_CC  .g/cc                      :             Formation Density - Measures the density of formation, including any void space or other materials contained in the subject volume
 NPHI_v_v   .dec                       : Neutron     
 PEF_B_E    .b/e-                      : PEF         Photoelectric Factor - A log of photoelectric absorption properties. Often expressed in an approximation unit barns/electron (b/e-)
 LITH       .                          :             
~A  DEPTH  CAL_INCH   GR_API  RHOZ_G_C~  NPHI_v_v  PEF_B_E     LITH   
# ...
 700.7352   13.0320   87.8780 -999.0000    0.2303 -999.0000 -999.0000 
 701.0400   13.0410   89.0850 -999.0000    0.2132 -999.0000 -999.0000 
 701.3448   13.0460   90.2900 -999.0000    0.2128 -999.0000 -999.0000 
 701.6496   13.0470   93.8220 -999.0000    0.2241 -999.0000 -999.0000 
 701.9544   13.0360  100.9970 -999.0000    0.2273 -999.0000 -999.0000 
 702.2592   13.0440   98.1470 -999.0000    0.2189 -999.0000 -999.0000 
 702.5640   13.0370   95.2320 -999.0000    0.2066 -999.0000 -999.0000 
 702.8688   13.0180   96.2010 -999.0000    0.2338 -999.0000 -999.0000 
 703.1736   12.9560   92.6310 -999.0000    0.2254 -999.0000 -999.0000 
 703.4784   12.8690   91.1510 -999.0000    0.2137 -999.0000 -999.0000 
 703.7832   12.8500   94.6250 -999.0000    0.2133 -999.0000 -999.0000 
 704.0880   12.8380  100.9050 -999.0000    0.2187 -999.0000 -999.0000 
 704.3928   12.7760  107.6030 -999.0000    0.2265 -999.0000 -999.0000 
 704.6976   12.7970  102.3030 -999.0000    0.2333 -999.0000 -999.0000 
 705.0024   12.7650  103.2090 -999.0000    0.2363 -999.0000 -999.0000 
 705.3072   12.7700  103.5200 -999.0000    0.2302 -999.0000 -999.0000 
 705.6120   12.7670  104.2490 -999.0000    0.2323 -999.0000 -999.0000 
 705.9168   12.7720  105.8730 -999.0000    0.2418 -999.0000 -999.0000 
 706.2216   12.7720   95.0790 -999.0000    0.2496 -999.0000 -999.0000 
 706.5264   12.7690   88.9460 -999.0000    0.2249 -999.0000 -999.0000 
 706.8312   12.7700   88.1210 -999.0000    0.2098 -999.0000 -999.0000 
 707.1360   12.7670   94.3400 -999.0000    0.2175 -999.0000 -999.0000 
 707.4408   12.7720   99.3060 -999.0000    0.2376 -999.0000 -999.0000 
 707.7456   12.7520   97.8860 -999.0000    0.2323 -999.0000 -999.0000 
 708.0504   12.8490  102.4920 -999.0000    0.2394 -999.0000 -999.0000 
 708.3552   12.8650  105.9080 -999.0000    0.2628 -999.0000 -999.0000 
 708.6600   12.8660  104.5500 -999.0000    0.2619 -999.0000 -999.0000 
 708.9648   12.8630  105.6350 -999.0000    0.2555 -999.0000 -999.0000 
 709.2696   12.8680  106.6010 -999.0000    0.2728 -999.0000 -999.0000 
 709.5744   12.8650  104.0480 -999.0000    0.2273 -999.0000 -999.0000 
 709.8792   12.8660   97.4930 -999.0000    0.2136 -999.0000 -999.0000 
 710.1840   12.8670   95.5940 -999.0000    0.2398 -999.0000 -999.0000 
 710.4888   12.8790   98.0550 -999.0000    0.2271 -999.0000 -999.0000 
 710.7936   12.8960  101.5280 -999.0000    0.2157 -999.0000 -999.0000 
 711.0984   12.9130  106.5560 -999.0000    0.2253 -999.0000 -999.0000 
 711.4032   12.8780  103.4660 -999.0000    0.2361 -999.0000 -999.0000 
 711.7080   12.8590  105.9230 -999.0000    0.2551 -999.0000 -999.0000 
 712.0128   12.8590  106.8300 -999.0000    0.2800 -999.0000 -999.0000 
 712.3176   12.8600  104.5170 -999.0000    0.2576 -999.0000 -999.0000 
 712.6224   12.8730  101.7200 -999.0000    0.2531 -999.0000 -999.0000 
 712.9272   12.8780   98.9280 -999.0000    0.2749 -999.0000 -999.0000 
 713.2320   12.8620   97.6850 -999.0000    0.2590 -999.0000 -999.0000 
 713.5368   12.8040  104.3270 -999.0000    0.2396 -999.0000 -999.0000 
 713.8416   12.7850  104.0370 -999.0000    0.2506 -999.0000 -999.0000 
 714.1464   12.7700  100.7670 -999.0000    0.2507 -999.0000 -999.0000 
 714.4512   12.7510   98.0930 -999.0000    0.2415 -999.0000 -999.0000 
 714.7560   12.7470   95.6570 -999.0000    0.2690 -999.0000 -999.0000 
 715.0608   12.7480   97.6410 -999.0000    0.2567 -999.0000 -999.0000 
 715.3656   12.7450   97.7120 -999.0000    0.2340 -999.0000 -999.0000 
 715.6704   12.7460   99.4530 -999.0000    0.2400 -999.0000 -999.0000 
 715.9752   12.7580   98.2110 -999.0000    0.2354 -999.0000 -999.0000 
 716.2800   12.7430  100.1930 -999.0000    0.2238 -999.0000 -999.0000 
 716.5848   12.7440   96.7460 -999.0000    0.2465 -999.0000 -999.0000 
 716.8896   12.7490  102.9030 -999.0000    0.2561 -999.0000 -999.0000 
 717.1944   12.7540  106.2590 -999.0000    0.2608 -999.0000 -999.0000 
 717.4992   12.7660  103.3460 -999.0000    0.2468 -999.0000 -999.0000 
 717.8040   12.7750   98.0480 -999.0000    0.2383 -999.0000 -999.0000 
 718.1088   12.7720   99.1920 -999.0000    0.2304 -999.0000 -999.0000 
 718.4136   12.8680   98.0130 -999.0000    0.2403 -999.0000 -999.0000 
 718.7184   12.7820   92.4140 -999.0000    0.2355 -999.0000 -999.0000 
 719.0232   12.7230   95.1060 -999.0000    0.2285 -999.0000 -999.0000 
 719.3280   12.7400   94.9430 -999.0000    0.2316 -999.0000 -999.0000 
 719.6328   12.7410   95.6120 -999.0000    0.2369 -999.0000 -999.0000 
 719.9376   12.7330   96.8760 -999.0000    0.2381 -999.0000 -999.0000 
 720.2424   12.7940   95.1000 -999.0000    0.2502 -999.0000 -999.0000 
 720.5472   12.8660   92.1290 -999.0000    0.2604 -999.0000 -999.0000 
 720.8520   12.8590   91.9620 -999.0000    0.2671 -999.0000 -999.0000 
 721.1568   12.8600   93.6450 -999.0000    0.2617 -999.0000 -999.0000 
 721.4616   12.8560   96.6410 -999.0000    0.2625 -999.0000 -999.0000 
 721.7664   12.8450  100.0520 -999.0000    0.2353 -999.0000 -999.0000 
 722.0712   12.8580  106.9910 -999.0000    0.2408 -999.0000 -999.0000 
 722.3760   12.8390  105.3900 -999.0000    0.2690 -999.0000 -999.0000 
 722.6808   12.8400   97.4060 -999.0000    0.2749 -999.0000 -999.0000 
 722.9856   12.8250  101.1780 -999.0000    0.2519 -999.0000 -999.0000 
 723.2904   12.8450  101.3700 -999.0000    0.2504 -999.0000 -999.0000 
 723.5952   12.8460   99.5330 -999.0000    0.2523 -999.0000 -999.0000 
 723.9000   12.8510  102.8270 -999.0000    0.2658 -999.0000 -999.0000 
 724.2048   12.8320  106.4810 -999.0000    0.2589 -999.0000 -999.0000 
 724.5096   12.8330  104.9970 -999.0000    0.2532 -999.0000 -999.0000 
 724.8144   12.8100   98.6240 -999.0000    0.2506 -999.0000 -999.0000 
 725.1192   12.8020  100.7240 -999.0000    0.2539 -999.0000 -999.0000 
 725.4240   12.8110  102.6470 -999.0000    0.2438 -999.0000 -999.0000 
 725.7288   12.8000  101.0460 -999.0000    0.2125 -999.0000 -999.0000 
 726.0336   12.8090  102.7320 -999.0000    0.2218 -999.0000 -999.0000 
 726.3384   12.8100  112.4750 -999.0000    0.2573 -999.0000 -999.0000 
 726.6432   12.8470  114.1560 -999.0000    0.2689 -999.0000 -999.0000 
 726.9480   12.8000  109.9890 -999.0000    0.2386 -999.0000 -999.0000 
 727.2528   12.8160  110.1200 -999.0000    0.2448 -999.0000 -999.0000 
 727.5576   12.8130   99.6870 -999.0000    0.2548 -999.0000 -999.0000 
 727.8624   12.8420   98.6270 -999.0000    0.2295 -999.0000 -999.0000 
 728.1672   12.8660  104.2490 -999.0000    0.2525 -999.0000 -999.0000 
 728.4720   12.8870  110.3490 -999.0000    0.2568 -999.0000 -999.0000 
 728.7768   12.8680  110.9600 -999.0000    0.2234 -999.0000 -999.0000 
 729.0816   12.8850  104.4020 -999.0000    0.2352 -999.0000 -999.0000 
 729.3864   12.8660   98.2080 -999.0000    0.2791 -999.0000 -999.0000 
 729.6912   12.8510  103.5330 -999.0000    0.2762 -999.0000 -999.0000 
 729.9960   12.8590  109.3970 -999.0000    0.2577 -999.0000 -999.0000 
 730.3008   12.8840  110.8380 -999.0000    0.2678 -999.0000 -999.0000 
 730.6056   12.8770  104.5220 -999.0000    0.2579 -999.0000 -999.0000 
 730.9104   12.8740   99.1010 -999.0000    0.2461 -999.0000 -999.0000 
 731.2152   12.8580   97.2620 -999.0000    0.2622 -999.0000 -999.0000 
 731.5200   12.8590  100.9770 -999.0000    0.2356 -999.0000 -999.0000 
 731.8248   12.8720  104.9910 -999.0000    0.2285 -999.0000 -999.0000 
 732.1296   12.8730  102.4950 -999.0000    0.2415 -999.0000 -999.0000 
 732.4344   12.8580   99.4040 -999.0000    0.2443 -999.0000 -999.0000 
 732.7392   12.8620  100.7880 -999.0000    0.2342 -999.0000 -999.0000 
 733.0440   12.8510  103.3680 -999.0000    0.2704 -999.0000 -999.0000 
 733.3488   12.8640  110.1230 -999.0000    0.2922 -999.0000 -999.0000 
 733.6536   12.8530  111.3900 -999.0000    0.2844 -999.0000 -999.0000 
 733.9584   12.8540  104.9550 -999.0000    0.2875 -999.0000 -999.0000 
 734.2632   12.8470  101.4450 -999.0000    0.2534 -999.0000 -999.0000 
 734.5680   12.8480  108.0240 -999.0000    0.2378 -999.0000 -999.0000 
 734.8728   12.8640  114.7230 -999.0000    0.2483 -999.0000 -999.0000 
