~VERSION INFORMATION
 VERS.                 2.0:   CWLS LOG ASCII STANDARD - VERSION 2.0
 WRAP.                  NO:   SINGLE LINE PER DEPTH STEP
 CREA.                 05/01/2018 16:57:09
#CREATED USING DSPetro VERSION 5000.10.1.3 BY H191660 ON 05/01/2018 16:57:09
~WELL INFORMATION
#MNEM.UNIT       DATA                          DESCRIPTION MNEMONIC
#---------      ---------------------------   --------------------------
 STRT    .M         59.7408                   : START DEPTH
 STOP    .M         2451.5064                 : STOP DEPTH
 STEP    .M         0.3048                    : STEP VALUE
 NULL    .      -999.0000                     : NULL VALUE
 DATE    .      05/01/2018                    : LAS file Creation Date
 WELL .      JOHNSON_1_1                 : Well Name
 COMP .      Neftex Exploration Insights : Company
 FLD  .                                  : Field
 UWI  .      DUSWL_JOHNSO                : Unique Well Identifier (UWI)
 LOC  .                                  : Location
 RWS  .      -999                        : Def_Rw
 WST  .      -999                        : Def_Rwt
 SRVC .                                  : Contractor
~CURVE INFORMATION
#MNEM              UNIT       API CODE   Curve Type Comments
#----------  --------------- ----------  ---------- -----------
 DEPTH      .M                         : Depth       
 GR_API     .API                       : GammaRay    Gamma Ray (API) - Measures the intensity of natural gamma-ray radiation emitted from formations containing radioactive elements, such as K, Th and U
 LLD_OHMM   .ohmm                      :             Laterlog Deep Resistivity - Measurement made several feet into the formation; generally considered a measurement of the undisturbed formation
 LLS_OHMM   .ohmm                      :             Laterlog Shallow Resistivity - one to two feet into the formation; generally considered to measure the formation
 RHOZ_G_CC  .g/cc                      :             Formation Density - Measures the density of formation, including any void space or other materials contained in the subject volume
 NPHI_v_v   .dec                       : Neutron     
 PEF_B_E    .b/e-                      : PEF         Photoelectric Factor - A log of photoelectric absorption properties. Often expressed in an approximation unit barns/electron (b/e-)
 LITH       .                          :             
~A  DEPTH   GR_API   LLD_OHMM  LLS_OHMM RHOZ_G_C~  NPHI_v_v  PEF_B_E     LITH   
# ...
1568.5008   24.8480 -999.0000 -999.0000    2.8810    0.0341    3.5650   12.0000 
1568.8056   25.4760 -999.0000 -999.0000    2.8630    0.0348    3.4560   12.0000 
1569.1104   24.6720 -999.0000 -999.0000    2.8890    0.0192    4.2520    1.0000 
1569.4152   20.1150 -999.0000 -999.0000    2.9240    0.0090    3.8170    1.0000 
1569.7200   24.3210 -999.0000 -999.0000    2.8690    0.0374    3.0930   12.0000 
1570.0248   27.3410 -999.0000 -999.0000    2.8060    0.0871    2.9060   12.0000 
1570.3296   27.0830 -999.0000 -999.0000    2.8290    0.0772    2.9650   12.0000 
1570.6344   25.3200 -999.0000 -999.0000    2.8420    0.0594    3.1010   12.0000 
1570.9392   22.2530 -999.0000 -999.0000    2.8410    0.0511    3.1840   12.0000 
1571.2440   17.9310 -999.0000 -999.0000    2.8180    0.0578    2.9710   12.0000 
1571.5488   18.7470 -999.0000 -999.0000    2.8160    0.0640    2.8540   12.0000 
1571.8536   22.1700 -999.0000 -999.0000    2.8210    0.0613    2.8170   12.0000 
1572.1584   26.5590 -999.0000 -999.0000    2.8200    0.0571    2.8040   12.0000 
1572.4632   27.7250 -999.0000 -999.0000    2.8300    0.0542    2.7030   12.0000 
1572.7680   26.9840 -999.0000 -999.0000    2.8370    0.0556    2.6060   12.0000 
1573.0728   24.6420 -999.0000 -999.0000    2.8210    0.0666    2.6050   12.0000 
1573.3776   22.5290 -999.0000 -999.0000    2.8070    0.0773    2.5300   12.0000 
1573.6824   24.2340 -999.0000 -999.0000    2.8100    0.0873    2.6690   12.0000 
1573.9872   24.4410 -999.0000 -999.0000    2.8240    0.0723    2.8650   12.0000 
1574.2920   23.2880 -999.0000 -999.0000    2.8170    0.0597    2.7840   12.0000 
1574.5968   21.4700 -999.0000 -999.0000    2.8000    0.0733    2.6290   12.0000 
1574.9016   20.1960 -999.0000 -999.0000    2.7890    0.0941    2.7620   12.0000 
1575.2064   20.1030 -999.0000 -999.0000    2.7970    0.1137    2.8830   12.0000 
1575.5112   22.9950 -999.0000 -999.0000    2.8040    0.0718    2.7020   12.0000 
1575.8160   25.6010 -999.0000 -999.0000    2.7970    0.0243    2.5230   12.0000 
1576.1208   22.5360 -999.0000 -999.0000    2.8040    0.0521    2.6590   12.0000 
1576.4256   25.2450 -999.0000 -999.0000    2.8290    0.0756    2.7920   12.0000 
1576.7304   29.9900 -999.0000 -999.0000    2.8570    0.0532    3.0630   12.0000 
1577.0352   25.0800 -999.0000 -999.0000    2.8650    0.0258    3.2790   12.0000 
1577.3400   23.2020 -999.0000 -999.0000    2.8400    0.0405    2.9380   12.0000 
1577.6448   27.1080 -999.0000 -999.0000    2.8270    0.0610    3.1630   12.0000 
1577.9496   29.2310 -999.0000 -999.0000    2.8210    0.0678    3.4470   12.0000 
1578.2544   24.4350 -999.0000 -999.0000    2.7940    0.0754    3.0190   12.0000 
1578.5592   21.1340 -999.0000 -999.0000    2.7950    0.1066    2.5280   12.0000 
1578.8640   20.3900 -999.0000 -999.0000    2.8010    0.1051    2.6870   12.0000 
1579.1688   23.8850 -999.0000 -999.0000    2.8080    0.1045    2.9020   12.0000 
1579.4736   24.9920 -999.0000 -999.0000    2.8190    0.0929    2.9980   12.0000 
1579.7784   22.9910 -999.0000 -999.0000    2.8190    0.0834    2.9850   12.0000 
1580.0832   19.3260 -999.0000 -999.0000    2.8020    0.0972    2.9980   12.0000 
1580.3880   20.9810 -999.0000 -999.0000    2.7980    0.1118    2.8310   12.0000 
1580.6928   20.5370 -999.0000 -999.0000    2.7970    0.1032    2.8700   12.0000 
1580.9976   19.0170 -999.0000 -999.0000    2.7800    0.1002    2.9570   12.0000 
1581.3024   17.8020 -999.0000 -999.0000    2.7790    0.1261    2.8020   12.0000 
1581.6072   18.0140 -999.0000 -999.0000    2.7780    0.1478    2.8520   12.0000 
1581.9120   19.9610 -999.0000 -999.0000    2.7720    0.1480    2.8630   12.0000 
1582.2168   20.4060 -999.0000 -999.0000    2.7510    0.1436    2.7680   12.0000 
1582.5216   21.3320 -999.0000 -999.0000    2.7570    0.1409    2.7550   12.0000 
1582.8264   21.8400 -999.0000 -999.0000    2.7510    0.1400    2.6750   12.0000 
1583.1312   20.1470 -999.0000 -999.0000    2.7330    0.1547    2.6270   12.0000 
1583.4360   17.4980 -999.0000 -999.0000    2.7230    0.1762    2.7540   12.0000 
1583.7408   15.1490 -999.0000 -999.0000    2.7170    0.1563    2.8100   12.0000 
1584.0456   14.4090 -999.0000 -999.0000    2.7220    0.1493    2.8210   12.0000 
1584.3504   15.5180 -999.0000 -999.0000    2.7350    0.1418    2.7820   12.0000 
1584.6552   16.6830 -999.0000 -999.0000    2.7360    0.1616    2.9260   12.0000 
1584.9600   14.9340 -999.0000 -999.0000    2.7160    0.1943    2.9140   12.0000 
1585.2648   13.7100 -999.0000 -999.0000    2.7020    0.1788    2.8200   12.0000 
1585.5696   15.1280 -999.0000 -999.0000    2.6730    0.1956    2.9550   12.0000 
1585.8744   14.1440 -999.0000 -999.0000    2.6370    0.2041    3.0360   12.0000 
1586.1792   15.3150 -999.0000 -999.0000    2.6120    0.2275    3.2800   12.0000 
1586.4840   14.6330 -999.0000 -999.0000    2.6640    0.2623    3.7930    1.0000 
1586.7888   12.4580 -999.0000 -999.0000    2.7100    0.1108    4.5370    1.0000 
1587.0936   11.1180 -999.0000 -999.0000    2.7300    0.0015    4.8850    1.0000 
1587.3984   10.6130 -999.0000 -999.0000    2.7380    0.0030    4.7460    1.0000 
1587.7032   11.4720 -999.0000 -999.0000    2.7540    0.0112    3.7780    1.0000 
1588.0080   14.3040 -999.0000 -999.0000    2.7410    0.0352    2.9560   12.0000 
1588.3128   15.8360 -999.0000 -999.0000    2.6750    0.1522    2.9980   12.0000 
1588.6176   14.3240 -999.0000 -999.0000    2.6250    0.2052    2.8720   12.0000 
1588.9224   12.6840 -999.0000 -999.0000    2.6270    0.2212    2.6690   12.0000 
1589.2272   16.0610 -999.0000 -999.0000    2.6310    0.2270    2.7940   12.0000 
1589.5320   16.6860 -999.0000 -999.0000    2.5940    0.2361    2.9320   12.0000 
1589.8368   15.6960 -999.0000 -999.0000    2.5770    0.2451    2.8110   12.0000 
1590.1416   13.7240 -999.0000 -999.0000    2.6060    0.2696    2.6920   12.0000 
1590.4464   17.2110 -999.0000 -999.0000    2.6360    0.2353    2.7570   12.0000 
1590.7512   21.7650 -999.0000 -999.0000    2.6810    0.2082    2.8750   12.0000 
1591.0560   27.8210 -999.0000 -999.0000    2.7220    0.1919    3.0100   12.0000 
1591.3608   27.9690 -999.0000 -999.0000    2.7510    0.1271    3.1290   12.0000 
1591.6656   27.9030 -999.0000 -999.0000    2.7460    0.0927    3.0660   12.0000 
1591.9704   27.8160 -999.0000 -999.0000    2.7340    0.0884    2.9710   12.0000 
1592.2752   28.0290 -999.0000 -999.0000    2.7300    0.0798    3.4850   12.0000 
1592.5800   29.6640 -999.0000 -999.0000    2.7210    0.0660    3.2820   12.0000 
1592.8848   28.1540 -999.0000 -999.0000    2.6980    0.0936    3.0110   12.0000 
1593.1896   27.5330 -999.0000 -999.0000    2.6970    0.1720    2.8300   12.0000 
1593.4944   34.0040 -999.0000 -999.0000    2.7110    0.1947    2.7010   12.0000 
1593.7992   38.8020 -999.0000 -999.0000    2.7320    0.1693    2.6640   12.0000 
1594.1040   36.4590 -999.0000 -999.0000    2.7420    0.1494    2.7410   12.0000 
1594.4088   32.1260 -999.0000 -999.0000    2.7470    0.1321    2.7050   12.0000 
1594.7136   26.5620 -999.0000 -999.0000    2.7470    0.1201    2.7460   12.0000 
1595.0184   26.6690 -999.0000 -999.0000    2.7580    0.1402    2.8630   12.0000 
1595.3232   27.3500 -999.0000 -999.0000    2.7770    0.1244    2.7680   12.0000 
1595.6280   28.9350 -999.0000 -999.0000    2.7950    0.1051    2.8490   12.0000 
1595.9328   30.3330 -999.0000 -999.0000    2.7920    0.0964    2.9220   12.0000 
1596.2376   29.3010 -999.0000 -999.0000    2.7940    0.0984    3.1600   12.0000 
1596.5424   27.4260 -999.0000 -999.0000    2.7990    0.1050    3.0370   12.0000 
1596.8472   26.5640 -999.0000 -999.0000    2.7700    0.1203    2.8010   12.0000 
1597.1520   25.6400 -999.0000 -999.0000    2.7440    0.1307    2.6660   12.0000 
1597.4568   26.2170 -999.0000 -999.0000    2.7250    0.1524    2.7040   12.0000 
1597.7616   25.4790 -999.0000 -999.0000    2.7580    0.1634    2.8830   12.0000 
1598.0664   28.7310 -999.0000 -999.0000    2.7790    0.1217    2.9660   12.0000 
1598.3712   31.6200 -999.0000 -999.0000    2.7860    0.1076    2.9070   12.0000 
