~VERSION INFORMATION
 VERS.                 2.0:   CWLS LOG ASCII STANDARD - VERSION 2.0
 WRAP.                  NO:   SINGLE LINE PER DEPTH STEP
 CREA.                 05/01/2018 17:09:06
#CREATED USING DSPetro VERSION 5000.10.1.3 BY H191660 ON 05/01/2018 17:09:06
~WELL INFORMATION
#MNEM.UNIT       DATA                          DESCRIPTION MNEMONIC
#---------      ---------------------------   --------------------------
 STRT    .M         80.7720                   : START DEPTH
 STOP    .M         2461.5648                 : STOP DEPTH
 STEP    .M         0.3048                    : STEP VALUE
 NULL    .      -999.0000                     : NULL VALUE
 DATE    .      05/01/2018                    : LAS file Creation Date
 WELL .      JOHNSON_3_1                 : Well Name
 COMP .      Neftex Exploration Insights : Company
 FLD  .                                  : Field
 UWI  .      DUSWL_JO_3_1                : Unique Well Identifier (UWI)
 LOC  .                                  : Location
 RWS  .      -999                        : Def_Rw
 WST  .      -999                        : Def_Rwt
 SRVC .                                  : Contractor
~CURVE INFORMATION
#MNEM              UNIT       API CODE   Curve Type Comments
#----------  --------------- ----------  ---------- -----------
 DEPTH      .M                         : Depth       
 CAL_INCH   .inch                      :             Caliper Log - A representation of the measured diameter of a borehole along its depth
 GR_API     .API                       : GammaRay    Gamma Ray (API) - Measures the intensity of natural gamma-ray radiation emitted from formations containing radioactive elements, such as K, Th and U
 RHOZ_G_CC  .g/cc                      :             Formation Density - Measures the density of formation, including any void space or other materials contained in the subject volume
 NPHI_v_v   .dec                       : Neutron     
 PEF_B_E    .b/e-                      : PEF         Photoelectric Factor - A log of photoelectric absorption properties. Often expressed in an approximation unit barns/electron (b/e-)
 LITH       .                          :             
~A  DEPTH  CAL_INCH   GR_API  RHOZ_G_C~  NPHI_v_v  PEF_B_E     LITH   
# ...
1699.5648   11.1710    0.1680    2.9530   -0.0017    4.6270    1.0000 
1699.8696   11.1640    0.0920    2.9440   -0.0018    4.4340    1.0000 
1700.1744   11.1820    0.1910    2.9590   -0.0026    4.2740    1.0000 
1700.4792   11.1960    0.1490    2.9650   -0.0025    4.3730    1.0000 
1700.7840   11.2150    0.4350    2.9420   -0.0026    4.4960    1.0000 
1701.0888   11.1850   -0.0800    2.9270   -0.0022    4.7550    1.0000 
1701.3936   11.1520   -0.0290    2.9270   -0.0019    4.5350   11.0000 
1701.6984   11.1860   -0.1100    2.9960   -0.0014    2.4650   11.0000 
1702.0032    6.0330   -0.1140    2.0010   -0.0017    2.4500   11.0000 
1702.3080    6.0200   -0.1940    2.0010   -0.0007    2.4430   11.0000 
1702.6128    6.0270    0.0780    2.0010    0.0059    4.3940   11.0000 
1702.9176    9.1070    0.3620    2.8390    0.0263    4.6190   11.0000 
1703.2224    9.1510    0.4560    2.8600    0.0179    5.4900    1.0000 
1703.5272    9.2060    0.4400    2.9210    0.0042    5.8530    1.0000 
1703.8320    9.2540   35.9690    2.9640   -0.0084    5.8690    1.0000 
1704.1368    9.3300   33.9420    2.9240   -0.0097    4.4760    1.0000 
1704.4416    9.3530   42.8340    2.8870   -0.0043    4.6050    1.0000 
1704.7464    9.3220   40.3880    2.9230    0.0007    5.1670    1.0000 
1705.0512    9.3930   33.8160    2.9500   -0.0055    5.2030    1.0000 
1705.3560    9.3970   33.6390    2.9600   -0.0055    5.3500    1.0000 
1705.6608    9.4010   40.8540    2.9430   -0.0043    5.3350    1.0000 
1705.9656    9.3840   49.1510    2.8930    0.0026    5.5620    1.0000 
1706.2704    9.3770   50.5940    2.9160   -0.0012    6.1030    1.0000 
1706.5752    9.4050   37.7700    2.9630   -0.0055    6.3770    1.0000 
1706.8800    9.4970   41.7030    2.9440   -0.0059    5.6070    1.0000 
1707.1848    9.4840   50.0490    2.8940    0.0034    4.7340    1.0000 
1707.4896    9.4480   44.9720    2.9580   -0.0030    5.0890    1.0000 
1707.7944    9.4880   36.7430    2.9970   -0.0093    5.7970    1.0000 
1708.0992    9.5030   38.7720    2.9630   -0.0061    5.2750    1.0000 
1708.4040    9.5080   47.4200    2.8690    0.0064    4.6950    1.0000 
1708.7088    9.5640   51.9630    2.8430    0.0179    4.7230    1.0000 
1709.0136    9.4800   46.8290    2.9180    0.0032    5.3980    1.0000 
1709.3184    9.5590   38.9010    2.9700   -0.0097    5.6950    1.0000 
1709.6232    9.5990   33.3410    3.0000   -0.0109    5.7310    1.0000 
1709.9280    9.6190   29.8740    2.9960   -0.0118    5.2130    1.0000 
1710.2328    9.5990   29.1060    2.9920   -0.0111    6.0440    1.0000 
1710.5376    9.5760   28.1430    2.9900   -0.0112    6.4140    1.0000 
1710.8424    9.5910   27.3150    2.9600   -0.0115    5.9660    1.0000 
1711.1472    9.6400   27.5000    2.9770   -0.0100    4.9010    1.0000 
1711.4520    9.5490   31.0770    2.9380   -0.0069    4.2570   12.0000 
1711.7568    9.4780   34.2510    2.8570    0.0021    3.9740   12.0000 
1712.0616    9.3710   33.5370    2.8530    0.0048    3.2030   12.0000 
1712.3664    9.3300   38.0660    2.8570    0.0081    3.0020   12.0000 
1712.6712    9.3330   39.6110    2.8470    0.0063    3.7640   12.0000 
1712.9760    9.4050   42.8390    2.8710    0.0036    5.2230    1.0000 
1713.2808    9.5050   45.2300    2.9130    0.0022    6.1040    1.0000 
1713.5856    9.6170   42.0680    2.9440   -0.0023    6.1960    1.0000 
1713.8904    9.6400   35.8530    2.9760   -0.0061    5.9130    1.0000 
1714.1952    9.6410   28.5120    2.9870   -0.0085    6.2280    1.0000 
1714.5000    9.6320   27.4400    2.9600   -0.0099    6.3680    1.0000 
1714.8048    9.5560   27.9090    2.9570   -0.0105    6.3630    1.0000 
1715.1096    9.6200   25.6370    2.9820   -0.0111    6.4710    1.0000 
1715.4144    9.5800   25.7580    2.9930   -0.0118    6.4390    1.0000 
1715.7192    9.5590   26.3550    2.9910   -0.0128    5.9510    1.0000 
1716.0240    9.5000   25.9890    2.9970   -0.0117    6.1860    1.0000 
1716.3288    9.4410   25.8710    2.9940   -0.0109    6.0340    1.0000 
1716.6336    9.3890   31.0140    2.9620   -0.0066    4.4000    1.0000 
1716.9384    9.3530   34.3080    2.8520    0.0054    3.2280   12.0000 
1717.2432    9.2620   39.6660    2.8210    0.0263    3.3390   12.0000 
1717.5480    9.2530   47.9090    2.8470    0.0332    4.1980   12.0000 
1717.8528    9.2370   42.4170    2.9100    0.0039    5.3850    1.0000 
1718.1576    9.2580   35.9130    2.9160   -0.0021    4.3720    1.0000 
1718.4624    9.2730   37.8200    2.8700    0.0082    3.3970   12.0000 
1718.7672    9.2140   36.3290    2.8520    0.0125    3.5900   12.0000 
1719.0720    9.1780   33.8220    2.8330    0.0122    3.6780   12.0000 
1719.3768    9.2450   33.9440    2.8470    0.0232    3.8790   12.0000 
1719.6816    9.2460   39.9170    2.8510    0.0188    3.8050   12.0000 
1719.9864    9.2060   56.1980    2.8010    0.0193    3.4880   12.0000 
1720.2912    9.1890   69.0390    2.8330    0.0355    3.7900   22.0000 
1720.5960    9.2770   59.7330    2.9170    0.0138    5.1420   22.0000 
1720.9008    9.2570   37.6560    2.8860    0.0059    4.0650   12.0000 
1721.2056    9.1510   42.6710    2.8370    0.0087    3.5190   12.0000 
1721.5104    9.1520   38.5490    2.8390    0.0111    3.8020   12.0000 
1721.8152    9.1700   37.1150    2.8370    0.0136    4.1930   12.0000 
1722.1200    9.1900   37.8230    2.8560    0.0041    4.1230   12.0000 
1722.4248    9.1550   37.0970    2.7910    0.0050    3.2560   12.0000 
1722.7296    9.1990   36.0300    2.7850    0.0256    3.5750   12.0000 
1723.0344    9.1590   36.7550    2.8510    0.0416    4.4380    1.0000 
1723.3392    9.1750   38.9000    2.8970    0.0142    5.9390    1.0000 
1723.6440    9.1510   39.1430    2.9300   -0.0001    6.8120    1.0000 
1723.9488    9.1510   34.0670    2.9370    0.0008    4.7890    1.0000 
1724.2536    9.1510   39.6800    2.8810    0.0128    4.1910    1.0000 
1724.5584    9.1460   56.4560    2.8380    0.0274    3.8720    1.0000 
1724.8632    9.0710   70.3460    2.8240    0.0454    4.4820   22.0000 
1725.1680    9.1220   64.6130    2.8720    0.0295    4.9920   22.0000 
1725.4728    9.1180   42.2990    2.9260    0.0097    5.1300    1.0000 
1725.7776    9.0900   35.6700    2.9440    0.0004    5.3850    1.0000 
1726.0824    9.0540   33.8820    2.9430   -0.0039    5.4420    1.0000 
1726.3872    9.1260   34.0530    2.9390   -0.0040    4.4710    1.0000 
1726.6920    9.0740   37.8780    2.9030    0.0042    3.8930   12.0000 
1726.9968    9.0450   51.6090    2.8720    0.0127    4.4850    1.0000 
1727.3016    9.0370   53.6930    2.8900    0.0095    5.0430    1.0000 
1727.6064    9.0370   48.2660    2.8980    0.0068    5.1370    1.0000 
1727.9112    8.9610   41.1510    2.9230   -0.0007    4.8320    1.0000 
1728.2160    8.9460   32.5010    2.8600   -0.0032    3.4110   12.0000 
1728.5208    8.9230   33.1020    2.7790    0.0033    3.2700   12.0000 
1728.8256    8.9270   39.1550    2.8110    0.0135    3.5190   12.0000 
1729.1304    8.9480   38.1860    2.8320    0.0199    3.3630   12.0000 
1729.4352    8.9680   36.7460    2.8370    0.0177    3.3850   12.0000 
1729.7400    8.9880   40.8090    2.8270    0.0157    3.3420   12.0000 
1730.0448    9.0280   45.7170    2.8340    0.0192    3.1460   12.0000 
1730.3496    9.0560   51.1950    2.8390    0.0146    3.6470   12.0000 
1730.6544    9.0120   53.1560    2.8630    0.0083    4.4800    1.0000 
1730.9592    9.0640   44.9330    2.9160    0.0021    4.8470    1.0000 
1731.2640    9.0710   37.5890    2.9440    0.0007    4.0100   12.0000 
1731.5688    9.0740   42.9540    2.8860    0.0099    3.1180   12.0000 
1731.8736    9.0620   50.0730    2.8540    0.0130    3.3430   12.0000 
1732.1784    9.0700   45.7730    2.8670    0.0109    3.8220   12.0000 
1732.4832    9.0930   49.2350    2.8710    0.0118    4.1110   12.0000 
1732.7880    9.1140   62.4200    2.8790    0.0085    4.7070   12.0000 
1733.0928    9.1070   55.7330    2.9220    0.0018    5.9050   22.0000 
1733.3976    9.1230   35.4390    2.9530   -0.0065    6.0210   22.0000 
1733.7024    9.1220   31.1910    2.9070   -0.0008    3.8140   12.0000 
