~VERSION INFORMATION
 VERS.                 2.0:   CWLS LOG ASCII STANDARD - VERSION 2.0
 WRAP.                  NO:   SINGLE LINE PER DEPTH STEP
 CREA.                 05/01/2018 17:09:06
#CREATED USING DSPetro VERSION 5000.10.1.3 BY H191660 ON 05/01/2018 17:09:06
~WELL INFORMATION
#MNEM.UNIT       DATA                          DESCRIPTION MNEMONIC
#---------      ---------------------------   --------------------------
 STRT    .M         80.7720                   : START DEPTH
 STOP    .M         2461.5648                 : STOP DEPTH
 STEP    .M         0.3048                    : STEP VALUE
 NULL    .      -999.0000                     : NULL VALUE
 DATE    .      05/01/2018                    : LAS file Creation Date
 WELL .      JOHNSON_3_1                 : Well Name
 COMP .      Neftex Exploration Insights : Company
 FLD  .                                  : Field
 UWI  .      DUSWL_JO_3_1                : Unique Well Identifier (UWI)
 LOC  .                                  : Location
 RWS  .      -999                        : Def_Rw
 WST  .      -999                        : Def_Rwt
 SRVC .                                  : Contractor
~CURVE INFORMATION
#MNEM              UNIT       API CODE   Curve Type Comments
#----------  --------------- ----------  ---------- -----------
 DEPTH      .M                         : Depth       
 CAL_INCH   .inch                      :             Caliper Log - A representation of the measured diameter of a borehole along its depth
 GR_API     .API                       : GammaRay    Gamma Ray (API) - Measures the intensity of natural gamma-ray radiation emitted from formations containing radioactive elements, such as K, Th and U
 RHOZ_G_CC  .g/cc                      :             Formation Density - Measures the density of formation, including any void space or other materials contained in the subject volume
 NPHI_v_v   .dec                       : Neutron     
 PEF_B_E    .b/e-                      : PEF         Photoelectric Factor - A log of photoelectric absorption properties. Often expressed in an approximation unit barns/electron (b/e-)
 LITH       .                          :             
~A  DEPTH  CAL_INCH   GR_API  RHOZ_G_C~  NPHI_v_v  PEF_B_E     LITH   
# ...
1837.3344   10.6340   43.9760    2.1340   -0.0145    4.0310   16.0000 
1837.6392   10.6100   43.7400    2.2010   -0.0127    3.9390   16.0000 
1837.9440   10.4070   46.1960    2.2770   -0.0078    3.8150   15.0000 
1838.2488   10.3790   50.0130    2.2490   -0.0034    3.9330   16.0000 
1838.5536   10.5270   48.1010    2.1790   -0.0082    4.0460   16.0000 
1838.8584   10.9290   35.3370    2.1260   -0.0137    4.1500   16.0000 
1839.1632   11.2470   34.7330    2.0940   -0.0183    4.1640   16.0000 
1839.4680   11.2470   36.6990    2.0770   -0.0197    3.9890   16.0000 
1839.7728   10.9720   40.7520    2.1450   -0.0167    4.0750   16.0000 
1840.0776   10.6380   45.4650    2.2580   -0.0071    4.1240   15.0000 
1840.3824   10.5270   48.0860    2.2640    0.0012    4.1140   15.0000 
1840.6872   10.6950   44.9210    2.2070   -0.0057    4.2870   16.0000 
1840.9920   10.7180   46.2330    2.1600   -0.0091    4.4090   16.0000 
1841.2968   11.1040   42.7740    2.1360   -0.0115    4.3010   16.0000 
1841.6016   10.9400   40.0850    2.1340   -0.0140    4.2670   16.0000 
1841.9064   11.0630   40.3190    2.1330   -0.0144    4.2910   16.0000 
1842.2112   10.9560   43.4250    2.2030   -0.0110    4.1720   16.0000 
1842.5160   10.8290   45.5720    2.1640   -0.0149    4.1080   16.0000 
1842.8208   10.9330   37.2960    2.1210   -0.0198    4.0740   16.0000 
1843.1256   11.0160   33.0020    2.1030   -0.0211    4.0360   16.0000 
1843.4304   11.1950   34.1210    2.1030   -0.0207    4.2100   16.0000 
1843.7352   11.2900   34.1240    2.1030   -0.0213    4.1460   16.0000 
1844.0400   11.0630   36.6210    2.1000   -0.0193    4.0900   16.0000 
1844.3448   11.0550   35.9720    2.1040   -0.0207    4.1880   16.0000 
1844.6496   11.2060   31.4960    2.0930   -0.0200    4.0800   16.0000 
1844.9544   11.3060   29.2260    2.0960   -0.0214    3.9950   16.0000 
1845.2592   11.0690   35.9270    2.1330   -0.0203    4.1540   16.0000 
1845.5640   10.7750   39.2690    2.1630   -0.0167    4.3110   16.0000 
1845.8688   10.5510   38.6070    2.1470   -0.0150    4.2150   16.0000 
1846.1736   10.6970   36.9870    2.1150   -0.0175    4.0150   16.0000 
1846.4784   10.8880   38.1200    2.1620   -0.0164    4.1570   16.0000 
1846.7832   10.6310   42.8840    2.2510   -0.0052    4.0810   15.0000 
1847.0880   10.3630   46.8900    2.2580   -0.0012    4.1320   15.0000 
1847.3928   10.5180   42.1830    2.1350   -0.0119    4.1880   16.0000 
1847.6976   10.6060   42.0600    2.1170   -0.0174    4.1240   16.0000 
1848.0024   10.6180   43.6820    2.1180   -0.0183    3.8710   16.0000 
1848.3072   11.0370   41.6550    2.1600   -0.0168    3.7820   16.0000 
1848.6120   10.9420   44.7570    2.2460   -0.0146    3.5950   15.0000 
1848.9168   10.5240   48.1640    2.2980   -0.0112    3.7710   15.0000 
1849.2216   10.3120   45.0510    2.2220   -0.0119    4.0470   16.0000 
1849.5264   10.5910   40.3970    2.1370   -0.0150    4.2420   16.0000 
1849.8312   11.0340   35.8590    2.1020   -0.0175    4.1420   16.0000 
1850.1360   10.8660   40.3910    2.1620   -0.0159    4.0370   16.0000 
1850.4408   10.4750   47.7830    2.2470   -0.0087    4.1960   15.0000 
1850.7456   10.4390   46.9580    2.1490   -0.0137    4.1900   16.0000 
1851.0504   10.8320   38.5980    2.0830   -0.0202    4.1500   16.0000 
1851.3552   11.1100   33.3440    2.0760   -0.0230    4.1020   16.0000 
1851.6600   11.1300   34.4810    2.0750   -0.0219    4.1760   16.0000 
1851.9648   11.1950   37.8860    2.0990   -0.0208    4.1840   16.0000 
1852.2696   10.9890   40.1030    2.1110   -0.0202    4.2640   16.0000 
1852.5744   10.7390   37.7120    2.1070   -0.0201    4.2740   16.0000 
1852.8792   10.9530   36.2670    2.1390   -0.0180    4.1940   16.0000 
1853.1840   11.0560   44.3850    2.1970   -0.0151    4.0340   16.0000 
1853.4888   10.8060   60.3840    2.3190    0.0001    3.7510   22.0000 
1853.7936   10.4230   68.5550    2.3810    0.0540    4.0760   22.0000 
1854.0984   10.2890   79.1340    2.4040    0.1164    3.7560   37.0000 
1854.4032   10.1100   83.6550    2.4900    0.1524    3.4870   37.0000 
1854.7080    9.9500   85.6970    2.5990    0.1507    3.3830   37.0000 
1855.0128    9.9020   83.1860    2.6200    0.1461    3.4190   37.0000 
1855.3176    9.9660   77.8220    2.6460    0.1670    3.5440   37.0000 
1855.6224   10.0620   74.1710    2.6550    0.1578    3.7100   37.0000 
1855.9272   10.0820   75.1250    2.6650    0.1479    3.6880   37.0000 
1856.2320   10.0260   75.6720    2.6720    0.1362    3.7380   37.0000 
1856.5368    9.9150   75.0620    2.6560    0.1260    3.6180   37.0000 
1856.8416    9.8710   78.5240    2.6460    0.1311    3.4510   37.0000 
1857.1464    9.8400   80.7470    2.6400    0.1380    3.4890   37.0000 
1857.4512    9.9150   82.1150    2.6350    0.1402    3.5610   37.0000 
1857.7560    9.9860   74.7840    2.6460    0.1598    3.5070   37.0000 
1858.0608   10.1500   70.8410    2.6640    0.1540    3.5450   37.0000 
1858.3656   10.1540   80.3930    2.6370    0.1489    3.4510   37.0000 
1858.6704    9.8920   84.9350    2.5990    0.1716    3.2340   37.0000 
1858.9752    9.8550   85.5230    2.5920    0.1509    3.3830   37.0000 
1859.2800    9.8470   87.6680    2.6010    0.1301    3.3270   37.0000 
1859.5848    9.8940   87.6000    2.5860    0.1295    3.4490   37.0000 
1859.8896    9.9100   83.9600    2.5130    0.1133    3.7640   37.0000 
1860.1944    9.8940   62.9720    2.4020    0.0312    3.9850   37.0000 
1860.4992    9.9060   49.5800    2.2870    0.0060    3.9750   22.0000 
1860.8040   10.0210   43.0910    2.1650   -0.0053    4.1410   16.0000 
1861.1088   10.0740   43.6820    2.1710   -0.0107    4.2200   16.0000 
1861.4136   10.0740   45.0620    2.2050   -0.0099    4.0170   16.0000 
1861.7184   10.1690   44.7480    2.2050   -0.0103    4.0140   16.0000 
1862.0232   10.3840   43.5510    2.1900   -0.0113    4.1100   16.0000 
1862.3280   10.5710   42.1170    2.1780   -0.0124    4.0250   16.0000 
1862.6328   10.6110   40.4540    2.1720   -0.0108    4.0380   16.0000 
1862.9376   10.5670   43.9800    2.2040   -0.0057    4.0020   16.0000 
1863.2424   10.2410   42.2480    2.1890   -0.0101    4.1160   16.0000 
1863.5472   10.1690   40.1060    2.1630   -0.0131    4.1600   16.0000 
1863.8520   10.2680   43.0340    2.1870   -0.0099    4.1700   16.0000 
1864.1568   10.4270   45.1190    2.2090   -0.0050    4.0860   16.0000 
1864.4616   10.3320   43.3200    2.1650   -0.0101    4.1640   16.0000 
1864.7664   10.6070   35.0870    2.1010   -0.0161    4.2760   16.0000 
1865.0712   10.8180   32.4540    2.0850   -0.0197    4.2360   16.0000 
1865.3760   10.6990   35.0210    2.1140   -0.0185    4.2880   16.0000 
1865.6808   10.3570   36.3440    2.1350   -0.0131    4.2660   16.0000 
1865.9856   10.3170   33.7200    2.1400   -0.0148    4.3920   16.0000 
1866.2904   10.4720   33.7700    2.1020   -0.0181    4.2520   16.0000 
1866.5952   10.5480   35.5100    2.1180   -0.0177    3.9650   16.0000 
1866.9000   10.4200   38.6160    2.1240   -0.0167    3.8800   16.0000 
1867.2048   10.8660   39.0960    2.1220   -0.0172    4.0730   16.0000 
1867.5096   10.8740   38.3090    2.1750   -0.0136    4.2400   16.0000 
1867.8144   10.6480   41.5910    2.2300   -0.0092    4.3480   16.0000 
1868.1192   10.7110   38.6660    2.1600   -0.0144    4.4590   16.0000 
1868.4240   10.8970   35.0280    2.1060   -0.0175    4.5370   16.0000 
1868.7288   11.0570   33.4040    2.0640   -0.0210    4.4120   16.0000 
1869.0336   11.0140   35.6250    2.0880   -0.0192    4.2720   16.0000 
1869.3384   10.9180   40.2860    2.1310   -0.0159    4.1130   16.0000 
1869.6432   10.7180   42.4370    2.1370   -0.0133    4.1490   16.0000 
1869.9480   10.7140   39.6830    2.1710   -0.0135    4.2320   16.0000 
1870.2528   10.6780   41.8250    2.2150   -0.0109    4.1440   16.0000 
1870.5576   10.3160   46.2990    2.2560   -0.0075    3.9490   16.0000 
1870.8624   10.1440   53.3550    2.2580   -0.0037    3.9150   16.0000 
1871.1672   10.1210   57.1740    2.2880    0.0043    3.7200   16.0000 
1871.4720   10.0620   63.9570    2.4210    0.0564    3.6460   22.0000 
