~VERSION INFORMATION
 VERS.                 2.0:   CWLS LOG ASCII STANDARD - VERSION 2.0
 WRAP.                  NO:   SINGLE LINE PER DEPTH STEP
 CREA.                 05/01/2018 16:57:09
#CREATED USING DSPetro VERSION 5000.10.1.3 BY H191660 ON 05/01/2018 16:57:09
~WELL INFORMATION
#MNEM.UNIT       DATA                          DESCRIPTION MNEMONIC
#---------      ---------------------------   --------------------------
 STRT    .M         59.7408                   : START DEPTH
 STOP    .M         2451.5064                 : STOP DEPTH
 STEP    .M         0.3048                    : STEP VALUE
 NULL    .      -999.0000                     : NULL VALUE
 DATE    .      05/01/2018                    : LAS file Creation Date
 WELL .      JOHNSON_1_1                 : Well Name
 COMP .      Neftex Exploration Insights : Company
 FLD  .                                  : Field
 UWI  .      DUSWL_JOHNSO                : Unique Well Identifier (UWI)
 LOC  .                                  : Location
 RWS  .      -999                        : Def_Rw
 WST  .      -999                        : Def_Rwt
 SRVC .                                  : Contractor
~CURVE INFORMATION
#MNEM              UNIT       API CODE   Curve Type Comments
#----------  --------------- ----------  ---------- -----------
 DEPTH      .M                         : Depth       
 GR_API     .API                       : GammaRay    Gamma Ray (API) - Measures the intensity of natural gamma-ray radiation emitted from formations containing radioactive elements, such as K, Th and U
 LLD_OHMM   .ohmm                      :             Laterlog Deep Resistivity - Measurement made several feet into the formation; generally considered a measurement of the undisturbed formation
 LLS_OHMM   .ohmm                      :             Laterlog Shallow Resistivity - one to two feet into the formation; generally considered to measure the formation
 RHOZ_G_CC  .g/cc                      :             Formation Density - Measures the density of formation, including any void space or other materials contained in the subject volume
 NPHI_v_v   .dec                       : Neutron     
 PEF_B_E    .b/e-                      : PEF         Photoelectric Factor - A log of photoelectric absorption properties. Often expressed in an approximation unit barns/electron (b/e-)
 LITH       .                          :             
~A  DEPTH   GR_API   LLD_OHMM  LLS_OHMM RHOZ_G_C~  NPHI_v_v  PEF_B_E     LITH   
# ...
1115.8728   12.6080 -999.0000 -999.0000    2.7260   -0.0039    5.0920   18.0000 
1116.1776   13.9490 -999.0000 -999.0000    2.7120   -0.0040    4.7160   18.0000 
1116.4824   11.9090 -999.0000 -999.0000    2.7170   -0.0023    4.9850   18.0000 
1116.7872   11.4920 -999.0000 -999.0000    2.7110   -0.0012    5.1900   18.0000 
1117.0920   11.6310 -999.0000 -999.0000    2.7130   -0.0003    4.6570   18.0000 
1117.3968   12.4910 -999.0000 -999.0000    2.7130    0.0009    4.5710   18.0000 
1117.7016   14.2370 -999.0000 -999.0000    2.7050    0.0017    4.7630   18.0000 
1118.0064   12.9950 -999.0000 -999.0000    2.7050   -0.0001    5.1300   18.0000 
1118.3112   12.7070 -999.0000 -999.0000    2.7120   -0.0006    4.8660   18.0000 
1118.6160   13.3230 -999.0000 -999.0000    2.7200   -0.0014    4.5340   18.0000 
1118.9208   12.4340 -999.0000 -999.0000    2.7260   -0.0023    4.6970   18.0000 
1119.2256   12.4670 -999.0000 -999.0000    2.7380   -0.0034    5.0420   18.0000 
1119.5304   14.5040 -999.0000 -999.0000    2.7570   -0.0039    5.1090   18.0000 
1119.8352   15.8340 -999.0000 -999.0000    2.7470   -0.0026    5.2620   18.0000 
1120.1400   13.9350 -999.0000 -999.0000    2.7310   -0.0019    5.2640   18.0000 
1120.4448   12.9060 -999.0000 -999.0000    2.7320   -0.0011    5.0080   18.0000 
1120.7496   16.3200 -999.0000 -999.0000    2.7230   -0.0021    4.2230   18.0000 
1121.0544   16.2660 -999.0000 -999.0000    2.7310   -0.0043    4.3360   18.0000 
1121.3592   15.6180 -999.0000 -999.0000    2.7320   -0.0040    4.4590   18.0000 
1121.6640   16.1190 -999.0000 -999.0000    2.7460   -0.0035    4.3110   18.0000 
1121.9688   14.8200 -999.0000 -999.0000    2.7520   -0.0021    4.4140   18.0000 
1122.2736   17.1060 -999.0000 -999.0000    2.7380   -0.0032    4.7350   18.0000 
1122.5784   20.2370 -999.0000 -999.0000    2.7200   -0.0005    4.6520   18.0000 
1122.8832   19.7760 -999.0000 -999.0000    2.7190    0.0052    4.7570   18.0000 
1123.1880   14.3010 -999.0000 -999.0000    2.7100    0.0024    4.6570   18.0000 
1123.4928   11.5040 -999.0000 -999.0000    2.7150   -0.0005    4.6230   18.0000 
1123.7976   13.1900 -999.0000 -999.0000    2.7120   -0.0025    4.3750   18.0000 
1124.1024   13.0340 -999.0000 -999.0000    2.7090   -0.0031    4.3420   18.0000 
1124.4072   14.4810 -999.0000 -999.0000    2.7250   -0.0027    4.3900   18.0000 
1124.7120   18.3140 -999.0000 -999.0000    2.7340   -0.0021    4.4890   18.0000 
1125.0168   19.7600 -999.0000 -999.0000    2.7290   -0.0014    4.5590   18.0000 
1125.3216   19.3500 -999.0000 -999.0000    2.7200    0.0013    4.5600   18.0000 
1125.6264   23.5370 -999.0000 -999.0000    2.7290    0.0005    4.9300   18.0000 
1125.9312   26.9580 -999.0000 -999.0000    2.7380    0.0016    4.8800   18.0000 
1126.2360   26.0300 -999.0000 -999.0000    2.7280    0.0093    5.1130   18.0000 
1126.5408   28.3130 -999.0000 -999.0000    2.7190    0.0095    5.3220   18.0000 
1126.8456   28.1660 -999.0000 -999.0000    2.7090    0.0087    4.8980   18.0000 
1127.1504   29.9000 -999.0000 -999.0000    2.7160    0.0126    5.0890   18.0000 
1127.4552   29.3690 -999.0000 -999.0000    2.7270    0.0116    5.1510   18.0000 
1127.7600   26.6090 -999.0000 -999.0000    2.7240    0.0054    4.6260   18.0000 
1128.0648   24.2850 -999.0000 -999.0000    2.7390    0.0010    4.2690   18.0000 
1128.3696   23.0060 -999.0000 -999.0000    2.7530   -0.0014    4.4370   18.0000 
1128.6744   24.0890 -999.0000 -999.0000    2.7480   -0.0003    4.7350   18.0000 
1128.9792   23.8730 -999.0000 -999.0000    2.7340    0.0019    4.6950   18.0000 
1129.2840   20.5430 -999.0000 -999.0000    2.7180   -0.0007    4.6130   18.0000 
1129.5888   18.1590 -999.0000 -999.0000    2.7250   -0.0026    4.7020   18.0000 
1129.8936   21.3390 -999.0000 -999.0000    2.7340   -0.0027    4.7260   18.0000 
1130.1984   22.1760 -999.0000 -999.0000    2.7450   -0.0018    4.7290   18.0000 
1130.5032   22.1370 -999.0000 -999.0000    2.7350   -0.0019    5.2900   18.0000 
1130.8080   22.4600 -999.0000 -999.0000    2.7230   -0.0004    4.8020   18.0000 
1131.1128   23.9630 -999.0000 -999.0000    2.7330    0.0033    4.5730   18.0000 
1131.4176   24.2850 -999.0000 -999.0000    2.7330    0.0069    4.6640   18.0000 
1131.7224   19.6430 -999.0000 -999.0000    2.7180    0.0094    4.6260   18.0000 
1132.0272   14.7630 -999.0000 -999.0000    2.6970    0.0071    4.4940   18.0000 
1132.3320   12.7580 -999.0000 -999.0000    2.6950    0.0104    4.4090   18.0000 
1132.6368   11.8910 -999.0000 -999.0000    2.6970    0.0145    4.6980   18.0000 
1132.9416   11.8010 -999.0000 -999.0000    2.6750    0.0118    5.1220   18.0000 
1133.2464   11.8530 -999.0000 -999.0000    2.6720    0.0110    4.8430   18.0000 
1133.5512   11.1480 -999.0000 -999.0000    2.6790    0.0144    4.5130   18.0000 
1133.8560    9.7790 -999.0000 -999.0000    2.6610    0.0320    4.5460   18.0000 
1134.1608   10.0400 -999.0000 -999.0000    2.6540    0.0404    4.5260   18.0000 
1134.4656   10.8840 -999.0000 -999.0000    2.6880    0.0197    4.8790   18.0000 
1134.7704   12.5180 -999.0000 -999.0000    2.7220    0.0014    5.0720   18.0000 
1135.0752   14.7480 -999.0000 -999.0000    2.7430   -0.0032    5.2220   18.0000 
1135.3800   14.8080 -999.0000 -999.0000    2.7490   -0.0045    5.3720   18.0000 
1135.6848   12.6660 -999.0000 -999.0000    2.7480   -0.0058    5.0380   18.0000 
1135.9896   12.5790 -999.0000 -999.0000    2.7390   -0.0038    4.6800   18.0000 
1136.2944   13.0770 -999.0000 -999.0000    2.7270    0.0003    4.7300   18.0000 
1136.5992   13.0230 -999.0000 -999.0000    2.7180    0.0029    4.7270   18.0000 
1136.9040   12.3200 -999.0000 -999.0000    2.7220   -0.0007    4.8400   18.0000 
1137.2088   14.4390 -999.0000 -999.0000    2.7240   -0.0020    4.7720   18.0000 
1137.5136   16.7280 -999.0000 -999.0000    2.7140   -0.0017    4.8410   18.0000 
1137.8184   15.4820 -999.0000 -999.0000    2.6990    0.0019    5.0140   18.0000 
1138.1232   15.7380 -999.0000 -999.0000    2.6650    0.0015    5.1510   18.0000 
1138.4280   15.8760 -999.0000 -999.0000    2.6130    0.0043    5.1030   18.0000 
1138.7328   14.8640 -999.0000 -999.0000    2.6660    0.0060    5.3120   18.0000 
1139.0376   13.5830 -999.0000 -999.0000    2.7120   -0.0012    4.5440   18.0000 
1139.3424   14.8580 -999.0000 -999.0000    2.7320   -0.0037    4.7630   18.0000 
1139.6472   15.9330 -999.0000 -999.0000    2.7290   -0.0037    5.0640   18.0000 
1139.9520   17.7350 -999.0000 -999.0000    2.7220   -0.0012    4.8480   18.0000 
1140.2568   31.2090 -999.0000 -999.0000    2.7300    0.0046    5.0680   18.0000 
1140.5616   33.4280 -999.0000 -999.0000    2.7310    0.0088    4.9210   18.0000 
1140.8664   23.9510 -999.0000 -999.0000    2.7150    0.0044    4.7270   18.0000 
1141.1712   19.0850 -999.0000 -999.0000    2.7250   -0.0005    4.6370   18.0000 
1141.4760   20.1090 -999.0000 -999.0000    2.7220   -0.0012    4.5840   18.0000 
1141.7808   21.0000 -999.0000 -999.0000    2.7280    0.0008    4.9290   18.0000 
1142.0856   21.9720 -999.0000 -999.0000    2.7440   -0.0003    5.0200   18.0000 
1142.3904   22.6580 -999.0000 -999.0000    2.7360   -0.0011    4.8440   18.0000 
1142.6952   19.4550 -999.0000 -999.0000    2.7220   -0.0005    4.9920   18.0000 
1143.0000   17.5470 -999.0000 -999.0000    2.7280   -0.0007    5.1280   18.0000 
1143.3048   15.4370 -999.0000 -999.0000    2.7380   -0.0030    4.6650   18.0000 
1143.6096   17.7110 -999.0000 -999.0000    2.7490   -0.0049    4.9250   18.0000 
1143.9144   20.8290 -999.0000 -999.0000    2.7450   -0.0035    4.8250   18.0000 
1144.2192   21.0120 -999.0000 -999.0000    2.7160   -0.0006    4.6310   18.0000 
1144.5240   18.3300 -999.0000 -999.0000    2.6660    0.0136    4.8280   18.0000 
1144.8288   15.0680 -999.0000 -999.0000    2.6370    0.0384    4.6080   18.0000 
1145.1336   13.7090 -999.0000 -999.0000    2.6330    0.0675    4.3980   18.0000 
1145.4384   13.7820 -999.0000 -999.0000    2.6660    0.0800    4.4140   18.0000 
1145.7432   15.1820 -999.0000 -999.0000    2.7050    0.0456    4.5170   18.0000 
