~VERSION INFORMATION
 VERS.                 2.0:   CWLS LOG ASCII STANDARD - VERSION 2.0
 WRAP.                  NO:   SINGLE LINE PER DEPTH STEP
 CREA.                 05/01/2018 17:09:06
#CREATED USING DSPetro VERSION 5000.10.1.3 BY H191660 ON 05/01/2018 17:09:06
~WELL INFORMATION
#MNEM.UNIT       DATA                          DESCRIPTION MNEMONIC
#---------      ---------------------------   --------------------------
 STRT    .M         80.7720                   : START DEPTH
 STOP    .M         2461.5648                 : STOP DEPTH
 STEP    .M         0.3048                    : STEP VALUE
 NULL    .      -999.0000                     : NULL VALUE
 DATE    .      05/01/2018                    : LAS file Creation Date
 WELL .      JOHNSON_3_1                 : Well Name
 COMP .      Neftex Exploration Insights : Company
 FLD  .                                  : Field
 UWI  .      DUSWL_JO_3_1                : Unique Well Identifier (UWI)
 LOC  .                                  : Location
 RWS  .      -999                        : Def_Rw
 WST  .      -999                        : Def_Rwt
 SRVC .                                  : Contractor
~CURVE INFORMATION
#MNEM              UNIT       API CODE   Curve Type Comments
#----------  --------------- ----------  ---------- -----------
 DEPTH      .M                         : Depth       
 CAL_INCH   .inch                      :             Caliper Log - A representation of the measured diameter of a borehole along its depth
 GR_API     .API                       : GammaRay    Gamma Ray (API) - Measures the intensity of natural gamma-ray radiation emitted from formations containing radioactive elements, such as K, Th and U
 RHOZ_G_CC  .g/cc                      :             Formation Density - Measures the density of formation, including any void space or other materials contained in the subject volume
 NPHI_v_v   .dec                       : Neutron     
 PEF_B_E    .b/e-                      : PEF         Photoelectric Factor - A log of photoelectric absorption properties. Often expressed in an approximation unit barns/electron (b/e-)
 LITH       .                          :             
~A  DEPTH  CAL_INCH   GR_API  RHOZ_G_C~  NPHI_v_v  PEF_B_E     LITH   
# ...
2285.0856    8.5020   24.4790    2.0840   -0.0167    4.1580   16.0000 
2285.3904    8.4200   25.4310    2.0610   -0.0166    4.1340   16.0000 
2285.6952    8.5140   24.1940    2.0570   -0.0168    4.2030   16.0000 
2286.0000    8.5400   25.2470    2.0600   -0.0178    4.3010   16.0000 
2286.3048    8.5390   26.5410    2.0600   -0.0173    4.3020   16.0000 
2286.6096    8.5410   25.4790    2.0570   -0.0177    4.2420   16.0000 
2286.9144    8.5290   23.9270    2.0520   -0.0179    4.2810   16.0000 
2287.2192    8.5240   22.5830    2.0500   -0.0179    4.3530   16.0000 
2287.5240    8.5180   22.7390    2.0500   -0.0174    4.2220   16.0000 
2287.8288    8.5330   22.7130    2.0560   -0.0170    4.1460   16.0000 
2288.1336    8.5190   22.4430    2.0540   -0.0167    4.1720   16.0000 
2288.4384    8.5370   22.8560    2.0500   -0.0172    4.0940   16.0000 
2288.7432    8.5290   21.0800    2.0570   -0.0178    4.2050   16.0000 
2289.0480    8.5330   23.2070    2.0610   -0.0178    4.2130   16.0000 
2289.3528    8.5250   25.0410    2.0630   -0.0170    4.0860   16.0000 
2289.6576    8.5470   25.4910    2.0660   -0.0166    4.0560   16.0000 
2289.9624    8.5130   24.2750    2.0620   -0.0166    4.0920   16.0000 
2290.2672    8.5160   26.8670    2.0620   -0.0170    4.1280   16.0000 
2290.5720    8.5170   28.7100    2.0630   -0.0172    4.0500   16.0000 
2290.8768    8.5320   28.9250    2.0660   -0.0172    4.1880   16.0000 
2291.1816    8.5490   28.7790    2.0710   -0.0170    4.1400   16.0000 
2291.4864    8.5550   25.9440    2.0720   -0.0174    4.0490   16.0000 
2291.7912    8.5610   23.8170    2.0680   -0.0173    4.0080   16.0000 
2292.0960    8.5240   24.9890    2.0670   -0.0159    4.1390   16.0000 
2292.4008    8.4450   27.4680    2.0690   -0.0161    4.3660   16.0000 
2292.7056    8.4400   24.6980    2.0700   -0.0175    4.3570   16.0000 
2293.0104    8.4520   22.9530    2.0690   -0.0172    4.2400   16.0000 
2293.3152    8.4470   24.5310    2.0580   -0.0165    4.2540   16.0000 
2293.6200    8.4530   22.8770    2.0880   -0.0164    4.2490   16.0000 
2293.9248    8.4590   25.3080    2.1230   -0.0114    4.2520   16.0000 
2294.2296    8.4680   25.7660    2.0940   -0.0137    4.3660   16.0000 
2294.5344    8.4380   26.1680    2.0630   -0.0158    4.3230   16.0000 
2294.8392    8.4450   24.8630    2.0610   -0.0163    4.2360   16.0000 
2295.1440    8.4290   25.6320    2.0650   -0.0177    4.2580   16.0000 
2295.4488    8.4230   25.4010    2.0610   -0.0179    4.0900   16.0000 
2295.7536    8.4360   25.0130    2.0640   -0.0170    4.1550   16.0000 
2296.0584    8.4430   24.8820    2.0680   -0.0170    4.1780   16.0000 
2296.3632    8.4290   22.2450    2.0700   -0.0170    4.2050   16.0000 
2296.6680    8.4550   23.0550    2.0640   -0.0172    4.1840   16.0000 
2296.9728    8.4650   24.5900    2.0670   -0.0168    4.0840   16.0000 
2297.2776    8.5400   22.5890    2.0700   -0.0168    4.1150   16.0000 
2297.5824    8.5550   23.7750    2.0690   -0.0161    4.1830   16.0000 
2297.8872    8.5160   22.7010    2.0630   -0.0160    4.2190   16.0000 
2298.1920    8.5100   22.2650    2.0610   -0.0162    4.2540   16.0000 
2298.4968    8.5290   22.9650    2.0600   -0.0158    4.3170   16.0000 
2298.8016    8.5230   23.3580    2.0620   -0.0178    4.3540   16.0000 
2299.1064    8.5130   22.8230    2.0580   -0.0180    4.3440   16.0000 
2299.4112    8.4850   22.2300    2.0590   -0.0180    4.1550   16.0000 
2299.7160    8.4870   24.3000    2.0630   -0.0179    4.2400   16.0000 
2300.0208    8.4370   23.9130    2.0670   -0.0170    4.1320   16.0000 
2300.3256    8.5100   26.2650    2.0750   -0.0166    4.2310   16.0000 
2300.6304    8.5340   27.2600    2.0830   -0.0165    4.2030   16.0000 
2300.9352    8.5320   23.6510    2.0800   -0.0165    4.2820   16.0000 
2301.2400    8.4830   23.5620    2.0850   -0.0164    4.3860   16.0000 
2301.5448    8.5090   23.0640    2.0820   -0.0161    4.2290   16.0000 
2301.8496    8.5030   23.9370    2.0850   -0.0161    4.1360   16.0000 
2302.1544    8.4610   25.0620    2.0930   -0.0165    4.2310   16.0000 
2302.4592    8.4160   24.2610    2.0960   -0.0174    4.2200   16.0000 
2302.7640    8.4890   22.4960    2.0700   -0.0166    3.9800   16.0000 
2303.0688    8.5320   23.5920    2.0620   -0.0170    4.0460   16.0000 
2303.3736    8.5090   22.2420    2.0640   -0.0164    4.1110   16.0000 
2303.6784    8.4680   23.8250    2.0650   -0.0161    4.1880   16.0000 
2303.9832    8.4850   26.5410    2.0820   -0.0160    4.3010   16.0000 
2304.2880    8.4100   26.3910    2.0860   -0.0159    4.2810   16.0000 
2304.5928    8.4940   24.5870    2.0810   -0.0164    4.3000   16.0000 
2304.8976    8.5450   27.1950    2.0840   -0.0183    4.2870   16.0000 
2305.2024    8.4880   24.5400    2.0810   -0.0176    4.1660   16.0000 
2305.5072    8.4110   26.8890    2.0680   -0.0166    4.1110   16.0000 
2305.8120    8.4420   26.1630    2.0670   -0.0162    4.1460   16.0000 
2306.1168    8.4740   26.1530    2.0790   -0.0168    4.2280   16.0000 
2306.4216    8.5310   26.2940    2.0900   -0.0161    4.3970   16.0000 
2306.7264    8.5210   25.6740    2.0970   -0.0164    4.3340   16.0000 
2307.0312    8.5390   25.3010    2.0950   -0.0174    4.2160   16.0000 
2307.3360    8.5130   24.7950    2.0860   -0.0171    4.3740   16.0000 
2307.6408    8.5170   23.2310    2.0650   -0.0175    4.4480   16.0000 
2307.9456    8.5180   24.3300    2.0560   -0.0178    4.3850   16.0000 
2308.2504    8.5110   25.6820    2.0660   -0.0173    4.3240   16.0000 
2308.5552    8.5180   25.7780    2.0710   -0.0170    4.2560   16.0000 
2308.8600    8.5430   23.9670    2.0820   -0.0172    4.1250   16.0000 
2309.1648    8.5270   23.8890    2.0870   -0.0174    4.3000   16.0000 
2309.4696    8.5060   23.5080    2.0710   -0.0173    4.1740   16.0000 
2309.7744    8.5330   24.3020    2.0700   -0.0174    4.1750   16.0000 
2310.0792    8.5050   26.3640    2.0610   -0.0175    4.2720   16.0000 
2310.3840    8.5390   24.6620    2.0500   -0.0165    4.1810   16.0000 
2310.6888    8.5340   26.0150    2.0590   -0.0167    3.9730   16.0000 
2310.9936    8.5310   26.0840    2.0630   -0.0173    4.0950   16.0000 
2311.2984    8.5260   22.4970    2.0620   -0.0175    4.3070   16.0000 
2311.6032    8.5360   22.4150    2.0600   -0.0179    4.3840   16.0000 
2311.9080    8.5300   24.7140    2.0690   -0.0181    4.2660   16.0000 
2312.2128    8.5060   25.2210    2.0670   -0.0181    4.0490   16.0000 
2312.5176    8.5110   23.5770    2.0750   -0.0179    4.0780   16.0000 
2312.8224    8.5230   22.8810    2.0700   -0.0175    4.2170   16.0000 
2313.1272    8.5080   22.9860    2.0670   -0.0168    4.1710   16.0000 
2313.4320    8.5130   24.9240    2.0700   -0.0171    4.1840   16.0000 
2313.7368    8.5360   23.5410    2.0770   -0.0171    4.2320   16.0000 
2314.0416    8.5190   25.5470    2.0840   -0.0178    4.2350   16.0000 
2314.3464    8.5280   24.9120    2.0830   -0.0170    4.2070   16.0000 
2314.6512    8.5510   25.1360    2.0790   -0.0168    4.1100   16.0000 
2314.9560    8.5250   26.4840    2.0840   -0.0176    4.0540   16.0000 
2315.2608    8.5130   25.0220    2.0850   -0.0172    4.1060   16.0000 
2315.5656    8.5420   23.3180    2.0790   -0.0169    4.0980   16.0000 
2315.8704    8.5400   24.8720    2.0750   -0.0169    4.2090   16.0000 
2316.1752    8.5870   21.9470    2.0700   -0.0177    4.3740   16.0000 
2316.4800    8.5850   24.3990    2.0650   -0.0171    4.4610   16.0000 
2316.7848    8.5170   25.6970    2.0530   -0.0175    4.1370   16.0000 
2317.0896    8.5990   24.2970    2.0650   -0.0167    4.1190   16.0000 
2317.3944    8.6060   23.8620    2.0740   -0.0180    4.2170   16.0000 
2317.6992    8.4970   24.6230    2.0770   -0.0175    4.3080   16.0000 
2318.0040    8.5620   23.0360    2.0650   -0.0182    4.3280   16.0000 
2318.3088    8.6120   24.2190    2.0630   -0.0178    4.2780   16.0000 
2318.6136    8.5470   23.3280    2.0710   -0.0175    4.2580   16.0000 
2318.9184    8.5160   21.0110    2.0760   -0.0181    4.3080   16.0000 
2319.2232    8.5490   23.3850    2.0830   -0.0174    4.3660   16.0000 
