~VERSION INFORMATION
 VERS.                 2.0:   CWLS LOG ASCII STANDARD - VERSION 2.0
 WRAP.                  NO:   SINGLE LINE PER DEPTH STEP
 CREA.                 05/01/2018 17:09:06
#CREATED USING DSPetro VERSION 5000.10.1.3 BY H191660 ON 05/01/2018 17:09:06
~WELL INFORMATION
#MNEM.UNIT       DATA                          DESCRIPTION MNEMONIC
#---------      ---------------------------   --------------------------
 STRT    .M         80.7720                   : START DEPTH
 STOP    .M         2461.5648                 : STOP DEPTH
 STEP    .M         0.3048                    : STEP VALUE
 NULL    .      -999.0000                     : NULL VALUE
 DATE    .      05/01/2018                    : LAS file Creation Date
 WELL .      JOHNSON_3_1                 : Well Name
 COMP .      Neftex Exploration Insights : Company
 FLD  .                                  : Field
 UWI  .      DUSWL_JO_3_1                : Unique Well Identifier (UWI)
 LOC  .                                  : Location
 RWS  .      -999                        : Def_Rw
 WST  .      -999                        : Def_Rwt
 SRVC .                                  : Contractor
~CURVE INFORMATION
#MNEM              UNIT       API CODE   Curve Type Comments
#----------  --------------- ----------  ---------- -----------
 DEPTH      .M                         : Depth       
 CAL_INCH   .inch                      :             Caliper Log - A representation of the measured diameter of a borehole along its depth
 GR_API     .API                       : GammaRay    Gamma Ray (API) - Measures the intensity of natural gamma-ray radiation emitted from formations containing radioactive elements, such as K, Th and U
 RHOZ_G_CC  .g/cc                      :             Formation Density - Measures the density of formation, including any void space or other materials contained in the subject volume
 NPHI_v_v   .dec                       : Neutron     
 PEF_B_E    .b/e-                      : PEF         Photoelectric Factor - A log of photoelectric absorption properties. Often expressed in an approximation unit barns/electron (b/e-)
 LITH       .                          :             
~A  DEPTH  CAL_INCH   GR_API  RHOZ_G_C~  NPHI_v_v  PEF_B_E     LITH   
# ...
 872.9472   12.2270  110.2520 -999.0000    0.2399 -999.0000 -999.0000 
 873.2520   12.2290  107.5230 -999.0000    0.2086 -999.0000 -999.0000 
 873.5568   12.2860  103.1220 -999.0000    0.1949 -999.0000 -999.0000 
 873.8616   12.3470  104.7650 -999.0000    0.1895 -999.0000 -999.0000 
 874.1664   12.3770  102.6380 -999.0000    0.1776 -999.0000 -999.0000 
 874.4712   12.3980  108.6960 -999.0000    0.1683 -999.0000 -999.0000 
 874.7760   12.4560  113.2070 -999.0000    0.2019 -999.0000 -999.0000 
 875.0808   12.3070  112.3950 -999.0000    0.2107 -999.0000 -999.0000 
 875.3856   12.2040  109.4310 -999.0000    0.1881 -999.0000 -999.0000 
 875.6904   12.1620  112.5620 -999.0000    0.2109 -999.0000 -999.0000 
 875.9952   12.2360  112.4060 -999.0000    0.2383 -999.0000 -999.0000 
 876.3000   12.2220  104.4320 -999.0000    0.2274 -999.0000 -999.0000 
 876.6048   12.2870  107.1450 -999.0000    0.2411 -999.0000 -999.0000 
 876.9096   12.4600  109.8570 -999.0000    0.2557 -999.0000 -999.0000 
 877.2144   12.4650  105.8810 -999.0000    0.2613 -999.0000 -999.0000 
 877.5192   12.3120  106.3800 -999.0000    0.2834 -999.0000 -999.0000 
 877.8240   12.2540  103.9560 -999.0000    0.2600 -999.0000 -999.0000 
 878.1288   12.2000  101.9520 -999.0000    0.2453 -999.0000 -999.0000 
 878.4336   12.2530  101.8590 -999.0000    0.2493 -999.0000 -999.0000 
 878.7384   12.3260  109.8210 -999.0000    0.2239 -999.0000 -999.0000 
 879.0432   12.3280  119.6550 -999.0000    0.2176 -999.0000 -999.0000 
 879.3480   12.2780  118.5480 -999.0000    0.2226 -999.0000 -999.0000 
 879.6528   12.1920  122.9360 -999.0000    0.2280 -999.0000 -999.0000 
 879.9576   12.3050  118.8950 -999.0000    0.2514 -999.0000 -999.0000 
 880.2624   12.3510  115.5120 -999.0000    0.2361 -999.0000 -999.0000 
 880.5672   12.3090  106.9940 -999.0000    0.2223 -999.0000 -999.0000 
 880.8720   12.2110  106.7190 -999.0000    0.2340 -999.0000 -999.0000 
 881.1768   12.1340  110.4500 -999.0000    0.2181 -999.0000 -999.0000 
 881.4816   12.1510  111.0140 -999.0000    0.2280 -999.0000 -999.0000 
 881.7864   12.2080  108.9450 -999.0000    0.2360 -999.0000 -999.0000 
 882.0912   12.1820  107.5400 -999.0000    0.2283 -999.0000 -999.0000 
 882.3960   12.2870  106.3670 -999.0000    0.2151 -999.0000 -999.0000 
 882.7008   12.2290  109.7450 -999.0000    0.2208 -999.0000 -999.0000 
 883.0056   12.1550  107.7990 -999.0000    0.2335 -999.0000 -999.0000 
 883.3104   12.1330  108.8970 -999.0000    0.2295 -999.0000 -999.0000 
 883.6152   12.1820  106.8870 -999.0000    0.2360 -999.0000 -999.0000 
 883.9200   12.2670  104.4030 -999.0000    0.2285 -999.0000 -999.0000 
 884.2248   12.3410  104.4350 -999.0000    0.2220 -999.0000 -999.0000 
 884.5296   12.2790  105.1790 -999.0000    0.2214 -999.0000 -999.0000 
 884.8344   12.1570  105.0810 -999.0000    0.2140 -999.0000 -999.0000 
 885.1392   12.1070  103.3700 -999.0000    0.2060 -999.0000 -999.0000 
 885.4440   12.1770  107.1600 -999.0000    0.2402 -999.0000 -999.0000 
 885.7488   12.1270  108.9740 -999.0000    0.2246 -999.0000 -999.0000 
 886.0536   12.1400   99.9870 -999.0000    0.2090 -999.0000 -999.0000 
 886.3584   12.2090  102.0420 -999.0000    0.2047 -999.0000 -999.0000 
 886.6632   12.2350  106.1270 -999.0000    0.2567 -999.0000 -999.0000 
 886.9680   12.2490  107.8220 -999.0000    0.2838 -999.0000 -999.0000 
 887.2728   12.2140  106.1160 -999.0000    0.2535 -999.0000 -999.0000 
 887.5776   12.1400  108.1710 -999.0000    0.2122 -999.0000 -999.0000 
 887.8824   12.1620  109.7540 -999.0000    0.2082 -999.0000 -999.0000 
 888.1872   12.1590  107.4450 -999.0000    0.2401 -999.0000 -999.0000 
 888.4920   12.1650  107.1710 -999.0000    0.2578 -999.0000 -999.0000 
 888.7968   12.1670  108.0290 -999.0000    0.2532 -999.0000 -999.0000 
 889.1016   12.1530   96.1730 -999.0000    0.2438 -999.0000 -999.0000 
 889.4064   12.1540   92.9150 -999.0000    0.2222 -999.0000 -999.0000 
 889.7112   12.1440  102.9300 -999.0000    0.2034 -999.0000 -999.0000 
 890.0160   12.1380  109.1600 -999.0000    0.2313 -999.0000 -999.0000 
 890.3208   12.1790  114.3200 -999.0000    0.2743 -999.0000 -999.0000 
 890.6256   12.1170  118.1690 -999.0000    0.2989 -999.0000 -999.0000 
 890.9304   12.2340  125.8980 -999.0000    0.2799 -999.0000 -999.0000 
 891.2352   12.2800  126.8210 -999.0000    0.2527 -999.0000 -999.0000 
 891.5400   12.3300  115.0830 -999.0000    0.2352 -999.0000 -999.0000 
 891.8448   12.2040  112.7120 -999.0000    0.2284 -999.0000 -999.0000 
 892.1496   12.2580  109.2170 -999.0000    0.2718 -999.0000 -999.0000 
 892.4544   12.3110  105.0540 -999.0000    0.2534 -999.0000 -999.0000 
 892.7592   12.3930  109.3230 -999.0000    0.2198 -999.0000 -999.0000 
 893.0640   12.3830  119.6850 -999.0000    0.2173 -999.0000 -999.0000 
 893.3688   12.2450  115.5870 -999.0000    0.2265 -999.0000 -999.0000 
 893.6736   12.1860  116.4530 -999.0000    0.2155 -999.0000 -999.0000 
 893.9784   12.1360  118.8630 -999.0000    0.2342 -999.0000 -999.0000 
 894.2832   12.2010  118.5290 -999.0000    0.2614 -999.0000 -999.0000 
 894.5880   12.2750  112.9340 -999.0000    0.2323 -999.0000 -999.0000 
 894.8928   12.3160  107.2260 -999.0000    0.2238 -999.0000 -999.0000 
 895.1976   12.3140  105.5160 -999.0000    0.2065 -999.0000 -999.0000 
 895.5024   12.2800  114.4430 -999.0000    0.1896 -999.0000 -999.0000 
 895.8072   12.2490  128.8070 -999.0000    0.1943 -999.0000 -999.0000 
 896.1120   12.2240  122.0210 -999.0000    0.1910 -999.0000 -999.0000 
 896.4168   12.1970  113.1480 -999.0000    0.2149 -999.0000 -999.0000 
 896.7216   12.2070  111.3750 -999.0000    0.2215 -999.0000 -999.0000 
 897.0264   12.1780  112.3020 -999.0000    0.2401 -999.0000 -999.0000 
 897.3312   12.1160  109.3410 -999.0000    0.2379 -999.0000 -999.0000 
 897.6360   12.1290  103.7490 -999.0000    0.2299 -999.0000 -999.0000 
 897.9408   12.1230  101.6820 -999.0000    0.2377 -999.0000 -999.0000 
 898.2456   12.1720   98.4840 -999.0000    0.2464 -999.0000 -999.0000 
 898.5504   12.2450   98.6880 -999.0000    0.2367 -999.0000 -999.0000 
 898.8552   12.2110  100.9260 -999.0000    0.2326 -999.0000 -999.0000 
 899.1600   12.0970   99.6330 -999.0000    0.2386 -999.0000 -999.0000 
 899.4648   12.1390   99.0660 -999.0000    0.2455 -999.0000 -999.0000 
 899.7696   12.1840  103.3370 -999.0000    0.2744 -999.0000 -999.0000 
 900.0744   12.1980  111.5340 -999.0000    0.2709 -999.0000 -999.0000 
 900.3792   12.2350  115.3880 -999.0000    0.2140 -999.0000 -999.0000 
 900.6840   12.2760  112.8450 -999.0000    0.2362 -999.0000 -999.0000 
 900.9888   12.2740  117.0480 -999.0000    0.2280 -999.0000 -999.0000 
 901.2936   12.1290  119.8260 -999.0000    0.2346 -999.0000 -999.0000 
 901.5984   12.0940  113.6370 -999.0000    0.2307 -999.0000 -999.0000 
 901.9032   12.1440   98.0750 -999.0000    0.2260 -999.0000 -999.0000 
 902.2080   12.1460  103.8380 -999.0000    0.2296 -999.0000 -999.0000 
 902.5128   12.1760  115.2650 -999.0000    0.2470 -999.0000 -999.0000 
 902.8176   12.1890  119.2950 -999.0000    0.2378 -999.0000 -999.0000 
 903.1224   12.2150  120.1530 -999.0000    0.2658 -999.0000 -999.0000 
 903.4272   12.2920  119.2850 -999.0000    0.2472 -999.0000 -999.0000 
 903.7320   12.2540  115.8480 -999.0000    0.2392 -999.0000 -999.0000 
 904.0368   12.3870  115.2120 -999.0000    0.2477 -999.0000 -999.0000 
 904.3416   12.6790  117.1520 -999.0000    0.2288 -999.0000 -999.0000 
 904.6464   12.9230  123.2690 -999.0000    0.2268 -999.0000 -999.0000 
 904.9512   13.0770  128.4270 -999.0000    0.2384 -999.0000 -999.0000 
 905.2560   13.1070  130.4210 -999.0000    0.2250 -999.0000 -999.0000 
 905.5608   12.9490  132.3000 -999.0000    0.2191 -999.0000 -999.0000 
 905.8656   12.6640  133.8180 -999.0000    0.2323 -999.0000 -999.0000 
 906.1704   12.4780  130.3800 -999.0000    0.2511 -999.0000 -999.0000 
 906.4752   12.4960  124.6140 -999.0000    0.2318 -999.0000 -999.0000 
 906.7800   12.5810  123.4440 -999.0000    0.2358 -999.0000 -999.0000 
 907.0848   12.6820  119.4120 -999.0000    0.2377 -999.0000 -999.0000 
