~VERSION INFORMATION
 VERS.                 2.0:   CWLS LOG ASCII STANDARD - VERSION 2.0
 WRAP.                  NO:   SINGLE LINE PER DEPTH STEP
 CREA.                 05/01/2018 17:09:06
#CREATED USING DSPetro VERSION 5000.10.1.3 BY H191660 ON 05/01/2018 17:09:06
~WELL INFORMATION
#MNEM.UNIT       DATA                          DESCRIPTION MNEMONIC
#---------      ---------------------------   --------------------------
 STRT    .M         80.7720                   : START DEPTH
 STOP    .M         2461.5648                 : STOP DEPTH
 STEP    .M         0.3048                    : STEP VALUE
 NULL    .      -999.0000                     : NULL VALUE
 DATE    .      05/01/2018                    : LAS file Creation Date
 WELL .      JOHNSON_3_1                 : Well Name
 COMP .      Neftex Exploration Insights : Company
 FLD  .                                  : Field
 UWI  .      DUSWL_JO_3_1                : Unique Well Identifier (UWI)
 LOC  .                                  : Location
 RWS  .      -999                        : Def_Rw
 WST  .      -999                        : Def_Rwt
 SRVC .                                  : Contractor
~CURVE INFORMATION
#MNEM              UNIT       API CODE   Curve Type Comments
#----------  --------------- ----------  ---------- -----------
 DEPTH      .M                         : Depth       
 CAL_INCH   .inch                      :             Caliper Log - A representation of the measured diameter of a borehole along its depth
 GR_API     .API                       : GammaRay    Gamma Ray (API) - Measures the intensity of natural gamma-ray radiation emitted from formations containing radioactive elements, such as K, Th and U
 RHOZ_G_CC  .g/cc                      :             Formation Density - Measures the density of formation, including any void space or other materials contained in the subject volume
 NPHI_v_v   .dec                       : Neutron     
 PEF_B_E    .b/e-                      : PEF         Photoelectric Factor - A log of photoelectric absorption properties. Often expressed in an approximation unit barns/electron (b/e-)
 LITH       .                          :             
~A  DEPTH  CAL_INCH   GR_API  RHOZ_G_C~  NPHI_v_v  PEF_B_E     LITH   
# ...
2009.5464    8.9930   69.9200    2.7780    0.0972    3.6860   37.0000 
2009.8512    8.9820   65.4980    2.7720    0.0780    3.4130   37.0000 
2010.1560    8.9260   54.6450    2.7750    0.0405    3.5880   16.0000 
2010.4608    8.8220   43.4810    2.7380    0.0184    3.5650   16.0000 
2010.7656    8.8980   43.5950    2.6820    0.0262    3.3780   16.0000 
2011.0704    8.9780   44.8460    2.6910    0.0345    3.2960   16.0000 
2011.3752    9.0980   41.7960    2.7060    0.0334    3.2040   16.0000 
2011.6800    9.2180   45.0590    2.6960    0.0197    3.1510   16.0000 
2011.9848    9.2820   42.6650    2.6430    0.0120    3.2430   16.0000 
2012.2896    9.3340   38.4240    2.6390    0.0122    3.3780   16.0000 
2012.5944    9.3580   46.7820    2.6430    0.0149    3.6230   16.0000 
2012.8992    9.2620   53.8980    2.6530    0.0264    3.4780   16.0000 
2013.2040    9.0960   63.3870    2.7160    0.1025    3.4300   16.0000 
2013.5088    9.0360   68.9970    2.7520    0.0979    3.6840   37.0000 
2013.8136    8.9240   69.7910    2.7420    0.1002    3.6110   37.0000 
2014.1184    8.9370   73.0670    2.7140    0.1486    3.5100   37.0000 
2014.4232    9.0330   70.9680    2.6980    0.1522    3.6560   37.0000 
2014.7280    9.0360   68.3930    2.7150    0.1290    3.7390   37.0000 
2015.0328    9.0600   65.4690    2.7070    0.1077    3.4270   37.0000 
2015.3376    9.1040   68.4480    2.6870    0.1195    3.5020   37.0000 
2015.6424    9.0960   71.7590    2.6880    0.1091    3.4570   37.0000 
2015.9472    9.0240   70.8630    2.6990    0.0909    3.3230   37.0000 
2016.2520    8.9730   73.4330    2.6790    0.1144    3.1520   37.0000 
2016.5568    8.9730   71.5280    2.6760    0.1280    3.3510   37.0000 
2016.8616    8.9820   70.1640    2.6650    0.1153    3.4180   37.0000 
2017.1664    8.9750   68.2490    2.6670    0.1152    3.5840   37.0000 
2017.4712    9.1300   55.9580    2.5790    0.0714    3.6960   22.0000 
2017.7760    9.3220   43.4340    2.2960   -0.0019    3.8020   22.0000 
2018.0808    9.6750   33.7040    2.0820   -0.0173    3.9780   16.0000 
2018.3856    9.9900   29.4050    2.0680   -0.0213    4.1190   16.0000 
2018.6904   10.0460   28.0980    2.0640   -0.0214    4.0960   16.0000 
2018.9952   10.0430   27.3180    2.0620   -0.0210    3.9940   16.0000 
2019.3000   10.0350   29.4090    2.0610   -0.0227    4.1180   16.0000 
2019.6048   10.0420   30.0630    2.0550   -0.0227    4.1720   16.0000 
2019.9096   10.0310   28.7120    2.0490   -0.0214    4.1080   16.0000 
2020.2144   10.0220   26.8610    2.0520   -0.0218    4.1580   16.0000 
2020.5192    9.9310   27.1110    2.0570   -0.0219    4.4650   16.0000 
2020.8240    9.9560   25.7990    2.0540   -0.0221    4.6250   16.0000 
2021.1288   10.0040   26.9300    2.0510   -0.0237    4.5670   16.0000 
2021.4336   10.0400   27.8930    2.0430   -0.0217    4.3960   16.0000 
2021.7384   10.0360   29.4440    2.0480   -0.0208    4.3760   16.0000 
2022.0432   10.0280   29.9340    2.0550   -0.0208    4.3920   16.0000 
2022.3480    9.9680   28.4990    2.0480   -0.0214    4.2630   16.0000 
2022.6528   10.0370   26.3990    2.0570   -0.0214    4.3860   16.0000 
2022.9576   10.0880   29.7510    2.0680   -0.0215    4.5320   16.0000 
2023.2624   10.0640   28.9650    2.0760   -0.0218    4.2370   16.0000 
2023.5672   10.1200   27.0050    2.0740   -0.0209    4.2850   16.0000 
2023.8720    9.9640   25.4520    2.1270   -0.0191    4.3900   16.0000 
2024.1768   10.0160   27.6000    2.4030   -0.0105    5.3250   16.0000 
2024.4816    9.8900   29.6340    2.7430   -0.0022    5.4510   16.0000 
2024.7864    9.5230   31.9080    2.8320   -0.0035    4.3600   22.0000 
2025.0912    9.3010   37.6410    2.7260   -0.0041    4.0550   22.0000 
2025.3960    9.1740   39.9660    2.5470   -0.0017    3.6300   22.0000 
2025.7008    9.1700   43.2540    2.4970    0.0069    3.3110   22.0000 
2026.0056    9.1950   52.9830    2.5610    0.0671    3.2470   22.0000 
2026.3104    9.2020   61.1060    2.6010    0.1403    3.6530   22.0000 
2026.6152    9.2860   65.9400    2.6320    0.1896    3.5960   22.0000 
2026.9200    9.4220   64.2180    2.4680    0.1469    3.8150   22.0000 
2027.2248    9.6450   48.3980    2.1300    0.0172    4.0710   22.0000 
2027.5296    9.8550   33.6690    2.0760   -0.0192    4.3120   16.0000 
2027.8344    9.9680   25.9100    2.0530   -0.0214    4.2160   16.0000 
2028.1392    9.9090   26.4510    2.0540   -0.0228    4.2740   16.0000 
2028.4440    9.9650   27.7670    2.0540   -0.0224    4.2380   16.0000 
2028.7488   10.0090   27.2930    2.0520   -0.0230    4.2210   16.0000 
2029.0536    9.9540   25.3290    2.0580   -0.0224    4.2750   16.0000 
2029.3584   10.0090   25.0860    2.0570   -0.0229    4.2310   16.0000 
2029.6632    9.9770   27.0090    2.0540   -0.0222    4.3770   16.0000 
2029.9680    9.9730   26.6430    2.0620   -0.0223    4.4080   16.0000 
2030.2728   10.0090   29.2220    2.0650   -0.0218    4.3230   16.0000 
2030.5776   10.0320   29.4530    2.0650   -0.0206    4.2930   16.0000 
2030.8824   10.0570   32.7540    2.0850   -0.0188    4.5200   16.0000 
2031.1872   10.1090   40.8690    2.1620   -0.0101    4.5280   16.0000 
2031.4920   10.0270   56.3880    2.3180    0.0435    4.1570   22.0000 
2031.7968    9.9030   86.0780    2.5070    0.1372    3.7990   37.0000 
2032.1016    9.7290   86.0760    2.6030    0.1844    3.7130   37.0000 
2032.4064    9.6250   83.0750    2.6070    0.1759    3.7630   37.0000 
2032.7112    9.5250   83.1330    2.5930    0.2143    3.7050   37.0000 
2033.0160    9.3700   77.3390    2.6010    0.2126    3.7070   37.0000 
2033.3208    9.3820   74.8440    2.6000    0.1914    3.5600   37.0000 
2033.6256    9.3700   77.7170    2.5720    0.1928    3.5880   37.0000 
2033.9304    9.2790   84.2280    2.5530    0.1867    3.7360   37.0000 
2034.2352    9.3470   94.7430    2.5420    0.2445    3.7600   37.0000 
2034.5400    9.3910   96.4700    2.5680    0.2766    3.5150   37.0000 
2034.8448    9.4380   92.2230    2.5880    0.2392    3.4920   37.0000 
2035.1496    9.4580   95.3310    2.5800    0.1968    3.5660   37.0000 
2035.4544    9.5150   89.7980    2.5080    0.1678    3.7280   37.0000 
2035.7592    9.5620   76.5440    2.3440    0.1161    4.0050   22.0000 
2036.0640    9.5900   78.6450    2.2390    0.1066    3.8280   22.0000 
2036.3688    9.6500   86.7650    2.3600    0.1553    3.6500   22.0000 
2036.6736    9.6780   88.0790    2.5260    0.2032    3.5090   37.0000 
2036.9784    9.7070   84.9770    2.5830    0.2111    3.6270   37.0000 
2037.2832    9.6590   83.9750    2.5740    0.2074    3.4900   37.0000 
2037.5880    9.5760   93.2810    2.5560    0.2141    3.4260   37.0000 
2037.8928    9.5360  103.3800    2.5470    0.2211    3.4200   37.0000 
2038.1976    9.4850  100.5140    2.5270    0.2367    3.1990   37.0000 
2038.5024    9.3980   95.7420    2.5390    0.2352    3.0020   37.0000 
2038.8072    9.3460   97.7060    2.5470    0.2365    3.0140   37.0000 
2039.1120    9.3550   99.5570    2.5470    0.2688    3.2030   37.0000 
2039.4168    9.4380   99.4020    2.5680    0.2524    3.5580   37.0000 
2039.7216    9.6970   96.7200    2.5750    0.1811    3.6140   37.0000 
2040.0264    9.9080   93.9470    2.5550    0.1720    3.3230   37.0000 
2040.3312    9.7520   94.3740    2.5670    0.1774    3.6960   37.0000 
2040.6360    9.5910   86.7390    2.5810    0.1490    4.1210   37.0000 
2040.9408    9.4350   88.0640    2.5190    0.1363    3.7700   37.0000 
2041.2456    9.3800   90.9860    2.5770    0.1928    3.7040   37.0000 
2041.5504    9.4670   94.5120    2.5960    0.1696    3.6850   37.0000 
2041.8552    9.4590   93.0740    2.5450    0.1549    3.5050   37.0000 
2042.1600    9.5180   90.3600    2.5440    0.1783    3.6410   37.0000 
2042.4648   10.0420   89.2770    2.5790    0.1711    3.5400   37.0000 
2042.7696   10.4030   87.7310    2.5390    0.1643    3.8520   37.0000 
2043.0744   10.1870   79.5570    2.3620    0.1109    4.0790   22.0000 
2043.3792    9.9050   72.3980    2.3060    0.1107    3.8700   22.0000 
2043.6840    9.7290   75.0750    2.4920    0.2103    4.0970   22.0000 
