~VERSION INFORMATION
 VERS.                 2.0:   CWLS LOG ASCII STANDARD - VERSION 2.0
 WRAP.                  NO:   SINGLE LINE PER DEPTH STEP
 CREA.                 05/01/2018 17:09:06
#CREATED USING DSPetro VERSION 5000.10.1.3 BY H191660 ON 05/01/2018 17:09:06
~WELL INFORMATION
#MNEM.UNIT       DATA                          DESCRIPTION MNEMONIC
#---------      ---------------------------   --------------------------
 STRT    .M         80.7720                   : START DEPTH
 STOP    .M         2461.5648                 : STOP DEPTH
 STEP    .M         0.3048                    : STEP VALUE
 NULL    .      -999.0000                     : NULL VALUE
 DATE    .      05/01/2018                    : LAS file Creation Date
 WELL .      JOHNSON_3_1                 : Well Name
 COMP .      Neftex Exploration Insights : Company
 FLD  .                                  : Field
 UWI  .      DUSWL_JO_3_1                : Unique Well Identifier (UWI)
 LOC  .                                  : Location
 RWS  .      -999                        : Def_Rw
 WST  .      -999                        : Def_Rwt
 SRVC .                                  : Contractor
~CURVE INFORMATION
#MNEM              UNIT       API CODE   Curve Type Comments
#----------  --------------- ----------  ---------- -----------
 DEPTH      .M                         : Depth       
 CAL_INCH   .inch                      :             Caliper Log - A representation of the measured diameter of a borehole along its depth
 GR_API     .API                       : GammaRay    Gamma Ray (API) - Measures the intensity of natural gamma-ray radiation emitted from formations containing radioactive elements, such as K, Th and U
 RHOZ_G_CC  .g/cc                      :             Formation Density - Measures the density of formation, including any void space or other materials contained in the subject volume
 NPHI_v_v   .dec                       : Neutron     
 PEF_B_E    .b/e-                      : PEF         Photoelectric Factor - A log of photoelectric absorption properties. Often expressed in an approximation unit barns/electron (b/e-)
 LITH       .                          :             
~A  DEPTH  CAL_INCH   GR_API  RHOZ_G_C~  NPHI_v_v  PEF_B_E     LITH   
# ...
 562.9656   14.7930   48.4460 -999.0000    0.2441 -999.0000 -999.0000 
 563.2704   14.9000   47.8340 -999.0000    0.2669 -999.0000 -999.0000 
 563.5752   14.9560   49.7450 -999.0000    0.2534 -999.0000 -999.0000 
 563.8800   15.0070   51.8400 -999.0000    0.2435 -999.0000 -999.0000 
 564.1848   15.0510   54.1550 -999.0000    0.2150 -999.0000 -999.0000 
 564.4896   15.0700   55.3440 -999.0000    0.2329 -999.0000 -999.0000 
 564.7944   15.1390   55.7520 -999.0000    0.2493 -999.0000 -999.0000 
 565.0992   15.1870   57.6560 -999.0000    0.2445 -999.0000 -999.0000 
 565.4040   15.2080   61.7780 -999.0000    0.2451 -999.0000 -999.0000 
 565.7088   15.2390   62.7840 -999.0000    0.2437 -999.0000 -999.0000 
 566.0136   15.2980   61.6460 -999.0000    0.2371 -999.0000 -999.0000 
 566.3184   15.3610   64.4280 -999.0000    0.2509 -999.0000 -999.0000 
 566.6232   15.4160   64.6790 -999.0000    0.2490 -999.0000 -999.0000 
 566.9280   15.4760   57.0660 -999.0000    0.2251 -999.0000 -999.0000 
 567.2328   15.5310   50.0700 -999.0000    0.2316 -999.0000 -999.0000 
 567.5376   15.5740   48.2120 -999.0000    0.2291 -999.0000 -999.0000 
 567.8424   15.6220   46.2890 -999.0000    0.2297 -999.0000 -999.0000 
 568.1472   15.6840   44.9100 -999.0000    0.2410 -999.0000 -999.0000 
 568.4520   15.7080   44.1870 -999.0000    0.2735 -999.0000 -999.0000 
 568.7568   15.7430   45.2450 -999.0000    0.2577 -999.0000 -999.0000 
 569.0616   15.7870   43.3320 -999.0000    0.2496 -999.0000 -999.0000 
 569.3664   15.8190   43.8140 -999.0000    0.2643 -999.0000 -999.0000 
 569.6712   15.8270   45.3060 -999.0000    0.3077 -999.0000 -999.0000 
 569.9760   15.8310   46.5480 -999.0000    0.3133 -999.0000 -999.0000 
 570.2808   15.8780   45.2910 -999.0000    0.2550 -999.0000 -999.0000 
 570.5856   15.9130   49.6260 -999.0000    0.2857 -999.0000 -999.0000 
 570.8904   15.9040   45.5520 -999.0000    0.3115 -999.0000 -999.0000 
 571.1952   15.9320   47.8080 -999.0000    0.2988 -999.0000 -999.0000 
 571.5000   15.9320   50.1900 -999.0000    0.3148 -999.0000 -999.0000 
 571.8048   15.9270   51.6860 -999.0000    0.3733 -999.0000 -999.0000 
 572.1096   15.9100   52.0830 -999.0000    0.3108 -999.0000 -999.0000 
 572.4144   15.8580   50.7770 -999.0000    0.3003 -999.0000 -999.0000 
 572.7192   15.8330   50.6040 -999.0000    0.2882 -999.0000 -999.0000 
 573.0240   15.7890   52.4480 -999.0000    0.3076 -999.0000 -999.0000 
 573.3288   15.7130   48.6710 -999.0000    0.3113 -999.0000 -999.0000 
 573.6336   15.6630   47.9540 -999.0000    0.3017 -999.0000 -999.0000 
 573.9384   15.6280   48.2310 -999.0000    0.3022 -999.0000 -999.0000 
 574.2432   15.5870   46.6700 -999.0000    0.2627 -999.0000 -999.0000 
 574.5480   15.5300   43.0730 -999.0000    0.2455 -999.0000 -999.0000 
 574.8528   15.5340   45.9930 -999.0000    0.2791 -999.0000 -999.0000 
 575.1576   15.5050   52.1520 -999.0000    0.2785 -999.0000 -999.0000 
 575.4624   15.4850   59.6070 -999.0000    0.2811 -999.0000 -999.0000 
 575.7672   15.4330   54.6390 -999.0000    0.2894 -999.0000 -999.0000 
 576.0720   15.3960   49.1250 -999.0000    0.2879 -999.0000 -999.0000 
 576.3768   15.3360   45.8940 -999.0000    0.2738 -999.0000 -999.0000 
 576.6816   15.3070   44.9850 -999.0000    0.2661 -999.0000 -999.0000 
 576.9864   15.2910   46.0680 -999.0000    0.2850 -999.0000 -999.0000 
 577.2912   15.2540   48.3240 -999.0000    0.3236 -999.0000 -999.0000 
 577.5960   15.2380   53.5320 -999.0000    0.3226 -999.0000 -999.0000 
 577.9008   15.2260   56.9990 -999.0000    0.3235 -999.0000 -999.0000 
 578.2056   15.1900   55.2480 -999.0000    0.2474 -999.0000 -999.0000 
 578.5104   15.1500   52.9130 -999.0000    0.2883 -999.0000 -999.0000 
 578.8152   15.1100   52.7270 -999.0000    0.2972 -999.0000 -999.0000 
 579.1200   15.0660   58.4660 -999.0000    0.2719 -999.0000 -999.0000 
 579.4248   14.9970   64.8380 -999.0000    0.2643 -999.0000 -999.0000 
 579.7296   14.9410   62.3850 -999.0000    0.2692 -999.0000 -999.0000 
 580.0344   14.8530   66.4320 -999.0000    0.2715 -999.0000 -999.0000 
 580.3392   14.7850   70.4430 -999.0000    0.2565 -999.0000 -999.0000 
 580.6440   14.7120   74.6820 -999.0000    0.2474 -999.0000 -999.0000 
 580.9488   14.6480   72.2870 -999.0000    0.2533 -999.0000 -999.0000 
 581.2536   14.5630   66.7760 -999.0000    0.2390 -999.0000 -999.0000 
 581.5584   14.4870   60.0170 -999.0000    0.2820 -999.0000 -999.0000 
 581.8632   14.4180   59.7750 -999.0000    0.2878 -999.0000 -999.0000 
 582.1680   14.3550   58.5750 -999.0000    0.2637 -999.0000 -999.0000 
 582.4728   14.3060   65.0700 -999.0000    0.2885 -999.0000 -999.0000 
 582.7776   14.2350   64.4690 -999.0000    0.2657 -999.0000 -999.0000 
 583.0824   14.1460   60.5700 -999.0000    0.2436 -999.0000 -999.0000 
 583.3872   14.0750   64.2090 -999.0000    0.2390 -999.0000 -999.0000 
 583.6920   14.0020   70.2980 -999.0000    0.2438 -999.0000 -999.0000 
 583.9968   13.9770   81.3540 -999.0000    0.2403 -999.0000 -999.0000 
 584.3016   13.9690  103.8170 -999.0000    0.2853 -999.0000 -999.0000 
 584.6064   13.9440  103.4400 -999.0000    0.3379 -999.0000 -999.0000 
 584.9112   13.8760   84.0740 -999.0000    0.2632 -999.0000 -999.0000 
 585.2160   13.7200   69.9500 -999.0000    0.1909 -999.0000 -999.0000 
 585.5208   13.5570   71.4980 -999.0000    0.1896 -999.0000 -999.0000 
 585.8256   13.4330   83.0940 -999.0000    0.1845 -999.0000 -999.0000 
 586.1304   13.3140  101.4950 -999.0000    0.2216 -999.0000 -999.0000 
 586.4352   13.2720  108.3170 -999.0000    0.2750 -999.0000 -999.0000 
 586.7400   13.2440  115.2350 -999.0000    0.2905 -999.0000 -999.0000 
 587.0448   13.2390  119.9010 -999.0000    0.2936 -999.0000 -999.0000 
 587.3496   13.1950  117.4830 -999.0000    0.3629 -999.0000 -999.0000 
 587.6544   13.1550  116.4060 -999.0000    0.3404 -999.0000 -999.0000 
 587.9592   13.1510   97.8510 -999.0000    0.2977 -999.0000 -999.0000 
 588.2640   13.1460  104.9210 -999.0000    0.2800 -999.0000 -999.0000 
 588.5688   13.1380  116.6270 -999.0000    0.3110 -999.0000 -999.0000 
 588.8736   13.1100  118.3530 -999.0000    0.3277 -999.0000 -999.0000 
 589.1784   13.0760  111.3360 -999.0000    0.3436 -999.0000 -999.0000 
 589.4832   13.0120  115.5920 -999.0000    0.3274 -999.0000 -999.0000 
 589.7880   12.9800  119.2230 -999.0000    0.3163 -999.0000 -999.0000 
 590.0928   12.9310  112.6400 -999.0000    0.3011 -999.0000 -999.0000 
 590.3976   12.8790   97.0790 -999.0000    0.2654 -999.0000 -999.0000 
 590.7024   12.8190   86.0100 -999.0000    0.2280 -999.0000 -999.0000 
 591.0072   12.8190   81.4740 -999.0000    0.2412 -999.0000 -999.0000 
 591.3120   12.7670   77.1080 -999.0000    0.2401 -999.0000 -999.0000 
 591.6168   12.7420   66.5670 -999.0000    0.2319 -999.0000 -999.0000 
 591.9216   12.7330   56.8910 -999.0000    0.2029 -999.0000 -999.0000 
 592.2264   12.7710   70.3850 -999.0000    0.1694 -999.0000 -999.0000 
 592.5312   12.7750   78.7980 -999.0000    0.2102 -999.0000 -999.0000 
 592.8360   12.8670   59.1870 -999.0000    0.1677 -999.0000 -999.0000 
 593.1408   13.0410   53.6340 -999.0000    0.1548 -999.0000 -999.0000 
 593.4456   13.1040   65.1600 -999.0000    0.1998 -999.0000 -999.0000 
 593.7504   13.0890   72.6260 -999.0000    0.2265 -999.0000 -999.0000 
 594.0552   13.0330   93.1640 -999.0000    0.2615 -999.0000 -999.0000 
 594.3600   12.9790  114.3140 -999.0000    0.3244 -999.0000 -999.0000 
 594.6648   12.9740  107.9760 -999.0000    0.3050 -999.0000 -999.0000 
 594.9696   12.9540   98.4150 -999.0000    0.2770 -999.0000 -999.0000 
 595.2744   12.9860   96.3720 -999.0000    0.2896 -999.0000 -999.0000 
 595.5792   13.0100   91.9440 -999.0000    0.2995 -999.0000 -999.0000 
 595.8840   13.0500   87.0350 -999.0000    0.2741 -999.0000 -999.0000 
 596.1888   13.0800   93.3530 -999.0000    0.2624 -999.0000 -999.0000 
 596.4936   13.1120   99.6780 -999.0000    0.2680 -999.0000 -999.0000 
 596.7984   13.1200  104.4020 -999.0000    0.2603 -999.0000 -999.0000 
 597.1032   13.1470  104.5170 -999.0000    0.2851 -999.0000 -999.0000 
