~VERSION INFORMATION
 VERS.                 2.0:   CWLS LOG ASCII STANDARD - VERSION 2.0
 WRAP.                  NO:   SINGLE LINE PER DEPTH STEP
 CREA.                 05/01/2018 16:57:09
#CREATED USING DSPetro VERSION 5000.10.1.3 BY H191660 ON 05/01/2018 16:57:09
~WELL INFORMATION
#MNEM.UNIT       DATA                          DESCRIPTION MNEMONIC
#---------      ---------------------------   --------------------------
 STRT    .M         59.7408                   : START DEPTH
 STOP    .M         2451.5064                 : STOP DEPTH
 STEP    .M         0.3048                    : STEP VALUE
 NULL    .      -999.0000                     : NULL VALUE
 DATE    .      05/01/2018                    : LAS file Creation Date
 WELL .      JOHNSON_1_1                 : Well Name
 COMP .      Neftex Exploration Insights : Company
 FLD  .                                  : Field
 UWI  .      DUSWL_JOHNSO                : Unique Well Identifier (UWI)
 LOC  .                                  : Location
 RWS  .      -999                        : Def_Rw
 WST  .      -999                        : Def_Rwt
 SRVC .                                  : Contractor
~CURVE INFORMATION
#MNEM              UNIT       API CODE   Curve Type Comments
#----------  --------------- ----------  ---------- -----------
 DEPTH      .M                         : Depth       
 GR_API     .API                       : GammaRay    Gamma Ray (API) - Measures the intensity of natural gamma-ray radiation emitted from formations containing radioactive elements, such as K, Th and U
 LLD_OHMM   .ohmm                      :             Laterlog Deep Resistivity - Measurement made several feet into the formation; generally considered a measurement of the undisturbed formation
 LLS_OHMM   .ohmm                      :             Laterlog Shallow Resistivity - one to two feet into the formation; generally considered to measure the formation
 RHOZ_G_CC  .g/cc                      :             Formation Density - Measures the density of formation, including any void space or other materials contained in the subject volume
 NPHI_v_v   .dec                       : Neutron     
 PEF_B_E    .b/e-                      : PEF         Photoelectric Factor - A log of photoelectric absorption properties. Often expressed in an approximation unit barns/electron (b/e-)
 LITH       .                          :             
~A  DEPTH   GR_API   LLD_OHMM  LLS_OHMM RHOZ_G_C~  NPHI_v_v  PEF_B_E     LITH   
# ...
1659.0264   35.1780    9.5500    9.9190    2.6860    0.1017    2.7920   12.0000 
1659.3312   35.1590    9.0320    8.9600    2.6800    0.1131    2.3650   12.0000 
1659.6360   27.7940    7.8790    7.7620    2.6910    0.1043    2.5960   12.0000 
1659.9408   19.5990    6.7760    6.7420    2.6950    0.1213    2.9480   12.0000 
1660.2456   17.6520    8.5410    8.5930    2.6360    0.1315    3.0920   12.0000 
1660.5504   15.2430   12.6630   13.5240    2.6630    0.1029    3.0590   12.0000 
1660.8552   14.0940   16.5420   14.6180    2.7020    0.0896    2.7830   12.0000 
1661.1600   13.6560   18.2100   14.6010    2.6920    0.0946    3.0330   12.0000 
1661.4648   14.1080   14.1880   11.2080    2.6730    0.1027    2.8460   12.0000 
1661.7696   14.8560    3.8620    3.8610    2.5840    0.1240    2.5170   27.0000 
1662.0744   14.4800    2.3910    1.7820    2.5370    0.2031    2.9830   12.0000 
1662.3792   16.1280    1.9190    1.6590    2.5890    0.2176    3.0440   12.0000 
1662.6840   17.3480    1.6550    1.5350    2.5930    0.2121    2.9230   12.0000 
1662.9888   16.8540    1.3890    1.2700    2.5650    0.2012    2.8180   12.0000 
1663.2936   15.7580    1.0390    0.9740    2.4170    0.2265    2.5650   12.0000 
1663.5984   15.2000    1.1730    0.9780    2.4540    0.2572    2.5690   12.0000 
1663.9032   16.0160    1.7360    1.3220    2.5270    0.2355    2.5080   12.0000 
1664.2080   15.3300    2.2300    1.8260    2.5320    0.1866    2.3030   12.0000 
1664.5128   13.4040    2.3060    1.8530    2.4350    0.1487    2.1230   27.0000 
1664.8176   14.2940    2.0100    1.7310    2.4550    0.1907    1.9940   27.0000 
1665.1224   15.0990    2.2740    2.1040    2.5290    0.2187    2.0700   12.0000 
1665.4272   15.2490    3.1640    2.5220    2.5930    0.2110    2.2690   12.0000 
1665.7320   14.6810    2.6860    2.4740    2.5560    0.1859    2.1980   12.0000 
1666.0368   13.8230    2.0410    1.6880    2.4840    0.2116    2.2960   12.0000 
1666.3416   15.1730    1.2790    1.1220    2.4040    0.2185    2.3270   27.0000 
1666.6464   16.3490    0.9010    0.9040    2.3570    0.2673    2.2900   27.0000 
1666.9512   15.6120    1.0290    1.0500    2.3960    0.2792    2.3440   12.0000 
1667.2560   14.4390    3.2950    2.9840    2.5100    0.2239    2.2620   12.0000 
1667.5608   15.1410    5.4670    5.4050    2.5790    0.0923    2.2660   27.0000 
1667.8656   15.2940    3.0380    2.3010    2.5230    0.1308    2.3910   27.0000 
1668.1704   16.1750    0.7870    0.7840    2.4290    0.2208    2.5810   12.0000 
1668.4752   16.6310    0.7340    0.6870    2.4040    0.2495    2.7240   12.0000 
1668.7800   17.5560    1.1570    0.9520    2.3990    0.2693    2.7350   12.0000 
1669.0848   18.1860    1.5330    1.4440    2.4880    0.2535    2.6690   12.0000 
1669.3896   17.6880    1.9350    1.8200    2.6010    0.1768    2.7060   12.0000 
1669.6944   15.9330    2.0760    1.8530    2.5830    0.1542    2.5870   12.0000 
1669.9992   16.2690    1.8020    1.3000    2.5330    0.1811    2.3660   12.0000 
1670.3040   17.3180    1.3370    1.0270    2.4930    0.1978    2.4230   12.0000 
1670.6088   17.9550    0.9390    0.8130    2.4290    0.2826    2.5090   12.0000 
1670.9136   18.4170    0.9900    0.8410    2.4320    0.2825    2.5720   12.0000 
1671.2184   17.7360    0.7490    0.6810    2.4080    0.2770    2.4970   12.0000 
1671.5232   17.1230    0.7200    0.6420    2.3550    0.2944    2.4680   12.0000 
1671.8280   17.8110    0.7110    0.6380    2.3260    0.3152    2.6440   12.0000 
1672.1328   18.4520    0.6780    0.6200    2.3300    0.3049    2.7370   12.0000 
1672.4376   17.8310    0.6680    0.6050    2.3420    0.2996    2.7180   12.0000 
1672.7424   16.4310    0.8870    0.7460    2.3810    0.2881    2.8320   12.0000 
1673.0472   17.5430    5.8840    4.9930    2.5580    0.1934    2.8310   12.0000 
1673.3520   18.0560    9.1100    8.9790    2.6580    0.1367    2.9470   12.0000 
1673.6568   17.5580   15.2770   11.6870    2.6680    0.1150    3.0300   12.0000 
1673.9616   18.4200   11.4330   13.2470    2.6550    0.0793    3.0230   12.0000 
1674.2664   17.8140    5.2430    4.1140    2.5720    0.0987    2.8540   27.0000 
1674.5712   19.4060    3.2050    2.6220    2.5850    0.1661    2.7370   12.0000 
1674.8760   19.8590    2.3890    1.8810    2.6150    0.1893    2.5460   12.0000 
1675.1808   18.8280    1.7670    1.4580    2.6210    0.1750    2.6420   12.0000 
1675.4856   18.8010    1.3300    1.0900    2.5640    0.1842    2.5110   12.0000 
1675.7904   20.2230    1.3370    1.1500    2.5530    0.1922    2.6080   12.0000 
1676.0952   20.0160    1.4880    1.1610    2.5910    0.1745    2.5970   12.0000 
1676.4000   17.9700    1.3780    1.1080    2.6060    0.1696    2.5110   12.0000 
1676.7048   18.1160    1.1150    0.8820    2.5460    0.2437    2.4080   12.0000 
1677.0096   17.4980    1.2310    0.9220    2.4750    0.2861    2.2570   12.0000 
1677.3144   17.8350    1.0360    0.9290    2.4350    0.2848    2.2960   12.0000 
1677.6192   17.7480    0.9010    0.8300    2.4400    0.2809    2.3710   12.0000 
1677.9240   17.1180    0.8660    0.7230    2.4520    0.2909    2.3300   12.0000 
1678.2288   15.4250    0.9030    0.7250    2.4580    0.2925    2.2350   12.0000 
1678.5336   15.8760    0.8720    0.7330    2.4410    0.2448    2.3230   12.0000 
1678.8384   17.2350    1.0730    0.7310    2.4790    0.2359    2.4200   12.0000 
1679.1432   16.7420    2.0560    1.2750    2.5310    0.2290    2.3850   12.0000 
1679.4480   16.4120    1.8060    1.9670    2.5470    0.1996    2.2140   12.0000 
1679.7528   17.3450    1.3780    1.3870    2.4980    0.1616    2.3080   27.0000 
1680.0576   15.4130    1.2460    1.2000    2.4700    0.1760    2.1430   27.0000 
1680.3624   14.9700    1.5910    1.6270    2.4700    0.1889    2.0480   27.0000 
1680.6672   16.7430    2.8580    2.5580    2.5200    0.1650    2.3070   27.0000 
1680.9720   18.8090    4.6520    3.6820    2.5510    0.1326    2.3990   27.0000 
1681.2768   17.5380    7.2590    5.9740    2.5600    0.1094    2.4720   27.0000 
1681.5816   17.8650   12.3580   13.8900    2.6110    0.0896    2.6490   27.0000 
1681.8864   19.4550   18.8420   14.8710    2.6460    0.0804    2.5160   27.0000 
1682.1912   19.9710   18.1380   16.7300    2.6350    0.0838    2.5620   27.0000 
1682.4960   20.1320   15.3450   14.1900    2.6330    0.0773    2.5630   27.0000 
1682.8008   20.2280   10.6700   10.3170    2.6130    0.0835    2.5300   27.0000 
1683.1056   18.8360    5.5360    5.1070    2.5780    0.1088    2.4500   27.0000 
1683.4104   18.3410    3.8070    4.5750    2.5990    0.1414    2.1830   27.0000 
1683.7152   20.6420    6.0410   12.3220    2.6420    0.1023    2.3720   27.0000 
1684.0200   21.5180   19.3200   21.0390    2.6540    0.0770    2.4450   27.0000 
1684.3248   20.6570   22.5790   23.6650    2.6500    0.0742    2.3870   27.0000 
1684.6296   19.4900   29.3200   30.2750    2.6610    0.0648    2.3560   27.0000 
1684.9344   18.0360   39.5770   40.2130    2.6880    0.0428    2.2350   27.0000 
1685.2392   20.0430   70.8430   49.5010    2.7010    0.0393    2.4710   27.0000 
1685.5440   21.5700   73.2050   54.7660    2.6980    0.0482    2.6800   27.0000 
1685.8488   20.6060   57.6510   47.0470    2.6790    0.0524    2.5230   27.0000 
1686.1536   21.3540   31.6370   31.1360    2.6650    0.0668    2.4660   27.0000 
1686.4584   22.7490   22.2080   22.1310    2.6960    0.1076    2.5690   12.0000 
1686.7632   26.9720   19.8980   20.0860    2.6960    0.1072    2.6630   12.0000 
1687.0680   25.1100   25.3730   25.9480    2.6800    0.1172    2.8060   12.0000 
1687.3728   21.2700   35.1370   36.0590    2.6870    0.0944    2.7870   12.0000 
1687.6776   21.4820   52.1540   51.1960    2.6770    0.0828    2.3800   27.0000 
1687.9824   24.5670   46.1650   46.7700    2.6850    0.0719    2.3770   27.0000 
1688.2872   25.2000   36.5330   36.7050    2.7010    0.0611    2.5090   27.0000 
1688.5920   23.8070   27.1000   26.7760    2.6880    0.0779    2.6220   12.0000 
1688.8968   22.7120   20.4860   19.7580    2.6710    0.0687    2.5470   27.0000 
