~VERSION INFORMATION
 VERS.                 2.0:   CWLS LOG ASCII STANDARD - VERSION 2.0
 WRAP.                  NO:   SINGLE LINE PER DEPTH STEP
 CREA.                 05/01/2018 17:09:06
#CREATED USING DSPetro VERSION 5000.10.1.3 BY H191660 ON 05/01/2018 17:09:06
~WELL INFORMATION
#MNEM.UNIT       DATA                          DESCRIPTION MNEMONIC
#---------      ---------------------------   --------------------------
 STRT    .M         80.7720                   : START DEPTH
 STOP    .M         2461.5648                 : STOP DEPTH
 STEP    .M         0.3048                    : STEP VALUE
 NULL    .      -999.0000                     : NULL VALUE
 DATE    .      05/01/2018                    : LAS file Creation Date
 WELL .      JOHNSON_3_1                 : Well Name
 COMP .      Neftex Exploration Insights : Company
 FLD  .                                  : Field
 UWI  .      DUSWL_JO_3_1                : Unique Well Identifier (UWI)
 LOC  .                                  : Location
 RWS  .      -999                        : Def_Rw
 WST  .      -999                        : Def_Rwt
 SRVC .                                  : Contractor
~CURVE INFORMATION
#MNEM              UNIT       API CODE   Curve Type Comments
#----------  --------------- ----------  ---------- -----------
 DEPTH      .M                         : Depth       
 CAL_INCH   .inch                      :             Caliper Log - A representation of the measured diameter of a borehole along its depth
 GR_API     .API                       : GammaRay    Gamma Ray (API) - Measures the intensity of natural gamma-ray radiation emitted from formations containing radioactive elements, such as K, Th and U
 RHOZ_G_CC  .g/cc                      :             Formation Density - Measures the density of formation, including any void space or other materials contained in the subject volume
 NPHI_v_v   .dec                       : Neutron     
 PEF_B_E    .b/e-                      : PEF         Photoelectric Factor - A log of photoelectric absorption properties. Often expressed in an approximation unit barns/electron (b/e-)
 LITH       .                          :             
~A  DEPTH  CAL_INCH   GR_API  RHOZ_G_C~  NPHI_v_v  PEF_B_E     LITH   
# ...
1424.0256   14.0850    5.5290    2.9700   -0.0170    5.5170    1.0000 
1424.3304   14.0480    4.3790    2.9730   -0.0160    4.8980    1.0000 
1424.6352   13.9520    5.0820    2.9830   -0.0142    5.0710    1.0000 
1424.9400   13.9360    4.9490    2.9820   -0.0139    4.7920    1.0000 
1425.2448   13.9120    7.0970    2.9780   -0.0136    4.7110    1.0000 
1425.5496   13.7790    8.4530    2.9660   -0.0140    4.7730    1.0000 
1425.8544   13.6990    7.5420    2.9950   -0.0148    4.3580    1.0000 
1426.1592   13.7220    5.4980    3.0140   -0.0154    4.6950    1.0000 
1426.4640   13.7250    4.1190    3.0100   -0.0161    5.6630    1.0000 
1426.7688   13.7320    3.4590    2.9990   -0.0165    6.0950    1.0000 
1427.0736   13.7070    4.5170    2.9830   -0.0166    5.9130    1.0000 
1427.3784   13.7250    5.1000    2.9980   -0.0167    5.8530    1.0000 
1427.6832   13.7210    5.1980    3.0040   -0.0171    5.0010    1.0000 
1427.9880   13.7360    6.7970    3.0110   -0.0178    4.5720    1.0000 
1428.2928   13.7470    6.7850    3.0060   -0.0167    4.9830    1.0000 
1428.5976   13.7390    5.5200    2.9880   -0.0158    5.0720    1.0000 
1428.9024   13.7420    5.2110    2.9660   -0.0155    4.9040    1.0000 
1429.2072   13.7450    5.4900    2.9600   -0.0140    4.7100    1.0000 
1429.5120   13.7400    7.9310    2.9290   -0.0067    3.8490   12.0000 
1429.8168   13.7380   10.2500    2.8010    0.0497    3.0030   12.0000 
1430.1216   13.7410   10.3490    2.7080    0.1022    2.7840   12.0000 
1430.4264   13.6960    8.6630    2.6630    0.0887    2.9390   12.0000 
1430.7312   13.6600    6.7350    2.6690    0.0805    3.3710   12.0000 
1431.0360   13.7620    8.2820    2.6830    0.0576    4.4080   18.0000 
1431.3408   13.8540   11.5560    2.6920    0.0172    4.4880   18.0000 
1431.6456   13.8090   14.4110    2.6880    0.0014    4.3250   18.0000 
1431.9504   13.7330   15.9480    2.6790   -0.0006    4.1600   18.0000 
1432.2552   13.7090   13.4270    2.7000    0.0031    3.6470   18.0000 
1432.5600   13.8110    8.4570    2.7200    0.0046    4.0870   18.0000 
1432.8648   13.7380   11.1380    2.7170    0.0021    4.9660   18.0000 
1433.1696   13.7460   14.8320    2.7030   -0.0004    4.6620   18.0000 
1433.4744   13.7370   15.7820    2.7150    0.0000    3.8150   18.0000 
1433.7792   13.7400   16.0020    2.7370    0.0384    3.3020   12.0000 
1434.0840   13.7070    9.2370    2.7600    0.0427    3.4200   12.0000 
1434.3888   13.7380   12.9410    2.7630    0.0135    4.2240   18.0000 
1434.6936   13.7400   14.9630    2.7370   -0.0030    4.7700   18.0000 
1434.9984   13.7990   12.3780    2.7320   -0.0042    4.3870   18.0000 
1435.3032   13.8310   11.8200    2.7410    0.0048    3.7450   18.0000 
1435.6080   13.8260   16.1240    2.7430    0.0182    3.4650   12.0000 
1435.9128   13.8820   18.6800    2.7390    0.0309    3.4530   12.0000 
1436.2176   13.9330   16.6340    2.7110    0.0587    3.1360   12.0000 
1436.5224   13.9080   12.7440    2.6430    0.1772    2.7330   12.0000 
1436.8272   13.8870   16.0110    2.6750    0.2074    2.9790   12.0000 
1437.1320   13.9140   18.5640    2.7900    0.1518    3.9320    1.0000 
1437.4368   13.9450   15.8000    2.9390    0.0087    5.1970    1.0000 
1437.7416   13.8530   11.5370    2.9670   -0.0123    5.3970    1.0000 
1438.0464   13.8160    9.4910    2.9710   -0.0121    5.5740    1.0000 
1438.3512   13.8550    8.9330    2.9650   -0.0119    6.2620    1.0000 
1438.6560   13.9020    6.7770    2.9610   -0.0133    5.5380    1.0000 
1438.9608   13.8140    7.4790    2.9590   -0.0128    3.5840   12.0000 
1439.2656   13.8490   12.2460    2.8700   -0.0056    2.9080   12.0000 
1439.5704   13.9320   14.6880    2.7470    0.0293    2.7540   12.0000 
1439.8752   13.9470   12.4580    2.6940    0.1335    2.6820   12.0000 
1440.1800   13.9020   10.5300    2.7250    0.1449    3.0280   12.0000 
1440.4848   13.9170   11.9670    2.8500    0.0476    3.8550    1.0000 
1440.7896   13.8640    7.4700    2.9570   -0.0111    5.1300    1.0000 
1441.0944   13.8550    9.0060    2.9790   -0.0128    4.9740    1.0000 
1441.3992   13.9330    9.3480    2.7900   -0.0104    3.5920   11.0000 
1441.7040   13.9840    9.0330    1.9990    0.1005    1.2800   11.0000 
1442.0088   16.9200    6.9950    1.9980    0.4123    1.1460   11.0000 
1442.3136   22.4890    6.7370    1.9980    0.4517    1.2190   11.0000 
1442.6184   21.4990    6.6690    1.9980    0.3787    1.1320   11.0000 
1442.9232   20.7090    5.9280    1.9990    0.3386    1.3110   11.0000 
1443.2280   21.2540    7.0560    1.9990    0.2912    2.2410   11.0000 
1443.5328   16.3630    6.9260    2.2170    0.1005    4.0160   11.0000 
1443.8376   13.8920    4.6560    2.5290   -0.0096    3.5620   27.0000 
1444.1424   13.6760    5.5340    2.5460   -0.0099    3.5670   27.0000 
1444.4472   14.0340    6.1260    2.7370   -0.0057    4.5730   18.0000 
1444.7520   14.1890    5.4510    2.9450   -0.0053    4.7840    1.0000 
1445.0568   14.0520    4.3080    2.9800   -0.0107    4.5540    1.0000 
1445.3616   13.8930    5.4380    2.9910   -0.0156    5.3870    1.0000 
1445.6664   13.9350    5.6600    2.9960   -0.0163    5.4580    1.0000 
1445.9712   13.9980    4.6890    2.9960   -0.0155    5.0340    1.0000 
1446.2760   13.9370    5.5100    2.9600   -0.0153    4.4570    1.0000 
1446.5808   13.7540    7.2900    2.9240   -0.0143    3.9860    1.0000 
1446.8856   13.8000    6.1340    2.9580   -0.0099    4.1470    1.0000 
1447.1904   13.8790    7.6820    2.9530   -0.0089    3.7470   12.0000 
1447.4952   13.8180   11.6730    2.8190   -0.0055    3.0240   12.0000 
1447.8000   13.7330   13.7600    2.7180    0.0514    2.9380   12.0000 
1448.1048   13.7930   12.8520    2.6740    0.0884    3.1030   12.0000 
1448.4096   13.9150   11.9490    2.6340    0.0347    3.4020   18.0000 
1448.7144   13.9580   10.3800    2.6240    0.0168    4.0450   18.0000 
1449.0192   13.8260    9.0410    2.6260    0.0067    3.8520   18.0000 
1449.3240   13.8290   10.3490    2.6180    0.0048    3.7130   18.0000 
1449.6288   13.9160   11.7620    2.6180    0.0103    3.4340   27.0000 
1449.9336   13.7760   15.5180    2.6190    0.0278    3.2140   27.0000 
1450.2384   13.6950   20.7680    2.6610    0.0716    3.2270   12.0000 
1450.5432   13.6940   25.2960    2.6680    0.0646    2.9600   12.0000 
1450.8480   13.7600   20.6240    2.5360    0.1495    2.8040   12.0000 
1451.1528   13.8520   18.1010    2.5070    0.2347    2.6360   12.0000 
1451.4576   13.8700   16.8840    2.5510    0.2517    2.5120   12.0000 
1451.7624   13.8020   14.1710    2.5720    0.2265    2.4260   12.0000 
1452.0672   13.7530   13.2590    2.5770    0.2359    2.5670   12.0000 
1452.3720   13.8690   13.6710    2.6480    0.2019    2.8640   12.0000 
1452.6768   13.8190   14.7320    2.7720    0.0977    3.1920   12.0000 
1452.9816   13.8220   15.1380    2.7540    0.0947    3.1960   12.0000 
1453.2864   13.7580   14.7180    2.7960    0.0547    3.9330    1.0000 
1453.5912   13.7050   11.5220    2.9320   -0.0114    6.3360    1.0000 
1453.8960   13.6960    6.6020    2.9540   -0.0155    6.4930    1.0000 
1454.2008   13.7160    4.9920    2.9650   -0.0145    6.3170    1.0000 
1454.5056   13.7550    5.6370    2.9500   -0.0152    5.0930    1.0000 
1454.8104   13.8060    7.3580    2.9720   -0.0130    4.8730    1.0000 
1455.1152   13.7770    8.3030    2.9940   -0.0121    4.9230    1.0000 
1455.4200   13.7080    8.4810    2.9960   -0.0121    4.4500    1.0000 
1455.7248   13.7470    8.7060    2.9810   -0.0118    4.7900    1.0000 
1456.0296   13.7500    8.5070    2.9650   -0.0143    4.9400    1.0000 
1456.3344   13.7010    9.0900    2.9820   -0.0157    4.8370    1.0000 
1456.6392   13.6640    8.5400    2.9940   -0.0155    5.0560    1.0000 
1456.9440   13.6990    8.1090    2.9820   -0.0162    5.1520    1.0000 
1457.2488   13.6700    6.9030    2.9850   -0.0167    5.0310    1.0000 
1457.5536   13.6660    5.7410    2.9970   -0.0164    5.1260    1.0000 
1457.8584   13.6690   11.1210    2.9940   -0.0141    4.6260    1.0000 
1458.1632   13.6530   18.9350    2.9520   -0.0081    3.4190   12.0000 
