~VERSION INFORMATION
 VERS.                 2.0:   CWLS LOG ASCII STANDARD - VERSION 2.0
 WRAP.                  NO:   SINGLE LINE PER DEPTH STEP
 CREA.                 05/01/2018 17:09:06
#CREATED USING DSPetro VERSION 5000.10.1.3 BY H191660 ON 05/01/2018 17:09:06
~WELL INFORMATION
#MNEM.UNIT       DATA                          DESCRIPTION MNEMONIC
#---------      ---------------------------   --------------------------
 STRT    .M         80.7720                   : START DEPTH
 STOP    .M         2461.5648                 : STOP DEPTH
 STEP    .M         0.3048                    : STEP VALUE
 NULL    .      -999.0000                     : NULL VALUE
 DATE    .      05/01/2018                    : LAS file Creation Date
 WELL .      JOHNSON_3_1                 : Well Name
 COMP .      Neftex Exploration Insights : Company
 FLD  .                                  : Field
 UWI  .      DUSWL_JO_3_1                : Unique Well Identifier (UWI)
 LOC  .                                  : Location
 RWS  .      -999                        : Def_Rw
 WST  .      -999                        : Def_Rwt
 SRVC .                                  : Contractor
~CURVE INFORMATION
#MNEM              UNIT       API CODE   Curve Type Comments
#----------  --------------- ----------  ---------- -----------
 DEPTH      .M                         : Depth       
 CAL_INCH   .inch                      :             Caliper Log - A representation of the measured diameter of a borehole along its depth
 GR_API     .API                       : GammaRay    Gamma Ray (API) - Measures the intensity of natural gamma-ray radiation emitted from formations containing radioactive elements, such as K, Th and U
 RHOZ_G_CC  .g/cc                      :             Formation Density - Measures the density of formation, including any void space or other materials contained in the subject volume
 NPHI_v_v   .dec                       : Neutron     
 PEF_B_E    .b/e-                      : PEF         Photoelectric Factor - A log of photoelectric absorption properties. Often expressed in an approximation unit barns/electron (b/e-)
 LITH       .                          :             
~A  DEPTH  CAL_INCH   GR_API  RHOZ_G_C~  NPHI_v_v  PEF_B_E     LITH   
# ...
2422.8552    8.3400   -0.1950    2.0410   -0.0149    4.0360   16.0000 
2423.1600    8.4130    0.0170    2.0380   -0.0158    3.9860   16.0000 
2423.4648    8.3640   -0.2960    2.0500   -0.0155    3.9430   16.0000 
2423.7696    8.3130    0.0810    2.0500   -0.0148    4.0340   16.0000 
2424.0744    8.3160   -0.2940    2.0400   -0.0146    4.1020   16.0000 
2424.3792    8.3210   -0.2100    2.0350   -0.0146    4.1910   16.0000 
2424.6840    8.3000   -0.5940    2.0310   -0.0148    4.2720   16.0000 
2424.9888    8.3040   -0.0930    2.0280   -0.0144    4.2160   16.0000 
2425.2936    8.3230   -0.2280    2.0320   -0.0143    4.1080   16.0000 
2425.5984    8.2820    0.1740    2.0360   -0.0145    4.0230   16.0000 
2425.9032    8.3040    0.1440    2.0380   -0.0151    4.0760   16.0000 
2426.2080    8.3300    0.1280    2.0380   -0.0145    4.2090   16.0000 
2426.5128    8.3520   -0.4370    2.0370   -0.0145    4.3670   16.0000 
2426.8176    8.2820   -0.4080    2.0360   -0.0149    4.3230   16.0000 
2427.1224    8.2690   -0.3210    2.0330   -0.0144    4.0800   16.0000 
2427.4272    8.2930    0.0180    2.0410   -0.0151    3.9020   16.0000 
2427.7320    8.2970    0.0320    2.0450   -0.0155    4.0050   16.0000 
2428.0368    8.3060   -0.2190    2.0490   -0.0148    4.0840   16.0000 
2428.3416    8.3250   -0.1290    2.0440   -0.0142    4.0200   16.0000 
2428.6464    8.3220    0.0210    2.0410   -0.0138    3.9920   16.0000 
2428.9512    8.3270   -0.0870    2.0480   -0.0139    4.0180   16.0000 
2429.2560    8.3210   -0.3510    2.0470   -0.0145    4.0240   16.0000 
2429.5608    8.3120   -0.7130    2.0410   -0.0154    4.0770   16.0000 
2429.8656    8.3160   -0.5010    2.0370   -0.0162    4.1290   16.0000 
2430.1704    8.3120   -0.1650    2.0470   -0.0167    4.1260   16.0000 
2430.4752    8.3060   -0.2840    2.0500   -0.0169    4.0730   16.0000 
2430.7800    8.2890   -0.2750    2.0450   -0.0172    4.2500   16.0000 
2431.0848    8.3000    0.2120    2.0390   -0.0162    4.3200   16.0000 
2431.3896    8.2440   -0.0590    2.0300   -0.0155    3.9850   16.0000 
2431.6944    8.3090   -0.2720    2.0370   -0.0158    4.0800   16.0000 
2431.9992    8.2880   -0.0950    2.0380   -0.0157    4.1730   16.0000 
2432.3040    8.2590    0.0980    2.0410   -0.0160    4.1360   16.0000 
2432.6088    8.2450   -0.0420    2.0440   -0.0158    4.0950   16.0000 
2432.9136    8.2350   -0.1340    2.0430   -0.0166    4.1680   16.0000 
2433.2184    8.2400   -0.2780    2.0410   -0.0157    4.2550   16.0000 
2433.5232    8.2550   -0.1820    2.0410   -0.0160    4.0580   16.0000 
2433.8280    8.2350   -0.1550    2.0410   -0.0171    4.0120   16.0000 
2434.1328    8.2370    0.2460    2.0370   -0.0168    4.1430   16.0000 
2434.4376    8.2310   -0.0390    2.0350   -0.0164    4.1090   16.0000 
2434.7424    8.2340   -0.2840    2.0360   -0.0163    4.0230   16.0000 
2435.0472    8.2390    0.1110    2.0390   -0.0155    3.9980   16.0000 
2435.3520    8.2250    0.0380    2.0350   -0.0163    4.1220   16.0000 
2435.6568    8.2250   -0.3170    2.0410   -0.0166    4.2250   16.0000 
2435.9616    8.2440   -0.3410    2.0370   -0.0166    4.2920   16.0000 
2436.2664    8.2240   -0.2480    2.0300   -0.0177    4.2090   16.0000 
2436.5712    8.2110    0.0140    2.0350   -0.0170    4.0960   16.0000 
2436.8760    8.2210   -0.6450    2.0440   -0.0165    4.0860   16.0000 
2437.1808    8.2220   -0.8510    2.0510   -0.0167    4.0050   16.0000 
2437.4856    8.2250   -0.5180    2.0430   -0.0152    3.9050   16.0000 
2437.7904    8.2540   -0.5270    2.0440   -0.0163    3.9810   16.0000 
2438.0952    8.2240   -0.5550    2.0450   -0.0167    3.9410   16.0000 
2438.4000    8.2300   -0.4050    2.0430   -0.0164    4.0490   16.0000 
2438.7048    8.2490   23.9520    2.0520   -0.0163    4.1900   16.0000 
2439.0096    8.2410   23.9120    2.0490   -0.0164    4.1930   16.0000 
2439.3144    8.2220   23.5400    2.0420   -0.0166    4.1400   16.0000 
2439.6192    8.2170   25.4220    2.0380   -0.0179    4.1120   16.0000 
2439.9240    8.2300   25.6460    2.0430   -0.0175    4.0640   16.0000 
2440.2288    8.2370   25.0250    2.0460   -0.0168    3.9870   16.0000 
2440.5336    8.2240   24.2850    2.0480   -0.0165    4.2470   16.0000 
2440.8384    8.2380   23.7090    2.0490   -0.0162    4.3720   16.0000 
2441.1432    8.2180   22.6770    2.0440   -0.0160    4.3100   16.0000 
2441.4480    8.2170   24.6710    2.0380   -0.0163    4.2930   16.0000 
2441.7528    8.2380   27.1170    2.0380   -0.0162    4.2840   16.0000 
2442.0576    8.2530   26.8440    2.0390   -0.0166    4.3250   16.0000 
2442.3624    8.2510   24.7550    2.0440   -0.0166    4.4640   16.0000 
2442.6672    8.2380   23.8460    2.0470   -0.0171    4.5830   16.0000 
2442.9720    8.2430   24.8130    2.0500   -0.0179    4.4570   16.0000 
2443.2768    8.2340   25.7420    2.0520   -0.0177    4.2760   16.0000 
2443.5816    8.2310   25.0700    2.0490   -0.0176    4.1560   16.0000 
2443.8864    8.2390   24.0440    2.0510   -0.0178    4.2060   16.0000 
2444.1912    8.2210   26.6610    2.0530   -0.0167    4.2100   16.0000 
2444.4960    8.2200   28.5000    2.0500   -0.0165    4.1390   16.0000 
2444.8008    8.2290   27.0800    2.0430   -0.0169    4.2310   16.0000 
2445.1056    8.2050   25.9650    2.0420   -0.0171    4.3090   16.0000 
2445.4104    8.2300   24.3570    2.0430   -0.0167    4.3860   16.0000 
2445.7152    8.2200   24.4860    2.0440   -0.0165    4.4650   16.0000 
2446.0200    8.2140   26.2220    2.0470   -0.0166    4.4360   16.0000 
2446.3248    8.2130   27.1550    2.0500   -0.0171    4.3050   16.0000 
2446.6296    8.2350   26.4420    2.0500   -0.0174    4.1380   16.0000 
2446.9344    8.2420   26.3670    2.0490   -0.0166    4.0040   16.0000 
2447.2392    8.2430   27.6440    2.0480   -0.0171    4.0390   16.0000 
2447.5440    8.2570   27.8820    2.0460   -0.0167    4.2480   16.0000 
2447.8488    8.2500   26.3990    2.0420   -0.0168    4.2200   16.0000 
2448.1536    8.2570   25.6940    2.0420   -0.0168    4.1550   16.0000 
2448.4584    8.2790   25.4990    2.0300   -0.0170    4.2300   16.0000 
2448.7632    8.3140   24.5070    2.0550   -0.0164    4.2070   16.0000 
2449.0680    8.3550   29.2530    2.2080   -0.0080    5.1840   16.0000 
2449.3728    8.3980   32.9340    2.3910   -0.0091    5.0530   16.0000 
2449.6776    8.3740   32.5070    2.2340   -0.0140    4.4100   16.0000 
2449.9824    8.3320   30.0900    2.0970   -0.0162    4.5310   16.0000 
2450.2872    8.3650   29.3460    2.1720   -0.0134    5.1170   16.0000 
2450.5920    8.4150   31.0260    2.3390   -0.0089    5.2700   16.0000 
2450.8968    8.4010   33.2300    2.2400   -0.0110    4.9080   16.0000 
2451.2016    8.3590   31.0760    2.1890   -0.0148    4.8650   16.0000 
2451.5064    8.4020   30.7650    2.1720   -0.0138    5.0480   16.0000 
2451.8112    8.4530   30.6290    2.3260   -0.0091    5.1940   16.0000 
2452.1160    8.4540   30.5850    2.2640   -0.0105    4.9620   16.0000 
2452.4208    8.4250   30.6900    2.1810   -0.0118    5.1560   16.0000 
2452.7256    8.4160   31.0280    2.1910   -0.0111    4.9380   16.0000 
2453.0304    8.4060   30.8660    2.1220   -0.0108    4.7860   16.0000 
2453.3352    8.4330   30.5990    2.2780   -0.0111    5.1670   16.0000 
2453.6400    8.4880   30.2990    2.6270   -0.0113    4.8960   18.0000 
2453.9448    8.4710   30.3660    2.7550   -0.0116    4.5760   18.0000 
2454.2496    8.4530   30.2850    2.7470   -0.0118    4.8080   18.0000 
2454.5544    8.4310   30.5210    2.7220   -0.0116    5.1280   18.0000 
2454.8592    8.4180   30.4080    2.7110   -0.0120    5.1930   18.0000 
2455.1640    8.5030   30.3920    2.7100   -0.0115    4.6430   18.0000 
2455.4688    8.5160   30.4590    2.7140   -0.0124    4.3250   18.0000 
2455.7736    8.4900   30.2030    2.7230   -0.0124    3.9700   18.0000 
2456.0784    8.4760   30.2270    2.7350   -0.0122    3.8580   18.0000 
2456.3832    8.4800   30.2700    2.6830   -0.0116    3.6730   18.0000 
2456.6880    8.4940   30.1290    2.6850   -0.0121    4.2700   18.0000 
2456.9928    8.5170   30.2790    2.6980   -0.0120    5.0850   18.0000 
