~VERSION INFORMATION
 VERS.                 2.0:   CWLS LOG ASCII STANDARD - VERSION 2.0
 WRAP.                  NO:   SINGLE LINE PER DEPTH STEP
 CREA.                 05/01/2018 17:09:06
#CREATED USING DSPetro VERSION 5000.10.1.3 BY H191660 ON 05/01/2018 17:09:06
~WELL INFORMATION
#MNEM.UNIT       DATA                          DESCRIPTION MNEMONIC
#---------      ---------------------------   --------------------------
 STRT    .M         80.7720                   : START DEPTH
 STOP    .M         2461.5648                 : STOP DEPTH
 STEP    .M         0.3048                    : STEP VALUE
 NULL    .      -999.0000                     : NULL VALUE
 DATE    .      05/01/2018                    : LAS file Creation Date
 WELL .      JOHNSON_3_1                 : Well Name
 COMP .      Neftex Exploration Insights : Company
 FLD  .                                  : Field
 UWI  .      DUSWL_JO_3_1                : Unique Well Identifier (UWI)
 LOC  .                                  : Location
 RWS  .      -999                        : Def_Rw
 WST  .      -999                        : Def_Rwt
 SRVC .                                  : Contractor
~CURVE INFORMATION
#MNEM              UNIT       API CODE   Curve Type Comments
#----------  --------------- ----------  ---------- -----------
 DEPTH      .M                         : Depth       
 CAL_INCH   .inch                      :             Caliper Log - A representation of the measured diameter of a borehole along its depth
 GR_API     .API                       : GammaRay    Gamma Ray (API) - Measures the intensity of natural gamma-ray radiation emitted from formations containing radioactive elements, such as K, Th and U
 RHOZ_G_CC  .g/cc                      :             Formation Density - Measures the density of formation, including any void space or other materials contained in the subject volume
 NPHI_v_v   .dec                       : Neutron     
 PEF_B_E    .b/e-                      : PEF         Photoelectric Factor - A log of photoelectric absorption properties. Often expressed in an approximation unit barns/electron (b/e-)
 LITH       .                          :             
~A  DEPTH  CAL_INCH   GR_API  RHOZ_G_C~  NPHI_v_v  PEF_B_E     LITH   
# ...
2147.3160    9.9830   28.6430    2.0620   -0.0208    4.1440   16.0000 
2147.6208    9.9110   26.1980    2.0660   -0.0212    4.2790   16.0000 
2147.9256    9.9260   25.5810    2.0660   -0.0224    4.3820   16.0000 
2148.2304   10.0490   26.2890    2.0600   -0.0229    4.2450   16.0000 
2148.5352   10.1480   27.6480    2.0580   -0.0226    4.3520   16.0000 
2148.8400   10.1510   28.8380    2.0590   -0.0228    4.4650   16.0000 
2149.1448   10.1580   27.1620    2.0480   -0.0221    4.2040   16.0000 
2149.4496   10.2210   26.0210    2.0550   -0.0216    4.1080   16.0000 
2149.7544   10.1450   27.2610    2.0570   -0.0220    4.0260   16.0000 
2150.0592   10.1800   27.7920    2.0520   -0.0219    4.0520   16.0000 
2150.3640   10.1790   28.2530    2.0530   -0.0223    3.9960   16.0000 
2150.6688   10.1600   27.3000    2.0580   -0.0223    4.1250   16.0000 
2150.9736   10.1550   29.8410    2.0550   -0.0213    4.2840   16.0000 
2151.2784   10.1980   31.3280    2.0560   -0.0215    4.3230   16.0000 
2151.5832   10.2370   28.7630    2.0520   -0.0220    4.2020   16.0000 
2151.8880   10.2600   27.3120    2.0480   -0.0216    4.2580   16.0000 
2152.1928   10.2250   27.9080    2.0550   -0.0204    4.2180   16.0000 
2152.4976   10.1760   26.1120    2.0570   -0.0211    4.1950   16.0000 
2152.8024    9.8870   27.5340    2.0600   -0.0205    4.2330   16.0000 
2153.1072    9.9570   28.6580    2.0650   -0.0210    4.2450   16.0000 
2153.4120   10.0360   28.8980    2.0640   -0.0224    4.2180   16.0000 
2153.7168   10.0940   28.0560    2.0650   -0.0219    4.0470   16.0000 
2154.0216   10.1970   29.0600    2.0970   -0.0217    4.1330   16.0000 
2154.3264   10.2680   31.0710    2.1190   -0.0212    4.2060   16.0000 
2154.6312   10.0780   29.7510    2.1030   -0.0200    4.2100   16.0000 
2154.9360    9.8340   27.1260    2.1010   -0.0186    4.1800   16.0000 
2155.2408   10.0090   27.8390    2.0910   -0.0208    4.1360   16.0000 
2155.5456    9.9600   29.7260    2.0800   -0.0206    4.0710   16.0000 
2155.8504    9.8960   30.0360    2.0610   -0.0205    3.9510   16.0000 
2156.1552    9.9230   26.3970    2.0660   -0.0208    4.1390   16.0000 
2156.4600    9.8390   29.2200    2.0740   -0.0200    4.2340   16.0000 
2156.7648   10.0020   30.7110    2.0700   -0.0210    4.1640   16.0000 
2157.0696   10.0810   29.9250    2.0560   -0.0218    4.1700   16.0000 
2157.3744   10.0880   28.1930    2.0490   -0.0217    4.2070   16.0000 
2157.6792   10.0470   28.7760    2.0440   -0.0213    4.3110   16.0000 
2157.9840    9.8960   29.8410    2.0500   -0.0210    4.2960   16.0000 
2158.2888    9.7410   30.8490    2.0580   -0.0202    3.9910   16.0000 
2158.5936    9.6520   31.4300    2.0680   -0.0200    3.9510   16.0000 
2158.8984    9.8660   27.9110    2.0830   -0.0190    4.0470   16.0000 
2159.2032    9.9850   31.9010    2.1000   -0.0200    4.1920   16.0000 
2159.5080    9.9370   31.0370    2.2030   -0.0189    4.4550   15.0000 
2159.8128   10.1190   30.3270    2.2610   -0.0184    4.4020   15.0000 
2160.1176   10.1970   29.4890    2.1590   -0.0192    4.1230   16.0000 
2160.4224   10.1890   27.4500    2.0960   -0.0190    4.0450   16.0000 
2160.7272   10.1800   28.4540    2.0840   -0.0194    4.1030   16.0000 
2161.0320   10.1840   29.3310    2.1110   -0.0183    4.1510   16.0000 
2161.3368    9.9220   30.4610    2.1760   -0.0176    4.1020   16.0000 
2161.6416    9.7430   30.8820    2.1640   -0.0158    4.1120   16.0000 
2161.9464    9.9680   29.5050    2.1000   -0.0183    4.2400   16.0000 
2162.2512   10.1700   27.1760    2.0980   -0.0197    4.3430   16.0000 
2162.5560   10.1580   27.3480    2.0780   -0.0204    4.3960   16.0000 
2162.8608   10.1690   29.3040    2.0600   -0.0220    4.2980   16.0000 
2163.1656   10.1960   27.8630    2.0650   -0.0225    4.2380   16.0000 
2163.4704   10.1640   28.8000    2.0650   -0.0221    4.2140   16.0000 
2163.7752   10.2150   27.9050    2.0640   -0.0222    4.3410   16.0000 
2164.0800   10.3100   27.8330    2.0740   -0.0220    4.2630   16.0000 
2164.3848   10.2540   27.2310    2.1040   -0.0214    4.2150   16.0000 
2164.6896   10.1700   26.5650    2.1730   -0.0195    4.4080   16.0000 
2164.9944    9.7890   26.3780    2.3300   -0.0163    4.4280   16.0000 
2165.2992    9.5900   28.9860    2.4720   -0.0121    4.5320   16.0000 
2165.6040    9.3860   28.6860    2.5180   -0.0084    4.6390   16.0000 
2165.9088    9.2550   31.7060    2.3490   -0.0121    4.4350   16.0000 
2166.2136    9.5120   33.7850    2.1810   -0.0152    4.2040   16.0000 
2166.5184    9.6980   32.1590    2.1110   -0.0177    4.2020   16.0000 
2166.8232    9.8240   30.1850    2.0880   -0.0191    4.2530   16.0000 
2167.1280    9.9540   30.1950    2.0920   -0.0204    4.2910   16.0000 
2167.4328   10.1090   26.8470    2.0860   -0.0197    4.3220   16.0000 
2167.7376   10.1680   28.6820    2.0690   -0.0193    4.3760   16.0000 
2168.0424   10.2230   31.0080    2.0690   -0.0203    4.2480   16.0000 
2168.3472   10.2150   30.3300    2.0790   -0.0199    4.2520   16.0000 
2168.6520   10.0870   27.1080    2.0910   -0.0188    4.1720   16.0000 
2168.9568    9.9820   29.0640    2.1030   -0.0183    4.2170   16.0000 
2169.2616    9.9930   30.1320    2.2500   -0.0137    4.7390   16.0000 
2169.5664    9.4970   29.2230    2.4770   -0.0053    4.9400   16.0000 
2169.8712    9.3100   27.8430    2.7840    0.0034    6.1280   18.0000 
2170.1760    9.1660   28.6070    2.8960    0.0018    5.5810    1.0000 
2170.4808    9.0860   30.9750    2.6690   -0.0061    4.6700   22.0000 
2170.7856    9.4120   28.2320    2.3030   -0.0130    4.4310   22.0000 
2171.0904    9.6370   29.5950    2.1910   -0.0182    4.2570   16.0000 
2171.3952    9.7830   32.1560    2.1010   -0.0190    4.1880   16.0000 
2171.7000    9.8700   32.5580    2.0870   -0.0199    4.1730   16.0000 
2172.0048    9.8930   30.8270    2.0980   -0.0203    4.2030   16.0000 
2172.3096    9.9490   32.0060    2.0910   -0.0204    4.1030   16.0000 
2172.6144    9.9760   34.5600    2.0710   -0.0212    4.2220   16.0000 
2172.9192   10.0230   33.5570    2.0780   -0.0213    4.2720   16.0000 
2173.2240   10.0300   32.9360    2.0820   -0.0218    4.2040   16.0000 
2173.5288   10.0490   30.6120    2.0690   -0.0205    4.3430   16.0000 
2173.8336    9.9310   32.0970    2.0630   -0.0197    4.5340   16.0000 
2174.1384   10.0380   32.2080    2.0500   -0.0204    4.4980   16.0000 
2174.4432   10.1410   31.2360    2.0510   -0.0209    4.4120   16.0000 
2174.7480    9.9810   31.5950    2.1460   -0.0183    4.2720   16.0000 
2175.0528    9.6300   29.4980    2.2870   -0.0159    4.4390   22.0000 
2175.3576    9.4110   29.7230    2.3970   -0.0120    4.7300   16.0000 
2175.6624    9.2760   26.5070    2.4860   -0.0097    4.8020   16.0000 
2175.9672    9.1040   25.8350    2.5120   -0.0089    4.7390   16.0000 
2176.2720    9.1000   27.3780    2.3660   -0.0125    4.5880   16.0000 
2176.5768    9.4490   29.0330    2.1350   -0.0180    4.3720   16.0000 
2176.8816    9.8820   31.7100    2.0590   -0.0205    4.5050   16.0000 
2177.1864    9.7220   33.0030    2.0830   -0.0188    4.6250   16.0000 
2177.4912    9.6300   32.2190    2.1020   -0.0189    4.4550   16.0000 
2177.7960    9.8470   30.7760    2.1060   -0.0170    4.3250   16.0000 
2178.1008    9.4570   33.8730    2.3740   -0.0067    4.6140   18.0000 
2178.4056    8.7300   38.6250    2.7390    0.0074    5.1260   18.0000 
2178.7104    8.7180   46.5350    2.7690    0.0094    5.1710   18.0000 
2179.0152    8.7420   52.0070    2.7310    0.0106    5.1610   18.0000 
2179.3200    8.6940   50.4900    2.7080    0.0050    5.4830   18.0000 
2179.6248    8.6660   43.6640    2.7170    0.0003    5.8150   18.0000 
2179.9296    8.5950   42.7440    2.7280    0.0011    5.8700   18.0000 
2180.2344    8.6250   44.3240    2.7580    0.0027    6.1510   18.0000 
2180.5392    8.6240   46.2870    2.7860    0.0049    6.9860    6.0000 
2180.8440    8.6090   45.9680    2.7750    0.0043    7.7090    6.0000 
2181.1488    8.6080   44.1990    2.7370    0.0028    6.2610   18.0000 
2181.4536    8.6510   41.7980    2.7120    0.0054    5.8000   18.0000 
