~VERSION INFORMATION
 VERS.                 2.0:   CWLS LOG ASCII STANDARD - VERSION 2.0
 WRAP.                  NO:   SINGLE LINE PER DEPTH STEP
 CREA.                 05/01/2018 16:57:09
#CREATED USING DSPetro VERSION 5000.10.1.3 BY H191660 ON 05/01/2018 16:57:09
~WELL INFORMATION
#MNEM.UNIT       DATA                          DESCRIPTION MNEMONIC
#---------      ---------------------------   --------------------------
 STRT    .M         59.7408                   : START DEPTH
 STOP    .M         2451.5064                 : STOP DEPTH
 STEP    .M         0.3048                    : STEP VALUE
 NULL    .      -999.0000                     : NULL VALUE
 DATE    .      05/01/2018                    : LAS file Creation Date
 WELL .      JOHNSON_1_1                 : Well Name
 COMP .      Neftex Exploration Insights : Company
 FLD  .                                  : Field
 UWI  .      DUSWL_JOHNSO                : Unique Well Identifier (UWI)
 LOC  .                                  : Location
 RWS  .      -999                        : Def_Rw
 WST  .      -999                        : Def_Rwt
 SRVC .                                  : Contractor
~CURVE INFORMATION
#MNEM              UNIT       API CODE   Curve Type Comments
#----------  --------------- ----------  ---------- -----------
 DEPTH      .M                         : Depth       
 GR_API     .API                       : GammaRay    Gamma Ray (API) - Measures the intensity of natural gamma-ray radiation emitted from formations containing radioactive elements, such as K, Th and U
 LLD_OHMM   .ohmm                      :             Laterlog Deep Resistivity - Measurement made several feet into the formation; generally considered a measurement of the undisturbed formation
 LLS_OHMM   .ohmm                      :             Laterlog Shallow Resistivity - one to two feet into the formation; generally considered to measure the formation
 RHOZ_G_CC  .g/cc                      :             Formation Density - Measures the density of formation, including any void space or other materials contained in the subject volume
 NPHI_v_v   .dec                       : Neutron     
 PEF_B_E    .b/e-                      : PEF         Photoelectric Factor - A log of photoelectric absorption properties. Often expressed in an approximation unit barns/electron (b/e-)
 LITH       .                          :             
~A  DEPTH   GR_API   LLD_OHMM  LLS_OHMM RHOZ_G_C~  NPHI_v_v  PEF_B_E     LITH   
# ...
1206.3984   39.0230 -999.0000 -999.0000    2.7210    0.0265    4.4980   18.0000 
1206.7032   35.6340 -999.0000 -999.0000    2.7130    0.0411    4.2280   18.0000 
1207.0080   31.4690 -999.0000 -999.0000    2.7120    0.0294    4.3690   18.0000 
1207.3128   25.9230 -999.0000 -999.0000    2.7200    0.0127    4.6360   18.0000 
1207.6176   21.8300 -999.0000 -999.0000    2.7270    0.0032    5.0680   18.0000 
1207.9224   24.0450 -999.0000 -999.0000    2.7270    0.0016    5.0160   18.0000 
1208.2272   24.8810 -999.0000 -999.0000    2.7260    0.0016    4.8500   18.0000 
1208.5320   24.1290 -999.0000 -999.0000    2.7330    0.0022    4.7980   18.0000 
1208.8368   23.7930 -999.0000 -999.0000    2.7370    0.0042    4.7200   18.0000 
1209.1416   24.1280 -999.0000 -999.0000    2.7440    0.0024    4.8320   18.0000 
1209.4464   23.4240 -999.0000 -999.0000    2.7400    0.0033    4.6520   18.0000 
1209.7512   24.8600 -999.0000 -999.0000    2.7370    0.0033    4.2810   18.0000 
1210.0560   25.5830 -999.0000 -999.0000    2.7430    0.0046    4.1380   18.0000 
1210.3608   24.1710 -999.0000 -999.0000    2.7460    0.0032    4.2870   18.0000 
1210.6656   22.9320 -999.0000 -999.0000    2.7360    0.0057    4.2690   18.0000 
1210.9704   25.3920 -999.0000 -999.0000    2.7230    0.0057    3.9230   18.0000 
1211.2752   30.4890 -999.0000 -999.0000    2.7300    0.0096    3.7770   18.0000 
1211.5800   33.3140 -999.0000 -999.0000    2.7120    0.0195    3.7280   18.0000 
1211.8848   41.4540 -999.0000 -999.0000    2.7200    0.0300    4.1170   18.0000 
1212.1896   57.3950 -999.0000 -999.0000    2.7200    0.0603    3.6590   18.0000 
1212.4944   84.0840 -999.0000 -999.0000    2.7400    0.1313    3.1620   18.0000 
1212.7992   98.1230 -999.0000 -999.0000    2.7420    0.1942    3.3930   37.0000 
1213.1040  101.1800 -999.0000 -999.0000    2.7120    0.1991    3.4540   37.0000 
1213.4088   98.9330 -999.0000 -999.0000    2.7100    0.2054    3.6590   37.0000 
1213.7136   93.3500 -999.0000 -999.0000    2.7280    0.2110    3.7760   37.0000 
1214.0184   72.4760 -999.0000 -999.0000    2.7410    0.1939    4.1120   37.0000 
1214.3232   50.6910 -999.0000 -999.0000    2.7570    0.1200    4.6400   22.0000 
1214.6280   36.7640 -999.0000 -999.0000    2.7510    0.0307    4.4310   18.0000 
1214.9328   33.9630 -999.0000 -999.0000    2.7430    0.0215    4.3570   18.0000 
1215.2376   45.3210 -999.0000 -999.0000    2.7460    0.0204    4.5540   18.0000 
1215.5424   82.8780 -999.0000 -999.0000    2.7300    0.0378    4.0640   18.0000 
1215.8472  107.7860 -999.0000 -999.0000    2.7070    0.1073    3.4610   22.0000 
1216.1520  110.3160 -999.0000 -999.0000    2.6980    0.1507    3.2280   37.0000 
1216.4568  112.2990 -999.0000 -999.0000    2.6920    0.1710    3.1980   37.0000 
1216.7616  112.6730 -999.0000 -999.0000    2.6960    0.1811    3.1180   37.0000 
1217.0664  116.2710 -999.0000 -999.0000    2.6970    0.1914    2.9810   37.0000 
1217.3712  118.2020 -999.0000 -999.0000    2.6920    0.1955    3.1240   37.0000 
1217.6760  117.7950 -999.0000 -999.0000    2.6870    0.1904    3.0760   37.0000 
1217.9808  119.7960 -999.0000 -999.0000    2.6810    0.1929    3.1270   37.0000 
1218.2856  119.9430 -999.0000 -999.0000    2.6900    0.1892    2.9740   37.0000 
1218.5904  119.5250 -999.0000 -999.0000    2.6980    0.1931    3.0440   37.0000 
1218.8952  120.6050 -999.0000 -999.0000    2.6940    0.2010    3.1050   37.0000 
1219.2000  122.2400 -999.0000 -999.0000    2.6890    0.1967    2.9970   37.0000 
1219.5048  122.1320 -999.0000 -999.0000    2.6970    0.1990    3.0520   37.0000 
1219.8096  121.9710 -999.0000 -999.0000    2.7040    0.2078    3.1670   37.0000 
1220.1144  124.4810 -999.0000 -999.0000    2.6940    0.2209    3.3680   37.0000 
1220.4192  126.6150 -999.0000 -999.0000    2.6860    0.2105    3.6370   37.0000 
1220.7240  125.3750 -999.0000 -999.0000    2.6780    0.1959    3.3330   37.0000 
1221.0288  122.6630 -999.0000 -999.0000    2.6950    0.1972    3.0930   37.0000 
1221.3336  124.2090 -999.0000 -999.0000    2.7000    0.1997    2.9510   37.0000 
1221.6384  124.3910 -999.0000 -999.0000    2.6970    0.1858    3.0330   37.0000 
1221.9432  126.1910 -999.0000 -999.0000    2.7020    0.1861    2.9730   37.0000 
1222.2480  125.9910 -999.0000 -999.0000    2.7080    0.1935    2.8650   37.0000 
1222.5528  128.3390 -999.0000 -999.0000    2.7170    0.1935    3.0680   37.0000 
1222.8576  130.7850 -999.0000 -999.0000    2.7140    0.1910    3.2690   37.0000 
1223.1624  126.7500 -999.0000 -999.0000    2.6980    0.2005    3.4020   37.0000 
1223.4672  126.7520 -999.0000 -999.0000    2.6910    0.1943    3.1860   37.0000 
1223.7720  125.4840 -999.0000 -999.0000    2.6950    0.1923    2.9660   37.0000 
1224.0768  123.8070 -999.0000 -999.0000    2.7030    0.1981    3.1130   37.0000 
1224.3816  121.3740 -999.0000 -999.0000    2.6930    0.2096    2.9510   37.0000 
1224.6864  122.0550 -999.0000 -999.0000    2.7130    0.2242    2.7310   37.0000 
1224.9912  123.7710 -999.0000 -999.0000    2.7020    0.2143    2.8740   37.0000 
1225.2960  125.6510 -999.0000 -999.0000    2.7010    0.2083    2.9580   37.0000 
1225.6008  124.3050 -999.0000 -999.0000    2.7020    0.2046    3.0690   37.0000 
1225.9056  126.7740 -999.0000 -999.0000    2.7010    0.1955    3.2960   37.0000 
1226.2104  123.2180 -999.0000 -999.0000    2.6920    0.1908    3.3290   37.0000 
1226.5152  124.8170 -999.0000 -999.0000    2.6930    0.1943    3.2350   37.0000 
1226.8200  125.9810 -999.0000 -999.0000    2.7020    0.2065    3.2540   37.0000 
1227.1248  122.0100 -999.0000 -999.0000    2.7090    0.2122    3.3530   37.0000 
1227.4296  121.7870 -999.0000 -999.0000    2.7030    0.2202    3.2990   37.0000 
1227.7344  121.6140 -999.0000 -999.0000    2.7080    0.2072    3.1510   37.0000 
1228.0392  120.9300 -999.0000 -999.0000    2.7080    0.2031    3.2140   37.0000 
1228.3440  118.6560 -999.0000 -999.0000    2.7040    0.2071    3.1280   37.0000 
1228.6488  115.1090 -999.0000 -999.0000    2.7150    0.2126    3.1130   37.0000 
1228.9536  116.0810 -999.0000 -999.0000    2.7120    0.2147    2.9330   37.0000 
1229.2584  118.8890 -999.0000 -999.0000    2.7180    0.2260    3.0620   37.0000 
1229.5632  113.6160 -999.0000 -999.0000    2.7230    0.2000    3.4710   37.0000 
1229.8680  108.8370 -999.0000 -999.0000    2.7190    0.1876    3.7410   37.0000 
1230.1728  102.5900 -999.0000 -999.0000    2.7140    0.1931    3.8340   37.0000 
1230.4776   92.9420 -999.0000 -999.0000    2.7150    0.1845    3.6840   37.0000 
1230.7824   89.4960 -999.0000 -999.0000    2.7210    0.1679    3.5660   37.0000 
1231.0872   96.2510 -999.0000 -999.0000    2.7230    0.1556    3.6690   37.0000 
1231.3920  100.3200 -999.0000 -999.0000    2.7150    0.1656    3.6830   37.0000 
1231.6968  104.9880 -999.0000 -999.0000    2.7200    0.1819    3.5170   37.0000 
1232.0016  107.7360 -999.0000 -999.0000    2.7100    0.1892    3.5560   37.0000 
1232.3064  100.4900 -999.0000 -999.0000    2.6970    0.1920    3.4800   37.0000 
1232.6112   92.3990 -999.0000 -999.0000    2.6930    0.1826    3.4340   37.0000 
1232.9160   98.7420 -999.0000 -999.0000    2.7170    0.1673    3.3390   37.0000 
1233.2208  102.2030 -999.0000 -999.0000    2.7210    0.1894    3.5340   37.0000 
1233.5256   77.6390 -999.0000 -999.0000    2.7290    0.2400    3.9370   37.0000 
1233.8304   36.9620 -999.0000 -999.0000    2.7360    0.1008    4.5370   18.0000 
1234.1352   25.2960 -999.0000 -999.0000    2.7320    0.0011    4.6820   18.0000 
1234.4400   20.6720 -999.0000 -999.0000    2.7250   -0.0047    4.6760   18.0000 
1234.7448   20.2310 -999.0000 -999.0000    2.7290   -0.0046    4.8150   18.0000 
1235.0496   19.5780 -999.0000 -999.0000    2.7220   -0.0022    4.9220   18.0000 
1235.3544   16.0760 -999.0000 -999.0000    2.7130    0.0021    4.5800   18.0000 
1235.6592   15.0710 -999.0000 -999.0000    2.7140    0.0060    4.6630   18.0000 
1235.9640   16.0340 -999.0000 -999.0000    2.7180    0.0061    4.7300   18.0000 
1236.2688   15.2840 -999.0000 -999.0000    2.7180    0.0091    4.7020   18.0000 
