~VERSION INFORMATION
 VERS.                 2.0:   CWLS LOG ASCII STANDARD - VERSION 2.0
 WRAP.                  NO:   SINGLE LINE PER DEPTH STEP
 CREA.                 05/01/2018 16:57:09
#CREATED USING DSPetro VERSION 5000.10.1.3 BY H191660 ON 05/01/2018 16:57:09
~WELL INFORMATION
#MNEM.UNIT       DATA                          DESCRIPTION MNEMONIC
#---------      ---------------------------   --------------------------
 STRT    .M         59.7408                   : START DEPTH
 STOP    .M         2451.5064                 : STOP DEPTH
 STEP    .M         0.3048                    : STEP VALUE
 NULL    .      -999.0000                     : NULL VALUE
 DATE    .      05/01/2018                    : LAS file Creation Date
 WELL .      JOHNSON_1_1                 : Well Name
 COMP .      Neftex Exploration Insights : Company
 FLD  .                                  : Field
 UWI  .      DUSWL_JOHNSO                : Unique Well Identifier (UWI)
 LOC  .                                  : Location
 RWS  .      -999                        : Def_Rw
 WST  .      -999                        : Def_Rwt
 SRVC .                                  : Contractor
~CURVE INFORMATION
#MNEM              UNIT       API CODE   Curve Type Comments
#----------  --------------- ----------  ---------- -----------
 DEPTH      .M                         : Depth       
 GR_API     .API                       : GammaRay    Gamma Ray (API) - Measures the intensity of natural gamma-ray radiation emitted from formations containing radioactive elements, such as K, Th and U
 LLD_OHMM   .ohmm                      :             Laterlog Deep Resistivity - Measurement made several feet into the formation; generally considered a measurement of the undisturbed formation
 LLS_OHMM   .ohmm                      :             Laterlog Shallow Resistivity - one to two feet into the formation; generally considered to measure the formation
 RHOZ_G_CC  .g/cc                      :             Formation Density - Measures the density of formation, including any void space or other materials contained in the subject volume
 NPHI_v_v   .dec                       : Neutron     
 PEF_B_E    .b/e-                      : PEF         Photoelectric Factor - A log of photoelectric absorption properties. Often expressed in an approximation unit barns/electron (b/e-)
 LITH       .                          :             
~A  DEPTH   GR_API   LLD_OHMM  LLS_OHMM RHOZ_G_C~  NPHI_v_v  PEF_B_E     LITH   
# ...
1960.7784   66.5480 -999.0000 -999.0000    2.5970    0.0861    3.3950   22.0000 
1961.0832   70.8560 -999.0000 -999.0000    2.5850    0.0927    3.2840   22.0000 
1961.3880   69.6830 -999.0000 -999.0000    2.5560    0.0795    3.1080   22.0000 
1961.6928   71.4570 -999.0000 -999.0000    2.4780    0.0775    2.9000   22.0000 
1961.9976   70.2210 -999.0000 -999.0000    2.5510    0.1112    2.9480   22.0000 
1962.3024   71.8100 -999.0000 -999.0000    2.6240    0.0993    3.2470   22.0000 
1962.6072   77.0720 -999.0000 -999.0000    2.6660    0.0913    3.5970   22.0000 
1962.9120   75.2370 -999.0000 -999.0000    2.6600    0.0892    3.4860   22.0000 
1963.2168   62.0870 -999.0000 -999.0000    2.3820    0.0168    3.5790   22.0000 
1963.5216   44.3510 -999.0000 -999.0000    2.1300   -0.0113    3.7320   16.0000 
1963.8264   38.7110 -999.0000 -999.0000    2.0870   -0.0160    3.8670   16.0000 
1964.1312   35.5530 -999.0000 -999.0000    2.0710   -0.0175    3.8900   16.0000 
1964.4360   34.2560 -999.0000 -999.0000    2.0910   -0.0174    3.7690   16.0000 
1964.7408   37.4720 -999.0000 -999.0000    2.1090   -0.0185    3.6310   16.0000 
1965.0456   34.7280 -999.0000 -999.0000    2.1060   -0.0197    3.7120   16.0000 
1965.3504   34.8690 -999.0000 -999.0000    2.0810   -0.0209    3.5190   16.0000 
1965.6552   37.4900 -999.0000 -999.0000    2.0880   -0.0211    3.5340   16.0000 
1965.9600   39.5600 -999.0000 -999.0000    2.0890   -0.0213    3.6490   16.0000 
1966.2648   37.9640 -999.0000 -999.0000    2.0820   -0.0213    3.5260   16.0000 
1966.5696   36.7820 -999.0000 -999.0000    2.0730   -0.0217    3.6150   16.0000 
1966.8744   35.9190 -999.0000 -999.0000    2.0740   -0.0217    3.6420   16.0000 
1967.1792   32.9960 -999.0000 -999.0000    2.0830   -0.0213    3.4920   16.0000 
1967.4840   32.1240 -999.0000 -999.0000    2.0920   -0.0199    3.6050   16.0000 
1967.7888   35.9400 -999.0000 -999.0000    2.1030   -0.0197    3.8130   16.0000 
1968.0936   34.2770 -999.0000 -999.0000    2.0980   -0.0192    3.7600   16.0000 
1968.3984   33.8270 -999.0000 -999.0000    2.1080   -0.0192    3.7010   16.0000 
1968.7032   34.9940 -999.0000 -999.0000    2.1040   -0.0183    3.8200   16.0000 
1969.0080   35.9810 -999.0000 -999.0000    2.1100   -0.0183    3.7910   16.0000 
1969.3128   36.0680 -999.0000 -999.0000    2.1150   -0.0200    3.6230   16.0000 
1969.6176   35.7990 -999.0000 -999.0000    2.1120   -0.0209    3.7070   16.0000 
1969.9224   35.0370 -999.0000 -999.0000    2.1000   -0.0213    3.6190   16.0000 
1970.2272   32.7780 -999.0000 -999.0000    2.0830   -0.0211    3.6500   16.0000 
1970.5320   32.8170 -999.0000 -999.0000    2.0820   -0.0207    3.7870   16.0000 
1970.8368   32.1170 -999.0000 -999.0000    2.0770   -0.0204    3.8640   16.0000 
1971.1416   30.7500 -999.0000 -999.0000    2.0610   -0.0226    3.6910   16.0000 
1971.4464   28.4450 -999.0000 -999.0000    2.0630   -0.0230    3.6180   16.0000 
1971.7512   29.4230 -999.0000 -999.0000    2.0740   -0.0230    3.4670   16.0000 
1972.0560   30.2960 -999.0000 -999.0000    2.0860   -0.0215    3.3970   16.0000 
1972.3608   28.1540 -999.0000 -999.0000    2.0800   -0.0209    3.5420   16.0000 
1972.6656   30.8850 -999.0000 -999.0000    2.0740   -0.0207    3.7020   16.0000 
1972.9704   35.1200 -999.0000 -999.0000    2.0830   -0.0203    3.5400   16.0000 
1973.2752   37.5620 -999.0000 -999.0000    2.0770   -0.0203    3.6870   16.0000 
1973.5800   35.1210 -999.0000 -999.0000    2.0640   -0.0208    3.7950   16.0000 
1973.8848   29.4950 -999.0000 -999.0000    2.0530   -0.0227    3.7010   16.0000 
1974.1896   29.2200 -999.0000 -999.0000    2.0550   -0.0236    3.5480   16.0000 
1974.4944   30.2760 -999.0000 -999.0000    2.0580   -0.0239    3.4880   16.0000 
1974.7992   31.2540 -999.0000 -999.0000    2.0520   -0.0234    3.5690   16.0000 
1975.1040   32.1260 -999.0000 -999.0000    2.0440   -0.0235    3.6930   16.0000 
1975.4088   29.0270 -999.0000 -999.0000    2.0450   -0.0234    3.6050   16.0000 
1975.7136   33.2150 -999.0000 -999.0000    2.0710   -0.0221    3.4860   16.0000 
1976.0184   34.7420 -999.0000 -999.0000    2.1430   -0.0195    3.5790   16.0000 
1976.3232   32.3060 -999.0000 -999.0000    2.1860   -0.0176    3.6700   16.0000 
1976.6280   33.5930 -999.0000 -999.0000    2.1490   -0.0180    3.6450   16.0000 
1976.9328   38.1960 -999.0000 -999.0000    2.1050   -0.0183    3.7260   16.0000 
1977.2376   35.2110 -999.0000 -999.0000    2.1160   -0.0164    3.6930   16.0000 
1977.5424   33.9590 -999.0000 -999.0000    2.1270   -0.0142    3.6260   16.0000 
1977.8472   36.8180 -999.0000 -999.0000    2.1380   -0.0154    3.3660   16.0000 
1978.1520   36.1890 -999.0000 -999.0000    2.1750   -0.0179    3.5100   16.0000 
1978.4568   34.3500 -999.0000 -999.0000    2.1520   -0.0177    3.6030   16.0000 
1978.7616   33.1130 -999.0000 -999.0000    2.1020   -0.0198    3.6940   16.0000 
1979.0664   31.0950 -999.0000 -999.0000    2.0740   -0.0211    3.6630   16.0000 
1979.3712   32.9310 -999.0000 -999.0000    2.0690   -0.0218    3.5860   16.0000 
1979.6760   34.7580 -999.0000 -999.0000    2.0660   -0.0208    3.5140   16.0000 
1979.9808   33.0440 -999.0000 -999.0000    2.0600   -0.0189    3.5930   16.0000 
1980.2856   34.1480 -999.0000 -999.0000    2.0650   -0.0176    3.6870   16.0000 
1980.5904   35.8590 -999.0000 -999.0000    2.1150   -0.0148    3.5710   16.0000 
1980.8952   34.6220 -999.0000 -999.0000    2.1000   -0.0173    3.7080   16.0000 
1981.2000   34.8290 -999.0000 -999.0000    2.0610   -0.0187    3.8970   16.0000 
1981.5048   36.3780 -999.0000 -999.0000    2.0300   -0.0205    3.9110   16.0000 
1981.8096   36.0750 -999.0000 -999.0000    2.0480   -0.0210    3.8380   16.0000 
1982.1144   35.4750 -999.0000 -999.0000    2.0630   -0.0201    3.5770   16.0000 
1982.4192   38.8310 -999.0000 -999.0000    2.0480   -0.0144    3.3630   16.0000 
1982.7240   51.3240 -999.0000 -999.0000    2.2830    0.0088    3.4520   22.0000 
1983.0288   61.5300 -999.0000 -999.0000    2.5690    0.0463    3.6000   22.0000 
1983.3336   66.3270 -999.0000 -999.0000    2.5990    0.0779    3.5160   22.0000 
1983.6384   64.9470 -999.0000 -999.0000    2.7280    0.0705    3.2790   37.0000 
1983.9432   70.2890 -999.0000 -999.0000    2.7530    0.0587    3.2590   37.0000 
1984.2480   72.2570 -999.0000 -999.0000    2.7380    0.0646    3.4150   37.0000 
1984.5528   71.0540 -999.0000 -999.0000    2.7310    0.0736    3.2710   37.0000 
1984.8576   71.2350 -999.0000 -999.0000    2.7430    0.0737    3.6150   37.0000 
1985.1624   62.6220 -999.0000 -999.0000    2.7620    0.0674    3.8150   37.0000 
1985.4672   53.7900 -999.0000 -999.0000    2.7700    0.0538    3.7560   37.0000 
1985.7720   53.9690 -999.0000 -999.0000    2.7740    0.0603    3.9770   37.0000 
1986.0768   62.9840 -999.0000 -999.0000    2.7960    0.0641    4.1220   37.0000 
1986.3816   72.7680 -999.0000 -999.0000    2.7620    0.0956    3.6240   37.0000 
1986.6864   76.5530 -999.0000 -999.0000    2.7070    0.1311    3.2720   37.0000 
1986.9912   75.6450 -999.0000 -999.0000    2.7040    0.1382    3.3230   37.0000 
1987.2960   77.0150 -999.0000 -999.0000    2.6880    0.1449    3.1260   37.0000 
1987.6008   75.8670 -999.0000 -999.0000    2.6700    0.1622    3.0260   37.0000 
1987.9056   80.4380 -999.0000 -999.0000    2.6620    0.1825    3.0840   37.0000 
1988.2104   76.5200 -999.0000 -999.0000    2.6720    0.1804    3.2720   37.0000 
1988.5152   76.2780 -999.0000 -999.0000    2.6760    0.1713    3.2340   37.0000 
1988.8200   72.0660 -999.0000 -999.0000    2.6740    0.1571    3.3740   37.0000 
1989.1248   66.1770 -999.0000 -999.0000    2.6880    0.1459    3.3940   37.0000 
1989.4296   68.0820 -999.0000 -999.0000    2.6940    0.1364    3.0910   37.0000 
1989.7344   68.7350 -999.0000 -999.0000    2.7070    0.1352    3.1050   37.0000 
1990.0392   67.7160 -999.0000 -999.0000    2.7290    0.1207    3.0420   37.0000 
1990.3440   66.8570 -999.0000 -999.0000    2.7350    0.1118    3.2130   37.0000 
1990.6488   66.9110 -999.0000 -999.0000    2.7260    0.1134    3.6160   37.0000 
