~VERSION INFORMATION
 VERS.                 2.0:   CWLS LOG ASCII STANDARD - VERSION 2.0
 WRAP.                  NO:   SINGLE LINE PER DEPTH STEP
 CREA.                 05/01/2018 16:57:09
#CREATED USING DSPetro VERSION 5000.10.1.3 BY H191660 ON 05/01/2018 16:57:09
~WELL INFORMATION
#MNEM.UNIT       DATA                          DESCRIPTION MNEMONIC
#---------      ---------------------------   --------------------------
 STRT    .M         59.7408                   : START DEPTH
 STOP    .M         2451.5064                 : STOP DEPTH
 STEP    .M         0.3048                    : STEP VALUE
 NULL    .      -999.0000                     : NULL VALUE
 DATE    .      05/01/2018                    : LAS file Creation Date
 WELL .      JOHNSON_1_1                 : Well Name
 COMP .      Neftex Exploration Insights : Company
 FLD  .                                  : Field
 UWI  .      DUSWL_JOHNSO                : Unique Well Identifier (UWI)
 LOC  .                                  : Location
 RWS  .      -999                        : Def_Rw
 WST  .      -999                        : Def_Rwt
 SRVC .                                  : Contractor
~CURVE INFORMATION
#MNEM              UNIT       API CODE   Curve Type Comments
#----------  --------------- ----------  ---------- -----------
 DEPTH      .M                         : Depth       
 GR_API     .API                       : GammaRay    Gamma Ray (API) - Measures the intensity of natural gamma-ray radiation emitted from formations containing radioactive elements, such as K, Th and U
 LLD_OHMM   .ohmm                      :             Laterlog Deep Resistivity - Measurement made several feet into the formation; generally considered a measurement of the undisturbed formation
 LLS_OHMM   .ohmm                      :             Laterlog Shallow Resistivity - one to two feet into the formation; generally considered to measure the formation
 RHOZ_G_CC  .g/cc                      :             Formation Density - Measures the density of formation, including any void space or other materials contained in the subject volume
 NPHI_v_v   .dec                       : Neutron     
 PEF_B_E    .b/e-                      : PEF         Photoelectric Factor - A log of photoelectric absorption properties. Often expressed in an approximation unit barns/electron (b/e-)
 LITH       .                          :             
~A  DEPTH   GR_API   LLD_OHMM  LLS_OHMM RHOZ_G_C~  NPHI_v_v  PEF_B_E     LITH   
# ...
2413.4064    0.0000 -999.0000 -999.0000    2.0000   -0.1500    0.0000   11.0000 
2413.7112    0.0000 -999.0000 -999.0000    2.0000   -0.1500    0.0000   11.0000 
2414.0160    0.0000 -999.0000 -999.0000    2.0000   -0.1500    0.0000   11.0000 
2414.3208    0.0000 -999.0000 -999.0000    2.0000   -0.1500    0.0000   11.0000 
2414.6256    0.0000 -999.0000 -999.0000    2.0000   -0.1500    0.0000   11.0000 
2414.9304    0.0000 -999.0000 -999.0000    2.0000   -0.1500    0.0000   11.0000 
2415.2352    0.0000 -999.0000 -999.0000    2.0000   -0.1500    0.0000   11.0000 
2415.5400    0.0000 -999.0000 -999.0000    2.0000   -0.1500    0.0000   11.0000 
2415.8448    0.0000 -999.0000 -999.0000    2.0000   -0.1500    0.0000   11.0000 
2416.1496    0.0000 -999.0000 -999.0000    2.0000   -0.1500    0.0000   11.0000 
2416.4544    0.0000 -999.0000 -999.0000    2.0000   -0.1500    0.0000   11.0000 
2416.7592    0.0000 -999.0000 -999.0000    2.0000   -0.1500    0.0000   11.0000 
2417.0640    0.0000 -999.0000 -999.0000    2.0000   -0.1500    0.0000   11.0000 
2417.3688    0.0000 -999.0000 -999.0000    2.0000   -0.1500    0.0000   11.0000 
2417.6736    0.0000 -999.0000 -999.0000    2.0000   -0.1500    0.0000   11.0000 
2417.9784    0.0000 -999.0000 -999.0000    2.0000   -0.1500    0.0000   11.0000 
2418.2832    0.0000 -999.0000 -999.0000    2.0000   -0.1500    0.0000   11.0000 
2418.5880    0.0000 -999.0000 -999.0000    2.0000   -0.1500    0.0000   11.0000 
2418.8928    0.0000 -999.0000 -999.0000    2.0000   -0.1500    0.0000   11.0000 
2419.1976    0.0000 -999.0000 -999.0000    2.0000   -0.1500    0.0000   11.0000 
2419.5024    0.0000 -999.0000 -999.0000    2.0000   -0.1500    0.0000   11.0000 
2419.8072    0.0000 -999.0000 -999.0000    2.0000   -0.1500    0.0000   11.0000 
2420.1120    0.0000 -999.0000 -999.0000    2.0000   -0.1500    0.0000   11.0000 
2420.4168    0.0000 -999.0000 -999.0000    2.0000   -0.1500    0.0000   11.0000 
2420.7216    0.0000 -999.0000 -999.0000    2.0000   -0.1500    0.0000   11.0000 
2421.0264    0.0000 -999.0000 -999.0000    2.0000   -0.1500    0.0000   11.0000 
2421.3312    0.0000 -999.0000 -999.0000    2.0000   -0.1500    0.0000   11.0000 
2421.6360    0.0000 -999.0000 -999.0000    2.0000   -0.1500    0.0000   11.0000 
2421.9408    0.0000 -999.0000 -999.0000    2.0000   -0.1500    0.0000   11.0000 
2422.2456    0.0000 -999.0000 -999.0000    2.0000   -0.1500    0.0000   11.0000 
2422.5504    0.0000 -999.0000 -999.0000    2.0000   -0.1500    0.0000   11.0000 
2422.8552    0.0000 -999.0000 -999.0000    2.0000   -0.1500    0.0000   11.0000 
2423.1600    0.0000 -999.0000 -999.0000    2.0000   -0.1500    0.0000   11.0000 
2423.4648    0.0000 -999.0000 -999.0000    2.0000   -0.1500    0.0000   11.0000 
2423.7696    0.0000 -999.0000 -999.0000    2.0000   -0.1500    0.0000   11.0000 
2424.0744    0.0000 -999.0000 -999.0000    2.0000   -0.1500    0.0000   11.0000 
2424.3792    0.0000 -999.0000 -999.0000    2.0000   -0.1500    0.0000   11.0000 
2424.6840    0.0000 -999.0000 -999.0000    2.0000   -0.1500    0.0000   11.0000 
2424.9888    0.0000 -999.0000 -999.0000    2.0000   -0.1500    0.0000   11.0000 
2425.2936    0.0000 -999.0000 -999.0000    2.0000   -0.1500    0.0000   11.0000 
2425.5984    0.0000 -999.0000 -999.0000    2.0000   -0.1500    0.0000   11.0000 
2425.9032    0.0000 -999.0000 -999.0000    2.0000   -0.1500    0.0000   11.0000 
2426.2080    0.0000 -999.0000 -999.0000    2.0000   -0.1500    0.0000   11.0000 
2426.5128    0.0000 -999.0000 -999.0000    2.0000   -0.1500    0.0000   11.0000 
2426.8176    0.0000 -999.0000 -999.0000    2.0000   -0.1500    0.0000   11.0000 
2427.1224    0.0000 -999.0000 -999.0000    2.0000   -0.1500    0.0000   11.0000 
2427.4272    0.0000 -999.0000 -999.0000    2.0000   -0.1500    0.0000   11.0000 
2427.7320    0.0000 -999.0000 -999.0000    2.0000   -0.1500    0.0000   11.0000 
2428.0368    0.0000 -999.0000 -999.0000    2.0000   -0.1500    0.0000   11.0000 
2428.3416    0.0000 -999.0000 -999.0000    2.0000   -0.1500    0.0000   11.0000 
2428.6464    0.0000 -999.0000 -999.0000    2.0000   -0.1500    0.0000   11.0000 
2428.9512    0.0000 -999.0000 -999.0000    2.0000   -0.1500    0.0000   11.0000 
2429.2560    0.0000 -999.0000 -999.0000    2.0000   -0.1500    0.0000   11.0000 
2429.5608    0.0000 -999.0000 -999.0000    2.0000   -0.1500    0.0000   11.0000 
2429.8656    0.0000 -999.0000 -999.0000    2.0000   -0.1500    0.0000   11.0000 
2430.1704    0.0000 -999.0000 -999.0000    2.0000   -0.1500    0.0000   11.0000 
2430.4752    0.0000 -999.0000 -999.0000    2.0000   -0.1500    0.0000   11.0000 
2430.7800    0.0000 -999.0000 -999.0000    2.0000   -0.1500    0.0000   11.0000 
2431.0848    0.0000 -999.0000 -999.0000    2.0000   -0.1500    0.0000   11.0000 
2431.3896    0.0000 -999.0000 -999.0000    2.0000   -0.1500    0.0000   11.0000 
2431.6944    0.0000 -999.0000 -999.0000    2.0000   -0.1500    0.0000   11.0000 
2431.9992    0.0000 -999.0000 -999.0000    2.0000   -0.1500    0.0000   11.0000 
2432.3040    0.0000 -999.0000 -999.0000    2.0000   -0.1500    0.0000   11.0000 
2432.6088    0.0000 -999.0000 -999.0000    2.0000   -0.1500    0.0000   11.0000 
2432.9136    0.0000 -999.0000 -999.0000    2.0000   -0.1500    0.0000   11.0000 
2433.2184    0.0000 -999.0000 -999.0000    2.0000   -0.1500    0.0000   11.0000 
2433.5232    0.0000 -999.0000 -999.0000    2.0000   -0.1500    0.0000   11.0000 
2433.8280    0.0000 -999.0000 -999.0000    2.0000   -0.1500    0.0000   11.0000 
2434.1328    0.0000 -999.0000 -999.0000    2.0000   -0.1500    0.0000   11.0000 
2434.4376    0.0000 -999.0000 -999.0000    2.0000   -0.1500    0.0000   11.0000 
2434.7424    0.0000 -999.0000 -999.0000    2.0000   -0.1500    0.0000   11.0000 
2435.0472    0.0000 -999.0000 -999.0000    2.0000   -0.1500    0.0000   11.0000 
2435.3520    0.0000 -999.0000 -999.0000    2.0000   -0.1500    0.0000   11.0000 
2435.6568    0.0000 -999.0000 -999.0000    2.0000   -0.1500    0.0000   11.0000 
2435.9616    0.0000 -999.0000 -999.0000    2.0000   -0.1500    0.0000   11.0000 
2436.2664    0.0000 -999.0000 -999.0000    2.0000   -0.1500    0.0000   11.0000 
2436.5712    0.0000 -999.0000 -999.0000    2.0000   -0.1500    0.0000   11.0000 
2436.8760    0.0000 -999.0000 -999.0000    2.0000   -0.1500    0.0000   11.0000 
2437.1808    0.0000 -999.0000 -999.0000    2.0000   -0.1500    0.0000   11.0000 
2437.4856    0.0000 -999.0000 -999.0000    2.0000   -0.1500    0.0000   11.0000 
2437.7904    0.0000 -999.0000 -999.0000    2.0000   -0.1500    0.0000   11.0000 
2438.0952    0.0000 -999.0000 -999.0000    2.0000   -0.1500    0.0000   11.0000 
2438.4000    0.0000 -999.0000 -999.0000    2.0000   -0.1500    0.0000   11.0000 
2438.7048    0.0000 -999.0000 -999.0000    2.0000   -0.1500    0.0000   11.0000 
2439.0096    0.0000 -999.0000 -999.0000    2.0000   -0.1500    0.0000   11.0000 
2439.3144    0.0000 -999.0000 -999.0000    2.0000   -0.1500    0.0000   11.0000 
2439.6192    0.0000 -999.0000 -999.0000    2.0000   -0.1500    0.0000   11.0000 
2439.9240    0.0000 -999.0000 -999.0000    2.0000   -0.1500    0.0000   11.0000 
2440.2288   24.9180 -999.0000 -999.0000    2.0440   -0.0157    3.8120   11.0000 
2440.5336   26.1530 -999.0000 -999.0000    2.0380   -0.0159    3.8000   11.0000 
2440.8384   25.6220 -999.0000 -999.0000    2.0410   -0.0163    3.8320   11.0000 
2441.1432  149.3780 -999.0000 -999.0000    2.0380   -0.0164    3.7730   11.0000 
2441.4480   -0.2300 -999.0000 -999.0000    2.0360   -0.0162    3.6890   11.0000 
2441.7528    0.3350 -999.0000 -999.0000    2.0580   -0.0161    3.8060   11.0000 
2442.0576    0.5450 -999.0000 -999.0000    2.1340   -0.0167    4.4110   11.0000 
2442.3624    0.1460 -999.0000 -999.0000    2.3290   -0.0165    4.2790   11.0000 
2442.6672    0.2790 -999.0000 -999.0000    2.1850   -0.0157    3.9690   11.0000 
2442.9720   -0.0990 -999.0000 -999.0000    2.0980   -0.0157    4.3370   11.0000 
2443.2768    0.5760 -999.0000 -999.0000    2.2040   -0.0157    4.9510   11.0000 
