~VERSION INFORMATION
 VERS.                 2.0:   CWLS LOG ASCII STANDARD - VERSION 2.0
 WRAP.                  NO:   SINGLE LINE PER DEPTH STEP
 CREA.                 05/01/2018 16:57:09
#CREATED USING DSPetro VERSION 5000.10.1.3 BY H191660 ON 05/01/2018 16:57:09
~WELL INFORMATION
#MNEM.UNIT       DATA                          DESCRIPTION MNEMONIC
#---------      ---------------------------   --------------------------
 STRT    .M         59.7408                   : START DEPTH
 STOP    .M         2451.5064                 : STOP DEPTH
 STEP    .M         0.3048                    : STEP VALUE
 NULL    .      -999.0000                     : NULL VALUE
 DATE    .      05/01/2018                    : LAS file Creation Date
 WELL .      JOHNSON_1_1                 : Well Name
 COMP .      Neftex Exploration Insights : Company
 FLD  .                                  : Field
 UWI  .      DUSWL_JOHNSO                : Unique Well Identifier (UWI)
 LOC  .                                  : Location
 RWS  .      -999                        : Def_Rw
 WST  .      -999                        : Def_Rwt
 SRVC .                                  : Contractor
~CURVE INFORMATION
#MNEM              UNIT       API CODE   Curve Type Comments
#----------  --------------- ----------  ---------- -----------
 DEPTH      .M                         : Depth       
 GR_API     .API                       : GammaRay    Gamma Ray (API) - Measures the intensity of natural gamma-ray radiation emitted from formations containing radioactive elements, such as K, Th and U
 LLD_OHMM   .ohmm                      :             Laterlog Deep Resistivity - Measurement made several feet into the formation; generally considered a measurement of the undisturbed formation
 LLS_OHMM   .ohmm                      :             Laterlog Shallow Resistivity - one to two feet into the formation; generally considered to measure the formation
 RHOZ_G_CC  .g/cc                      :             Formation Density - Measures the density of formation, including any void space or other materials contained in the subject volume
 NPHI_v_v   .dec                       : Neutron     
 PEF_B_E    .b/e-                      : PEF         Photoelectric Factor - A log of photoelectric absorption properties. Often expressed in an approximation unit barns/electron (b/e-)
 LITH       .                          :             
~A  DEPTH   GR_API   LLD_OHMM  LLS_OHMM RHOZ_G_C~  NPHI_v_v  PEF_B_E     LITH   
# ...
2141.8296   28.1370 -999.0000 -999.0000    2.1160   -0.0200    3.7040   16.0000 
2142.1344   28.0830 -999.0000 -999.0000    2.1700   -0.0194    3.7960   16.0000 
2142.4392   29.2140 -999.0000 -999.0000    2.2200   -0.0177    3.7560   16.0000 
2142.7440   32.1650 -999.0000 -999.0000    2.2350   -0.0166    3.6710   15.0000 
2143.0488   33.0530 -999.0000 -999.0000    2.2470   -0.0141    3.3050   15.0000 
2143.3536   32.2170 -999.0000 -999.0000    2.2200   -0.0164    3.5770   15.0000 
2143.6584   31.8440 -999.0000 -999.0000    2.1830   -0.0182    3.7050   16.0000 
2143.9632   31.8420 -999.0000 -999.0000    2.1460   -0.0202    3.7570   16.0000 
2144.2680   29.6570 -999.0000 -999.0000    2.0860   -0.0211    3.8630   16.0000 
2144.5728   25.0860 -999.0000 -999.0000    2.0890   -0.0212    3.7890   16.0000 
2144.8776   26.2950 -999.0000 -999.0000    2.0790   -0.0207    3.7160   16.0000 
2145.1824   26.6430 -999.0000 -999.0000    2.0870   -0.0205    3.7460   16.0000 
2145.4872   25.8500 -999.0000 -999.0000    2.0900   -0.0204    3.7680   16.0000 
2145.7920   28.8660 -999.0000 -999.0000    2.1000   -0.0205    3.6910   16.0000 
2146.0968   29.4420 -999.0000 -999.0000    2.0920   -0.0205    3.7500   16.0000 
2146.4016   28.5360 -999.0000 -999.0000    2.0760   -0.0206    3.6930   16.0000 
2146.7064   26.9550 -999.0000 -999.0000    2.0790   -0.0207    3.6850   16.0000 
2147.0112   28.5260 -999.0000 -999.0000    2.0760   -0.0209    3.7190   16.0000 
2147.3160   27.6690 -999.0000 -999.0000    2.0680   -0.0210    3.7760   16.0000 
2147.6208   25.9890 -999.0000 -999.0000    2.0630   -0.0210    3.7120   16.0000 
2147.9256   24.1040 -999.0000 -999.0000    2.0680   -0.0208    3.7660   16.0000 
2148.2304   25.6610 -999.0000 -999.0000    2.0660   -0.0205    3.7020   16.0000 
2148.5352   28.0040 -999.0000 -999.0000    2.0790   -0.0200    3.6470   16.0000 
2148.8400   28.5290 -999.0000 -999.0000    2.0870   -0.0199    3.6040   16.0000 
2149.1448   26.2430 -999.0000 -999.0000    2.0750   -0.0199    3.4020   16.0000 
2149.4496   27.0870 -999.0000 -999.0000    2.0740   -0.0200    3.5340   16.0000 
2149.7544   27.3180 -999.0000 -999.0000    2.0660   -0.0204    3.5820   16.0000 
2150.0592   26.3460 -999.0000 -999.0000    2.0600   -0.0213    3.6140   16.0000 
2150.3640   24.4190 -999.0000 -999.0000    2.0520   -0.0210    3.6820   16.0000 
2150.6688   21.7070 -999.0000 -999.0000    2.0470   -0.0208    3.7880   16.0000 
2150.9736   25.5030 -999.0000 -999.0000    2.0430   -0.0207    3.6350   16.0000 
2151.2784   28.4960 -999.0000 -999.0000    2.0530   -0.0206    3.6250   16.0000 
2151.5832   29.8070 -999.0000 -999.0000    2.0520   -0.0210    3.5970   16.0000 
2151.8880   28.0640 -999.0000 -999.0000    2.0490   -0.0213    3.4420   16.0000 
2152.1928   26.5530 -999.0000 -999.0000    2.0560   -0.0216    3.4760   16.0000 
2152.4976   25.6610 -999.0000 -999.0000    2.0480   -0.0213    3.6370   16.0000 
2152.8024   24.7980 -999.0000 -999.0000    2.0560   -0.0206    3.6030   16.0000 
2153.1072   25.1570 -999.0000 -999.0000    2.0670   -0.0199    3.5320   16.0000 
2153.4120   25.5110 -999.0000 -999.0000    2.0580   -0.0197    3.5400   16.0000 
2153.7168   26.2320 -999.0000 -999.0000    2.0560   -0.0198    3.6460   16.0000 
2154.0216   26.2880 -999.0000 -999.0000    2.0680   -0.0207    3.6100   16.0000 
2154.3264   25.2030 -999.0000 -999.0000    2.0750   -0.0205    3.5010   16.0000 
2154.6312   23.3850 -999.0000 -999.0000    2.0560   -0.0206    3.5870   16.0000 
2154.9360   26.3400 -999.0000 -999.0000    2.0390   -0.0205    3.5810   16.0000 
2155.2408   25.9680 -999.0000 -999.0000    2.0390   -0.0206    3.6310   16.0000 
2155.5456   27.1650 -999.0000 -999.0000    2.0620   -0.0207    3.6900   16.0000 
2155.8504   26.1210 -999.0000 -999.0000    2.0570   -0.0203    3.7120   16.0000 
2156.1552   27.6900 -999.0000 -999.0000    2.0520   -0.0202    3.7280   16.0000 
2156.4600   24.4260 -999.0000 -999.0000    2.0540   -0.0201    3.6040   16.0000 
2156.7648   26.3900 -999.0000 -999.0000    2.0530   -0.0203    3.5310   16.0000 
2157.0696   26.4620 -999.0000 -999.0000    2.0470   -0.0206    3.3390   16.0000 
2157.3744   25.1270 -999.0000 -999.0000    2.0440   -0.0211    3.4040   16.0000 
2157.6792   24.0300 -999.0000 -999.0000    2.0520   -0.0212    3.4740   16.0000 
2157.9840   25.0430 -999.0000 -999.0000    2.0490   -0.0209    3.5200   16.0000 
2158.2888   26.7180 -999.0000 -999.0000    2.0600   -0.0205    3.5600   16.0000 
2158.5936   26.6550 -999.0000 -999.0000    2.0540   -0.0197    3.6680   16.0000 
2158.8984   26.1110 -999.0000 -999.0000    2.0420   -0.0198    3.6140   16.0000 
2159.2032   27.3630 -999.0000 -999.0000    2.0510   -0.0205    3.5470   16.0000 
2159.5080   28.7990 -999.0000 -999.0000    2.0620   -0.0210    3.5930   16.0000 
2159.8128   28.5530 -999.0000 -999.0000    2.0700   -0.0213    3.7090   16.0000 
2160.1176   26.4290 -999.0000 -999.0000    2.0630   -0.0219    3.6330   16.0000 
2160.4224   25.8870 -999.0000 -999.0000    2.0690   -0.0221    3.6950   16.0000 
2160.7272   25.6430 -999.0000 -999.0000    2.0620   -0.0216    3.6680   16.0000 
2161.0320   24.3050 -999.0000 -999.0000    2.0480   -0.0216    3.4730   16.0000 
2161.3368   27.1280 -999.0000 -999.0000    2.0530   -0.0215    3.5220   16.0000 
2161.6416   29.8860 -999.0000 -999.0000    2.0510   -0.0200    3.5130   16.0000 
2161.9464   30.6060 -999.0000 -999.0000    2.2130   -0.0133    3.9700   16.0000 
2162.2512   29.2190 -999.0000 -999.0000    2.4100   -0.0063    4.2070   15.0000 
2162.5560   26.2010 -999.0000 -999.0000    2.5140   -0.0011    4.0680   15.0000 
2162.8608   29.5190 -999.0000 -999.0000    2.4730   -0.0016    3.9960   15.0000 
2163.1656   30.2910 -999.0000 -999.0000    2.2670   -0.0108    3.3670   16.0000 
2163.4704   28.4180 -999.0000 -999.0000    2.1450   -0.0177    3.4380   16.0000 
2163.7752   27.0930 -999.0000 -999.0000    2.0830   -0.0168    3.5540   16.0000 
2164.0800   31.1820 -999.0000 -999.0000    2.0840   -0.0170    3.5640   16.0000 
2164.3848   29.1930 -999.0000 -999.0000    2.0770   -0.0190    3.4940   16.0000 
2164.6896   27.7310 -999.0000 -999.0000    2.0740   -0.0199    3.6420   16.0000 
2164.9944   29.9640 -999.0000 -999.0000    2.0550   -0.0196    3.7020   16.0000 
2165.2992   28.3340 -999.0000 -999.0000    2.0370   -0.0186    3.6960   16.0000 
2165.6040   28.7460 -999.0000 -999.0000    2.0560   -0.0175    3.6490   16.0000 
2165.9088   31.0730 -999.0000 -999.0000    2.0600   -0.0164    3.4000   16.0000 
2166.2136   30.5930 -999.0000 -999.0000    2.0970   -0.0111    3.6080   16.0000 
2166.5184   29.2520 -999.0000 -999.0000    2.3160   -0.0026    4.3040   16.0000 
2166.8232   27.7970 -999.0000 -999.0000    2.7310    0.0056    5.1680   18.0000 
2167.1280   26.4090 -999.0000 -999.0000    2.9340    0.0000    5.1620    1.0000 
2167.4328   26.2350 -999.0000 -999.0000    2.8090   -0.0041    4.5220   18.0000 
2167.7376   28.2690 -999.0000 -999.0000    2.3370   -0.0087    4.0460   16.0000 
2168.0424   25.6100 -999.0000 -999.0000    2.1460   -0.0136    3.7570   16.0000 
2168.3472   29.6990 -999.0000 -999.0000    2.0560   -0.0165    3.4950   16.0000 
2168.6520   27.8790 -999.0000 -999.0000    2.0580   -0.0172    3.5730   16.0000 
2168.9568   27.6270 -999.0000 -999.0000    2.0450   -0.0174    3.5840   16.0000 
2169.2616   29.5410 -999.0000 -999.0000    2.0450   -0.0196    3.5040   16.0000 
2169.5664   27.8600 -999.0000 -999.0000    2.0540   -0.0211    3.6420   16.0000 
2169.8712   26.3460 -999.0000 -999.0000    2.0510   -0.0214    3.6570   16.0000 
2170.1760   25.5660 -999.0000 -999.0000    2.0410   -0.0191    3.5380   16.0000 
2170.4808   27.5990 -999.0000 -999.0000    2.0450   -0.0177    3.6100   16.0000 
2170.7856   29.4080 -999.0000 -999.0000    2.0410   -0.0182    3.7150   16.0000 
2171.0904   27.2870 -999.0000 -999.0000    2.0430   -0.0186    3.8050   16.0000 
2171.3952   25.0650 -999.0000 -999.0000    2.0650   -0.0182    3.6330   16.0000 
2171.7000   26.6300 -999.0000 -999.0000    2.2250   -0.0127    3.8310   16.0000 
