~VERSION INFORMATION
 VERS.                 2.0:   CWLS LOG ASCII STANDARD - VERSION 2.0
 WRAP.                  NO:   SINGLE LINE PER DEPTH STEP
 CREA.                 05/01/2018 16:57:09
#CREATED USING DSPetro VERSION 5000.10.1.3 BY H191660 ON 05/01/2018 16:57:09
~WELL INFORMATION
#MNEM.UNIT       DATA                          DESCRIPTION MNEMONIC
#---------      ---------------------------   --------------------------
 STRT    .M         59.7408                   : START DEPTH
 STOP    .M         2451.5064                 : STOP DEPTH
 STEP    .M         0.3048                    : STEP VALUE
 NULL    .      -999.0000                     : NULL VALUE
 DATE    .      05/01/2018                    : LAS file Creation Date
 WELL .      JOHNSON_1_1                 : Well Name
 COMP .      Neftex Exploration Insights : Company
 FLD  .                                  : Field
 UWI  .      DUSWL_JOHNSO                : Unique Well Identifier (UWI)
 LOC  .                                  : Location
 RWS  .      -999                        : Def_Rw
 WST  .      -999                        : Def_Rwt
 SRVC .                                  : Contractor
~CURVE INFORMATION
#MNEM              UNIT       API CODE   Curve Type Comments
#----------  --------------- ----------  ---------- -----------
 DEPTH      .M                         : Depth       
 GR_API     .API                       : GammaRay    Gamma Ray (API) - Measures the intensity of natural gamma-ray radiation emitted from formations containing radioactive elements, such as K, Th and U
 LLD_OHMM   .ohmm                      :             Laterlog Deep Resistivity - Measurement made several feet into the formation; generally considered a measurement of the undisturbed formation
 LLS_OHMM   .ohmm                      :             Laterlog Shallow Resistivity - one to two feet into the formation; generally considered to measure the formation
 RHOZ_G_CC  .g/cc                      :             Formation Density - Measures the density of formation, including any void space or other materials contained in the subject volume
 NPHI_v_v   .dec                       : Neutron     
 PEF_B_E    .b/e-                      : PEF         Photoelectric Factor - A log of photoelectric absorption properties. Often expressed in an approximation unit barns/electron (b/e-)
 LITH       .                          :             
~A  DEPTH   GR_API   LLD_OHMM  LLS_OHMM RHOZ_G_C~  NPHI_v_v  PEF_B_E     LITH   
# ...
1296.9240   29.1890 -999.0000 -999.0000    2.7760    0.0867    2.7670   12.0000 
1297.2288   26.9300 -999.0000 -999.0000    2.7750    0.0990    2.8920   12.0000 
1297.5336   24.6810 -999.0000 -999.0000    2.7700    0.1108    2.9670   12.0000 
1297.8384   26.5640 -999.0000 -999.0000    2.7650    0.1223    2.9820   12.0000 
1298.1432   26.5800 -999.0000 -999.0000    2.7800    0.1093    2.9670   12.0000 
1298.4480   25.8080 -999.0000 -999.0000    2.7950    0.0786    2.9140   12.0000 
1298.7528   29.2410 -999.0000 -999.0000    2.7750    0.0839    2.8030   12.0000 
1299.0576   33.8270 -999.0000 -999.0000    2.7640    0.0927    2.8940   12.0000 
1299.3624   29.1920 -999.0000 -999.0000    2.7700    0.0874    2.7610   12.0000 
1299.6672   23.0700 -999.0000 -999.0000    2.7830    0.0869    2.4920   12.0000 
1299.9720   19.8650 -999.0000 -999.0000    2.8000    0.0857    2.7700   12.0000 
1300.2768   24.1920 -999.0000 -999.0000    2.7920    0.0756    3.0140   12.0000 
1300.5816   21.0690 -999.0000 -999.0000    2.7770    0.0902    2.9860   12.0000 
1300.8864   18.3710 -999.0000 -999.0000    2.7730    0.0882    2.7390   12.0000 
1301.1912   15.0570 -999.0000 -999.0000    2.7750    0.0979    2.8580   12.0000 
1301.4960   16.7750 -999.0000 -999.0000    2.7770    0.1112    2.9710   12.0000 
1301.8008   18.2310 -999.0000 -999.0000    2.7520    0.1190    2.9360   12.0000 
1302.1056   17.2470 -999.0000 -999.0000    2.7340    0.1315    2.8300   12.0000 
1302.4104   18.8060 -999.0000 -999.0000    2.7340    0.1414    2.7170   12.0000 
1302.7152   20.4080 -999.0000 -999.0000    2.7260    0.1499    2.7120   12.0000 
1303.0200   17.3000 -999.0000 -999.0000    2.7440    0.1396    2.8230   12.0000 
1303.3248   14.5370 -999.0000 -999.0000    2.7870    0.1156    2.9120   12.0000 
1303.6296   17.2400 -999.0000 -999.0000    2.8010    0.0830    2.9530   12.0000 
1303.9344   18.9990 -999.0000 -999.0000    2.7980    0.0676    3.0620   12.0000 
1304.2392   16.7510 -999.0000 -999.0000    2.8080    0.0592    3.2030   12.0000 
1304.5440   15.2810 -999.0000 -999.0000    2.8170    0.0509    2.9770   12.0000 
1304.8488   16.9710 -999.0000 -999.0000    2.8360    0.0471    2.8540   12.0000 
1305.1536   16.0980 -999.0000 -999.0000    2.8340    0.0498    2.9370   12.0000 
1305.4584   17.4500 -999.0000 -999.0000    2.8290    0.0492    2.8910   12.0000 
1305.7632   15.7520 -999.0000 -999.0000    2.8690    0.0302    3.3740   12.0000 
1306.0680   13.4910 -999.0000 -999.0000    2.9370    0.0010    4.3570    1.0000 
1306.3728   11.6730 -999.0000 -999.0000    2.9650   -0.0087    4.4560    1.0000 
1306.6776    9.7980 -999.0000 -999.0000    2.9770   -0.0107    5.1730    1.0000 
1306.9824    9.8750 -999.0000 -999.0000    2.9690   -0.0112    5.9110    1.0000 
1307.2872   12.8820 -999.0000 -999.0000    2.9500   -0.0099    5.4610    1.0000 
1307.5920   12.9840 -999.0000 -999.0000    2.9650   -0.0076    4.8860    1.0000 
1307.8968   16.0320 -999.0000 -999.0000    2.9740   -0.0027    4.5710    1.0000 
1308.2016   18.0420 -999.0000 -999.0000    2.9630   -0.0048    4.7570    1.0000 
1308.5064   16.2980 -999.0000 -999.0000    2.9470   -0.0065    4.7690    1.0000 
1308.8112   15.9620 -999.0000 -999.0000    2.9580   -0.0077    4.7700    1.0000 
1309.1160   13.9590 -999.0000 -999.0000    2.9650   -0.0077    4.6100    1.0000 
1309.4208   13.2930 -999.0000 -999.0000    2.9780   -0.0091    4.9900    1.0000 
1309.7256   11.1900 -999.0000 -999.0000    2.9840   -0.0126    4.8420    1.0000 
1310.0304    9.9530 -999.0000 -999.0000    3.0030   -0.0130    4.6100    1.0000 
1310.3352    9.5930 -999.0000 -999.0000    2.9890   -0.0126    4.4210    1.0000 
1310.6400   11.5910 -999.0000 -999.0000    2.9770   -0.0103    3.7720    1.0000 
1310.9448   17.7410 -999.0000 -999.0000    2.9580   -0.0066    4.2990    1.0000 
1311.2496   18.2790 -999.0000 -999.0000    2.9650   -0.0069    4.8260    1.0000 
1311.5544   18.8310 -999.0000 -999.0000    2.9590   -0.0071    4.7140    1.0000 
1311.8592   18.1440 -999.0000 -999.0000    2.9580   -0.0070    4.3920    1.0000 
1312.1640   14.1090 -999.0000 -999.0000    2.9670   -0.0068    3.9740    1.0000 
1312.4688   14.7200 -999.0000 -999.0000    2.9870   -0.0088    4.7000    1.0000 
1312.7736   13.9800 -999.0000 -999.0000    2.9920   -0.0105    4.9140    1.0000 
1313.0784   12.2600 -999.0000 -999.0000    2.9800   -0.0107    4.9450    1.0000 
1313.3832   11.7560 -999.0000 -999.0000    2.9840   -0.0110    5.0520    1.0000 
1313.6880   11.8310 -999.0000 -999.0000    2.9930   -0.0110    5.2770    1.0000 
1313.9928   10.4390 -999.0000 -999.0000    2.9830   -0.0104    5.5200    1.0000 
1314.2976   12.0690 -999.0000 -999.0000    2.9760   -0.0097    4.9540    1.0000 
1314.6024   14.8470 -999.0000 -999.0000    2.9980   -0.0084    4.6540    1.0000 
1314.9072   19.2510 -999.0000 -999.0000    2.9540   -0.0054    4.3180    1.0000 
1315.2120   23.9870 -999.0000 -999.0000    2.8790    0.0041    2.8970   12.0000 
1315.5168   30.2760 -999.0000 -999.0000    2.8750    0.0116    2.9870   12.0000 
1315.8216   25.9280 -999.0000 -999.0000    2.8680    0.0161    3.1330   12.0000 
1316.1264   21.7230 -999.0000 -999.0000    2.8620    0.0185    2.9890   12.0000 
1316.4312   23.9660 -999.0000 -999.0000    2.8740    0.0086    2.8840   12.0000 
1316.7360   23.8760 -999.0000 -999.0000    2.9000   -0.0015    3.0690   12.0000 
1317.0408   20.2470 -999.0000 -999.0000    2.9560   -0.0060    4.1060    1.0000 
1317.3456   18.6680 -999.0000 -999.0000    2.9740   -0.0080    5.0010    1.0000 
1317.6504   16.6160 -999.0000 -999.0000    2.9680   -0.0088    5.1650    1.0000 
1317.9552   14.4330 -999.0000 -999.0000    2.9850   -0.0109    5.5680    1.0000 
1318.2600   13.4300 -999.0000 -999.0000    2.9620   -0.0074    4.6380    1.0000 
1318.5648   15.8630 -999.0000 -999.0000    2.9340   -0.0039    3.7740   12.0000 
1318.8696   17.1330 -999.0000 -999.0000    2.8970    0.0007    3.0160   12.0000 
1319.1744   17.7950 -999.0000 -999.0000    2.8980    0.0023    3.5060   12.0000 
1319.4792   18.1200 -999.0000 -999.0000    2.9370   -0.0050    4.7970    1.0000 
1319.7840   14.9160 -999.0000 -999.0000    2.9810   -0.0116    4.8710    1.0000 
1320.0888   15.7790 -999.0000 -999.0000    2.9810   -0.0111    4.8670    1.0000 
1320.3936   16.5140 -999.0000 -999.0000    2.9850   -0.0087    5.2740    1.0000 
1320.6984   13.9680 -999.0000 -999.0000    2.9980   -0.0111    5.5490    1.0000 
1321.0032   12.9240 -999.0000 -999.0000    2.9920   -0.0119    5.0800    1.0000 
1321.3080   14.0820 -999.0000 -999.0000    2.9550   -0.0071    3.6050   12.0000 
1321.6128   18.1920 -999.0000 -999.0000    2.9050    0.0032    3.1940   12.0000 
1321.9176   22.0310 -999.0000 -999.0000    2.8750   -0.0016    3.5790   12.0000 
1322.2224   21.4430 -999.0000 -999.0000    2.9300   -0.0079    4.1030    1.0000 
1322.5272   16.8300 -999.0000 -999.0000    2.9980   -0.0127    4.6230    1.0000 
1322.8320   13.8530 -999.0000 -999.0000    3.0030   -0.0158    4.7080    1.0000 
1323.1368    9.6540 -999.0000 -999.0000    3.0110   -0.0177    4.5310    1.0000 
1323.4416    9.7490 -999.0000 -999.0000    3.0050   -0.0166    4.1630    1.0000 
1323.7464   12.5040 -999.0000 -999.0000    2.9830   -0.0136    4.8790    1.0000 
1324.0512   13.4160 -999.0000 -999.0000    2.9770   -0.0139    5.0230    1.0000 
1324.3560   13.6700 -999.0000 -999.0000    2.9760   -0.0157    4.5210    1.0000 
1324.6608   15.1970 -999.0000 -999.0000    2.9740   -0.0154    4.6840    1.0000 
1324.9656   13.8410 -999.0000 -999.0000    2.7780   -0.0155    3.8950   18.0000 
1325.2704   14.2440 -999.0000 -999.0000    2.6260   -0.0145    4.1120   18.0000 
1325.5752   13.0010 -999.0000 -999.0000    2.7500   -0.0073    4.3970   18.0000 
1325.8800   13.8530 -999.0000 -999.0000    2.8070   -0.0133    4.1320   18.0000 
1326.1848   16.2360 -999.0000 -999.0000    2.4800   -0.0127    3.0740   16.0000 
1326.4896   15.3540 -999.0000 -999.0000    1.9860   -0.0187    2.7630   16.0000 
1326.7944   11.8680 -999.0000 -999.0000    1.9730   -0.0247    3.1140   16.0000 
