~VERSION INFORMATION
 VERS.                 2.0:   CWLS LOG ASCII STANDARD - VERSION 2.0
 WRAP.                  NO:   SINGLE LINE PER DEPTH STEP
 CREA.                 05/01/2018 17:09:06
#CREATED USING DSPetro VERSION 5000.10.1.3 BY H191660 ON 05/01/2018 17:09:06
~WELL INFORMATION
#MNEM.UNIT       DATA                          DESCRIPTION MNEMONIC
#---------      ---------------------------   --------------------------
 STRT    .M         80.7720                   : START DEPTH
 STOP    .M         2461.5648                 : STOP DEPTH
 STEP    .M         0.3048                    : STEP VALUE
 NULL    .      -999.0000                     : NULL VALUE
 DATE    .      05/01/2018                    : LAS file Creation Date
 WELL .      JOHNSON_3_1                 : Well Name
 COMP .      Neftex Exploration Insights : Company
 FLD  .                                  : Field
 UWI  .      DUSWL_JO_3_1                : Unique Well Identifier (UWI)
 LOC  .                                  : Location
 RWS  .      -999                        : Def_Rw
 WST  .      -999                        : Def_Rwt
 SRVC .                                  : Contractor
~CURVE INFORMATION
#MNEM              UNIT       API CODE   Curve Type Comments
#----------  --------------- ----------  ---------- -----------
 DEPTH      .M                         : Depth       
 CAL_INCH   .inch                      :             Caliper Log - A representation of the measured diameter of a borehole along its depth
 GR_API     .API                       : GammaRay    Gamma Ray (API) - Measures the intensity of natural gamma-ray radiation emitted from formations containing radioactive elements, such as K, Th and U
 RHOZ_G_CC  .g/cc                      :             Formation Density - Measures the density of formation, including any void space or other materials contained in the subject volume
 NPHI_v_v   .dec                       : Neutron     
 PEF_B_E    .b/e-                      : PEF         Photoelectric Factor - A log of photoelectric absorption properties. Often expressed in an approximation unit barns/electron (b/e-)
 LITH       .                          :             
~A  DEPTH  CAL_INCH   GR_API  RHOZ_G_C~  NPHI_v_v  PEF_B_E     LITH   
# ...
1561.7952   13.3240   18.4380    2.6840    0.1390    2.8300   12.0000 
1562.1000   13.3080   18.0920    2.6450    0.1832    2.7610   12.0000 
1562.4048   13.3120   14.5070    2.6300    0.1958    2.8210   12.0000 
1562.7096   13.3040   14.8140    2.6610    0.1870    3.0100   12.0000 
1563.0144   13.3370   17.2530    2.6860    0.1639    3.0180   12.0000 
1563.3192   13.3450   16.0100    2.6940    0.1211    2.7870   12.0000 
1563.6240   13.3540   13.5510    2.6710    0.1367    2.7230   12.0000 
1563.9288   13.3220   12.8520    2.6270    0.1957    2.6660   12.0000 
1564.2336   13.3680   12.8460    2.6140    0.2115    2.6320   12.0000 
1564.5384   13.4090   11.3510    2.6340    0.2107    2.5390   12.0000 
1564.8432   13.4250   13.9230    2.6580    0.2001    2.6020   12.0000 
1565.1480   13.3570   15.5400    2.6550    0.1945    2.6220   12.0000 
1565.4528   13.3370   14.2850    2.6680    0.2000    2.6620   12.0000 
1565.7576   13.3490   13.6250    2.6850    0.1850    2.6960   12.0000 
1566.0624   13.3680   13.7430    2.6730    0.1747    2.6900   12.0000 
1566.3672   13.3920   11.6460    2.6110    0.1887    2.5730   12.0000 
1566.6720   12.9670   11.2290    2.5750    0.2226    2.6490   12.0000 
1566.9768   12.9110   11.6790    2.5600    0.2422    2.6810   12.0000 
1567.2816   13.0710   10.2360    2.5630    0.2391    2.7270   12.0000 
1567.5864   13.2430   12.6380    2.5920    0.2224    2.6550   12.0000 
1567.8912   12.9250   18.2460    2.6140    0.2095    2.6870   12.0000 
1568.1960   12.8450   25.5920    2.6450    0.1909    2.7310   12.0000 
1568.5008   13.3760   31.8650    2.7050    0.1162    2.6890   12.0000 
1568.8056   13.3350   26.0270    2.7510    0.0636    2.6410   12.0000 
1569.1104   13.2990   27.1020    2.7510    0.0535    2.8210   12.0000 
1569.4152   13.2590   27.9380    2.7340    0.0623    2.9310   12.0000 
1569.7200   13.4240   27.4040    2.7340    0.0569    3.1240   12.0000 
1570.0248   13.3840   25.1270    2.7170    0.0470    2.9110   12.0000 
1570.3296   13.3050   26.5640    2.6930    0.1121    2.7480   12.0000 
1570.6344   13.3290   29.8760    2.6860    0.1424    2.9350   12.0000 
1570.9392   13.4500   33.8150    2.6990    0.1258    2.9250   12.0000 
1571.2440   13.4740   40.2150    2.7200    0.0919    2.8560   12.0000 
1571.5488   13.4290   35.0150    2.7310    0.0895    2.9790   12.0000 
1571.8536   13.4380   26.7230    2.7340    0.0950    3.9220   12.0000 
1572.1584   13.5780   25.8770    2.7510    0.0924    3.7340   12.0000 
1572.4632   13.5930   26.9540    2.7220    0.1121    2.9160   12.0000 
1572.7680   13.5580   25.4790    2.7090    0.1087    2.7590   12.0000 
1573.0728   13.4550   23.7990    2.7590    0.0727    2.8350   12.0000 
1573.3776   13.5300   26.9790    2.7730    0.0526    3.0950   12.0000 
1573.6824   13.6180   25.4210    2.7730    0.0478    2.8910   12.0000 
1573.9872   13.6060   27.9470    2.7690    0.0536    2.6200   12.0000 
1574.2920   13.5540   26.2010    2.7490    0.0903    2.7330   12.0000 
1574.5968   13.5540   27.9410    2.7360    0.1189    2.7650   12.0000 
1574.9016   13.5700   26.0220    2.7360    0.1139    2.8270   12.0000 
1575.2064   13.5630   23.3240    2.7310    0.1079    2.9700   12.0000 
1575.5112   13.5500   26.9840    2.7210    0.1078    2.8670   12.0000 
1575.8160   13.5780   29.2650    2.7520    0.1075    2.9680   12.0000 
1576.1208   13.6300   30.8070    2.7760    0.0917    3.2000   12.0000 
1576.4256   13.6380   30.5810    2.7870    0.0750    3.3830   12.0000 
1576.7304   13.6540   29.7930    2.7740    0.0648    3.3310   12.0000 
1577.0352   13.6470   31.8360    2.7470    0.0900    3.0270   12.0000 
1577.3400   13.6390   28.9730    2.7100    0.1167    2.8040   12.0000 
1577.6448   13.6470   28.3680    2.7110    0.1348    2.8850   12.0000 
1577.9496   13.6310   29.0970    2.7130    0.1363    3.0590   12.0000 
1578.2544   13.6120   28.0310    2.6980    0.1390    3.2940   12.0000 
1578.5592   13.6120   27.6710    2.6710    0.1587    3.1040   12.0000 
1578.8640   13.6010   26.2370    2.6860    0.1582    2.8970   12.0000 
1579.1688   13.6830   29.8260    2.7190    0.1371    2.9630   12.0000 
1579.4736   13.7200   34.1220    2.7410    0.1178    3.0750   12.0000 
1579.7784   13.6370   37.5350    2.7660    0.0914    3.2630   12.0000 
1580.0832   13.4980   35.1990    2.7640    0.0672    3.2430   12.0000 
1580.3880   13.3510   32.6990    2.7490    0.0695    3.2410   12.0000 
1580.6928   13.2510   30.3660    2.7440    0.0760    3.2970   12.0000 
1580.9976   13.1470   27.9870    2.7180    0.0726    3.1560   12.0000 
1581.3024   13.0970   27.4530    2.7390    0.0767    3.1780   12.0000 
1581.6072   13.1640   29.0760    2.7730    0.0609    3.1240   12.0000 
1581.9120   13.1760   32.9520    2.7840    0.0442    3.0560   12.0000 
1582.2168   13.0210   35.7680    2.7610    0.0424    2.8990   12.0000 
1582.5216   12.6670   32.2470    2.7620    0.0595    3.0160   12.0000 
1582.8264   12.9220   25.3820    2.7750    0.0391    3.1260   12.0000 
1583.1312   13.0850   25.0740    2.7820    0.0329    2.8850   12.0000 
1583.4360   13.0250   27.1880    2.7800    0.0370    2.8830   12.0000 
1583.7408   12.6220   27.1100    2.7620    0.0422    3.0050   12.0000 
1584.0456   12.8740   31.2930    2.7810    0.0587    3.0110   12.0000 
1584.3504   13.1330   31.6460    2.7970    0.0532    2.8550   12.0000 
1584.6552   13.1580   26.9310    2.7980    0.0439    2.8370   12.0000 
1584.9600   12.9630   28.7840    2.7720    0.0471    2.9020   12.0000 
1585.2648   13.1180   30.4100    2.7710    0.0548    2.8480   12.0000 
1585.5696   13.2210   29.2610    2.7860    0.0506    2.7020   12.0000 
1585.8744   13.2490   28.2500    2.7970    0.0356    2.8560   12.0000 
1586.1792   13.0660   31.9040    2.7860    0.0334    2.9230   12.0000 
1586.4840   13.1500   35.8490    2.7810    0.0447    2.8260   12.0000 
1586.7888   13.2580   33.5150    2.7850    0.0393    2.8300   12.0000 
1587.0936   13.2470   29.6490    2.7880    0.0424    2.8760   12.0000 
1587.3984   13.1390   25.6980    2.7880    0.0435    2.9520   12.0000 
1587.7032   13.1310   27.9810    2.7650    0.0406    2.7890   12.0000 
1588.0080   13.2630   32.6460    2.7580    0.0416    2.6910   12.0000 
1588.3128   13.2510   35.4510    2.7590    0.0554    2.8070   12.0000 
1588.6176   13.0680   35.3420    2.7820    0.0640    2.9870   12.0000 
1588.9224   13.2310   31.5950    2.7790    0.0539    2.9390   12.0000 
1589.2272   13.3910   28.7150    2.7820    0.0481    2.7460   12.0000 
1589.5320   13.3920   29.5560    2.7730    0.0418    2.9550   12.0000 
1589.8368   13.1960   34.9280    2.7670    0.0463    3.0690   12.0000 
1590.1416   12.8780   39.0590    2.7590    0.0594    3.1110   12.0000 
1590.4464   13.2090   35.5940    2.7520    0.0514    3.0880   12.0000 
1590.7512   13.2880   31.3020    2.7510    0.0499    3.2310   12.0000 
1591.0560   12.6510   29.1950    2.7310    0.0796    3.1610   12.0000 
1591.3608   12.9110   30.5910    2.7040    0.0977    3.2010   12.0000 
1591.6656   13.3260   31.7220    2.7010    0.0997    3.3150   12.0000 
1591.9704   13.3010   27.6030    2.7150    0.0840    3.0520   12.0000 
1592.2752   13.2370   23.6690    2.7170    0.0735    2.9980   12.0000 
1592.5800   13.3250   25.7570    2.7480    0.0442    3.4880   12.0000 
1592.8848   13.4210   26.1840    2.7490    0.0201    3.8430   18.0000 
1593.1896   13.1670   28.5110    2.7390    0.0111    3.8270   18.0000 
1593.4944   12.8560   31.0820    2.7460    0.0125    3.7070   18.0000 
1593.7992   13.0510   31.9760    2.7500    0.0108    3.5730   18.0000 
1594.1040   13.2220   31.8650    2.7510    0.0078    3.4890   18.0000 
1594.4088   13.1830   28.3380    2.7520    0.0072    3.7230   18.0000 
1594.7136   12.9480   27.8610    2.7510    0.0103    3.5740   18.0000 
1595.0184   13.2460   28.8110    2.7480    0.0071    3.6980   18.0000 
1595.3232   13.4060   30.1280    2.7520    0.0048    3.8660   18.0000 
1595.6280   13.1280   27.8670    2.7530    0.0005    4.0220   18.0000 
1595.9328   12.7890   33.6080    2.7520    0.0003    3.7990   18.0000 
