~VERSION INFORMATION
 VERS.                 2.0:   CWLS LOG ASCII STANDARD - VERSION 2.0
 WRAP.                  NO:   SINGLE LINE PER DEPTH STEP
 CREA.                 05/01/2018 17:09:06
#CREATED USING DSPetro VERSION 5000.10.1.3 BY H191660 ON 05/01/2018 17:09:06
~WELL INFORMATION
#MNEM.UNIT       DATA                          DESCRIPTION MNEMONIC
#---------      ---------------------------   --------------------------
 STRT    .M         80.7720                   : START DEPTH
 STOP    .M         2461.5648                 : STOP DEPTH
 STEP    .M         0.3048                    : STEP VALUE
 NULL    .      -999.0000                     : NULL VALUE
 DATE    .      05/01/2018                    : LAS file Creation Date
 WELL .      JOHNSON_3_1                 : Well Name
 COMP .      Neftex Exploration Insights : Company
 FLD  .                                  : Field
 UWI  .      DUSWL_JO_3_1                : Unique Well Identifier (UWI)
 LOC  .                                  : Location
 RWS  .      -999                        : Def_Rw
 WST  .      -999                        : Def_Rwt
 SRVC .                                  : Contractor
~CURVE INFORMATION
#MNEM              UNIT       API CODE   Curve Type Comments
#----------  --------------- ----------  ---------- -----------
 DEPTH      .M                         : Depth       
 CAL_INCH   .inch                      :             Caliper Log - A representation of the measured diameter of a borehole along its depth
 GR_API     .API                       : GammaRay    Gamma Ray (API) - Measures the intensity of natural gamma-ray radiation emitted from formations containing radioactive elements, such as K, Th and U
 RHOZ_G_CC  .g/cc                      :             Formation Density - Measures the density of formation, including any void space or other materials contained in the subject volume
 NPHI_v_v   .dec                       : Neutron     
 PEF_B_E    .b/e-                      : PEF         Photoelectric Factor - A log of photoelectric absorption properties. Often expressed in an approximation unit barns/electron (b/e-)
 LITH       .                          :             
~A  DEPTH  CAL_INCH   GR_API  RHOZ_G_C~  NPHI_v_v  PEF_B_E     LITH   
# ...
 287.4264   14.3900   88.4190 -999.0000    0.2823 -999.0000 -999.0000 
 287.7312   14.4820   86.2070 -999.0000    0.2614 -999.0000 -999.0000 
 288.0360   14.5660   83.7020 -999.0000    0.2705 -999.0000 -999.0000 
 288.3408   14.6540   83.1240 -999.0000    0.2631 -999.0000 -999.0000 
 288.6456   14.7110   78.2180 -999.0000    0.2362 -999.0000 -999.0000 
 288.9504   14.7630   72.7260 -999.0000    0.2159 -999.0000 -999.0000 
 289.2552   14.8760   73.2690 -999.0000    0.1980 -999.0000 -999.0000 
 289.5600   14.9570   66.0410 -999.0000    0.1914 -999.0000 -999.0000 
 289.8648   14.9660   60.4320 -999.0000    0.1760 -999.0000 -999.0000 
 290.1696   14.9770   65.0540 -999.0000    0.1833 -999.0000 -999.0000 
 290.4744   15.0210   64.0350 -999.0000    0.1913 -999.0000 -999.0000 
 290.7792   15.0020   63.2000 -999.0000    0.1793 -999.0000 -999.0000 
 291.0840   15.0420   67.9970 -999.0000    0.1878 -999.0000 -999.0000 
 291.3888   15.0500   69.2600 -999.0000    0.2319 -999.0000 -999.0000 
 291.6936   14.9280   85.3160 -999.0000    0.3164 -999.0000 -999.0000 
 291.9984   14.9600   91.2390 -999.0000    0.3897 -999.0000 -999.0000 
 292.3032   15.0360   95.3030 -999.0000    0.3219 -999.0000 -999.0000 
 292.6080   15.0760   98.6490 -999.0000    0.3054 -999.0000 -999.0000 
 292.9128   15.1720   94.3110 -999.0000    0.3055 -999.0000 -999.0000 
 293.2176   15.2650  103.8300 -999.0000    0.2877 -999.0000 -999.0000 
 293.5224   15.3770  103.4700 -999.0000    0.3176 -999.0000 -999.0000 
 293.8272   15.5130   99.0560 -999.0000    0.3201 -999.0000 -999.0000 
 294.1320   15.8480   95.2470 -999.0000    0.2928 -999.0000 -999.0000 
 294.4368   16.1040   92.0780 -999.0000    0.2871 -999.0000 -999.0000 
 294.7416   15.4080   85.0290 -999.0000    0.2757 -999.0000 -999.0000 
 295.0464   15.2680   80.8400 -999.0000    0.2966 -999.0000 -999.0000 
 295.3512   15.0850   82.2170 -999.0000    0.3249 -999.0000 -999.0000 
 295.6560   14.9850   80.2590 -999.0000    0.2866 -999.0000 -999.0000 
 295.9608   15.1740   84.2270 -999.0000    0.2725 -999.0000 -999.0000 
 296.2656   15.4300   83.2200 -999.0000    0.3903 -999.0000 -999.0000 
 296.5704   15.9940   79.7550 -999.0000    0.4277 -999.0000 -999.0000 
 296.8752   16.1020   79.6230 -999.0000    0.3839 -999.0000 -999.0000 
 297.1800   16.1940   74.0330 -999.0000    0.3818 -999.0000 -999.0000 
 297.4848   15.8820   70.9860 -999.0000    0.3514 -999.0000 -999.0000 
 297.7896   15.7750   70.8030 -999.0000    0.3011 -999.0000 -999.0000 
 298.0944   15.7400   74.5170 -999.0000    0.2891 -999.0000 -999.0000 
 298.3992   15.7570   72.9740 -999.0000    0.2796 -999.0000 -999.0000 
 298.7040   15.8440   68.7240 -999.0000    0.2403 -999.0000 -999.0000 
 299.0088   16.0820   74.0030 -999.0000    0.2730 -999.0000 -999.0000 
 299.3136   16.0050   75.0170 -999.0000    0.3555 -999.0000 -999.0000 
 299.6184   15.9060   73.7790 -999.0000    0.3323 -999.0000 -999.0000 
 299.9232   16.0120   73.9670 -999.0000    0.2882 -999.0000 -999.0000 
 300.2280   16.0360   76.3760 -999.0000    0.2617 -999.0000 -999.0000 
 300.5328   16.0760   83.9760 -999.0000    0.2442 -999.0000 -999.0000 
 300.8376   16.1160   87.1340 -999.0000    0.3344 -999.0000 -999.0000 
 301.1424   16.6000   89.9460 -999.0000    0.3778 -999.0000 -999.0000 
 301.4472   16.1730   95.8230 -999.0000    0.3579 -999.0000 -999.0000 
 301.7520   16.1780  100.0680 -999.0000    0.4030 -999.0000 -999.0000 
 302.0568   15.8990  105.4610 -999.0000    0.3745 -999.0000 -999.0000 
 302.3616   15.9900  109.7190 -999.0000    0.3743 -999.0000 -999.0000 
 302.6664   15.5480  106.7420 -999.0000    0.3632 -999.0000 -999.0000 
 302.9712   15.1530   97.5920 -999.0000    0.2871 -999.0000 -999.0000 
 303.2760   15.0260   92.6930 -999.0000    0.2873 -999.0000 -999.0000 
 303.5808   14.9350   94.9310 -999.0000    0.3030 -999.0000 -999.0000 
 303.8856   14.8280   92.9120 -999.0000    0.3383 -999.0000 -999.0000 
 304.1904   14.7560   94.7610 -999.0000    0.3307 -999.0000 -999.0000 
 304.4952   14.6820   98.8280 -999.0000    0.3088 -999.0000 -999.0000 
 304.8000   14.6290  106.0140 -999.0000    0.3009 -999.0000 -999.0000 
 305.1048   14.5630  114.5750 -999.0000    0.3881 -999.0000 -999.0000 
 305.4096   14.5630  122.2440 -999.0000    0.4047 -999.0000 -999.0000 
 305.7144   14.6360  130.1190 -999.0000    0.3526 -999.0000 -999.0000 
 306.0192   14.7480  121.8290 -999.0000    0.3867 -999.0000 -999.0000 
 306.3240   14.9350  114.4880 -999.0000    0.4107 -999.0000 -999.0000 
 306.6288   14.8470  115.8680 -999.0000    0.4048 -999.0000 -999.0000 
 306.9336   14.7970  104.8100 -999.0000    0.4259 -999.0000 -999.0000 
 307.2384   15.0050   92.0900 -999.0000    0.3756 -999.0000 -999.0000 
 307.5432   15.3120   87.7220 -999.0000    0.2777 -999.0000 -999.0000 
 307.8480   15.1740   87.1920 -999.0000    0.2662 -999.0000 -999.0000 
 308.1528   14.9400   81.2240 -999.0000    0.2539 -999.0000 -999.0000 
 308.4576   14.8000   77.2230 -999.0000    0.2736 -999.0000 -999.0000 
 308.7624   14.6540   70.0070 -999.0000    0.3988 -999.0000 -999.0000 
 309.0672   14.8850   73.7090 -999.0000    0.3456 -999.0000 -999.0000 
 309.3720   15.2640   78.9620 -999.0000    0.2700 -999.0000 -999.0000 
 309.6768   15.1290   83.7110 -999.0000    0.2388 -999.0000 -999.0000 
 309.9816   15.4840   83.6000 -999.0000    0.3123 -999.0000 -999.0000 
 310.2864   15.4330   80.2490 -999.0000    0.3426 -999.0000 -999.0000 
 310.5912   14.4770   76.0610 -999.0000    0.2662 -999.0000 -999.0000 
 310.8960   14.5530   74.6430 -999.0000    0.2765 -999.0000 -999.0000 
 311.2008   14.6850   69.0450 -999.0000    0.4123 -999.0000 -999.0000 
 311.5056   14.7140   74.7920 -999.0000    0.2738 -999.0000 -999.0000 
 311.8104   14.6460   77.4360 -999.0000    0.1749 -999.0000 -999.0000 
 312.1152   14.7620   82.2170 -999.0000    0.2014 -999.0000 -999.0000 
 312.4200   15.9430   91.3220 -999.0000    0.2299 -999.0000 -999.0000 
 312.7248   17.4320   96.0440 -999.0000    0.2276 -999.0000 -999.0000 
 313.0296   16.1610  101.8490 -999.0000    0.2757 -999.0000 -999.0000 
 313.3344   14.9040  109.9460 -999.0000    0.3238 -999.0000 -999.0000 
 313.6392   14.8250  107.4360 -999.0000    0.2966 -999.0000 -999.0000 
 313.9440   15.1560  105.8270 -999.0000    0.3174 -999.0000 -999.0000 
 314.2488   15.4910  107.9310 -999.0000    0.3502 -999.0000 -999.0000 
 314.5536   15.5710  105.8940 -999.0000    0.3367 -999.0000 -999.0000 
 314.8584   15.7990  105.2340 -999.0000    0.3714 -999.0000 -999.0000 
 315.1632   16.1090  106.7360 -999.0000    0.3698 -999.0000 -999.0000 
 315.4680   16.5870  101.0660 -999.0000    0.3868 -999.0000 -999.0000 
 315.7728   16.6000   96.7700 -999.0000    0.3696 -999.0000 -999.0000 
 316.0776   16.4450   99.6590 -999.0000    0.3530 -999.0000 -999.0000 
 316.3824   16.5250  101.7500 -999.0000    0.3617 -999.0000 -999.0000 
 316.6872   16.7880  100.6200 -999.0000    0.3471 -999.0000 -999.0000 
 316.9920   17.0230   88.4300 -999.0000    0.3407 -999.0000 -999.0000 
 317.2968   17.3310   86.2080 -999.0000    0.3758 -999.0000 -999.0000 
 317.6016   17.2280   91.0290 -999.0000    0.3811 -999.0000 -999.0000 
 317.9064   17.4840   89.2280 -999.0000    0.3730 -999.0000 -999.0000 
 318.2112   17.6630   92.4210 -999.0000    0.3971 -999.0000 -999.0000 
 318.5160   18.0030   91.7660 -999.0000    0.3875 -999.0000 -999.0000 
 318.8208   18.3780   89.4420 -999.0000    0.4015 -999.0000 -999.0000 
 319.1256   17.6220   88.4880 -999.0000    0.3684 -999.0000 -999.0000 
 319.4304   19.1500   85.6710 -999.0000    0.3427 -999.0000 -999.0000 
 319.7352   18.8150   89.2130 -999.0000    0.4087 -999.0000 -999.0000 
 320.0400   17.6320   88.5020 -999.0000    0.4496 -999.0000 -999.0000 
 320.3448   17.9780   83.0720 -999.0000    0.4154 -999.0000 -999.0000 
 320.6496   18.5340   85.2320 -999.0000    0.3545 -999.0000 -999.0000 
 320.9544   18.7330   83.3910 -999.0000    0.3403 -999.0000 -999.0000 
 321.2592   19.0360   79.5720 -999.0000    0.4118 -999.0000 -999.0000 
 321.5640   19.1680   79.3380 -999.0000    0.3764 -999.0000 -999.0000 
