~VERSION INFORMATION
 VERS.                 2.0:   CWLS LOG ASCII STANDARD - VERSION 2.0
 WRAP.                  NO:   SINGLE LINE PER DEPTH STEP
 CREA.                 05/01/2018 16:57:09
#CREATED USING DSPetro VERSION 5000.10.1.3 BY H191660 ON 05/01/2018 16:57:09
~WELL INFORMATION
#MNEM.UNIT       DATA                          DESCRIPTION MNEMONIC
#---------      ---------------------------   --------------------------
 STRT    .M         59.7408                   : START DEPTH
 STOP    .M         2451.5064                 : STOP DEPTH
 STEP    .M         0.3048                    : STEP VALUE
 NULL    .      -999.0000                     : NULL VALUE
 DATE    .      05/01/2018                    : LAS file Creation Date
 WELL .      JOHNSON_1_1                 : Well Name
 COMP .      Neftex Exploration Insights : Company
 FLD  .                                  : Field
 UWI  .      DUSWL_JOHNSO                : Unique Well Identifier (UWI)
 LOC  .                                  : Location
 RWS  .      -999                        : Def_Rw
 WST  .      -999                        : Def_Rwt
 SRVC .                                  : Contractor
~CURVE INFORMATION
#MNEM              UNIT       API CODE   Curve Type Comments
#----------  --------------- ----------  ---------- -----------
 DEPTH      .M                         : Depth       
 GR_API     .API                       : GammaRay    Gamma Ray (API) - Measures the intensity of natural gamma-ray radiation emitted from formations containing radioactive elements, such as K, Th and U
 LLD_OHMM   .ohmm                      :             Laterlog Deep Resistivity - Measurement made several feet into the formation; generally considered a measurement of the undisturbed formation
 LLS_OHMM   .ohmm                      :             Laterlog Shallow Resistivity - one to two feet into the formation; generally considered to measure the formation
 RHOZ_G_CC  .g/cc                      :             Formation Density - Measures the density of formation, including any void space or other materials contained in the subject volume
 NPHI_v_v   .dec                       : Neutron     
 PEF_B_E    .b/e-                      : PEF         Photoelectric Factor - A log of photoelectric absorption properties. Often expressed in an approximation unit barns/electron (b/e-)
 LITH       .                          :             
~A  DEPTH   GR_API   LLD_OHMM  LLS_OHMM RHOZ_G_C~  NPHI_v_v  PEF_B_E     LITH   
# ...
1870.2528   50.6090 -999.0000 -999.0000    2.1370   -0.0011    3.6020   16.0000 
1870.5576   44.9730 -999.0000 -999.0000    2.1240   -0.0090    3.5150   16.0000 
1870.8624   40.4300 -999.0000 -999.0000    2.1470   -0.0113    3.3310   16.0000 
1871.1672   45.4520 -999.0000 -999.0000    2.1770   -0.0107    3.4320   16.0000 
1871.4720   47.9490 -999.0000 -999.0000    2.1800   -0.0102    3.5840   16.0000 
1871.7768   44.3660 -999.0000 -999.0000    2.1310   -0.0114    3.5950   16.0000 
1872.0816   43.7330 -999.0000 -999.0000    2.1370   -0.0113    3.5030   16.0000 
1872.3864   40.5740 -999.0000 -999.0000    2.1330   -0.0125    3.3520   16.0000 
1872.6912   37.1030 -999.0000 -999.0000    2.1060   -0.0151    3.4350   16.0000 
1872.9960   38.2140 -999.0000 -999.0000    2.1440   -0.0153    3.4500   16.0000 
1873.3008   42.2130 -999.0000 -999.0000    2.1860   -0.0046    3.4670   16.0000 
1873.6056   44.1060 -999.0000 -999.0000    2.1530   -0.0071    3.5740   16.0000 
1873.9104   40.6400 -999.0000 -999.0000    2.1060   -0.0123    3.6850   16.0000 
1874.2152   34.6500 -999.0000 -999.0000    2.0800   -0.0155    3.5380   16.0000 
1874.5200   37.7450 -999.0000 -999.0000    2.1250   -0.0169    3.2720   16.0000 
1874.8248   39.5150 -999.0000 -999.0000    2.1540   -0.0160    3.2450   16.0000 
1875.1296   36.6000 -999.0000 -999.0000    2.1160   -0.0153    3.2580   16.0000 
1875.4344   38.5520 -999.0000 -999.0000    2.1220   -0.0133    3.3590   16.0000 
1875.7392   40.5710 -999.0000 -999.0000    2.1200   -0.0134    3.4480   16.0000 
1876.0440   38.3670 -999.0000 -999.0000    2.1290   -0.0154    3.3090   16.0000 
1876.3488   38.4510 -999.0000 -999.0000    2.1220   -0.0174    3.3620   16.0000 
1876.6536   39.0800 -999.0000 -999.0000    2.0990   -0.0170    3.4730   16.0000 
1876.9584   41.0340 -999.0000 -999.0000    2.1010   -0.0156    3.5280   16.0000 
1877.2632   40.8770 -999.0000 -999.0000    2.0870   -0.0162    3.4610   16.0000 
1877.5680   38.0720 -999.0000 -999.0000    2.1130   -0.0174    3.5480   16.0000 
1877.8728   40.7520 -999.0000 -999.0000    2.1560   -0.0150    3.5950   16.0000 
1878.1776   44.9310 -999.0000 -999.0000    2.1640   -0.0124    3.5860   16.0000 
1878.4824   48.6870 -999.0000 -999.0000    2.1980   -0.0065    3.3400   16.0000 
1878.7872   49.7970 -999.0000 -999.0000    2.2370    0.0009    3.4790   22.0000 
1879.0920   49.2770 -999.0000 -999.0000    2.2920    0.0084    3.5790   22.0000 
1879.3968   47.5620 -999.0000 -999.0000    2.2040   -0.0045    3.5930   16.0000 
1879.7016   39.5910 -999.0000 -999.0000    2.1240   -0.0164    3.3600   16.0000 
1880.0064   46.2980 -999.0000 -999.0000    2.2260   -0.0078    3.4110   16.0000 
1880.3112   61.9760 -999.0000 -999.0000    2.4440    0.0259    3.2220   22.0000 
1880.6160   65.1930 -999.0000 -999.0000    2.4140    0.0474    3.3550   22.0000 
1880.9208   51.4970 -999.0000 -999.0000    2.2260    0.0034    3.4760   22.0000 
1881.2256   46.4660 -999.0000 -999.0000    2.1860   -0.0103    3.4370   16.0000 
1881.5304   41.4920 -999.0000 -999.0000    2.1930   -0.0106    3.4620   16.0000 
1881.8352   41.7650 -999.0000 -999.0000    2.2280   -0.0100    3.5410   16.0000 
1882.1400   40.3470 -999.0000 -999.0000    2.2060   -0.0115    3.4380   16.0000 
1882.4448   38.9870 -999.0000 -999.0000    2.1480   -0.0155    3.5010   16.0000 
1882.7496   37.2080 -999.0000 -999.0000    2.1400   -0.0147    3.4540   16.0000 
1883.0544   35.4870 -999.0000 -999.0000    2.1250   -0.0141    3.3960   16.0000 
1883.3592   39.9080 -999.0000 -999.0000    2.1460   -0.0174    3.3090   16.0000 
1883.6640   47.3460 -999.0000 -999.0000    2.2050   -0.0169    3.3480   16.0000 
1883.9688   47.1350 -999.0000 -999.0000    2.1800   -0.0098    3.4390   16.0000 
1884.2736   43.5450 -999.0000 -999.0000    2.1360   -0.0147    3.5500   16.0000 
1884.5784   38.4570 -999.0000 -999.0000    2.0910   -0.0192    3.4430   16.0000 
1884.8832   34.1480 -999.0000 -999.0000    2.0920   -0.0215    3.5920   16.0000 
1885.1880   36.4620 -999.0000 -999.0000    2.0850   -0.0212    3.7260   16.0000 
1885.4928   41.1890 -999.0000 -999.0000    2.1100   -0.0185    3.5220   16.0000 
1885.7976   41.4560 -999.0000 -999.0000    2.1600   -0.0129    3.6550   16.0000 
1886.1024   40.3400 -999.0000 -999.0000    2.1240   -0.0169    3.7610   16.0000 
1886.4072   37.2320 -999.0000 -999.0000    2.0710   -0.0199    3.6550   16.0000 
1886.7120   32.5620 -999.0000 -999.0000    2.0500   -0.0216    3.7040   16.0000 
1887.0168   34.3970 -999.0000 -999.0000    2.0530   -0.0219    3.5250   16.0000 
1887.3216   37.3100 -999.0000 -999.0000    2.0620   -0.0215    3.3370   16.0000 
1887.6264   43.1750 -999.0000 -999.0000    2.1000   -0.0185    3.4080   16.0000 
1887.9312   49.9430 -999.0000 -999.0000    2.1790   -0.0096    3.4850   16.0000 
1888.2360   49.4270 -999.0000 -999.0000    2.2750    0.0042    3.4200   15.0000 
1888.5408   52.9460 -999.0000 -999.0000    2.2050   -0.0006    3.5530   15.0000 
1888.8456   58.9920 -999.0000 -999.0000    2.2620    0.0063    3.7190   15.0000 
1889.1504   58.3010 -999.0000 -999.0000    2.2170   -0.0002    3.7530   16.0000 
1889.4552   48.0270 -999.0000 -999.0000    2.1490   -0.0061    3.5940   16.0000 
1889.7600   40.9520 -999.0000 -999.0000    2.1600   -0.0086    3.5580   16.0000 
1890.0648   40.0230 -999.0000 -999.0000    2.1470   -0.0107    3.6420   16.0000 
1890.3696   38.9060 -999.0000 -999.0000    2.1030   -0.0164    3.6550   16.0000 
1890.6744   39.3570 -999.0000 -999.0000    2.0740   -0.0177    3.6640   16.0000 
1890.9792   41.4290 -999.0000 -999.0000    2.0910   -0.0165    3.4480   16.0000 
1891.2840   43.3770 -999.0000 -999.0000    2.1220   -0.0131    3.5010   16.0000 
1891.5888   45.7520 -999.0000 -999.0000    2.1430   -0.0081    3.4760   16.0000 
1891.8936   44.2140 -999.0000 -999.0000    2.1040   -0.0129    3.5130   16.0000 
1892.1984   38.2820 -999.0000 -999.0000    2.0810   -0.0173    3.6020   16.0000 
1892.5032   35.2980 -999.0000 -999.0000    2.0770   -0.0182    3.6750   16.0000 
1892.8080   35.0270 -999.0000 -999.0000    2.0740   -0.0183    3.5500   16.0000 
1893.1128   32.8280 -999.0000 -999.0000    2.0890   -0.0187    3.6810   16.0000 
1893.4176   34.5420 -999.0000 -999.0000    2.0900   -0.0186    3.6180   16.0000 
1893.7224   32.2880 -999.0000 -999.0000    2.0760   -0.0189    3.4210   16.0000 
1894.0272   36.8240 -999.0000 -999.0000    2.1070   -0.0177    3.4980   16.0000 
1894.3320   36.4320 -999.0000 -999.0000    2.1400   -0.0140    3.4570   16.0000 
1894.6368   34.4720 -999.0000 -999.0000    2.1230   -0.0152    3.5620   16.0000 
1894.9416   32.6990 -999.0000 -999.0000    2.1440   -0.0183    3.4900   16.0000 
1895.2464   34.8330 -999.0000 -999.0000    2.1790   -0.0193    3.3190   16.0000 
1895.5512   35.2220 -999.0000 -999.0000    2.1990   -0.0160    3.4910   16.0000 
1895.8560   33.4370 -999.0000 -999.0000    2.1710   -0.0150    3.5750   16.0000 
1896.1608   34.1940 -999.0000 -999.0000    2.1540   -0.0168    3.6830   16.0000 
1896.4656   34.5180 -999.0000 -999.0000    2.1290   -0.0199    3.7740   16.0000 
1896.7704   30.5670 -999.0000 -999.0000    2.1090   -0.0201    3.7200   16.0000 
1897.0752   35.0450 -999.0000 -999.0000    2.1520   -0.0175    3.5410   16.0000 
1897.3800   40.6760 -999.0000 -999.0000    2.1920   -0.0121    3.5920   16.0000 
1897.6848   42.4490 -999.0000 -999.0000    2.1450   -0.0129    3.7130   16.0000 
1897.9896   42.7680 -999.0000 -999.0000    2.1770   -0.0102    3.4960   16.0000 
1898.2944   46.4780 -999.0000 -999.0000    2.2080    0.0013    3.5410   16.0000 
1898.5992   43.3680 -999.0000 -999.0000    2.1520   -0.0063    3.4620   16.0000 
1898.9040   38.8790 -999.0000 -999.0000    2.1010   -0.0137    3.5220   16.0000 
1899.2088   37.9350 -999.0000 -999.0000    2.1230   -0.0117    3.5650   16.0000 
1899.5136   38.0250 -999.0000 -999.0000    2.1560   -0.0112    3.7210   16.0000 
1899.8184   36.4880 -999.0000 -999.0000    2.1050   -0.0139    3.6270   16.0000 
1900.1232   35.9150 -999.0000 -999.0000    2.1190   -0.0171    3.6080   16.0000 
