~VERSION INFORMATION
 VERS.                 2.0:   CWLS LOG ASCII STANDARD - VERSION 2.0
 WRAP.                  NO:   SINGLE LINE PER DEPTH STEP
 CREA.                 05/01/2018 16:57:09
#CREATED USING DSPetro VERSION 5000.10.1.3 BY H191660 ON 05/01/2018 16:57:09
~WELL INFORMATION
#MNEM.UNIT       DATA                          DESCRIPTION MNEMONIC
#---------      ---------------------------   --------------------------
 STRT    .M         59.7408                   : START DEPTH
 STOP    .M         2451.5064                 : STOP DEPTH
 STEP    .M         0.3048                    : STEP VALUE
 NULL    .      -999.0000                     : NULL VALUE
 DATE    .      05/01/2018                    : LAS file Creation Date
 WELL .      JOHNSON_1_1                 : Well Name
 COMP .      Neftex Exploration Insights : Company
 FLD  .                                  : Field
 UWI  .      DUSWL_JOHNSO                : Unique Well Identifier (UWI)
 LOC  .                                  : Location
 RWS  .      -999                        : Def_Rw
 WST  .      -999                        : Def_Rwt
 SRVC .                                  : Contractor
~CURVE INFORMATION
#MNEM              UNIT       API CODE   Curve Type Comments
#----------  --------------- ----------  ---------- -----------
 DEPTH      .M                         : Depth       
 GR_API     .API                       : GammaRay    Gamma Ray (API) - Measures the intensity of natural gamma-ray radiation emitted from formations containing radioactive elements, such as K, Th and U
 LLD_OHMM   .ohmm                      :             Laterlog Deep Resistivity - Measurement made several feet into the formation; generally considered a measurement of the undisturbed formation
 LLS_OHMM   .ohmm                      :             Laterlog Shallow Resistivity - one to two feet into the formation; generally considered to measure the formation
 RHOZ_G_CC  .g/cc                      :             Formation Density - Measures the density of formation, including any void space or other materials contained in the subject volume
 NPHI_v_v   .dec                       : Neutron     
 PEF_B_E    .b/e-                      : PEF         Photoelectric Factor - A log of photoelectric absorption properties. Often expressed in an approximation unit barns/electron (b/e-)
 LITH       .                          :             
~A  DEPTH   GR_API   LLD_OHMM  LLS_OHMM RHOZ_G_C~  NPHI_v_v  PEF_B_E     LITH   
# ...
1025.3472  130.9520 -999.0000 -999.0000    2.5540    0.2119    3.8470   37.0000 
1025.6520  103.4060 -999.0000 -999.0000    2.6210    0.1358    3.6310   37.0000 
1025.9568  109.5860 -999.0000 -999.0000    2.6140    0.1093    3.3120   37.0000 
1026.2616  123.5270 -999.0000 -999.0000    2.5920    0.1778    3.1060   37.0000 
1026.5664  135.7130 -999.0000 -999.0000    2.5850    0.1897    3.2740   37.0000 
1026.8712  142.8290 -999.0000 -999.0000    2.5660    0.2014    3.2640   37.0000 
1027.1760  164.7110 -999.0000 -999.0000    2.5520    0.2154    2.9350   37.0000 
1027.4808  171.9990 -999.0000 -999.0000    2.5540    0.2297    2.9860   37.0000 
1027.7856  180.7380 -999.0000 -999.0000    2.5510    0.2406    2.8850   37.0000 
1028.0904  171.9420 -999.0000 -999.0000    2.5510    0.2490    2.9730   37.0000 
1028.3952  160.4970 -999.0000 -999.0000    2.5590    0.2374    3.0950   37.0000 
1028.7000  159.1440 -999.0000 -999.0000    2.5410    0.2420    2.9010   37.0000 
1029.0048  153.4520 -999.0000 -999.0000    2.5290    0.2667    2.8200   37.0000 
1029.3096  162.9630 -999.0000 -999.0000    2.5550    0.2120    2.9590   37.0000 
1029.6144  173.9780 -999.0000 -999.0000    2.5610    0.2022    3.0340   37.0000 
1029.9192  162.7880 -999.0000 -999.0000    2.5370    0.2448    2.7880   37.0000 
1030.2240  145.8480 -999.0000 -999.0000    2.5580    0.2647    2.7640   37.0000 
1030.5288  117.8720 -999.0000 -999.0000    2.5980    0.2384    3.3640   37.0000 
1030.8336  113.0760 -999.0000 -999.0000    2.6370    0.1990    3.2930   37.0000 
1031.1384  128.3840 -999.0000 -999.0000    2.6030    0.1636    2.8390   37.0000 
1031.4432  124.9380 -999.0000 -999.0000    2.5900    0.1739    2.8790   37.0000 
1031.7480  120.7200 -999.0000 -999.0000    2.6020    0.1962    3.0060   37.0000 
1032.0528  121.8890 -999.0000 -999.0000    2.5960    0.2094    3.0660   37.0000 
1032.3576  119.7600 -999.0000 -999.0000    2.5900    0.2183    3.0910   37.0000 
1032.6624  111.5630 -999.0000 -999.0000    2.6180    0.1970    3.2720   37.0000 
1032.9672  103.4150 -999.0000 -999.0000    2.6260    0.1741    3.3290   37.0000 
1033.2720  106.5290 -999.0000 -999.0000    2.6410    0.1677    3.0940   37.0000 
1033.5768  101.2400 -999.0000 -999.0000    2.6640    0.1993    3.2600   37.0000 
1033.8816   88.5030 -999.0000 -999.0000    2.6900    0.1589    3.5140   37.0000 
1034.1864   61.0880 -999.0000 -999.0000    2.7050    0.1147    3.7600   22.0000 
1034.4912   63.9750 -999.0000 -999.0000    2.7120    0.0774    3.8200   22.0000 
1034.7960   74.6160 -999.0000 -999.0000    2.7040    0.0859    3.5450   22.0000 
1035.1008   88.2480 -999.0000 -999.0000    2.6930    0.1002    3.7050   22.0000 
1035.4056   97.1000 -999.0000 -999.0000    2.6800    0.1324    3.6190   22.0000 
1035.7104   87.5700 -999.0000 -999.0000    2.6950    0.1775    3.7680   37.0000 
1036.0152   79.5930 -999.0000 -999.0000    2.6900    0.1436    3.9470   37.0000 
1036.3200   79.0230 -999.0000 -999.0000    2.6930    0.1100    3.9440   22.0000 
1036.6248   70.0880 -999.0000 -999.0000    2.7020    0.1006    3.7380   22.0000 
1036.9296   62.7230 -999.0000 -999.0000    2.7030    0.0912    3.6030   22.0000 
1037.2344   58.7570 -999.0000 -999.0000    2.6980    0.0910    4.2710   22.0000 
1037.5392   57.0410 -999.0000 -999.0000    2.6980    0.0793    4.3730   22.0000 
1037.8440   61.3650 -999.0000 -999.0000    2.7000    0.0813    4.3490   22.0000 
1038.1488   68.8520 -999.0000 -999.0000    2.7010    0.0930    4.5810   22.0000 
1038.4536   72.9380 -999.0000 -999.0000    2.6870    0.1058    4.1570   22.0000 
1038.7584   77.0960 -999.0000 -999.0000    2.6870    0.1186    4.4280   22.0000 
1039.0632   77.4560 -999.0000 -999.0000    2.6770    0.1241    4.4140   22.0000 
1039.3680   75.2190 -999.0000 -999.0000    2.6620    0.1301    4.3210   22.0000 
1039.6728   72.2030 -999.0000 -999.0000    2.6700    0.1315    4.5670   22.0000 
1039.9776   77.1150 -999.0000 -999.0000    2.6780    0.1289    4.3390   22.0000 
1040.2824   82.6350 -999.0000 -999.0000    2.6760    0.1302    3.9670   22.0000 
1040.5872   84.7020 -999.0000 -999.0000    2.6710    0.1392    3.7590   22.0000 
1040.8920   80.3120 -999.0000 -999.0000    2.6780    0.1473    3.6180   37.0000 
1041.1968   84.4410 -999.0000 -999.0000    2.6940    0.1409    3.6880   37.0000 
1041.5016   85.9470 -999.0000 -999.0000    2.6850    0.1525    3.8080   37.0000 
1041.8064   83.6570 -999.0000 -999.0000    2.6720    0.1577    3.7480   37.0000 
1042.1112   70.6100 -999.0000 -999.0000    2.6800    0.1274    4.1280   22.0000 
1042.4160   56.3450 -999.0000 -999.0000    2.6870    0.1059    4.2430   22.0000 
1042.7208   59.1650 -999.0000 -999.0000    2.6940    0.0957    3.9880   22.0000 
1043.0256   62.0570 -999.0000 -999.0000    2.6960    0.0961    4.0900   22.0000 
1043.3304   66.9110 -999.0000 -999.0000    2.6930    0.0886    4.1240   22.0000 
1043.6352   73.0820 -999.0000 -999.0000    2.6980    0.0890    3.8060   22.0000 
1043.9400   70.3100 -999.0000 -999.0000    2.7010    0.0965    3.9510   22.0000 
1044.2448   67.0910 -999.0000 -999.0000    2.7030    0.1087    4.0310   22.0000 
1044.5496   57.9260 -999.0000 -999.0000    2.7120    0.0979    4.1640   22.0000 
1044.8544   44.5730 -999.0000 -999.0000    2.7180    0.0548    4.4120   22.0000 
1045.1592   40.5420 -999.0000 -999.0000    2.7200    0.0204    4.2790   18.0000 
1045.4640   46.6080 -999.0000 -999.0000    2.7180    0.0270    3.9050   18.0000 
1045.7688   57.8480 -999.0000 -999.0000    2.7280    0.0393    4.0640   22.0000 
1046.0736   71.2320 -999.0000 -999.0000    2.7270    0.0627    4.0490   22.0000 
1046.3784   80.5010 -999.0000 -999.0000    2.7080    0.0958    3.7790   22.0000 
1046.6832   88.6430 -999.0000 -999.0000    2.6990    0.1244    3.8610   22.0000 
1046.9880   91.7730 -999.0000 -999.0000    2.6800    0.1405    3.6900   37.0000 
1047.2928   84.1920 -999.0000 -999.0000    2.6940    0.1506    3.5670   37.0000 
1047.5976   76.0590 -999.0000 -999.0000    2.7010    0.1287    3.4910   22.0000 
1047.9024   81.2010 -999.0000 -999.0000    2.7040    0.1127    3.4350   22.0000 
1048.2072   81.4640 -999.0000 -999.0000    2.7160    0.1250    3.5840   22.0000 
1048.5120   71.7240 -999.0000 -999.0000    2.7180    0.1125    3.9060   22.0000 
1048.8168   53.4980 -999.0000 -999.0000    2.7290    0.0815    3.9150   22.0000 
1049.1216   40.6320 -999.0000 -999.0000    2.7590    0.0489    3.9060   18.0000 
1049.4264   32.5040 -999.0000 -999.0000    2.7810    0.0177    4.0970   18.0000 
1049.7312   24.5820 -999.0000 -999.0000    2.8000    0.0130    4.1000   18.0000 
1050.0360   16.7220 -999.0000 -999.0000    2.8240    0.0133    4.0100   18.0000 
1050.3408   17.1750 -999.0000 -999.0000    2.8130    0.0352    4.0540   18.0000 
1050.6456   14.8040 -999.0000 -999.0000    2.7830    0.0556    3.8850   18.0000 
1050.9504   16.9070 -999.0000 -999.0000    2.7800    0.0414    3.9160   18.0000 
1051.2552   15.5690 -999.0000 -999.0000    2.7520    0.0302    3.9940   18.0000 
1051.5600   17.1800 -999.0000 -999.0000    2.7590    0.0179    4.4910   18.0000 
1051.8648   19.4970 -999.0000 -999.0000    2.7690    0.0042    4.6800   18.0000 
1052.1696   17.9000 -999.0000 -999.0000    2.7660    0.0051    4.8050   18.0000 
1052.4744   15.4220 -999.0000 -999.0000    2.7640    0.0094    4.6290   18.0000 
1052.7792   16.8960 -999.0000 -999.0000    2.7580    0.0133    4.1400   18.0000 
1053.0840   16.9910 -999.0000 -999.0000    2.7820    0.0162    3.9800   18.0000 
1053.3888   15.2270 -999.0000 -999.0000    2.8030    0.0131    4.3910   18.0000 
1053.6936   17.0330 -999.0000 -999.0000    2.7880    0.0101    4.7510   18.0000 
1053.9984   19.2680 -999.0000 -999.0000    2.7820    0.0082    4.4610   18.0000 
1054.3032   18.9080 -999.0000 -999.0000    2.7950    0.0134    4.1610   18.0000 
1054.6080   18.2210 -999.0000 -999.0000    2.7950    0.0208    3.9900   18.0000 
1054.9128   17.1680 -999.0000 -999.0000    2.7980    0.0142    4.5780   18.0000 
1055.2176   17.9730 -999.0000 -999.0000    2.7690    0.0028    5.1780   18.0000 
