~VERSION INFORMATION
 VERS.                 2.0:   CWLS LOG ASCII STANDARD - VERSION 2.0
 WRAP.                  NO:   SINGLE LINE PER DEPTH STEP
 CREA.                 05/01/2018 16:57:09
#CREATED USING DSPetro VERSION 5000.10.1.3 BY H191660 ON 05/01/2018 16:57:09
~WELL INFORMATION
#MNEM.UNIT       DATA                          DESCRIPTION MNEMONIC
#---------      ---------------------------   --------------------------
 STRT    .M         59.7408                   : START DEPTH
 STOP    .M         2451.5064                 : STOP DEPTH
 STEP    .M         0.3048                    : STEP VALUE
 NULL    .      -999.0000                     : NULL VALUE
 DATE    .      05/01/2018                    : LAS file Creation Date
 WELL .      JOHNSON_1_1                 : Well Name
 COMP .      Neftex Exploration Insights : Company
 FLD  .                                  : Field
 UWI  .      DUSWL_JOHNSO                : Unique Well Identifier (UWI)
 LOC  .                                  : Location
 RWS  .      -999                        : Def_Rw
 WST  .      -999                        : Def_Rwt
 SRVC .                                  : Contractor
~CURVE INFORMATION
#MNEM              UNIT       API CODE   Curve Type Comments
#----------  --------------- ----------  ---------- -----------
 DEPTH      .M                         : Depth       
 GR_API     .API                       : GammaRay    Gamma Ray (API) - Measures the intensity of natural gamma-ray radiation emitted from formations containing radioactive elements, such as K, Th and U
 LLD_OHMM   .ohmm                      :             Laterlog Deep Resistivity - Measurement made several feet into the formation; generally considered a measurement of the undisturbed formation
 LLS_OHMM   .ohmm                      :             Laterlog Shallow Resistivity - one to two feet into the formation; generally considered to measure the formation
 RHOZ_G_CC  .g/cc                      :             Formation Density - Measures the density of formation, including any void space or other materials contained in the subject volume
 NPHI_v_v   .dec                       : Neutron     
 PEF_B_E    .b/e-                      : PEF         Photoelectric Factor - A log of photoelectric absorption properties. Often expressed in an approximation unit barns/electron (b/e-)
 LITH       .                          :             
~A  DEPTH   GR_API   LLD_OHMM  LLS_OHMM RHOZ_G_C~  NPHI_v_v  PEF_B_E     LITH   
# ...
1779.7272   42.1580 -999.0000 -999.0000    2.8320    0.0187    2.8320   12.0000 
1780.0320   39.1260 -999.0000 -999.0000    2.8240    0.0216    3.1400   12.0000 
1780.3368   38.6960 -999.0000 -999.0000    2.8130    0.0451    3.3330   12.0000 
1780.6416   44.0270 -999.0000 -999.0000    2.8410    0.0368    3.7590   12.0000 
1780.9464   40.5860 -999.0000 -999.0000    2.8830    0.0261    4.2930    1.0000 
1781.2512   36.5330 -999.0000 -999.0000    2.9230    0.0181    5.6800    1.0000 
1781.5560   36.0300 -999.0000 -999.0000    2.9240    0.0176    6.5550    1.0000 
1781.8608   36.0650 -999.0000 -999.0000    2.8930    0.0290    6.3200    1.0000 
1782.1656   35.7390 -999.0000 -999.0000    2.8820    0.0445    2.8740   12.0000 
1782.4704   33.6080 -999.0000 -999.0000    2.8670    0.0334    2.8370   12.0000 
1782.7752   28.2980 -999.0000 -999.0000    2.8410    0.0208    2.8060   12.0000 
1783.0800   36.1560 -999.0000 -999.0000    2.8160    0.0489    2.7870   12.0000 
1783.3848   44.9730 -999.0000 -999.0000    2.8400    0.0391    3.2530   12.0000 
1783.6896   45.0800 -999.0000 -999.0000    2.8820    0.0202    5.4080    1.0000 
1783.9944   48.3740 -999.0000 -999.0000    2.9170    0.0114    6.4630    1.0000 
1784.2992   49.9670 -999.0000 -999.0000    2.9050    0.0084    5.1050    1.0000 
1784.6040   42.3110 -999.0000 -999.0000    2.9180    0.0049    4.8220    1.0000 
1784.9088   34.4730 -999.0000 -999.0000    2.9290    0.0013    4.2980   12.0000 
1785.2136   38.6570 -999.0000 -999.0000    2.9080    0.0086    4.6720   12.0000 
1785.5184   37.5660 -999.0000 -999.0000    2.9270    0.0184    5.1000    1.0000 
1785.8232   32.7290 -999.0000 -999.0000    2.9470    0.0075    4.9380    1.0000 
1786.1280   35.3570 -999.0000 -999.0000    2.9430    0.0104    5.5050    1.0000 
1786.4328   33.5910 -999.0000 -999.0000    2.9540    0.0041    6.1630    1.0000 
1786.7376   30.2750 -999.0000 -999.0000    2.9520   -0.0021    5.5740    1.0000 
1787.0424   32.7210 -999.0000 -999.0000    2.9410   -0.0024    6.3770    1.0000 
1787.3472   34.4910 -999.0000 -999.0000    2.9530   -0.0005    6.6680    1.0000 
1787.6520   31.7690 -999.0000 -999.0000    2.9990   -0.0023    6.4390    1.0000 
1787.9568   30.4250 -999.0000 -999.0000    2.9870   -0.0017    5.0780    1.0000 
1788.2616   32.2590 -999.0000 -999.0000    2.9640   -0.0004    5.3520    1.0000 
1788.5664   33.1950 -999.0000 -999.0000    2.9520    0.0021    5.5190    1.0000 
1788.8712   28.6170 -999.0000 -999.0000    2.9660   -0.0014    4.9100    1.0000 
1789.1760   26.1930 -999.0000 -999.0000    2.9880   -0.0061    5.4440    1.0000 
1789.4808   24.9060 -999.0000 -999.0000    2.9720   -0.0075    5.5850    1.0000 
1789.7856   29.7020 -999.0000 -999.0000    2.9720   -0.0061    6.0090    1.0000 
1790.0904   30.7610 -999.0000 -999.0000    2.9890   -0.0026    7.1220    1.0000 
1790.3952   32.1150 -999.0000 -999.0000    2.9690   -0.0005    5.2330    1.0000 
1790.7000   37.3730 -999.0000 -999.0000    2.9200    0.0033    5.3380    1.0000 
1791.0048   42.5760 -999.0000 -999.0000    2.8880    0.0223    5.3290   12.0000 
1791.3096   44.5440 -999.0000 -999.0000    2.9060    0.0161    4.9120   12.0000 
1791.6144   34.7390 -999.0000 -999.0000    2.9180    0.0041    5.0810   12.0000 
1791.9192   43.8510 -999.0000 -999.0000    2.8860    0.0051    4.4260   12.0000 
1792.2240   49.3010 -999.0000 -999.0000    2.8600    0.0129    4.2130   12.0000 
1792.5288   52.2840 -999.0000 -999.0000    2.8530    0.0224    4.3000   12.0000 
1792.8336   49.0700 -999.0000 -999.0000    2.8930    0.0174    4.5450   12.0000 
1793.1384   39.2660 -999.0000 -999.0000    2.9170    0.0063    5.1040   12.0000 
1793.4432   40.6920 -999.0000 -999.0000    2.9290   -0.0028    4.0470   12.0000 
1793.7480   41.8830 -999.0000 -999.0000    2.9390   -0.0024    4.2950   12.0000 
1794.0528   42.8750 -999.0000 -999.0000    2.9240    0.0020    4.8180   12.0000 
1794.3576   45.1230 -999.0000 -999.0000    2.8840    0.0031    4.4000   12.0000 
1794.6624   51.6020 -999.0000 -999.0000    2.8670    0.0047    4.1090   12.0000 
1794.9672   61.5620 -999.0000 -999.0000    2.7910    0.0242    3.5950   12.0000 
1795.2720   71.3430 -999.0000 -999.0000    2.7410    0.0997    3.3940   22.0000 
1795.5768   71.0750 -999.0000 -999.0000    2.7780    0.1178    3.2410   22.0000 
1795.8816   66.2420 -999.0000 -999.0000    2.8060    0.1012    3.1900   22.0000 
1796.1864   71.1540 -999.0000 -999.0000    2.7790    0.0806    3.2460   22.0000 
1796.4912   79.1990 -999.0000 -999.0000    2.7390    0.1063    3.0570   22.0000 
1796.7960   70.9370 -999.0000 -999.0000    2.8020    0.1420    3.6710   22.0000 
1797.1008   50.9010 -999.0000 -999.0000    2.8790    0.0773    4.2630    1.0000 
1797.4056   27.0830 -999.0000 -999.0000    2.9210    0.0074    4.6490    1.0000 
1797.7104   27.1800 -999.0000 -999.0000    2.9170    0.0028    4.0260   12.0000 
1798.0152   30.5240 -999.0000 -999.0000    2.9040    0.0063    3.5040   12.0000 
1798.3200   33.4890 -999.0000 -999.0000    2.8520    0.0075    3.3830   12.0000 
1798.6248   35.3190 -999.0000 -999.0000    2.7980    0.0146    3.2570   12.0000 
1798.9296   31.0760 -999.0000 -999.0000    2.8410    0.0301    3.8010   12.0000 
1799.2344   34.5320 -999.0000 -999.0000    2.8920    0.0186    3.3770   12.0000 
1799.5392   39.5570 -999.0000 -999.0000    2.8530    0.0082    2.9090   12.0000 
1799.8440   39.3410 -999.0000 -999.0000    2.8060    0.0174    3.1340   12.0000 
1800.1488   34.3110 -999.0000 -999.0000    2.7820    0.0289    3.5100   12.0000 
1800.4536   28.0790 -999.0000 -999.0000    2.7640    0.0532    3.3620   12.0000 
1800.7584   28.4030 -999.0000 -999.0000    2.7720    0.0428    3.2110   12.0000 
1801.0632   28.9710 -999.0000 -999.0000    2.7070    0.0344    3.2560   18.0000 
1801.3680   28.9370 -999.0000 -999.0000    2.5760    0.0544    3.4760   12.0000 
1801.6728   26.9180 -999.0000 -999.0000    2.6800    0.0538    3.3940   12.0000 
1801.9776   25.7990 -999.0000 -999.0000    2.7490    0.0492    3.2810   12.0000 
1802.2824   26.3090 -999.0000 -999.0000    2.7620    0.0444    3.1770   12.0000 
1802.5872   27.5990 -999.0000 -999.0000    2.7410    0.0386    3.1400   12.0000 
1802.8920   29.7890 -999.0000 -999.0000    2.7100    0.0349    3.4220   12.0000 
1803.1968   30.9000 -999.0000 -999.0000    2.6400    0.0328    3.6520   12.0000 
1803.5016   29.6000 -999.0000 -999.0000    2.6800    0.0407    3.4680   12.0000 
1803.8064   30.6500 -999.0000 -999.0000    2.7270    0.0537    3.2720   12.0000 
1804.1112   29.1710 -999.0000 -999.0000    2.7200    0.0519    3.2290   12.0000 
1804.4160   29.1960 -999.0000 -999.0000    2.7630    0.0566    2.9640   12.0000 
1804.7208   38.5620 -999.0000 -999.0000    2.7940    0.0672    2.8680   12.0000 
1805.0256   56.5830 -999.0000 -999.0000    2.8020    0.0717    2.6890   12.0000 
1805.3304   74.0060 -999.0000 -999.0000    2.7670    0.0859    2.8240   37.0000 
1805.6352   82.7600 -999.0000 -999.0000    2.7370    0.1270    3.2680   37.0000 
1805.9400   77.0670 -999.0000 -999.0000    2.7530    0.1356    3.6940   37.0000 
1806.2448   67.4670 -999.0000 -999.0000    2.7950    0.1100    3.9380   37.0000 
1806.5496   62.0160 -999.0000 -999.0000    2.8170    0.0725    3.8380   37.0000 
1806.8544   63.4290 -999.0000 -999.0000    2.8200    0.0700    3.4040   37.0000 
1807.1592   64.5980 -999.0000 -999.0000    2.8120    0.0829    3.4780   37.0000 
1807.4640   67.3290 -999.0000 -999.0000    2.8140    0.0869    3.5600   37.0000 
1807.7688   68.3250 -999.0000 -999.0000    2.7940    0.0954    3.4990   37.0000 
1808.0736   59.2640 -999.0000 -999.0000    2.8300    0.0669    3.6710   37.0000 
1808.3784   43.2180 -999.0000 -999.0000    2.9160    0.0178    4.2070    1.0000 
1808.6832   31.5720 -999.0000 -999.0000    2.8880    0.0014    4.3460    1.0000 
1808.9880   34.8470 -999.0000 -999.0000    2.7210    0.0009    3.4870   22.0000 
1809.2928   40.6530 -999.0000 -999.0000    2.5630    0.0149    3.1330   22.0000 
1809.5976   51.5130 -999.0000 -999.0000    2.5830    0.0304    3.1560   22.0000 
