~VERSION INFORMATION
 VERS.                 2.0:   CWLS LOG ASCII STANDARD - VERSION 2.0
 WRAP.                  NO:   SINGLE LINE PER DEPTH STEP
 CREA.                 05/01/2018 17:09:06
#CREATED USING DSPetro VERSION 5000.10.1.3 BY H191660 ON 05/01/2018 17:09:06
~WELL INFORMATION
#MNEM.UNIT       DATA                          DESCRIPTION MNEMONIC
#---------      ---------------------------   --------------------------
 STRT    .M         80.7720                   : START DEPTH
 STOP    .M         2461.5648                 : STOP DEPTH
 STEP    .M         0.3048                    : STEP VALUE
 NULL    .      -999.0000                     : NULL VALUE
 DATE    .      05/01/2018                    : LAS file Creation Date
 WELL .      JOHNSON_3_1                 : Well Name
 COMP .      Neftex Exploration Insights : Company
 FLD  .                                  : Field
 UWI  .      DUSWL_JO_3_1                : Unique Well Identifier (UWI)
 LOC  .                                  : Location
 RWS  .      -999                        : Def_Rw
 WST  .      -999                        : Def_Rwt
 SRVC .                                  : Contractor
~CURVE INFORMATION
#MNEM              UNIT       API CODE   Curve Type Comments
#----------  --------------- ----------  ---------- -----------
 DEPTH      .M                         : Depth       
 CAL_INCH   .inch                      :             Caliper Log - A representation of the measured diameter of a borehole along its depth
 GR_API     .API                       : GammaRay    Gamma Ray (API) - Measures the intensity of natural gamma-ray radiation emitted from formations containing radioactive elements, such as K, Th and U
 RHOZ_G_CC  .g/cc                      :             Formation Density - Measures the density of formation, including any void space or other materials contained in the subject volume
 NPHI_v_v   .dec                       : Neutron     
 PEF_B_E    .b/e-                      : PEF         Photoelectric Factor - A log of photoelectric absorption properties. Often expressed in an approximation unit barns/electron (b/e-)
 LITH       .                          :             
~A  DEPTH  CAL_INCH   GR_API  RHOZ_G_C~  NPHI_v_v  PEF_B_E     LITH   
# ...
1148.4864   12.7750   45.3780    2.7050    0.0315    3.8790   18.0000 
1148.7912   12.7680   47.4320    2.6970    0.0559    4.1150   18.0000 
1149.0960   12.8140   38.9700    2.7040    0.0423    4.5400   18.0000 
1149.4008   12.7990   28.3640    2.7040    0.0165    4.2800   18.0000 
1149.7056   12.7560   33.3990    2.6980    0.0260    4.0490   18.0000 
1150.0104   12.7420   39.8130    2.6980    0.0463    4.2230   18.0000 
1150.3152   12.7470   36.0150    2.6920    0.0384    4.2860   18.0000 
1150.6200   12.8090   27.8580    2.6940    0.0174    4.1870   18.0000 
1150.9248   12.7900   25.4840    2.7030    0.0064    4.4330   18.0000 
1151.2296   12.7040   21.1460    2.7100   -0.0007    4.7500   18.0000 
1151.5344   12.6540   21.8810    2.7110   -0.0012    4.6690   18.0000 
1151.8392   12.6470   26.8590    2.6990    0.0037    3.7550   18.0000 
1152.1440   12.6720   25.6850    2.7060    0.0105    3.5430   18.0000 
1152.4488   12.6750   23.0780    2.7130    0.0069    3.9280   18.0000 
1152.7536   12.6520   23.7000    2.7040    0.0039    4.0960   18.0000 
1153.0584   12.6090   18.6470    2.6990    0.0013    3.7320   18.0000 
1153.3632   12.5590   18.7290    2.6850    0.0014    3.9380   18.0000 
1153.6680   12.5250   21.7970    2.6860    0.0057    3.9980   18.0000 
1153.9728   12.5340   24.9800    2.6780    0.0070    3.9010   18.0000 
1154.2776   12.5150   30.3180    2.6840    0.0095    4.1810   18.0000 
1154.5824   12.4970   32.7330    2.6800    0.0111    4.2180   18.0000 
1154.8872   12.5140   24.5150    2.6780    0.0065    4.3360   18.0000 
1155.1920   12.5200   22.3850    2.6720    0.0038    4.1770   18.0000 
1155.4968   12.4660   26.5860    2.6790    0.0057    4.1820   18.0000 
1155.8016   12.4470   27.9240    2.6730    0.0095    4.1780   18.0000 
1156.1064   12.4690   27.5820    2.6790    0.0129    3.7730   18.0000 
1156.4112   12.4460   29.0360    2.6880    0.0170    3.5760   18.0000 
1156.7160   12.4280   26.2520    2.6980    0.0134    3.8120   18.0000 
1157.0208   12.4610   23.9510    2.6930    0.0112    3.9860   18.0000 
1157.3256   12.5220   27.4940    2.7020    0.0094    4.1600   18.0000 
1157.6304   12.5990   33.1280    2.7050    0.0112    4.0890   18.0000 
1157.9352   12.5330   36.1320    2.6940    0.0164    4.2570   18.0000 
1158.2400   12.4750   27.8550    2.6910    0.0104    4.3530   18.0000 
1158.5448   12.5680   19.1010    2.7070    0.0036    4.0810   18.0000 
1158.8496   12.5650   19.5390    2.7240    0.0026    4.0500   18.0000 
1159.1544   12.4830   21.8310    2.7160    0.0036    3.9710   18.0000 
1159.4592   12.5120   21.7890    2.7300    0.0034    4.0170   18.0000 
1159.7640   12.5770   19.2380    2.7260    0.0008    3.9200   18.0000 
1160.0688   12.5630   19.0760    2.7160    0.0000    3.8530   18.0000 
1160.3736   12.5600   15.8160    2.6830   -0.0026    4.0530   18.0000 
1160.6784   12.6850   15.1770    2.6700   -0.0029    4.0500   18.0000 
1160.9832   12.7740   22.1900    2.7050    0.0030    4.3590   18.0000 
1161.2880   12.8150   33.8540    2.7210    0.0181    4.4790   18.0000 
1161.5928   12.8520   59.9720    2.7130    0.0646    3.5710   22.0000 
1161.8976   12.9330   66.7410    2.7050    0.1014    3.7590   22.0000 
1162.2024   12.9740   71.2970    2.6850    0.1094    3.4610   22.0000 
1162.5072   12.9920   79.6800    2.6980    0.1318    3.1570   37.0000 
1162.8120   13.1400   84.7760    2.7130    0.1611    3.0880   37.0000 
1163.1168   13.1620   88.6190    2.7150    0.1774    3.1660   37.0000 
1163.4216   13.1080   94.4360    2.7090    0.1753    3.2290   37.0000 
1163.7264   13.0890   92.9000    2.7000    0.1645    3.1580   37.0000 
1164.0312   13.1940   86.5940    2.7020    0.1667    3.3000   37.0000 
1164.3360   13.2320   86.0180    2.7000    0.1654    3.4460   37.0000 
1164.6408   13.1370   88.0710    2.6960    0.1510    3.3290   37.0000 
1164.9456   13.1270   86.0640    2.7120    0.1541    3.1880   37.0000 
1165.2504   13.2080   90.8040    2.7220    0.1569    3.4200   37.0000 
1165.5552   13.1970   95.4810    2.7030    0.1521    3.5600   37.0000 
1165.8600   13.2620  100.8230    2.6830    0.1707    3.6150   37.0000 
1166.1648   13.3590   97.9760    2.6860    0.1822    3.5780   37.0000 
1166.4696   13.3970   95.5460    2.6930    0.1735    3.6220   37.0000 
1166.7744   13.3420   95.0270    2.6840    0.1774    3.7370   37.0000 
1167.0792   13.4190   94.6920    2.6940    0.1720    3.3710   37.0000 
1167.3840   13.4970   85.1040    2.7030    0.1597    3.5800   37.0000 
1167.6888   13.4420   61.3610    2.7110    0.1131    4.6670   22.0000 
1167.9936   13.2530   50.0930    2.7050    0.0563    4.6600   18.0000 
1168.2984   13.1830   44.6250    2.6950    0.0355    4.3280   18.0000 
1168.6032   13.2510   40.9440    2.7010    0.0324    4.6290   18.0000 
1168.9080   13.1580   42.4560    2.7090    0.0384    4.3650   18.0000 
1169.2128   13.0710   44.2080    2.7090    0.0492    4.6420   18.0000 
1169.5176   13.1440   41.4810    2.6950    0.0391    4.4340   18.0000 
1169.8224   13.1340   37.8590    2.7030    0.0285    4.3850   18.0000 
1170.1272   12.9840   27.5520    2.7070    0.0170    4.4710   18.0000 
1170.4320   12.9060   35.8730    2.7090    0.0134    4.6450   18.0000 
1170.7368   12.9230   45.1500    2.7110    0.0314    4.9050   18.0000 
1171.0416   12.9170   43.8600    2.7020    0.0324    4.9750   18.0000 
1171.3464   12.8340   47.7020    2.7150    0.0454    4.2840   18.0000 
1171.6512   12.8040   49.8720    2.7150    0.0694    4.1480   18.0000 
1171.9560   12.8330   37.0490    2.7150    0.0253    4.2440   18.0000 
1172.2608   12.7990   24.9530    2.7210    0.0039    4.2940   18.0000 
1172.5656   12.7130   23.1260    2.7250    0.0048    4.7000   18.0000 
1172.8704   12.7500   24.0440    2.7210    0.0035    5.1920   18.0000 
1173.1752   12.7910   20.3630    2.7040   -0.0013    4.8220   18.0000 
1173.4800   12.7210   22.0290    2.7060   -0.0024    4.6200   18.0000 
1173.7848   12.6470   26.4590    2.6970    0.0017    4.4800   18.0000 
1174.0896   12.7350   23.6030    2.6950   -0.0019    4.3300   18.0000 
1174.3944   12.7850   20.2610    2.7150   -0.0042    4.4600   18.0000 
1174.6992   12.7140   24.0540    2.7230   -0.0037    4.2100   18.0000 
1175.0040   12.6620   22.4540    2.7240   -0.0028    4.5600   18.0000 
1175.3088   12.8070   20.1290    2.7180   -0.0044    4.5200   18.0000 
1175.6136   12.8440   23.4960    2.7150   -0.0053    4.4600   18.0000 
1175.9184   12.7340   29.6870    2.7090    0.0003    4.5000   18.0000 
1176.2232   12.7860   29.7440    2.7110    0.0057    4.3900   18.0000 
1176.5280   12.9150   28.7330    2.7140    0.0071    4.5900   18.0000 
1176.8328   12.9240   28.8690    2.7200    0.0069    4.4100   18.0000 
1177.1376   12.8360   27.6920    2.7230    0.0072    4.7400   18.0000 
1177.4424   12.8090   25.3130    2.7110    0.0046    5.2900   18.0000 
1177.7472   12.9170   22.6920    2.7020    0.0012    5.0500   18.0000 
1178.0520   12.8820   22.5260    2.7070   -0.0011    4.3800   18.0000 
1178.3568   12.8120   21.4490    2.7120   -0.0042    4.7200   18.0000 
1178.6616   12.8720   20.6850    2.7130   -0.0033    4.9800   18.0000 
1178.9664   12.9890   28.3680    2.7130    0.0017    4.6400   18.0000 
1179.2712   12.9470   35.8950    2.7130    0.0117    4.4700   18.0000 
1179.5760   12.8470   43.3140    2.7070    0.0232    4.6500   18.0000 
1179.8808   12.8790   48.4800    2.6930    0.0451    4.9000   18.0000 
1180.1856   12.9520   46.1630    2.6980    0.0551    4.6600   18.0000 
1180.4904   12.8330   37.4600    2.7090    0.0327    3.9000   18.0000 
1180.7952   12.7930   34.1630    2.7140    0.0184    3.9600   18.0000 
1181.1000   12.7540   32.7950    2.7160    0.0185    4.1000   18.0000 
1181.4048   12.7560   29.9370    2.7050    0.0138    4.2100   18.0000 
1181.7096   12.6570   35.3390    2.7110    0.0137    4.0200   18.0000 
1182.0144   12.5590   38.4660    2.7090    0.0152    3.9100   18.0000 
1182.3192   12.6140   32.6790    2.7030    0.0079    4.0300   18.0000 
1182.6240   12.6790   26.3580    2.7070    0.0012    3.8700   18.0000 
