~VERSION INFORMATION
 VERS.                 2.0:   CWLS LOG ASCII STANDARD - VERSION 2.0
 WRAP.                  NO:   SINGLE LINE PER DEPTH STEP
 CREA.                 05/01/2018 16:57:09
#CREATED USING DSPetro VERSION 5000.10.1.3 BY H191660 ON 05/01/2018 16:57:09
~WELL INFORMATION
#MNEM.UNIT       DATA                          DESCRIPTION MNEMONIC
#---------      ---------------------------   --------------------------
 STRT    .M         59.7408                   : START DEPTH
 STOP    .M         2451.5064                 : STOP DEPTH
 STEP    .M         0.3048                    : STEP VALUE
 NULL    .      -999.0000                     : NULL VALUE
 DATE    .      05/01/2018                    : LAS file Creation Date
 WELL .      JOHNSON_1_1                 : Well Name
 COMP .      Neftex Exploration Insights : Company
 FLD  .                                  : Field
 UWI  .      DUSWL_JOHNSO                : Unique Well Identifier (UWI)
 LOC  .                                  : Location
 RWS  .      -999                        : Def_Rw
 WST  .      -999                        : Def_Rwt
 SRVC .                                  : Contractor
~CURVE INFORMATION
#MNEM              UNIT       API CODE   Curve Type Comments
#----------  --------------- ----------  ---------- -----------
 DEPTH      .M                         : Depth       
 GR_API     .API                       : GammaRay    Gamma Ray (API) - Measures the intensity of natural gamma-ray radiation emitted from formations containing radioactive elements, such as K, Th and U
 LLD_OHMM   .ohmm                      :             Laterlog Deep Resistivity - Measurement made several feet into the formation; generally considered a measurement of the undisturbed formation
 LLS_OHMM   .ohmm                      :             Laterlog Shallow Resistivity - one to two feet into the formation; generally considered to measure the formation
 RHOZ_G_CC  .g/cc                      :             Formation Density - Measures the density of formation, including any void space or other materials contained in the subject volume
 NPHI_v_v   .dec                       : Neutron     
 PEF_B_E    .b/e-                      : PEF         Photoelectric Factor - A log of photoelectric absorption properties. Often expressed in an approximation unit barns/electron (b/e-)
 LITH       .                          :             
~A  DEPTH   GR_API   LLD_OHMM  LLS_OHMM RHOZ_G_C~  NPHI_v_v  PEF_B_E     LITH   
# ...
2051.3040   90.0380 -999.0000 -999.0000    2.6390    0.1941    3.3230   37.0000 
2051.6088   96.7550 -999.0000 -999.0000    2.5720    0.2055    2.9860   37.0000 
2051.9136  100.2300 -999.0000 -999.0000    2.5410    0.2305    2.9580   37.0000 
2052.2184  103.1730 -999.0000 -999.0000    2.5180    0.2696    2.8980   37.0000 
2052.5232   98.1200 -999.0000 -999.0000    2.5110    0.2594    2.9910   37.0000 
2052.8280   94.8030 -999.0000 -999.0000    2.5160    0.2443    3.0820   37.0000 
2053.1328   97.6970 -999.0000 -999.0000    2.5140    0.2161    2.9510   37.0000 
2053.4376   96.7830 -999.0000 -999.0000    2.4990    0.2231    2.8320   37.0000 
2053.7424   93.5960 -999.0000 -999.0000    2.5380    0.2321    3.0970   37.0000 
2054.0472   88.6500 -999.0000 -999.0000    2.5980    0.2143    3.2790   37.0000 
2054.3520   90.6230 -999.0000 -999.0000    2.6230    0.2008    3.0820   37.0000 
2054.6568   86.2950 -999.0000 -999.0000    2.6440    0.1646    3.5580   37.0000 
2054.9616   80.5700 -999.0000 -999.0000    2.6590    0.1421    3.8380   37.0000 
2055.2664   80.1590 -999.0000 -999.0000    2.6240    0.1382    3.3530   37.0000 
2055.5712   90.0150 -999.0000 -999.0000    2.5720    0.1599    3.0360   37.0000 
2055.8760   89.8820 -999.0000 -999.0000    2.5370    0.1648    2.6750   37.0000 
2056.1808   96.5430 -999.0000 -999.0000    2.5120    0.1777    2.8230   37.0000 
2056.4856   95.8760 -999.0000 -999.0000    2.4970    0.1794    3.0350   37.0000 
2056.7904   94.6610 -999.0000 -999.0000    2.4940    0.1873    3.0990   37.0000 
2057.0952   96.5240 -999.0000 -999.0000    2.4930    0.2072    2.9650   37.0000 
2057.4000   99.5250 -999.0000 -999.0000    2.5020    0.2342    2.7240   37.0000 
2057.7048   95.9790 -999.0000 -999.0000    2.5130    0.2518    2.7680   37.0000 
2058.0096   95.3100 -999.0000 -999.0000    2.5190    0.2444    2.9260   37.0000 
2058.3144   97.8860 -999.0000 -999.0000    2.5310    0.2394    2.8530   37.0000 
2058.6192   96.8660 -999.0000 -999.0000    2.5620    0.2389    2.8990   37.0000 
2058.9240   87.1740 -999.0000 -999.0000    2.6100    0.2224    3.2580   37.0000 
2059.2288   82.8950 -999.0000 -999.0000    2.6570    0.1814    3.6410   37.0000 
2059.5336   79.2740 -999.0000 -999.0000    2.6410    0.1222    3.2770   37.0000 
2059.8384   93.5720 -999.0000 -999.0000    2.5880    0.0927    2.8440   37.0000 
2060.1432   98.0120 -999.0000 -999.0000    2.5250    0.1308    2.6490   37.0000 
2060.4480   96.6960 -999.0000 -999.0000    2.5670    0.2056    3.2810   37.0000 
2060.7528   84.6720 -999.0000 -999.0000    2.6310    0.2121    3.6420   37.0000 
2061.0576   75.4650 -999.0000 -999.0000    2.5430    0.1384    3.9200   22.0000 
2061.3624   61.0310 -999.0000 -999.0000    2.2460    0.0449    3.7970   22.0000 
2061.6672   39.4470 -999.0000 -999.0000    2.0830   -0.0170    3.5650   16.0000 
2061.9720   26.4600 -999.0000 -999.0000    2.0570   -0.0213    3.5410   16.0000 
2062.2768   25.4270 -999.0000 -999.0000    2.0750   -0.0222    3.6340   16.0000 
2062.5816   26.0220 -999.0000 -999.0000    2.0810   -0.0224    3.7420   16.0000 
2062.8864   25.0010 -999.0000 -999.0000    2.0790   -0.0215    3.7960   16.0000 
2063.1912   26.3730 -999.0000 -999.0000    2.0630   -0.0225    3.7040   16.0000 
2063.4960   27.6320 -999.0000 -999.0000    2.0500   -0.0226    3.5470   16.0000 
2063.8008   27.0780 -999.0000 -999.0000    2.0530   -0.0220    3.5790   16.0000 
2064.1056   26.1660 -999.0000 -999.0000    2.0720   -0.0201    3.7540   16.0000 
2064.4104   26.7060 -999.0000 -999.0000    2.1200   -0.0167    3.8740   16.0000 
2064.7152   24.0090 -999.0000 -999.0000    2.1470   -0.0168    3.7050   16.0000 
2065.0200   25.4340 -999.0000 -999.0000    2.0890   -0.0192    3.6370   16.0000 
2065.3248   29.0910 -999.0000 -999.0000    2.0610   -0.0201    3.4740   16.0000 
2065.6296   28.8440 -999.0000 -999.0000    2.0640   -0.0184    3.7270   16.0000 
2065.9344   27.4520 -999.0000 -999.0000    2.3260   -0.0137    3.9520   22.0000 
2066.2392   31.3610 -999.0000 -999.0000    2.6560   -0.0039    4.0640   22.0000 
2066.5440   38.5020 -999.0000 -999.0000    2.6610    0.0037    3.6760   22.0000 
2066.8488   40.7730 -999.0000 -999.0000    2.5840    0.0123    3.2500   22.0000 
2067.1536   40.4150 -999.0000 -999.0000    2.5900    0.0157    3.1360   22.0000 
2067.4584   38.1330 -999.0000 -999.0000    2.5630    0.0148    3.2120   22.0000 
2067.7632   39.9920 -999.0000 -999.0000    2.5100    0.0122    3.2600   22.0000 
2068.0680   46.4220 -999.0000 -999.0000    2.5020    0.0171    3.1250   22.0000 
2068.3728   61.4870 -999.0000 -999.0000    2.5240    0.0716    2.9980   22.0000 
2068.6776   80.0540 -999.0000 -999.0000    2.5780    0.1773    2.9660   37.0000 
2068.9824   85.1550 -999.0000 -999.0000    2.6220    0.2059    2.9860   37.0000 
2069.2872   87.7370 -999.0000 -999.0000    2.6140    0.2059    2.9830   37.0000 
2069.5920   90.8040 -999.0000 -999.0000    2.6090    0.2177    3.1520   37.0000 
2069.8968   91.0970 -999.0000 -999.0000    2.6550    0.1566    3.3240   37.0000 
2070.2016   85.8050 -999.0000 -999.0000    2.6820    0.1205    3.3700   37.0000 
2070.5064   76.8920 -999.0000 -999.0000    2.6450    0.1273    3.1630   37.0000 
2070.8112   70.0320 -999.0000 -999.0000    2.6050    0.1353    3.4200   37.0000 
2071.1160   62.3280 -999.0000 -999.0000    2.5370    0.0440    3.6000   22.0000 
2071.4208   48.6120 -999.0000 -999.0000    2.2320   -0.0018    3.6310   16.0000 
2071.7256   32.3190 -999.0000 -999.0000    2.0790   -0.0150    3.6450   16.0000 
2072.0304   28.0400 -999.0000 -999.0000    2.0640   -0.0184    3.5890   16.0000 
2072.3352   25.0890 -999.0000 -999.0000    2.0610   -0.0194    3.4200   16.0000 
2072.6400   29.1230 -999.0000 -999.0000    2.0770   -0.0197    3.3740   16.0000 
2072.9448   40.7940 -999.0000 -999.0000    2.1300   -0.0141    3.4280   16.0000 
2073.2496   53.2970 -999.0000 -999.0000    2.2330   -0.0035    3.2510   16.0000 
2073.5544   72.0090 -999.0000 -999.0000    2.4560    0.0257    2.8960   22.0000 
2073.8592   84.2810 -999.0000 -999.0000    2.5070    0.0507    3.1190   22.0000 
2074.1640   87.3320 -999.0000 -999.0000    2.5370    0.0549    3.3760   22.0000 
2074.4688   84.8640 -999.0000 -999.0000    2.4900    0.0626    3.5460   22.0000 
2074.7736   48.3180 -999.0000 -999.0000    2.2180   -0.0017    3.6020   16.0000 
2075.0784   34.3790 -999.0000 -999.0000    2.1250   -0.0148    3.5690   16.0000 
2075.3832   43.3170 -999.0000 -999.0000    2.2380   -0.0054    3.4470   16.0000 
2075.6880   46.8620 -999.0000 -999.0000    2.2690    0.0037    3.5550   16.0000 
2075.9928   35.2080 -999.0000 -999.0000    2.1380   -0.0126    3.4950   16.0000 
2076.2976   29.0060 -999.0000 -999.0000    2.1100   -0.0186    3.5730   16.0000 
2076.6024   26.8290 -999.0000 -999.0000    2.0950   -0.0190    3.6340   16.0000 
2076.9072   27.0530 -999.0000 -999.0000    2.1080   -0.0207    3.6930   16.0000 
2077.2120   29.2770 -999.0000 -999.0000    2.1410   -0.0175    3.6110   16.0000 
2077.5168   28.8510 -999.0000 -999.0000    2.1680   -0.0175    3.5560   16.0000 
2077.8216   26.4990 -999.0000 -999.0000    2.1290   -0.0192    3.7630   16.0000 
2078.1264   29.1470 -999.0000 -999.0000    2.0990   -0.0211    3.5980   16.0000 
2078.4312   29.3790 -999.0000 -999.0000    2.0830   -0.0208    3.6900   16.0000 
2078.7360   31.4280 -999.0000 -999.0000    2.0580   -0.0204    3.7600   16.0000 
2079.0408   30.8090 -999.0000 -999.0000    2.0520   -0.0192    3.5710   16.0000 
2079.3456   25.7600 -999.0000 -999.0000    2.0620   -0.0192    3.4540   16.0000 
2079.6504   26.1540 -999.0000 -999.0000    2.0520   -0.0214    3.5120   16.0000 
2079.9552   28.9700 -999.0000 -999.0000    2.0410   -0.0212    3.6000   16.0000 
2080.2600   27.7650 -999.0000 -999.0000    2.0490   -0.0216    3.7360   16.0000 
2080.5648   29.0720 -999.0000 -999.0000    2.0370   -0.0219    3.8120   16.0000 
2080.8696   24.5670 -999.0000 -999.0000    2.0410   -0.0221    3.7790   16.0000 
2081.1744   27.6860 -999.0000 -999.0000    2.0500   -0.0209    3.6610   16.0000 
