~VERSION INFORMATION
 VERS.                 2.0:   CWLS LOG ASCII STANDARD - VERSION 2.0
 WRAP.                  NO:   SINGLE LINE PER DEPTH STEP
 CREA.                 05/01/2018 16:57:09
#CREATED USING DSPetro VERSION 5000.10.1.3 BY H191660 ON 05/01/2018 16:57:09
~WELL INFORMATION
#MNEM.UNIT       DATA                          DESCRIPTION MNEMONIC
#---------      ---------------------------   --------------------------
 STRT    .M         59.7408                   : START DEPTH
 STOP    .M         2451.5064                 : STOP DEPTH
 STEP    .M         0.3048                    : STEP VALUE
 NULL    .      -999.0000                     : NULL VALUE
 DATE    .      05/01/2018                    : LAS file Creation Date
 WELL .      JOHNSON_1_1                 : Well Name
 COMP .      Neftex Exploration Insights : Company
 FLD  .                                  : Field
 UWI  .      DUSWL_JOHNSO                : Unique Well Identifier (UWI)
 LOC  .                                  : Location
 RWS  .      -999                        : Def_Rw
 WST  .      -999                        : Def_Rwt
 SRVC .                                  : Contractor
~CURVE INFORMATION
#MNEM              UNIT       API CODE   Curve Type Comments
#----------  --------------- ----------  ---------- -----------
 DEPTH      .M                         : Depth       
 GR_API     .API                       : GammaRay    Gamma Ray (API) - Measures the intensity of natural gamma-ray radiation emitted from formations containing radioactive elements, such as K, Th and U
 LLD_OHMM   .ohmm                      :             Laterlog Deep Resistivity - Measurement made several feet into the formation; generally considered a measurement of the undisturbed formation
 LLS_OHMM   .ohmm                      :             Laterlog Shallow Resistivity - one to two feet into the formation; generally considered to measure the formation
 RHOZ_G_CC  .g/cc                      :             Formation Density - Measures the density of formation, including any void space or other materials contained in the subject volume
 NPHI_v_v   .dec                       : Neutron     
 PEF_B_E    .b/e-                      : PEF         Photoelectric Factor - A log of photoelectric absorption properties. Often expressed in an approximation unit barns/electron (b/e-)
 LITH       .                          :             
~A  DEPTH   GR_API   LLD_OHMM  LLS_OHMM RHOZ_G_C~  NPHI_v_v  PEF_B_E     LITH   
# ...
1387.4496   12.1170 -999.0000 -999.0000    2.8740   -0.0142    4.1540    1.0000 
1387.7544   10.9160 -999.0000 -999.0000    2.5920   -0.0163    3.8160   15.0000 
1388.0592   12.7280 -999.0000 -999.0000    2.3100   -0.0169    3.6730   15.0000 
1388.3640   14.0640 -999.0000 -999.0000    2.2970   -0.0150    3.6760   15.0000 
1388.6688   13.2020 -999.0000 -999.0000    2.3980   -0.0101    3.6570   15.0000 
1388.9736   11.1920 -999.0000 -999.0000    2.7450   -0.0026    4.4650    1.0000 
1389.2784   10.9940 -999.0000 -999.0000    3.0020   -0.0136    4.8470    1.0000 
1389.5832    9.2240 -999.0000 -999.0000    3.0160   -0.0161    4.6170    1.0000 
1389.8880    8.2820 -999.0000 -999.0000    3.0080   -0.0175    4.9270    1.0000 
1390.1928    7.5270 -999.0000 -999.0000    3.0010   -0.0176    5.3680    1.0000 
1390.4976    9.7580 -999.0000 -999.0000    2.9760   -0.0195    4.6330    1.0000 
1390.8024   12.5240 -999.0000 -999.0000    2.6080   -0.0201    3.7120   15.0000 
1391.1072   14.9360 -999.0000 -999.0000    2.4900   -0.0170    4.2220   15.0000 
1391.4120   12.1500 -999.0000 -999.0000    2.6830   -0.0063    5.2910   15.0000 
1391.7168    8.0090 -999.0000 -999.0000    2.8470   -0.0101    6.3850    1.0000 
1392.0216    9.9390 -999.0000 -999.0000    2.8940   -0.0128    6.0680    1.0000 
1392.3264   10.7450 -999.0000 -999.0000    2.9380   -0.0155    5.4520    1.0000 
1392.6312    8.7900 -999.0000 -999.0000    2.9700   -0.0163    4.9150    1.0000 
1392.9360    9.2550 -999.0000 -999.0000    2.9770   -0.0163    4.4440    1.0000 
1393.2408    9.7610 -999.0000 -999.0000    2.9830   -0.0153    4.9620    1.0000 
1393.5456   10.4450 -999.0000 -999.0000    2.9960   -0.0155    4.5330    1.0000 
1393.8504   14.6450 -999.0000 -999.0000    2.9440   -0.0147    3.9010    1.0000 
1394.1552   18.0080 -999.0000 -999.0000    2.7660   -0.0113    3.5350    1.0000 
1394.4600   19.9530 -999.0000 -999.0000    2.6440   -0.0029    3.1820   27.0000 
1394.7648   20.9250 -999.0000 -999.0000    2.6040    0.0016    3.0780   27.0000 
1395.0696   22.2680 -999.0000 -999.0000    2.5950    0.0016    3.0430   27.0000 
1395.3744   20.7470 -999.0000 -999.0000    2.6370    0.0064    2.9280   27.0000 
1395.6792   17.5910 -999.0000 -999.0000    2.6790    0.0106    2.8820   27.0000 
1395.9840   16.6200 -999.0000 -999.0000    2.7120    0.0117    3.2080   27.0000 
1396.2888   15.7430 -999.0000 -999.0000    2.8150    0.0096    3.8060   18.0000 
1396.5936   14.0330 -999.0000 -999.0000    2.8040   -0.0056    4.0380   18.0000 
1396.8984   14.2500 -999.0000 -999.0000    2.3010   -0.0166    3.6370   16.0000 
1397.2032   13.3700 -999.0000 -999.0000    2.1730   -0.0193    3.3630   16.0000 
1397.5080   12.3840 -999.0000 -999.0000    2.1150   -0.0182    3.4280   16.0000 
1397.8128   11.8530 -999.0000 -999.0000    2.0850   -0.0169    3.5100   16.0000 
1398.1176   12.1370 -999.0000 -999.0000    2.0990   -0.0153    3.3620   16.0000 
1398.4224   12.8220 -999.0000 -999.0000    2.1080   -0.0138    3.4880   16.0000 
1398.7272   12.0710 -999.0000 -999.0000    2.1060   -0.0132    3.4000   16.0000 
1399.0320   10.9590 -999.0000 -999.0000    2.1120   -0.0177    3.2950   16.0000 
1399.3368   10.8390 -999.0000 -999.0000    2.1270   -0.0215    3.2490   16.0000 
1399.6416   10.7040 -999.0000 -999.0000    2.1210   -0.0239    3.2620   16.0000 
1399.9464   10.6070 -999.0000 -999.0000    2.0870   -0.0249    3.2910   16.0000 
1400.2512   10.9370 -999.0000 -999.0000    2.0850   -0.0238    3.2480   16.0000 
1400.5560    9.9890 -999.0000 -999.0000    2.0940   -0.0210    3.1660   16.0000 
1400.8608    8.6600 -999.0000 -999.0000    2.1120   -0.0175    3.7950   16.0000 
1401.1656    8.0450 -999.0000 -999.0000    2.4280   -0.0186    3.3210   15.0000 
1401.4704    8.3490 -999.0000 -999.0000    2.1850   -0.0232    3.1240   16.0000 
1401.7752    9.4470 -999.0000 -999.0000    2.0610   -0.0258    3.3480   16.0000 
1402.0800   10.2170 -999.0000 -999.0000    2.0300   -0.0249    3.5930   16.0000 
1402.3848   10.2600 -999.0000 -999.0000    2.0240   -0.0223    3.4740   16.0000 
1402.6896    9.5030 -999.0000 -999.0000    2.0310   -0.0224    3.4690   16.0000 
1402.9944    9.7200 -999.0000 -999.0000    2.0250   -0.0201    3.4430   16.0000 
1403.2992   10.2390 -999.0000 -999.0000    2.0280   -0.0187    3.3800   16.0000 
1403.6040   10.8020 -999.0000 -999.0000    2.0120   -0.0200    3.2810   16.0000 
1403.9088   11.2650 -999.0000 -999.0000    2.0250   -0.0188    3.2180   16.0000 
1404.2136   10.7450 -999.0000 -999.0000    2.0980   -0.0116    3.5190   16.0000 
1404.5184   12.0660 -999.0000 -999.0000    2.2850   -0.0030    3.3600   16.0000 
1404.8232   11.0270 -999.0000 -999.0000    2.1830   -0.0031    3.1610   16.0000 
1405.1280   12.4260 -999.0000 -999.0000    2.4010    0.0069    3.9870   16.0000 
1405.4328   12.2100 -999.0000 -999.0000    2.8650    0.0192    4.6060    1.0000 
1405.7376   13.5660 -999.0000 -999.0000    2.9330   -0.0062    4.5830    1.0000 
1406.0424   13.4790 -999.0000 -999.0000    2.9120   -0.0083    4.1620    1.0000 
1406.3472   12.2630 -999.0000 -999.0000    2.9110   -0.0074    4.3050    1.0000 
1406.6520   11.4080 -999.0000 -999.0000    2.8790   -0.0095    4.4960    1.0000 
1406.9568   10.4960 -999.0000 -999.0000    2.8250   -0.0108    4.2770    1.0000 
1407.2616   10.2950 -999.0000 -999.0000    2.8540   -0.0091    4.9270    1.0000 
1407.5664   12.5460 -999.0000 -999.0000    2.9240   -0.0033    5.2290    1.0000 
1407.8712   15.0770 -999.0000 -999.0000    2.9540   -0.0031    4.0510    1.0000 
1408.1760   15.7670 -999.0000 -999.0000    2.8270   -0.0045    3.2600    1.0000 
1408.4808   18.4130 -999.0000 -999.0000    2.7290    0.0000    2.9270   22.0000 
1408.7856   19.9410 -999.0000 -999.0000    2.6960    0.0071    3.0560   22.0000 
1409.0904   16.4480 -999.0000 -999.0000    2.7400    0.0146    3.2850   22.0000 
1409.3952   12.6570 -999.0000 -999.0000    2.9020    0.0072    3.8650    1.0000 
1409.7000   12.0990 -999.0000 -999.0000    2.9790   -0.0070    3.8470    1.0000 
1410.0048   15.3690 -999.0000 -999.0000    2.9490   -0.0079    4.1880    1.0000 
1410.3096   15.1710 -999.0000 -999.0000    2.9140   -0.0040    4.7980    1.0000 
1410.6144   12.5750 -999.0000 -999.0000    2.7220   -0.0122    4.5530    1.0000 
1410.9192   11.9930 -999.0000 -999.0000    2.5000   -0.0178    3.2920   16.0000 
1411.2240   12.4550 -999.0000 -999.0000    2.0570   -0.0196    2.6240   16.0000 
1411.5288   12.0860 -999.0000 -999.0000    2.1050   -0.0092    2.7730   16.0000 
1411.8336   10.0730 -999.0000 -999.0000    2.4030    0.0034    3.9800   16.0000 
1412.1384   10.8360 -999.0000 -999.0000    2.6990   -0.0073    4.5830   18.0000 
1412.4432   13.1330 -999.0000 -999.0000    2.6920   -0.0125    4.4120   18.0000 
1412.7480   12.7430 -999.0000 -999.0000    2.6070   -0.0114    4.5150   18.0000 
1413.0528   11.0180 -999.0000 -999.0000    2.5770   -0.0140    4.4960   18.0000 
1413.3576    9.4250 -999.0000 -999.0000    2.6780   -0.0105    5.0440   18.0000 
1413.6624    9.9420 -999.0000 -999.0000    2.9160   -0.0105    5.4190    1.0000 
1413.9672    9.5310 -999.0000 -999.0000    2.9670   -0.0102    5.2070    1.0000 
1414.2720    8.2470 -999.0000 -999.0000    2.9930   -0.0134    4.9920    1.0000 
1414.5768   10.3310 -999.0000 -999.0000    2.9990   -0.0150    5.3990    1.0000 
1414.8816   12.8750 -999.0000 -999.0000    2.9830   -0.0140    5.5630    1.0000 
1415.1864   15.4610 -999.0000 -999.0000    2.8700   -0.0099    3.6870    1.0000 
1415.4912   17.1030 -999.0000 -999.0000    2.7100   -0.0005    3.2160    1.0000 
1415.7960   15.7950 -999.0000 -999.0000    2.6510    0.0093    3.3860   18.0000 
1416.1008   14.9960 -999.0000 -999.0000    2.6900    0.0083    3.7250   18.0000 
1416.4056   14.4830 -999.0000 -999.0000    2.7690   -0.0023    4.1390    1.0000 
1416.7104   13.6160 -999.0000 -999.0000    2.8380   -0.0049    4.4540    1.0000 
1417.0152   11.9940 -999.0000 -999.0000    2.9100   -0.0054    4.5830    1.0000 
1417.3200   12.7500 -999.0000 -999.0000    2.9180   -0.0056    4.3500    1.0000 
