~VERSION INFORMATION
 VERS.                 2.0:   CWLS LOG ASCII STANDARD - VERSION 2.0
 WRAP.                  NO:   SINGLE LINE PER DEPTH STEP
 CREA.                 05/01/2018 17:09:06
#CREATED USING DSPetro VERSION 5000.10.1.3 BY H191660 ON 05/01/2018 17:09:06
~WELL INFORMATION
#MNEM.UNIT       DATA                          DESCRIPTION MNEMONIC
#---------      ---------------------------   --------------------------
 STRT    .M         80.7720                   : START DEPTH
 STOP    .M         2461.5648                 : STOP DEPTH
 STEP    .M         0.3048                    : STEP VALUE
 NULL    .      -999.0000                     : NULL VALUE
 DATE    .      05/01/2018                    : LAS file Creation Date
 WELL .      JOHNSON_3_1                 : Well Name
 COMP .      Neftex Exploration Insights : Company
 FLD  .                                  : Field
 UWI  .      DUSWL_JO_3_1                : Unique Well Identifier (UWI)
 LOC  .                                  : Location
 RWS  .      -999                        : Def_Rw
 WST  .      -999                        : Def_Rwt
 SRVC .                                  : Contractor
~CURVE INFORMATION
#MNEM              UNIT       API CODE   Curve Type Comments
#----------  --------------- ----------  ---------- -----------
 DEPTH      .M                         : Depth       
 CAL_INCH   .inch                      :             Caliper Log - A representation of the measured diameter of a borehole along its depth
 GR_API     .API                       : GammaRay    Gamma Ray (API) - Measures the intensity of natural gamma-ray radiation emitted from formations containing radioactive elements, such as K, Th and U
 RHOZ_G_CC  .g/cc                      :             Formation Density - Measures the density of formation, including any void space or other materials contained in the subject volume
 NPHI_v_v   .dec                       : Neutron     
 PEF_B_E    .b/e-                      : PEF         Photoelectric Factor - A log of photoelectric absorption properties. Often expressed in an approximation unit barns/electron (b/e-)
 LITH       .                          :             
~A  DEPTH  CAL_INCH   GR_API  RHOZ_G_C~  NPHI_v_v  PEF_B_E     LITH   
# ...
1010.7168   12.4780  134.1410    2.5000    0.3500    3.0910   37.0000 
1011.0216   12.5470  106.5630    2.5200    0.2990    3.2550   37.0000 
1011.3264   12.7230  112.4910    2.5290    0.2207    2.6960   37.0000 
1011.6312   13.0540  116.2670    2.5280    0.2288    2.5370   37.0000 
1011.9360   13.2620  110.4890    2.5340    0.2762    2.7370   37.0000 
1012.2408   13.1990  117.3690    2.5470    0.3025    2.9150   37.0000 
1012.5456   13.1920  123.5360    2.5720    0.2519    3.1170   37.0000 
1012.8504   13.4120  103.5410    2.6150    0.1791    3.2590   37.0000 
1013.1552   13.7640   88.3860    2.6310    0.1582    3.3000   37.0000 
1013.4600   14.1550   97.9580    2.6100    0.1626    3.1610   37.0000 
1013.7648   14.5500  104.9610    2.6350    0.1741    3.3670   37.0000 
1014.0696   14.9650   82.7580    2.6640    0.1395    4.0850   22.0000 
1014.3744   15.3880   61.8090    2.6890    0.0984    4.5920   22.0000 
1014.6792   15.2970   59.9070    2.6740    0.0841    3.7790   22.0000 
1014.9840   13.6980   69.5400    2.6670    0.1119    3.3880   22.0000 
1015.2888   13.6670   88.7820    2.6650    0.1588    3.5610   37.0000 
1015.5936   13.9940   91.3040    2.6720    0.1484    3.7850   37.0000 
1015.8984   13.8440   75.3770    2.6790    0.1237    3.8980   22.0000 
1016.2032   13.5220   70.9080    2.6940    0.1129    4.2810   22.0000 
1016.5080   13.5670   60.6530    2.6920    0.1053    4.1480   22.0000 
1016.8128   13.7470   62.6970    2.6710    0.0916    4.0170   22.0000 
1017.1176   13.6490   61.0370    2.6660    0.0923    4.2050   22.0000 
1017.4224   13.4260   55.9130    2.6800    0.0764    4.1920   22.0000 
1017.7272   13.4710   64.5870    2.6820    0.0847    4.0270   22.0000 
1018.0320   13.6750   72.0060    2.6820    0.0999    3.7510   22.0000 
1018.3368   13.6360   73.2170    2.6810    0.1148    3.7040   22.0000 
1018.6416   13.3820   73.7670    2.6650    0.1197    3.8520   22.0000 
1018.9464   13.5350   72.8870    2.6730    0.1274    3.9000   22.0000 
1019.2512   13.6310   71.7050    2.6750    0.1212    3.8910   22.0000 
1019.5560   13.5170   74.7060    2.6740    0.1216    3.7560   22.0000 
1019.8608   13.3860   77.2280    2.6810    0.1350    3.7170   37.0000 
1020.1656   13.5020   80.8260    2.6690    0.1407    3.6340   37.0000 
1020.4704   13.6070   81.9140    2.6710    0.1358    3.4810   22.0000 
1020.7752   13.4970   81.6300    2.6750    0.1262    3.5460   22.0000 
1021.0800   13.3820   79.9230    2.6640    0.1226    3.3310   22.0000 
1021.3848   13.5070   88.4900    2.6630    0.1556    3.5610   37.0000 
1021.6896   13.5840   78.6530    2.6540    0.1480    3.9580   37.0000 
1021.9944   13.4310   67.5110    2.6740    0.1080    3.9850   22.0000 
1022.2992   13.4760   60.1280    2.6830    0.0918    4.2880   22.0000 
1022.6040   13.6170   52.5680    2.6940    0.0740    4.0200   22.0000 
1022.9088   13.6860   58.2620    2.7010    0.0636    3.9150   22.0000 
1023.2136   13.5640   66.1040    2.6940    0.0854    4.2390   22.0000 
1023.5184   13.6170   67.8590    2.6710    0.1095    4.0020   22.0000 
1023.8232   13.6940   66.3260    2.6640    0.1052    3.9350   22.0000 
1024.1280   13.6480   63.4190    2.6800    0.0905    4.3640   22.0000 
1024.4328   13.4340   51.2010    2.6960    0.0499    4.6340   22.0000 
1024.7376   13.4150   42.6240    2.6900    0.0168    4.7280   18.0000 
1025.0424   13.5000   45.2760    2.6780    0.0208    4.8300   18.0000 
1025.3472   13.5170   53.4770    2.6830    0.0388    3.6710   22.0000 
1025.6520   13.3920   65.7960    2.6900    0.0816    3.5330   22.0000 
1025.9568   13.4290   72.0270    2.6990    0.1073    3.6050   22.0000 
1026.2616   13.4340   83.9900    2.6970    0.1229    3.5060   22.0000 
1026.5664   13.3840   87.9510    2.6880    0.1349    3.4310   37.0000 
1026.8712   13.1660   72.9260    2.6940    0.1014    3.3440   22.0000 
1027.1760   13.1280   71.5760    2.6850    0.0973    3.2170   22.0000 
1027.4808   13.1690   80.8530    2.6740    0.1103    3.5010   22.0000 
1027.7856   13.1790   80.2190    2.6960    0.1014    4.0450   22.0000 
1028.0904   12.9810   64.7720    2.7040    0.0713    3.9740   22.0000 
1028.3952   12.9070   44.5560    2.7190    0.0408    3.9530   18.0000 
1028.7000   12.9530   28.7550    2.7440    0.0105    4.4760   18.0000 
1029.0048   12.8980   19.7550    2.7710    0.0072    4.3930   18.0000 
1029.3096   12.7720   12.0210    2.8030    0.0172    3.9350   18.0000 
1029.6144   12.8090   14.6700    2.7950    0.0247    3.8980   18.0000 
1029.9192   12.8860   14.6910    2.7800    0.0339    3.8410   22.0000 
1030.2240   12.8280   12.0830    2.7680    0.0319    4.2940   18.0000 
1030.5288   12.7380   10.6740    2.7230    0.0244    4.5220   18.0000 
1030.8336   12.8470   11.4690    2.7330    0.0154    4.3850   18.0000 
1031.1384   12.9000   14.3010    2.7410    0.0032    4.4950   18.0000 
1031.4432   12.7740   15.2180    2.7410    0.0028    4.3640   18.0000 
1031.7480   12.6960   12.6720    2.7390    0.0071    4.6480   18.0000 
1032.0528   12.8370   11.9750    2.7170    0.0096    4.7580   18.0000 
1032.3576   12.8670   12.5900    2.7150    0.0141    4.1530   18.0000 
1032.6624   12.7480   11.9610    2.7510    0.0146    4.0360   18.0000 
1032.9672   12.6940   14.3130    2.7550    0.0080    3.9410   18.0000 
1033.2720   12.7990   16.7780    2.7690    0.0056    4.0210   18.0000 
1033.5768   12.7130   16.0820    2.7860    0.0076    4.2150   18.0000 
1033.8816   12.6300   12.4020    2.7780    0.0140    4.0010   18.0000 
1034.1864   12.6720   10.2740    2.7610    0.0242    3.8300   18.0000 
1034.4912   12.7570   12.7410    2.7540    0.0175    4.2570   18.0000 
1034.7960   12.7020   13.8380    2.7400    0.0024    4.4390   18.0000 
1035.1008   12.5760   13.0760    2.7280   -0.0038    4.9880   18.0000 
1035.4056   12.5260   14.7170    2.7160   -0.0052    4.6540   18.0000 
1035.7104   12.5790   15.2730    2.7070   -0.0055    4.3900   18.0000 
1036.0152   12.5570   14.5200    2.7080   -0.0056    4.4920   18.0000 
1036.3200   12.4630   15.8520    2.7020   -0.0051    4.3770   18.0000 
1036.6248   12.4440   17.3670    2.7070   -0.0051    4.6580   18.0000 
1036.9296   12.5220   18.6450    2.7060   -0.0048    4.8030   18.0000 
1037.2344   12.4390   19.1430    2.6920   -0.0025    4.7660   18.0000 
1037.5392   12.3250   20.5380    2.6850   -0.0026    4.5750   18.0000 
1037.8440   12.3590   18.0570    2.7010   -0.0047    4.7730   18.0000 
1038.1488   12.4080   15.6890    2.6950   -0.0050    4.7340   18.0000 
1038.4536   12.4210   13.3220    2.7160   -0.0044    4.5110   18.0000 
1038.7584   12.3630   11.5490    2.7230    0.0008    4.4740   18.0000 
1039.0632   12.4920   10.3160    2.6680    0.0016    3.1780   18.0000 
1039.3680   12.4970    9.6200    2.6260    0.0007    3.2740   18.0000 
1039.6728   12.4740    8.0940    2.6580    0.0034    4.4000   18.0000 
1039.9776   12.5600    6.6240    2.6990    0.0063    4.3250   18.0000 
1040.2824   12.6840    5.7480    2.7000    0.0104    4.2560   18.0000 
1040.5872   12.8170    5.2940    2.7090    0.0093    4.3690   18.0000 
1040.8920   12.7630    5.8470    2.7290    0.0067    4.5430   18.0000 
1041.1968   12.6970    5.6310    2.7140    0.0066    4.4680   18.0000 
1041.5016   12.8220    5.4150    2.6870    0.0138    4.0900   18.0000 
1041.8064   12.9030    4.4220    2.6800    0.0226    3.7060   18.0000 
1042.1112   12.7970    3.6680    2.7160    0.0537    3.4330   18.0000 
1042.4160   12.8260    3.6860    2.7490    0.0720    3.2930   18.0000 
1042.7208   12.9030    3.6510    2.6970    0.0571    3.8990   18.0000 
1043.0256   12.8450    3.1350    2.6440    0.0430    4.2920   18.0000 
1043.3304   12.7860    4.2950    2.6380    0.0466    3.5900   18.0000 
1043.6352   12.7400    4.9110    2.6470    0.0315    3.5150   18.0000 
1043.9400   12.8170    6.2420    2.6440    0.0188    4.1770   18.0000 
1044.2448   12.7670    7.2780    2.6610    0.0110    4.2370   18.0000 
1044.5496   12.6410    7.6560    2.6980    0.0033    4.5480   18.0000 
1044.8544   12.6820    7.6190    2.7060    0.0018    4.6310   18.0000 
