~VERSION INFORMATION
 VERS.                 2.0:   CWLS LOG ASCII STANDARD - VERSION 2.0
 WRAP.                  NO:   SINGLE LINE PER DEPTH STEP
 CREA.                 05/01/2018 17:09:06
#CREATED USING DSPetro VERSION 5000.10.1.3 BY H191660 ON 05/01/2018 17:09:06
~WELL INFORMATION
#MNEM.UNIT       DATA                          DESCRIPTION MNEMONIC
#---------      ---------------------------   --------------------------
 STRT    .M         80.7720                   : START DEPTH
 STOP    .M         2461.5648                 : STOP DEPTH
 STEP    .M         0.3048                    : STEP VALUE
 NULL    .      -999.0000                     : NULL VALUE
 DATE    .      05/01/2018                    : LAS file Creation Date
 WELL .      JOHNSON_3_1                 : Well Name
 COMP .      Neftex Exploration Insights : Company
 FLD  .                                  : Field
 UWI  .      DUSWL_JO_3_1                : Unique Well Identifier (UWI)
 LOC  .                                  : Location
 RWS  .      -999                        : Def_Rw
 WST  .      -999                        : Def_Rwt
 SRVC .                                  : Contractor
~CURVE INFORMATION
#MNEM              UNIT       API CODE   Curve Type Comments
#----------  --------------- ----------  ---------- -----------
 DEPTH      .M                         : Depth       
 CAL_INCH   .inch                      :             Caliper Log - A representation of the measured diameter of a borehole along its depth
 GR_API     .API                       : GammaRay    Gamma Ray (API) - Measures the intensity of natural gamma-ray radiation emitted from formations containing radioactive elements, such as K, Th and U
 RHOZ_G_CC  .g/cc                      :             Formation Density - Measures the density of formation, including any void space or other materials contained in the subject volume
 NPHI_v_v   .dec                       : Neutron     
 PEF_B_E    .b/e-                      : PEF         Photoelectric Factor - A log of photoelectric absorption properties. Often expressed in an approximation unit barns/electron (b/e-)
 LITH       .                          :             
~A  DEPTH  CAL_INCH   GR_API  RHOZ_G_C~  NPHI_v_v  PEF_B_E     LITH   
# ...
1286.2560   12.4560    9.3900    2.9330   -0.0100    4.5900    1.0000 
1286.5608   12.4530    9.9830    2.9160   -0.0087    4.7700    1.0000 
1286.8656   12.5300   10.6310    2.9300   -0.0095    4.7400    1.0000 
1287.1704   12.5500    7.2410    2.9490   -0.0126    5.2700    1.0000 
1287.4752   12.5080    4.9260    2.9590   -0.0132    4.5200    1.0000 
1287.7800   12.4650    6.9150    2.9400   -0.0117    4.1000    1.0000 
1288.0848   12.4940   10.8180    2.9160   -0.0090    4.3000    1.0000 
1288.3896   12.4700   13.3520    2.9120   -0.0080    4.6800    1.0000 
1288.6944   12.5000   13.3460    2.9150   -0.0087    4.2900    1.0000 
1288.9992   12.5160   13.0110    2.9280   -0.0057    3.6700   12.0000 
1289.3040   12.5050   12.4980    2.9430   -0.0068    4.1600    1.0000 
1289.6088   12.5060    8.9690    2.9470   -0.0084    5.4200    1.0000 
1289.9136   12.5150   10.5030    2.9430   -0.0095    4.7500    1.0000 
1290.2184   12.5600    8.5470    2.9710   -0.0109    4.2200    1.0000 
1290.5232   12.5770    9.1440    2.9700   -0.0112    4.2400    1.0000 
1290.8280   12.5890   10.6500    2.9640   -0.0103    4.4200    1.0000 
1291.1328   12.6050    8.9780    2.9700   -0.0085    4.9100    1.0000 
1291.4376   12.5660    7.0310    2.9780   -0.0081    4.9500    1.0000 
1291.7424   12.6040    7.3950    2.9800   -0.0083    4.9600    1.0000 
1292.0472   12.6530    9.4530    2.9680   -0.0072    4.7000    1.0000 
1292.3520   12.6340   13.3950    2.9300    0.0002    3.5400   12.0000 
1292.6568   12.6870   19.1580    2.8750    0.0057    2.8400   12.0000 
1292.9616   12.7280   18.0380    2.8750    0.0022    2.8000   12.0000 
1293.2664   12.7720   15.1790    2.8590   -0.0001    2.9000   12.0000 
1293.5712   12.8290   20.1560    2.8530    0.0016    2.9300   12.0000 
1293.8760   12.9380   24.1670    2.8730   -0.0050    3.3700   12.0000 
1294.1808   13.0490   22.4510    2.9000   -0.0111    4.3400    1.0000 
1294.4856   13.2140   17.5620    2.9460   -0.0137    4.3700    1.0000 
1294.7904   13.4180   14.2740    2.9690   -0.0124    4.7500    1.0000 
1295.0952   13.5430   11.7690    2.9750   -0.0142    4.6400    1.0000 
1295.4000   13.6220    9.8750    2.9790   -0.0130    4.7000    1.0000 
1295.7048   13.7350   10.4940    2.9530   -0.0080    3.7400   12.0000 
1296.0096   13.8550   13.9190    2.9010   -0.0025    3.4100   12.0000 
1296.3144   14.0510   16.2540    2.8730   -0.0098    4.0300   12.0000 
1296.6192   14.2980   18.6620    2.9270   -0.0162    4.6100    1.0000 
1296.9240   14.5980   14.4150    2.9700   -0.0163    4.4900    1.0000 
1297.2288   14.7670   11.3120    2.9740   -0.0129    4.3700    1.0000 
1297.5336   15.2660   11.8020    2.9710   -0.0142    4.6600    1.0000 
1297.8384   15.6170   11.8760    2.9800   -0.0175    4.8700    1.0000 
1298.1432   15.3600    9.0920    2.9980   -0.0171    4.9900    1.0000 
1298.4480   15.4250    9.2820    2.9810   -0.0145    4.1100    1.0000 
1298.7528   15.7960   10.5450    2.8960   -0.0068    2.9000   12.0000 
1299.0576   16.2100   11.8040    2.8780   -0.0072    2.8300   12.0000 
1299.3624   16.2160   14.0390    2.8740   -0.0108    3.4600   12.0000 
1299.6672   16.1450   14.8350    2.9140   -0.0154    4.6000    1.0000 
1299.9720   15.8570   10.9070    2.9680   -0.0177    5.1500    1.0000 
1300.2768   15.4990    6.8010    2.9910   -0.0183    4.9600    1.0000 
1300.5816   15.1190    6.1050    2.9950   -0.0180    4.7900    1.0000 
1300.8864   14.8290    8.0970    2.9840   -0.0172    4.5900    1.0000 
1301.1912   14.7060    8.5200    2.9950   -0.0163    4.3700    1.0000 
1301.4960   14.6690    9.6600    2.9950   -0.0176    4.2800    1.0000 
1301.8008   14.6650    9.6810    2.9810   -0.0163    4.5500    1.0000 
1302.1056   14.4960    8.6220    2.9770   -0.0158    4.3400    1.0000 
1302.4104   14.7320   10.3220    2.8520   -0.0161    3.9700   11.0000 
1302.7152   15.1270   12.1050    2.5150   -0.0099    1.6000   11.0000 
1303.0200   15.8560   10.4690    2.0000    0.0935    0.9000   11.0000 
1303.3248   20.5750    8.4320    2.0000    0.4432    0.8800   11.0000 
1303.6296   22.6520    6.8780    1.9990    0.4500    0.9000   11.0000 
1303.9344   22.7200    5.9960    2.0000    0.4509    0.8900   11.0000 
1304.2392   22.7310    6.1260    1.9990    0.4507    0.8200   11.0000 
1304.5440   22.7310    5.2910    2.0010    0.4500    0.8200   11.0000 
1304.8488   22.7230    6.1520    2.0000    0.4503    0.8700   11.0000 
1305.1536   22.7210    8.2650    2.0000    0.4499    0.9600   11.0000 
1305.4584   22.7220    8.6850    2.0010    0.4506    0.9800   11.0000 
1305.7632   22.7260    8.3840    1.9990    0.4504    0.9000   11.0000 
1306.0680   22.7190    6.9540    1.9990    0.4502    0.8400   11.0000 
1306.3728   22.7160    6.3680    1.9990    0.4501    0.8100   11.0000 
1306.6776   22.7240    7.0380    1.9990    0.4512    0.8300   11.0000 
1306.9824   22.7330    6.2270    1.9990    0.4506    0.9400   11.0000 
1307.2872   22.7260    7.0160    2.0000    0.4499    1.1000   11.0000 
1307.5920   22.7230    8.5860    2.0000    0.4507    1.1000   11.0000 
1307.8968   22.7130    7.8230    2.0000    0.2879    0.9800   11.0000 
1308.2016   22.6980    6.2240    2.0000    0.4373    0.8700   11.0000 
1308.5064   22.7020    6.7740    2.0000    0.4502    0.8500   11.0000 
1308.8112   22.7030    8.0360    2.0010    0.4511    0.9700   11.0000 
1309.1160   22.7320    6.9350    2.0000    0.4509    1.2800   11.0000 
1309.4208   22.7400    6.3330    2.0000    0.3797    1.2000   11.0000 
1309.7256   22.7450    7.2560    2.0000    0.4503    0.9200   11.0000 
1310.0304   22.7500    6.9000    2.0010    0.4499    0.8500   11.0000 
1310.3352   22.7500    5.5340    2.0000    0.4500    0.8400   11.0000 
1310.6400   22.7550    6.2030    2.0000    0.4501    0.8900   11.0000 
1310.9448   22.7440    7.4960    2.0000    0.4498    0.9100   11.0000 
1311.2496   20.3310    7.1370    1.9990    0.3918    0.8900   11.0000 
1311.5544   21.8990    5.8370    2.0000    0.3203    0.8400   11.0000 
1311.8592   22.5940    6.0930    1.9990    0.4506    0.8400   11.0000 
1312.1640   22.6490    7.5450    1.9990    0.4507    0.8500   11.0000 
1312.4688   22.6580    7.3110    2.0000    0.4506    0.9100   11.0000 
1312.7736   22.7050    6.4830    2.0000    0.4509    1.0600   11.0000 
1313.0784   22.7470    5.7020    2.0000    0.4510    1.1200   11.0000 
1313.3832   22.7540    4.0650    2.0000    0.4507    1.0200   11.0000 
1313.6880   22.7680    4.1280    2.0000    0.4504    0.8900   11.0000 
1313.9928   22.7420    5.8830    2.0000    0.4503    0.8100   11.0000 
1314.2976   22.7580    6.8540    2.0000    0.4502    0.7900   11.0000 
1314.6024   22.7510    7.5210    1.9990    0.4503    0.8900   11.0000 
1314.9072   22.7520    7.3430    1.9990    0.4499    1.0300   11.0000 
1315.2120   22.7290    6.1050    1.9980    0.3596    1.0500   11.0000 
1315.5168   21.4540    4.9170    1.9970    0.2525    0.9500   11.0000 
1315.8216   22.5950    5.1630    1.9960    0.4513    0.8300   11.0000 
1316.1264   22.7280    6.3590    2.0000    0.4501    0.8100   11.0000 
1316.4312   22.7450    6.1980    2.0000    0.4508    0.8200   11.0000 
1316.7360   22.7460    5.8370    1.9990    0.4504    0.8400   11.0000 
1317.0408   22.7270    7.3430    1.9990    0.4503    0.7900   11.0000 
1317.3456   22.7140    6.4100    2.0000    0.4506    0.7900   11.0000 
1317.6504   22.7200    7.0230    2.0000    0.4508    0.8100   11.0000 
1317.9552   22.7120    7.3890    2.0000    0.4511    0.8400   11.0000 
1318.2600   22.7220    6.7980    1.9980    0.4516    0.8700   11.0000 
1318.5648   22.7380    7.2470    1.9980    0.4514    0.9100   11.0000 
1318.8696   22.7340    6.1920    1.9980    0.4514    0.9000   11.0000 
1319.1744   22.7080    5.7170    1.9980    0.4521    0.9900   11.0000 
1319.4792   22.7010    6.8730    1.9980    0.4512    1.0900   11.0000 
1319.7840   20.7300    8.4470    1.9970    0.3119    1.0300   11.0000 
1320.0888   17.6880    8.6940    1.9990    0.4390    1.1800   11.0000 
1320.3936   21.9160    7.7480    1.9990    0.4351    1.3700   11.0000 
