~VERSION INFORMATION
 VERS.                 2.0:   CWLS LOG ASCII STANDARD - VERSION 2.0
 WRAP.                  NO:   SINGLE LINE PER DEPTH STEP
 CREA.                 05/01/2018 16:57:09
#CREATED USING DSPetro VERSION 5000.10.1.3 BY H191660 ON 05/01/2018 16:57:09
~WELL INFORMATION
#MNEM.UNIT       DATA                          DESCRIPTION MNEMONIC
#---------      ---------------------------   --------------------------
 STRT    .M         59.7408                   : START DEPTH
 STOP    .M         2451.5064                 : STOP DEPTH
 STEP    .M         0.3048                    : STEP VALUE
 NULL    .      -999.0000                     : NULL VALUE
 DATE    .      05/01/2018                    : LAS file Creation Date
 WELL .      JOHNSON_1_1                 : Well Name
 COMP .      Neftex Exploration Insights : Company
 FLD  .                                  : Field
 UWI  .      DUSWL_JOHNSO                : Unique Well Identifier (UWI)
 LOC  .                                  : Location
 RWS  .      -999                        : Def_Rw
 WST  .      -999                        : Def_Rwt
 SRVC .                                  : Contractor
~CURVE INFORMATION
#MNEM              UNIT       API CODE   Curve Type Comments
#----------  --------------- ----------  ---------- -----------
 DEPTH      .M                         : Depth       
 GR_API     .API                       : GammaRay    Gamma Ray (API) - Measures the intensity of natural gamma-ray radiation emitted from formations containing radioactive elements, such as K, Th and U
 LLD_OHMM   .ohmm                      :             Laterlog Deep Resistivity - Measurement made several feet into the formation; generally considered a measurement of the undisturbed formation
 LLS_OHMM   .ohmm                      :             Laterlog Shallow Resistivity - one to two feet into the formation; generally considered to measure the formation
 RHOZ_G_CC  .g/cc                      :             Formation Density - Measures the density of formation, including any void space or other materials contained in the subject volume
 NPHI_v_v   .dec                       : Neutron     
 PEF_B_E    .b/e-                      : PEF         Photoelectric Factor - A log of photoelectric absorption properties. Often expressed in an approximation unit barns/electron (b/e-)
 LITH       .                          :             
~A  DEPTH   GR_API   LLD_OHMM  LLS_OHMM RHOZ_G_C~  NPHI_v_v  PEF_B_E     LITH   
# ...
2322.8808   21.4490 -999.0000 -999.0000    2.0560   -0.0181    3.7450   16.0000 
2323.1856   23.9460 -999.0000 -999.0000    2.0570   -0.0176    3.6420   16.0000 
2323.4904   22.0470 -999.0000 -999.0000    2.0640   -0.0175    3.7140   16.0000 
2323.7952   23.5610 -999.0000 -999.0000    2.0640   -0.0178    3.7470   16.0000 
2324.1000   22.7310 -999.0000 -999.0000    2.0580   -0.0180    3.6810   16.0000 
2324.4048   21.1320 -999.0000 -999.0000    2.0560   -0.0181    3.7710   16.0000 
2324.7096   22.1130 -999.0000 -999.0000    2.0410   -0.0185    3.6990   16.0000 
2325.0144   22.7250 -999.0000 -999.0000    2.0480   -0.0188    3.6790   16.0000 
2325.3192   20.7750 -999.0000 -999.0000    2.0580   -0.0190    3.8000   16.0000 
2325.6240   22.8330 -999.0000 -999.0000    2.0610   -0.0191    3.8660   16.0000 
2325.9288   23.5820 -999.0000 -999.0000    2.0520   -0.0186    3.8300   16.0000 
2326.2336   21.9710 -999.0000 -999.0000    2.0570   -0.0181    3.8990   16.0000 
2326.5384   22.2240 -999.0000 -999.0000    2.0510   -0.0181    3.7820   16.0000 
2326.8432   24.5990 -999.0000 -999.0000    2.0450   -0.0180    3.7970   16.0000 
2327.1480   25.1520 -999.0000 -999.0000    2.0630   -0.0172    3.6550   16.0000 
2327.4528   24.3440 -999.0000 -999.0000    2.0810   -0.0160    3.6220   16.0000 
2327.7576   24.1250 -999.0000 -999.0000    2.0820   -0.0127    3.7990   16.0000 
2328.0624   27.7200 -999.0000 -999.0000    2.2040    0.0007    3.9710   16.0000 
2328.3672   29.5850 -999.0000 -999.0000    2.5000    0.0174    3.3370   16.0000 
2328.6720   32.4290 -999.0000 -999.0000    2.6820    0.0346    3.1190   12.0000 
2328.9768   35.9970 -999.0000 -999.0000    2.6970    0.0527    2.9120   12.0000 
2329.2816   38.4480 -999.0000 -999.0000    2.7520    0.0668    2.6580   12.0000 
2329.5864   35.8740 -999.0000 -999.0000    2.7980    0.0601    2.8940   12.0000 
2329.8912   33.3450 -999.0000 -999.0000    2.7730    0.0550    2.9410   12.0000 
2330.1960   36.8840 -999.0000 -999.0000    2.7730    0.0672    2.8650   12.0000 
2330.5008   40.6890 -999.0000 -999.0000    2.7750    0.0757    2.9020   12.0000 
2330.8056   38.4150 -999.0000 -999.0000    2.7460    0.0835    2.7250   12.0000 
2331.1104   37.1460 -999.0000 -999.0000    2.6970    0.0759    2.8170   12.0000 
2331.4152   39.8070 -999.0000 -999.0000    2.6570    0.0788    2.7530   12.0000 
2331.7200   43.5320 -999.0000 -999.0000    2.7080    0.1075    2.9580   12.0000 
2332.0248   41.4320 -999.0000 -999.0000    2.7510    0.0968    3.2230   12.0000 
2332.3296   39.4130 -999.0000 -999.0000    2.7540    0.0670    3.4130   12.0000 
2332.6344   39.7770 -999.0000 -999.0000    2.7530    0.0501    3.0760   12.0000 
2332.9392   38.4150 -999.0000 -999.0000    2.7610    0.0467    3.3200   12.0000 
2333.2440   36.2600 -999.0000 -999.0000    2.7580    0.0443    3.7330   12.0000 
2333.5488   37.3130 -999.0000 -999.0000    2.7440    0.0365    4.0170   18.0000 
2333.8536   35.8940 -999.0000 -999.0000    2.7480    0.0295    4.1100   18.0000 
2334.1584   33.5450 -999.0000 -999.0000    2.7570    0.0231    4.4100   18.0000 
2334.4632   34.2920 -999.0000 -999.0000    2.7390    0.0334    4.3160   18.0000 
2334.7680   37.1450 -999.0000 -999.0000    2.7040    0.0312    4.1060   18.0000 
2335.0728   36.4350 -999.0000 -999.0000    2.6650    0.0193    3.7940   18.0000 
2335.3776   37.3560 -999.0000 -999.0000    2.5710    0.0127    3.5420   16.0000 
2335.6824   39.2520 -999.0000 -999.0000    2.6090    0.0284    3.3840   16.0000 
2335.9872   37.8800 -999.0000 -999.0000    2.7150    0.0536    3.3520   12.0000 
2336.2920   35.7930 -999.0000 -999.0000    2.7640    0.0459    3.7790   12.0000 
2336.5968   38.2910 -999.0000 -999.0000    2.7690    0.0333    3.7650   12.0000 
2336.9016   37.9670 -999.0000 -999.0000    2.7240    0.0484    3.8300   12.0000 
2337.2064   39.6740 -999.0000 -999.0000    2.7100    0.0646    4.1890   18.0000 
2337.5112   41.4920 -999.0000 -999.0000    2.7010    0.0662    4.4420   18.0000 
2337.8160   39.8780 -999.0000 -999.0000    2.6920    0.0477    5.0540   18.0000 
2338.1208   38.8310 -999.0000 -999.0000    2.6970    0.0348    5.3820   18.0000 
2338.4256   39.8670 -999.0000 -999.0000    2.7100    0.0307    4.9920   18.0000 
2338.7304   39.6980 -999.0000 -999.0000    2.7060    0.0327    4.1740   18.0000 
2339.0352   39.0510 -999.0000 -999.0000    2.7120    0.0378    3.9550   18.0000 
2339.3400   38.0300 -999.0000 -999.0000    2.7140    0.0354    4.4250   18.0000 
2339.6448   35.3520 -999.0000 -999.0000    2.7150    0.0319    4.8760   18.0000 
2339.9496   36.9810 -999.0000 -999.0000    2.7060    0.0322    4.9390   18.0000 
2340.2544   38.2710 -999.0000 -999.0000    2.6970    0.0292    4.5590   18.0000 
2340.5592   37.3430 -999.0000 -999.0000    2.6930    0.0335    4.2720   18.0000 
2340.8640   39.8790 -999.0000 -999.0000    2.7120    0.0384    4.1920   18.0000 
2341.1688   41.6360 -999.0000 -999.0000    2.7220    0.0339    4.1520   18.0000 
2341.4736   39.1370 -999.0000 -999.0000    2.7300    0.0299    4.0890   18.0000 
2341.7784   39.4340 -999.0000 -999.0000    2.7250    0.0273    3.7510   18.0000 
2342.0832   41.3180 -999.0000 -999.0000    2.7370    0.0255    3.1480   12.0000 
2342.3880   41.1590 -999.0000 -999.0000    2.7470    0.0274    3.3230   12.0000 
2342.6928   47.5020 -999.0000 -999.0000    2.7050    0.0283    3.4500   12.0000 
2342.9976   45.9740 -999.0000 -999.0000    2.6050    0.0145    3.4710   11.0000 
2343.3024   48.7470 -999.0000 -999.0000    2.5540    0.0108    3.4740   11.0000 
2343.6072   50.6240 -999.0000 -999.0000    2.6150    0.0201    3.7070   11.0000 
2343.9120   46.1340 -999.0000 -999.0000    2.4770    0.0093    3.6700   11.0000 
2344.2168   35.0160 -999.0000 -999.0000    2.1770   -0.0127    3.7410   11.0000 
2344.5216   24.6410 -999.0000 -999.0000    2.0470   -0.0165    3.8340   11.0000 
2344.8264   23.9640 -999.0000 -999.0000    2.0420   -0.0170    3.8730   11.0000 
2345.1312   24.9660 -999.0000 -999.0000    2.0450   -0.0166    3.8510   11.0000 
2345.4360   26.9210 -999.0000 -999.0000    2.0480   -0.0168    3.7630   11.0000 
2345.7408   27.7400 -999.0000 -999.0000    2.0500   -0.0170    3.6490   11.0000 
2346.0456   24.9200 -999.0000 -999.0000    2.0520   -0.0172    3.7730   11.0000 
2346.3504   25.7480 -999.0000 -999.0000    2.0540   -0.0181    3.8680   11.0000 
2346.6552   24.4860 -999.0000 -999.0000    2.0550   -0.0186    3.6460   11.0000 
2346.9600   25.3500 -999.0000 -999.0000    2.0520   -0.0190    3.5700   11.0000 
2347.2648   24.3380 -999.0000 -999.0000    2.0520   -0.0188    3.4530   11.0000 
2347.5696   22.0170 -999.0000 -999.0000    2.0530   -0.0183    3.5050   11.0000 
2347.8744   22.1570 -999.0000 -999.0000    2.0520   -0.0180    3.5120   11.0000 
2348.1792    0.0000 -999.0000 -999.0000    2.0000   -0.1500    0.0000   11.0000 
2348.4840    0.0000 -999.0000 -999.0000    2.0000   -0.1500    0.0000   11.0000 
2348.7888    0.0000 -999.0000 -999.0000    2.0000   -0.1500    0.0000   11.0000 
2349.0936    0.0000 -999.0000 -999.0000    2.0000   -0.1500    0.0000   11.0000 
2349.3984    0.0000 -999.0000 -999.0000    2.0000   -0.1500    0.0000   11.0000 
2349.7032    0.0000 -999.0000 -999.0000    2.0000   -0.1500    0.0000   11.0000 
2350.0080    0.0000 -999.0000 -999.0000    2.0000   -0.1500    0.0000   11.0000 
2350.3128    0.0000 -999.0000 -999.0000    2.0000   -0.1500    0.0000   11.0000 
2350.6176    0.0000 -999.0000 -999.0000    2.0000   -0.1500    0.0000   11.0000 
2350.9224    0.0000 -999.0000 -999.0000    2.0000   -0.1500    0.0000   11.0000 
2351.2272    0.0000 -999.0000 -999.0000    2.0000   -0.1500    0.0000   11.0000 
2351.5320    0.0000 -999.0000 -999.0000    2.0000   -0.1500    0.0000   11.0000 
2351.8368    0.0000 -999.0000 -999.0000    2.0000   -0.1500    0.0000   11.0000 
2352.1416    0.0000 -999.0000 -999.0000    2.0000   -0.1500    0.0000   11.0000 
2352.4464    0.0000 -999.0000 -999.0000    2.0000   -0.1500    0.0000   11.0000 
2352.7512    0.0000 -999.0000 -999.0000    2.0000   -0.1500    0.0000   11.0000 
