~VERSION INFORMATION
 VERS.                 2.0:   CWLS LOG ASCII STANDARD - VERSION 2.0
 WRAP.                  NO:   SINGLE LINE PER DEPTH STEP
 CREA.                 05/01/2018 16:57:09
#CREATED USING DSPetro VERSION 5000.10.1.3 BY H191660 ON 05/01/2018 16:57:09
~WELL INFORMATION
#MNEM.UNIT       DATA                          DESCRIPTION MNEMONIC
#---------      ---------------------------   --------------------------
 STRT    .M         59.7408                   : START DEPTH
 STOP    .M         2451.5064                 : STOP DEPTH
 STEP    .M         0.3048                    : STEP VALUE
 NULL    .      -999.0000                     : NULL VALUE
 DATE    .      05/01/2018                    : LAS file Creation Date
 WELL .      JOHNSON_1_1                 : Well Name
 COMP .      Neftex Exploration Insights : Company
 FLD  .                                  : Field
 UWI  .      DUSWL_JOHNSO                : Unique Well Identifier (UWI)
 LOC  .                                  : Location
 RWS  .      -999                        : Def_Rw
 WST  .      -999                        : Def_Rwt
 SRVC .                                  : Contractor
~CURVE INFORMATION
#MNEM              UNIT       API CODE   Curve Type Comments
#----------  --------------- ----------  ---------- -----------
 DEPTH      .M                         : Depth       
 GR_API     .API                       : GammaRay    Gamma Ray (API) - Measures the intensity of natural gamma-ray radiation emitted from formations containing radioactive elements, such as K, Th and U
 LLD_OHMM   .ohmm                      :             Laterlog Deep Resistivity - Measurement made several feet into the formation; generally considered a measurement of the undisturbed formation
 LLS_OHMM   .ohmm                      :             Laterlog Shallow Resistivity - one to two feet into the formation; generally considered to measure the formation
 RHOZ_G_CC  .g/cc                      :             Formation Density - Measures the density of formation, including any void space or other materials contained in the subject volume
 NPHI_v_v   .dec                       : Neutron     
 PEF_B_E    .b/e-                      : PEF         Photoelectric Factor - A log of photoelectric absorption properties. Often expressed in an approximation unit barns/electron (b/e-)
 LITH       .                          :             
~A  DEPTH   GR_API   LLD_OHMM  LLS_OHMM RHOZ_G_C~  NPHI_v_v  PEF_B_E     LITH   
# ...
1477.9752   12.9290 -999.0000 -999.0000    2.9190    0.0010    4.3210    1.0000 
1478.2800   10.4130 -999.0000 -999.0000    2.9680   -0.0119    4.6200    1.0000 
1478.5848   10.8060 -999.0000 -999.0000    2.9630   -0.0121    5.0130    1.0000 
1478.8896   14.5080 -999.0000 -999.0000    2.9500   -0.0106    5.0520    1.0000 
1479.1944   14.4120 -999.0000 -999.0000    2.9400   -0.0082    4.8130    1.0000 
1479.4992   12.2420 -999.0000 -999.0000    2.9530   -0.0088    4.5490    1.0000 
1479.8040   13.4730 -999.0000 -999.0000    2.9620   -0.0105    4.7290    1.0000 
1480.1088   12.7880 -999.0000 -999.0000    2.9670   -0.0092    4.9650    1.0000 
1480.4136   11.3300 -999.0000 -999.0000    2.9560   -0.0089    4.5650    1.0000 
1480.7184   10.9200 -999.0000 -999.0000    2.9680   -0.0098    4.3300    1.0000 
1481.0232   11.5130 -999.0000 -999.0000    2.9740   -0.0107    4.4350    1.0000 
1481.3280   10.6980 -999.0000 -999.0000    2.9750   -0.0112    4.7480    1.0000 
1481.6328   10.2570 -999.0000 -999.0000    2.9790   -0.0114    4.9530    1.0000 
1481.9376   13.3950 -999.0000 -999.0000    2.9680   -0.0114    4.4640    1.0000 
1482.2424   19.6800 -999.0000 -999.0000    2.9620   -0.0086    3.7870    1.0000 
1482.5472   26.3000 -999.0000 -999.0000    2.9340    0.0062    2.9280    1.0000 
1482.8520   25.1310 -999.0000 -999.0000    2.8750    0.0193    2.8950   12.0000 
1483.1568   24.6650 -999.0000 -999.0000    2.8620    0.0232    3.0890   12.0000 
1483.4616   29.4350 -999.0000 -999.0000    2.8450    0.0286    2.9520   12.0000 
1483.7664   31.0760 -999.0000 -999.0000    2.8430    0.0316    3.0390   12.0000 
1484.0712   29.0820 -999.0000 -999.0000    2.8550    0.0259    2.9290   12.0000 
1484.3760   27.0810 -999.0000 -999.0000    2.8560    0.0163    3.0350   12.0000 
1484.6808   21.7640 -999.0000 -999.0000    2.8980   -0.0011    3.7870    1.0000 
1484.9856   15.7230 -999.0000 -999.0000    2.9500   -0.0120    4.6970    1.0000 
1485.2904   12.1610 -999.0000 -999.0000    2.9620   -0.0148    4.8620    1.0000 
1485.5952   11.2080 -999.0000 -999.0000    2.9710   -0.0152    5.1960    1.0000 
1485.9000   10.5620 -999.0000 -999.0000    2.9850   -0.0135    5.0160    1.0000 
1486.2048    9.3120 -999.0000 -999.0000    2.9750   -0.0143    4.7530    1.0000 
1486.5096   10.4130 -999.0000 -999.0000    2.9840   -0.0165    4.6480    1.0000 
1486.8144    9.0650 -999.0000 -999.0000    2.9960   -0.0167    4.8050    1.0000 
1487.1192   11.2230 -999.0000 -999.0000    3.0040   -0.0155    5.1350    1.0000 
1487.4240   18.7340 -999.0000 -999.0000    2.9880   -0.0131    4.9900    1.0000 
1487.7288   25.3550 -999.0000 -999.0000    2.9690   -0.0052    3.9950    1.0000 
1488.0336   29.9270 -999.0000 -999.0000    2.9250    0.0013    3.1270   12.0000 
1488.3384   38.5070 -999.0000 -999.0000    2.8760    0.0064    3.3380   12.0000 
1488.6432   35.4770 -999.0000 -999.0000    2.8650    0.0057    2.9720   12.0000 
1488.9480   29.9030 -999.0000 -999.0000    2.8650    0.0057    2.7810   12.0000 
1489.2528   26.3940 -999.0000 -999.0000    2.8430    0.0082    2.9990   12.0000 
1489.5576   23.9390 -999.0000 -999.0000    2.7990    0.0234    2.7960   12.0000 
1489.8624   28.5170 -999.0000 -999.0000    2.8170    0.0589    3.1300   12.0000 
1490.1672   25.1880 -999.0000 -999.0000    2.8540    0.0278    3.5110   12.0000 
1490.4720   17.2560 -999.0000 -999.0000    2.9140   -0.0019    3.8750    1.0000 
1490.7768   11.3750 -999.0000 -999.0000    2.9770   -0.0121    4.0570    1.0000 
1491.0816   10.3160 -999.0000 -999.0000    2.9930   -0.0142    4.2360    1.0000 
1491.3864    9.9780 -999.0000 -999.0000    2.9930   -0.0133    4.6210    1.0000 
1491.6912   10.2660 -999.0000 -999.0000    2.9920   -0.0121    4.4290    1.0000 
1491.9960   13.2780 -999.0000 -999.0000    2.9730   -0.0100    4.1340    1.0000 
1492.3008   18.4980 -999.0000 -999.0000    2.9550   -0.0069    3.7440   12.0000 
1492.6056   25.7510 -999.0000 -999.0000    2.9090   -0.0005    3.2220   12.0000 
1492.9104   27.9600 -999.0000 -999.0000    2.8850    0.0053    3.1120   12.0000 
1493.2152   30.9320 -999.0000 -999.0000    2.8740    0.0065    2.9330   12.0000 
1493.5200   33.8360 -999.0000 -999.0000    2.8840    0.0046    2.9090   12.0000 
1493.8248   26.2350 -999.0000 -999.0000    2.9120    0.0007    3.3280   12.0000 
1494.1296   17.1330 -999.0000 -999.0000    2.9480   -0.0047    4.7310    1.0000 
1494.4344   21.9410 -999.0000 -999.0000    2.9830   -0.0076    4.3130    1.0000 
1494.7392   30.1670 -999.0000 -999.0000    2.9540   -0.0034    2.8390   12.0000 
1495.0440   27.8190 -999.0000 -999.0000    2.8980    0.0065    2.7490   12.0000 
1495.3488   24.1250 -999.0000 -999.0000    2.9040    0.0053    2.7150   12.0000 
1495.6536   22.2650 -999.0000 -999.0000    2.9400   -0.0012    3.2860   12.0000 
1495.9584   17.6930 -999.0000 -999.0000    2.9700   -0.0064    4.2340    1.0000 
1496.2632   12.9840 -999.0000 -999.0000    2.9740   -0.0103    4.6910    1.0000 
1496.5680   10.6370 -999.0000 -999.0000    2.9790   -0.0127    4.3860    1.0000 
1496.8728    9.5990 -999.0000 -999.0000    2.9680   -0.0137    4.4710    1.0000 
1497.1776   10.0580 -999.0000 -999.0000    2.9750   -0.0132    4.2620    1.0000 
1497.4824    8.8380 -999.0000 -999.0000    2.9910   -0.0128    4.5170    1.0000 
1497.7872    7.6710 -999.0000 -999.0000    2.9940   -0.0131    4.5490    1.0000 
1498.0920    9.2550 -999.0000 -999.0000    3.0050   -0.0134    4.3350    1.0000 
1498.3968   11.2170 -999.0000 -999.0000    2.9970   -0.0129    4.6320    1.0000 
1498.7016    9.2870 -999.0000 -999.0000    2.9750   -0.0132    5.0480    1.0000 
1499.0064   10.4690 -999.0000 -999.0000    3.0000   -0.0139    4.6560    1.0000 
1499.3112    9.9270 -999.0000 -999.0000    2.9970   -0.0130    4.2450    1.0000 
1499.6160   10.2660 -999.0000 -999.0000    2.9910   -0.0115    3.9230    1.0000 
1499.9208   12.3330 -999.0000 -999.0000    2.9840   -0.0099    4.1270    1.0000 
1500.2256   13.1000 -999.0000 -999.0000    2.9690   -0.0100    3.9620    1.0000 
1500.5304   10.8360 -999.0000 -999.0000    2.9830   -0.0126    3.7160   12.0000 
1500.8352    9.8120 -999.0000 -999.0000    2.9970   -0.0141    4.4110    1.0000 
1501.1400   10.3140 -999.0000 -999.0000    2.9910   -0.0140    5.0390    1.0000 
1501.4448    8.9190 -999.0000 -999.0000    2.9970   -0.0137    5.1310    1.0000 
1501.7496   10.2690 -999.0000 -999.0000    2.9920   -0.0127    4.8750    1.0000 
1502.0544   11.2140 -999.0000 -999.0000    2.9850   -0.0125    4.6290    1.0000 
1502.3592   12.5060 -999.0000 -999.0000    2.9930   -0.0126    4.8340    1.0000 
1502.6640   11.4530 -999.0000 -999.0000    2.9830   -0.0139    4.9170    1.0000 
1502.9688   10.0550 -999.0000 -999.0000    2.9630   -0.0141    4.7440    1.0000 
1503.2736   12.2540 -999.0000 -999.0000    2.9690   -0.0126    4.9860    1.0000 
1503.5784   12.3990 -999.0000 -999.0000    2.9650   -0.0117    5.6300    1.0000 
1503.8832   10.2210 -999.0000 -999.0000    2.9810   -0.0111    5.7150    1.0000 
1504.1880    8.9370 -999.0000 -999.0000    3.0040   -0.0122    4.7900    1.0000 
1504.4928   10.3730 -999.0000 -999.0000    2.9920   -0.0129    4.7020    1.0000 
1504.7976   10.1430 -999.0000 -999.0000    2.9800   -0.0101    4.4640    1.0000 
1505.1024    9.1770 -999.0000 -999.0000    2.9960   -0.0091    4.3570    1.0000 
1505.4072    8.3850 -999.0000 -999.0000    2.9910   -0.0115    5.2660    1.0000 
1505.7120    7.3920 -999.0000 -999.0000    2.9860   -0.0130    5.4780    1.0000 
1506.0168    8.9750 -999.0000 -999.0000    2.9720   -0.0125    4.8490    1.0000 
1506.3216   13.4390 -999.0000 -999.0000    2.9480   -0.0114    3.9860    1.0000 
1506.6264   17.2440 -999.0000 -999.0000    2.8990   -0.0057    4.3810    1.0000 
1506.9312   15.6650 -999.0000 -999.0000    2.9340   -0.0065    5.4730    1.0000 
1507.2360   11.5110 -999.0000 -999.0000    2.9600   -0.0098    4.5970    1.0000 
1507.5408    8.8520 -999.0000 -999.0000    2.9710   -0.0113    4.7780    1.0000 
1507.8456    8.7540 -999.0000 -999.0000    2.9640   -0.0114    4.7900    1.0000 
