~VERSION INFORMATION
 VERS.                 2.0:   CWLS LOG ASCII STANDARD - VERSION 2.0
 WRAP.                  NO:   SINGLE LINE PER DEPTH STEP
 CREA.                 05/01/2018 17:09:06
#CREATED USING DSPetro VERSION 5000.10.1.3 BY H191660 ON 05/01/2018 17:09:06
~WELL INFORMATION
#MNEM.UNIT       DATA                          DESCRIPTION MNEMONIC
#---------      ---------------------------   --------------------------
 STRT    .M         80.7720                   : START DEPTH
 STOP    .M         2461.5648                 : STOP DEPTH
 STEP    .M         0.3048                    : STEP VALUE
 NULL    .      -999.0000                     : NULL VALUE
 DATE    .      05/01/2018                    : LAS file Creation Date
 WELL .      JOHNSON_3_1                 : Well Name
 COMP .      Neftex Exploration Insights : Company
 FLD  .                                  : Field
 UWI  .      DUSWL_JO_3_1                : Unique Well Identifier (UWI)
 LOC  .                                  : Location
 RWS  .      -999                        : Def_Rw
 WST  .      -999                        : Def_Rwt
 SRVC .                                  : Contractor
~CURVE INFORMATION
#MNEM              UNIT       API CODE   Curve Type Comments
#----------  --------------- ----------  ---------- -----------
 DEPTH      .M                         : Depth       
 CAL_INCH   .inch                      :             Caliper Log - A representation of the measured diameter of a borehole along its depth
 GR_API     .API                       : GammaRay    Gamma Ray (API) - Measures the intensity of natural gamma-ray radiation emitted from formations containing radioactive elements, such as K, Th and U
 RHOZ_G_CC  .g/cc                      :             Formation Density - Measures the density of formation, including any void space or other materials contained in the subject volume
 NPHI_v_v   .dec                       : Neutron     
 PEF_B_E    .b/e-                      : PEF         Photoelectric Factor - A log of photoelectric absorption properties. Often expressed in an approximation unit barns/electron (b/e-)
 LITH       .                          :             
~A  DEPTH  CAL_INCH   GR_API  RHOZ_G_C~  NPHI_v_v  PEF_B_E     LITH   
# ...
 425.1960   13.9240   17.7990 -999.0000   -0.0019 -999.0000 -999.0000 
 425.5008   14.0040   10.2770 -999.0000   -0.0046 -999.0000 -999.0000 
 425.8056   14.0520   29.8700 -999.0000    0.0221 -999.0000 -999.0000 
 426.1104   14.1780   54.2210 -999.0000    0.1665 -999.0000 -999.0000 
 426.4152   14.9720   74.2920 -999.0000    0.3411 -999.0000 -999.0000 
 426.7200   14.5660   72.6680 -999.0000    0.3840 -999.0000 -999.0000 
 427.0248   14.1680   90.7730 -999.0000    0.2628 -999.0000 -999.0000 
 427.3296   14.1270   92.4450 -999.0000    0.2465 -999.0000 -999.0000 
 427.6344   14.1340   71.9240 -999.0000    0.2501 -999.0000 -999.0000 
 427.9392   14.1550   65.2260 -999.0000    0.2155 -999.0000 -999.0000 
 428.2440   14.4740   70.6010 -999.0000    0.2227 -999.0000 -999.0000 
 428.5488   14.6370   83.1420 -999.0000    0.3589 -999.0000 -999.0000 
 428.8536   14.4780   94.1930 -999.0000    0.3967 -999.0000 -999.0000 
 429.1584   14.3140   99.5730 -999.0000    0.3079 -999.0000 -999.0000 
 429.4632   14.3110  104.3550 -999.0000    0.2802 -999.0000 -999.0000 
 429.7680   14.4550  106.0230 -999.0000    0.3227 -999.0000 -999.0000 
 430.0728   14.1120   92.3520 -999.0000    0.3269 -999.0000 -999.0000 
 430.3776   13.9050   57.2870 -999.0000    0.2507 -999.0000 -999.0000 
 430.6824   13.9000   41.8890 -999.0000    0.0705 -999.0000 -999.0000 
 430.9872   13.9560   77.4140 -999.0000    0.1207 -999.0000 -999.0000 
 431.2920   13.8880   90.7950 -999.0000    0.2374 -999.0000 -999.0000 
 431.5968   13.8010   51.5550 -999.0000    0.1989 -999.0000 -999.0000 
 431.9016   13.7380   23.4980 -999.0000    0.0413 -999.0000 -999.0000 
 432.2064   13.7130   39.2010 -999.0000    0.0297 -999.0000 -999.0000 
 432.5112   13.7770   81.1850 -999.0000    0.1651 -999.0000 -999.0000 
 432.8160   13.9050   87.0450 -999.0000    0.2644 -999.0000 -999.0000 
 433.1208   13.8140   45.6110 -999.0000    0.1177 -999.0000 -999.0000 
 433.4256   14.0210   55.3320 -999.0000    0.0723 -999.0000 -999.0000 
 433.7304   14.5460   67.8080 -999.0000    0.2804 -999.0000 -999.0000 
 434.0352   13.7180   60.6960 -999.0000    0.3106 -999.0000 -999.0000 
 434.3400   13.7260   58.0770 -999.0000    0.1986 -999.0000 -999.0000 
 434.6448   13.6540   62.3780 -999.0000    0.1922 -999.0000 -999.0000 
 434.9496   13.5260   47.9840 -999.0000    0.1479 -999.0000 -999.0000 
 435.2544   13.5060   43.9190 -999.0000    0.0912 -999.0000 -999.0000 
 435.5592   13.5220   43.5080 -999.0000    0.0829 -999.0000 -999.0000 
 435.8640   13.5220   58.0740 -999.0000    0.0684 -999.0000 -999.0000 
 436.1688   13.5500   94.4510 -999.0000    0.2007 -999.0000 -999.0000 
 436.4736   13.5360  101.6120 -999.0000    0.3098 -999.0000 -999.0000 
 436.7784   13.4310   47.7390 -999.0000    0.1778 -999.0000 -999.0000 
 437.0832   13.2760   35.3750 -999.0000    0.0837 -999.0000 -999.0000 
 437.3880   13.2010   43.9200 -999.0000    0.1345 -999.0000 -999.0000 
 437.6928   13.7310   70.4430 -999.0000    0.1345 -999.0000 -999.0000 
 437.9976   19.0990   90.8010 -999.0000    0.2703 -999.0000 -999.0000 
 438.3024   22.6520   86.5020 -999.0000    0.3177 -999.0000 -999.0000 
 438.6072   22.2890   79.5060 -999.0000    0.3722 -999.0000 -999.0000 
 438.9120   18.9840   77.0630 -999.0000    0.4497 -999.0000 -999.0000 
 439.2168   14.3080   60.7680 -999.0000    0.3573 -999.0000 -999.0000 
 439.5216   13.5790   29.7170 -999.0000    0.0735 -999.0000 -999.0000 
 439.8264   13.4480   12.8750 -999.0000   -0.0108 -999.0000 -999.0000 
 440.1312   13.4170    4.4990 -999.0000   -0.0144 -999.0000 -999.0000 
 440.4360   13.4010    3.8570 -999.0000   -0.0155 -999.0000 -999.0000 
 440.7408   13.4400    4.8720 -999.0000   -0.0154 -999.0000 -999.0000 
 441.0456   13.4360    3.6710 -999.0000   -0.0158 -999.0000 -999.0000 
 441.3504   13.4600    2.3540 -999.0000   -0.0150 -999.0000 -999.0000 
 441.6552   13.4760    3.5510 -999.0000   -0.0163 -999.0000 -999.0000 
 441.9600   13.4720    4.6380 -999.0000   -0.0165 -999.0000 -999.0000 
 442.2648   13.4360    4.8120 -999.0000   -0.0156 -999.0000 -999.0000 
 442.5696   13.3960    4.4070 -999.0000   -0.0145 -999.0000 -999.0000 
 442.8744   13.3370   12.2850 -999.0000   -0.0101 -999.0000 -999.0000 
 443.1792   13.3280   24.1730 -999.0000    0.0033 -999.0000 -999.0000 
 443.4840   13.3730   35.4600 -999.0000    0.0786 -999.0000 -999.0000 
 443.7888   13.4160   37.7250 -999.0000    0.0933 -999.0000 -999.0000 
 444.0936   13.4480   22.5570 -999.0000    0.0150 -999.0000 -999.0000 
 444.3984   13.4880   12.7530 -999.0000   -0.0062 -999.0000 -999.0000 
 444.7032   13.5520    5.1110 -999.0000   -0.0105 -999.0000 -999.0000 
 445.0080   13.5800    4.9470 -999.0000   -0.0120 -999.0000 -999.0000 
 445.3128   13.6110    9.2510 -999.0000   -0.0093 -999.0000 -999.0000 
 445.6176   13.6710   20.9510 -999.0000   -0.0019 -999.0000 -999.0000 
 445.9224   13.7430   59.7120 -999.0000    0.0921 -999.0000 -999.0000 
 446.2272   14.1740   88.1790 -999.0000    0.2180 -999.0000 -999.0000 
 446.5320   14.1380  109.5860 -999.0000    0.2600 -999.0000 -999.0000 
 446.8368   14.1020  108.9260 -999.0000    0.2125 -999.0000 -999.0000 
 447.1416   14.1970   98.6580 -999.0000    0.2499 -999.0000 -999.0000 
 447.4464   14.2530   72.9630 -999.0000    0.2302 -999.0000 -999.0000 
 447.7512   14.3320   77.8710 -999.0000    0.1464 -999.0000 -999.0000 
 448.0560   14.4480   90.7040 -999.0000    0.2797 -999.0000 -999.0000 
 448.3608   14.4850   69.3210 -999.0000    0.3450 -999.0000 -999.0000 
 448.6656   14.3840   17.3900 -999.0000    0.0798 -999.0000 -999.0000 
 448.9704   14.0260    4.0110 -999.0000   -0.0109 -999.0000 -999.0000 
 449.2752   13.9230    9.7460 -999.0000   -0.0104 -999.0000 -999.0000 
 449.5800   13.9150   22.6310 -999.0000   -0.0001 -999.0000 -999.0000 
 449.8848   13.9670   23.1080 -999.0000    0.0028 -999.0000 -999.0000 
 450.1896   14.1900   48.6750 -999.0000    0.0084 -999.0000 -999.0000 
 450.4944   15.2530   87.1310 -999.0000    0.2041 -999.0000 -999.0000 
 450.7992   16.0570   79.4270 -999.0000    0.3961 -999.0000 -999.0000 
 451.1040   14.5120   74.3510 -999.0000    0.3122 -999.0000 -999.0000 
 451.4088   14.2620   63.4250 -999.0000    0.2311 -999.0000 -999.0000 
 451.7136   14.1510   23.3480 -999.0000    0.0658 -999.0000 -999.0000 
 452.0184   14.1270   12.7770 -999.0000    0.0022 -999.0000 -999.0000 
 452.3232   14.1860   30.8270 -999.0000    0.0589 -999.0000 -999.0000 
 452.6280   14.2490   68.8110 -999.0000    0.2199 -999.0000 -999.0000 
 452.9328   14.3400   83.9780 -999.0000    0.2683 -999.0000 -999.0000 
 453.2376   14.3120   49.3320 -999.0000    0.1268 -999.0000 -999.0000 
 453.5424   14.3250   44.7890 -999.0000    0.0901 -999.0000 -999.0000 
 453.8472   14.2980   76.8060 -999.0000    0.1945 -999.0000 -999.0000 
 454.1520   14.5200  110.6630 -999.0000    0.2467 -999.0000 -999.0000 
 454.4568   16.0940  108.1640 -999.0000    0.2999 -999.0000 -999.0000 
 454.7616   15.2300  106.5480 -999.0000    0.3376 -999.0000 -999.0000 
 455.0664   14.3980  112.0520 -999.0000    0.3122 -999.0000 -999.0000 
 455.3712   14.3350  107.4380 -999.0000    0.2745 -999.0000 -999.0000 
 455.6760   14.3110   95.6750 -999.0000    0.2678 -999.0000 -999.0000 
 455.9808   14.3060   75.2540 -999.0000    0.2224 -999.0000 -999.0000 
 456.2856   14.2900   42.4130 -999.0000    0.1519 -999.0000 -999.0000 
 456.5904   14.2860   40.6110 -999.0000    0.1275 -999.0000 -999.0000 
 456.8952   14.4170   59.8530 -999.0000    0.1623 -999.0000 -999.0000 
 457.2000   14.5440   75.7940 -999.0000    0.2326 -999.0000 -999.0000 
 457.5048   14.6440   61.4070 -999.0000    0.1803 -999.0000 -999.0000 
 457.8096   14.7110   45.2190 -999.0000    0.1451 -999.0000 -999.0000 
 458.1144   14.5840   39.0120 -999.0000    0.1169 -999.0000 -999.0000 
 458.4192   14.4890   42.1730 -999.0000    0.1469 -999.0000 -999.0000 
 458.7240   14.3220   25.3350 -999.0000    0.1183 -999.0000 -999.0000 
 459.0288   14.2710   35.4930 -999.0000    0.1562 -999.0000 -999.0000 
 459.3336   14.7290   77.2430 -999.0000    0.2521 -999.0000 -999.0000 
