~VERSION INFORMATION
 VERS.                 2.0:   CWLS LOG ASCII STANDARD - VERSION 2.0
 WRAP.                  NO:   SINGLE LINE PER DEPTH STEP
 CREA.                 05/01/2018 16:57:09
#CREATED USING DSPetro VERSION 5000.10.1.3 BY H191660 ON 05/01/2018 16:57:09
~WELL INFORMATION
#MNEM.UNIT       DATA                          DESCRIPTION MNEMONIC
#---------      ---------------------------   --------------------------
 STRT    .M         59.7408                   : START DEPTH
 STOP    .M         2451.5064                 : STOP DEPTH
 STEP    .M         0.3048                    : STEP VALUE
 NULL    .      -999.0000                     : NULL VALUE
 DATE    .      05/01/2018                    : LAS file Creation Date
 WELL .      JOHNSON_1_1                 : Well Name
 COMP .      Neftex Exploration Insights : Company
 FLD  .                                  : Field
 UWI  .      DUSWL_JOHNSO                : Unique Well Identifier (UWI)
 LOC  .                                  : Location
 RWS  .      -999                        : Def_Rw
 WST  .      -999                        : Def_Rwt
 SRVC .                                  : Contractor
~CURVE INFORMATION
#MNEM              UNIT       API CODE   Curve Type Comments
#----------  --------------- ----------  ---------- -----------
 DEPTH      .M                         : Depth       
 GR_API     .API                       : GammaRay    Gamma Ray (API) - Measures the intensity of natural gamma-ray radiation emitted from formations containing radioactive elements, such as K, Th and U
 LLD_OHMM   .ohmm                      :             Laterlog Deep Resistivity - Measurement made several feet into the formation; generally considered a measurement of the undisturbed formation
 LLS_OHMM   .ohmm                      :             Laterlog Shallow Resistivity - one to two feet into the formation; generally considered to measure the formation
 RHOZ_G_CC  .g/cc                      :             Formation Density - Measures the density of formation, including any void space or other materials contained in the subject volume
 NPHI_v_v   .dec                       : Neutron     
 PEF_B_E    .b/e-                      : PEF         Photoelectric Factor - A log of photoelectric absorption properties. Often expressed in an approximation unit barns/electron (b/e-)
 LITH       .                          :             
~A  DEPTH   GR_API   LLD_OHMM  LLS_OHMM RHOZ_G_C~  NPHI_v_v  PEF_B_E     LITH   
# ...
2232.3552   23.7150 -999.0000 -999.0000    2.0890   -0.0163    3.7230   16.0000 
2232.6600   22.2830 -999.0000 -999.0000    2.0600   -0.0162    3.6220   16.0000 
2232.9648   20.7810 -999.0000 -999.0000    2.0470   -0.0164    3.6340   16.0000 
2233.2696   20.9610 -999.0000 -999.0000    2.0400   -0.0164    3.6770   16.0000 
2233.5744   21.5040 -999.0000 -999.0000    2.0350   -0.0166    3.6890   16.0000 
2233.8792   22.9610 -999.0000 -999.0000    2.0400   -0.0166    3.6010   16.0000 
2234.1840   24.4080 -999.0000 -999.0000    2.0500   -0.0165    3.4890   16.0000 
2234.4888   25.3460 -999.0000 -999.0000    2.0530   -0.0167    3.5990   16.0000 
2234.7936   24.3320 -999.0000 -999.0000    2.0490   -0.0165    3.6510   16.0000 
2235.0984   22.4840 -999.0000 -999.0000    2.0490   -0.0166    3.4660   16.0000 
2235.4032   23.7210 -999.0000 -999.0000    2.0540   -0.0172    3.5460   16.0000 
2235.7080   23.3690 -999.0000 -999.0000    2.0490   -0.0179    3.6260   16.0000 
2236.0128   22.0730 -999.0000 -999.0000    2.0500   -0.0177    3.7020   16.0000 
2236.3176   20.9250 -999.0000 -999.0000    2.0500   -0.0168    3.7970   16.0000 
2236.6224   21.7830 -999.0000 -999.0000    2.0410   -0.0163    3.7090   16.0000 
2236.9272   23.1380 -999.0000 -999.0000    2.0520   -0.0159    3.8180   16.0000 
2237.2320   22.4930 -999.0000 -999.0000    2.0660   -0.0163    3.9010   16.0000 
2237.5368   21.2700 -999.0000 -999.0000    2.0550   -0.0165    3.6940   16.0000 
2237.8416   22.3860 -999.0000 -999.0000    2.0510   -0.0167    3.6000   16.0000 
2238.1464   21.4430 -999.0000 -999.0000    2.0660   -0.0175    3.5910   16.0000 
2238.4512   19.2300 -999.0000 -999.0000    2.0520   -0.0178    3.5690   16.0000 
2238.7560   19.2260 -999.0000 -999.0000    2.0580   -0.0176    3.4570   16.0000 
2239.0608   20.9310 -999.0000 -999.0000    2.0650   -0.0172    3.5380   16.0000 
2239.3656   21.7410 -999.0000 -999.0000    2.0560   -0.0168    3.5730   16.0000 
2239.6704   20.4530 -999.0000 -999.0000    2.0440   -0.0171    3.4720   16.0000 
2239.9752   21.0030 -999.0000 -999.0000    2.0510   -0.0161    3.4980   16.0000 
2240.2800   23.0220 -999.0000 -999.0000    2.0500   -0.0142    3.5070   16.0000 
2240.5848   22.7210 -999.0000 -999.0000    2.0580   -0.0153    3.6020   16.0000 
2240.8896   21.7170 -999.0000 -999.0000    2.0630   -0.0161    3.4780   16.0000 
2241.1944   24.6230 -999.0000 -999.0000    2.0540   -0.0161    3.3660   16.0000 
2241.4992   23.5580 -999.0000 -999.0000    2.0530   -0.0175    3.6320   16.0000 
2241.8040   21.3750 -999.0000 -999.0000    2.0470   -0.0180    3.5240   16.0000 
2242.1088   20.5430 -999.0000 -999.0000    2.0370   -0.0175    3.4700   16.0000 
2242.4136   20.0100 -999.0000 -999.0000    2.0360   -0.0164    3.5770   16.0000 
2242.7184   22.8000 -999.0000 -999.0000    2.0490   -0.0157    3.5720   16.0000 
2243.0232   20.7170 -999.0000 -999.0000    2.0440   -0.0155    3.5910   16.0000 
2243.3280   19.4610 -999.0000 -999.0000    2.0370   -0.0157    3.4990   16.0000 
2243.6328   19.2440 -999.0000 -999.0000    2.0470   -0.0159    3.5380   16.0000 
2243.9376   19.9170 -999.0000 -999.0000    2.0590   -0.0162    3.5030   16.0000 
2244.2424   19.4010 -999.0000 -999.0000    2.0660   -0.0154    3.5870   16.0000 
2244.5472   20.6190 -999.0000 -999.0000    2.0650   -0.0157    3.6240   16.0000 
2244.8520   22.2000 -999.0000 -999.0000    2.0400   -0.0159    3.5440   16.0000 
2245.1568   23.0600 -999.0000 -999.0000    2.0350   -0.0159    3.5490   16.0000 
2245.4616   22.1720 -999.0000 -999.0000    2.0460   -0.0160    3.6600   16.0000 
2245.7664   22.1510 -999.0000 -999.0000    2.0380   -0.0168    3.6890   16.0000 
2246.0712   18.8030 -999.0000 -999.0000    2.0410   -0.0169    3.7070   16.0000 
2246.3760   20.6780 -999.0000 -999.0000    2.0460   -0.0165    3.7110   16.0000 
2246.6808   19.0190 -999.0000 -999.0000    2.0520   -0.0162    3.6380   16.0000 
2246.9856   20.4140 -999.0000 -999.0000    2.0540   -0.0166    3.6950   16.0000 
2247.2904   21.4170 -999.0000 -999.0000    2.0440   -0.0162    3.6150   16.0000 
2247.5952   21.7230 -999.0000 -999.0000    2.0490   -0.0153    3.5680   16.0000 
2247.9000   21.2640 -999.0000 -999.0000    2.0420   -0.0154    3.7160   16.0000 
2248.2048   19.7280 -999.0000 -999.0000    2.0370   -0.0156    3.7220   16.0000 
2248.5096   20.8290 -999.0000 -999.0000    2.0370   -0.0151    3.6900   16.0000 
2248.8144   23.2560 -999.0000 -999.0000    2.0460   -0.0144    3.6950   16.0000 
2249.1192   21.7580 -999.0000 -999.0000    2.0560   -0.0146    3.6930   16.0000 
2249.4240   19.1180 -999.0000 -999.0000    2.0530   -0.0155    3.6740   16.0000 
2249.7288   20.4630 -999.0000 -999.0000    2.0460   -0.0152    3.7310   16.0000 
2250.0336   20.4380 -999.0000 -999.0000    2.0450   -0.0140    3.7100   16.0000 
2250.3384   18.5810 -999.0000 -999.0000    2.0330   -0.0135    3.6380   16.0000 
2250.6432   19.5110 -999.0000 -999.0000    2.0370   -0.0129    3.5950   16.0000 
2250.9480   19.4160 -999.0000 -999.0000    2.0420   -0.0142    3.6740   16.0000 
2251.2528   20.9430 -999.0000 -999.0000    2.0440   -0.0158    3.6840   16.0000 
2251.5576   21.3240 -999.0000 -999.0000    2.0360   -0.0159    3.5290   16.0000 
2251.8624   20.9760 -999.0000 -999.0000    2.0420   -0.0154    3.5860   16.0000 
2252.1672   19.9050 -999.0000 -999.0000    2.0470   -0.0151    3.5260   16.0000 
2252.4720   20.2280 -999.0000 -999.0000    2.0500   -0.0151    3.6000   16.0000 
2252.7768   21.5840 -999.0000 -999.0000    2.0480   -0.0151    3.6680   16.0000 
2253.0816   21.1560 -999.0000 -999.0000    2.0430   -0.0146    3.7200   16.0000 
2253.3864   18.7320 -999.0000 -999.0000    2.0390   -0.0140    3.5820   16.0000 
2253.6912   21.7710 -999.0000 -999.0000    2.0410   -0.0138    3.6230   16.0000 
2253.9960   21.5900 -999.0000 -999.0000    2.0490   -0.0142    3.6140   16.0000 
2254.3008   19.4280 -999.0000 -999.0000    2.0510   -0.0145    3.5800   16.0000 
2254.6056   20.8280 -999.0000 -999.0000    2.0410   -0.0147    3.4920   16.0000 
2254.9104   21.1530 -999.0000 -999.0000    2.0330   -0.0156    3.5880   16.0000 
2255.2152   21.3620 -999.0000 -999.0000    2.0350   -0.0163    3.6950   16.0000 
2255.5200   21.7200 -999.0000 -999.0000    2.0410   -0.0162    3.7020   16.0000 
2255.8248   21.8360 -999.0000 -999.0000    2.0470   -0.0151    3.5500   16.0000 
2256.1296   21.1290 -999.0000 -999.0000    2.0480   -0.0149    3.5080   16.0000 
2256.4344   20.7200 -999.0000 -999.0000    2.0450   -0.0146    3.7060   16.0000 
2256.7392   21.1520 -999.0000 -999.0000    2.0550   -0.0150    3.7280   16.0000 
2257.0440   20.2650 -999.0000 -999.0000    2.0490   -0.0149    3.7580   16.0000 
2257.3488   21.4950 -999.0000 -999.0000    2.0450   -0.0153    3.7840   16.0000 
2257.6536   21.8010 -999.0000 -999.0000    2.0470   -0.0142    3.6270   16.0000 
2257.9584   21.5970 -999.0000 -999.0000    2.0450   -0.0144    3.5150   16.0000 
2258.2632   21.3630 -999.0000 -999.0000    2.0410   -0.0150    3.6180   16.0000 
2258.5680   21.9840 -999.0000 -999.0000    2.0350   -0.0148    3.5510   16.0000 
2258.8728   21.2070 -999.0000 -999.0000    2.0300   -0.0138    3.4790   16.0000 
2259.1776   22.5780 -999.0000 -999.0000    2.0360   -0.0141    3.4800   16.0000 
2259.4824   22.3050 -999.0000 -999.0000    2.0560   -0.0139    3.5730   16.0000 
2259.7872   21.0570 -999.0000 -999.0000    2.0770   -0.0140    3.6880   16.0000 
2260.0920   22.1610 -999.0000 -999.0000    2.0860   -0.0136    3.8010   16.0000 
2260.3968   25.1480 -999.0000 -999.0000    2.0680   -0.0132    3.7970   16.0000 
2260.7016   23.7650 -999.0000 -999.0000    2.0430   -0.0134    3.7620   16.0000 
2261.0064   21.3680 -999.0000 -999.0000    2.0240   -0.0135    3.8050   16.0000 
2261.3112   23.0190 -999.0000 -999.0000    2.0310   -0.0137    3.7030   16.0000 
2261.6160   24.0240 -999.0000 -999.0000    2.0390   -0.0140    3.5650   16.0000 
2261.9208   23.0060 -999.0000 -999.0000    2.0390   -0.0139    3.6820   16.0000 
2262.2256   20.3790 -999.0000 -999.0000    2.0310   -0.0142    3.7140   16.0000 
