~VERSION INFORMATION
 VERS.                 2.0:   CWLS LOG ASCII STANDARD - VERSION 2.0
 WRAP.                  NO:   SINGLE LINE PER DEPTH STEP
 CREA.                 11/12/2017 11:36:24
#CREATED USING DSPetro VERSION 5000.10.1.3 BY H191660 ON 11/12/2017 11:36:24
~WELL INFORMATION
#MNEM.UNIT       DATA                          DESCRIPTION MNEMONIC
#---------      ---------------------------   --------------------------
 STRT    .FT        199.0157                  : START DEPTH
 STOP    .FT        12624.5157                : STOP DEPTH
 STEP    .FT        0.5000                    : STEP VALUE
 NULL    .      -999.0000                     : NULL VALUE
 DATE    .      11/12/2017                    : LAS file Creation Date
 WELL .      U_TEXAS_36994_4200338767 : Well Name
 COMP .                               : Company
 FLD  .      MAGUTEX                  : Field
 UWI  .      KUSWL_338767             : Unique Well Identifier (UWI)
 LOC  .                               : Location
 RWS  .      -999                     : Def_Rw
 WST  .      -999                     : Def_Rwt
 SRVC .                               : Contractor
~CURVE INFORMATION
#MNEM              UNIT       API CODE   Curve Type Comments
#----------  --------------- ----------  ---------- -----------
 DEPTH      .FT                        : Depth       
 DEPTH_(m)  .                          :             
 BitSize    .in                        : BitSize     
 GR_API     .API                       : GammaRay    Gamma Ray (API) - Measures the intensity of natural gamma-ray radiation emitted from formations containing radioactive elements, such as K, Th and U
 LLD_OHMM   .ohmm                      :             Laterlog Deep Resistivity - Measurement made several feet into the formation; generally considered a measurement of the undisturbed formation
 LLS_OHMM   .ohmm                      :             Laterlog Shallow Resistivity - one to two feet into the formation; generally considered to measure the formation
 RHOB_G_CC  .g/cc                      :             Formation Density - Measures the density of formation, including any void space or other materials contained in the subject volume
 DRHO_G_CC  .g/cc                      :             Density Correction - Investigates the correction to the Bulk Density log; used as an indication of hole condition to validate the Bulk Density measure
 NPHI_v/v   .ratio                     :             Enhanced Thermal Neutron Porosity in Selected Lithology
 PEF_B_E    .b/e-                      : PEF         Photoelectric Factor - A log of photoelectric absorption properties. Often expressed in an approximation unit barns/electron (b/e-)
 LITH       .                          : Flag        
 LITH_v2    .                          : Flag        
~A  DEPTH DEPTH_(m)  BitSize    GR_API   LLD_OHMM  LLS_OHMM RHOB_G_C  DRHO_G_C   NPHI_v/v  PEF_B_E     LITH    LITH_v2  
# ...
9286.5157 2830.5300    7.8750  109.4260   60.8070   65.8860    2.5510   -0.0090    0.1620    3.5080   37.0000   37.0000 
9287.0157 2830.6824    7.8750  103.8550   46.1710   50.1290    2.5450   -0.0100    0.1650    3.4390   37.0000   37.0000 
9287.5157 2830.8347    7.8750   93.9217   39.6843   43.4528    2.5607   -0.0066    0.1538    3.2089   37.0000   37.0000 
9288.0157 2830.9873    7.8750   95.8990   40.1890   44.1580    2.5660   -0.0060    0.1520    3.1420   37.0000   37.0000 
9288.5157 2831.1396    7.8750  101.1160   42.7770   47.3330    2.5690   -0.0050    0.1600    3.0810   37.0000   37.0000 
9289.0157 2831.2920    7.8750  101.4240   42.5940   47.5730    2.5530   -0.0070    0.1610    3.1380   37.0000   37.0000 
9289.5157 2831.4443    7.8750   82.5357   39.2854   44.3811    2.5446   -0.0050    0.1414    3.1788   37.0000   37.0000 
9290.0157 2831.5967    7.8750   77.1490   38.3700   43.4860    2.5470   -0.0020    0.1360    3.1740   37.0000   37.0000 
9290.5157 2831.7493    7.8750   75.0010   30.0490   33.8280    2.5670    0.0030    0.1430    3.0880   37.0000   37.0000 
9291.0157 2831.9016    7.8750   88.9620   22.9540   25.8840    2.5730    0.0020    0.1500    3.0550   37.0000   37.0000 
9291.5157 2832.0540    7.8750   93.7904   17.3255   19.7411    2.5854   -0.0038    0.1590    2.9647   37.0000   37.0000 
9292.0157 2832.2063    7.8750   96.3760   16.1120   18.4320    2.5890   -0.0050    0.1560    2.9320   37.0000   37.0000 
9292.5157 2832.3589    7.8750   88.3830   16.9520   19.4550    2.6000   -0.0040    0.1460    2.8320   37.0000   37.0000 
9293.0157 2832.5112    7.8750   89.7130   20.3590   23.4450    2.5960   -0.0060    0.1320    2.8000   37.0000   37.0000 
9293.5157 2832.6636    7.8750   91.9473   26.3075   30.5518    2.5739   -0.0094    0.1475    2.8629   37.0000   37.0000 
9294.0157 2832.8159    7.8750   98.0450   27.2090   31.6570    2.5680   -0.0100    0.1570    2.8860   37.0000   37.0000 
9294.5157 2832.9685    7.8750  104.8310   31.8590   36.8530    2.5610   -0.0080    0.1770    2.9220   37.0000   37.0000 
9295.0157 2833.1208    7.8750  101.9660   36.9260   41.9300    2.5550   -0.0080    0.1910    2.9940   37.0000   37.0000 
9295.5157 2833.2732    7.8750  105.1659   40.0173   45.0145    2.5520   -0.0112    0.1918    3.1669   37.0000   37.0000 
9296.0157 2833.4255    7.8750  105.8800   33.3410   37.2970    2.5520   -0.0130    0.1930    3.2590   37.0000   37.0000 
9296.5157 2833.5779    7.8750  114.6830   26.1220   28.9740    2.5620   -0.0140    0.1860    3.3190   37.0000   37.0000 
9297.0157 2833.7305    7.8750  103.5780   21.1300   23.1700    2.5610   -0.0150    0.1850    3.3430   37.0000   37.0000 
9297.5157 2833.8828    7.8750   79.4552   27.6883   29.6088    2.5745   -0.0156    0.1446    3.4810   37.0000   37.0000 
9298.0157 2834.0352    7.8750   67.1170   34.9050   36.6970    2.5840   -0.0150    0.1220    3.6440   37.0000   37.0000 
9298.5157 2834.1875    7.8750   62.9030   73.0570   78.5070    2.6150   -0.0100    0.0930    4.0330   22.0000   22.0000 
9299.0157 2834.3401    7.8750   72.4840  103.7070  110.9160    2.6350   -0.0050    0.0900    4.2190   22.0000   22.0000 
9299.5157 2834.4924    7.8750   93.1359   60.6796   66.3753    2.6225   -0.0020    0.1193    3.7203   22.0000   22.0000 
9300.0157 2834.6448    7.8750  100.4210   49.4580   54.1280    2.6040   -0.0020    0.1390    3.4350   37.0000   37.0000 
9300.5157 2834.7971    7.8750  106.5610   49.6070   54.1420    2.5750   -0.0040    0.1620    3.1200   37.0000   37.0000 
9301.0157 2834.9497    7.8750  111.0570   40.3020   43.8350    2.5670   -0.0050    0.1650    3.0400   37.0000   37.0000 
9301.5157 2835.1021    7.8750  112.4820   33.2606   36.0111    2.5802   -0.0034    0.1846    3.0256   37.0000   37.0000 
9302.0157 2835.2544    7.8750  112.4820   33.4980   36.1830    2.5790   -0.0040    0.1870    3.0310   37.0000   37.0000 
9302.5157 2835.4067    7.8750  114.1530   37.6950   40.0140    2.5710   -0.0040    0.1870    3.0300   37.0000   37.0000 
9303.0157 2835.5591    7.8750  109.6070   33.7160   35.0370    2.5700   -0.0040    0.1730    3.0190   37.0000   37.0000 
9303.5157 2835.7117    7.8750  103.9409   30.3799   31.2707    2.5826   -0.0026    0.1702    3.0196   37.0000   37.0000 
9304.0157 2835.8640    7.8750  100.0080   31.7650   32.5990    2.5880   -0.0020    0.1660    3.0160   37.0000   37.0000 
9304.5157 2836.0164    7.8750  101.3900   37.3680   38.1970    2.5910   -0.0030    0.1560    2.9850   37.0000   37.0000 
9305.0157 2836.1687    7.8750  101.0710   40.5900   41.2920    2.5950   -0.0020    0.1580    2.9110   37.0000   37.0000 
9305.5157 2836.3213    7.8750   94.0205   38.7131   39.1646    2.5872   -0.0024    0.1514    2.8849   37.0000   37.0000 
9306.0157 2836.4736    7.8750   91.4910   36.8880   37.2710    2.5830   -0.0030    0.1520    2.8950   37.0000   37.0000 
9306.5157 2836.6260    7.8750   96.6130   31.5800   31.8680    2.5720   -0.0070    0.1590    3.0190   37.0000   37.0000 
9307.0157 2836.7783    7.8750  113.9030   21.3120   21.4220    2.5770   -0.0090    0.1760    3.1340   37.0000   37.0000 
9307.5157 2836.9309    7.8750  117.5033   13.7112   13.7555    2.6103   -0.0040    0.1924    3.1304   37.0000   37.0000 
9308.0157 2837.0833    7.8750  115.8970   12.2670   12.2870    2.6280   -0.0010    0.1930    3.0730   37.0000   37.0000 
9308.5157 2837.2356    7.8750  106.0880   12.8660   12.8640    2.6370    0.0010    0.1830    2.9410   37.0000   37.0000 
9309.0157 2837.3879    7.8750  103.7520   14.3570   14.2850    2.6240   -0.0010    0.1720    2.8660   37.0000   37.0000 
9309.5157 2837.5403    7.8750  100.1452   16.4928   16.3209    2.6034   -0.0038    0.1610    2.8425   37.0000   37.0000 
9310.0157 2837.6929    7.8750  101.1020   17.5070   17.2800    2.5950   -0.0050    0.1580    2.8790   37.0000   37.0000 
9310.5157 2837.8452    7.8750   91.7040   20.6270   20.0890    2.5860   -0.0070    0.1430    2.9620   37.0000   37.0000 
9311.0157 2837.9976    7.8750   84.7660   24.5870   23.2990    2.5870   -0.0070    0.1390    3.0010   37.0000   37.0000 
9311.5157 2838.1499    7.8750   81.9054   27.4872   25.0309    2.5914   -0.0080    0.1324    3.0082   37.0000   37.0000 
9312.0157 2838.3025    7.8750   81.5300   28.2290   25.3890    2.5920   -0.0080    0.1360    3.0100   37.0000   37.0000 
9312.5157 2838.4548    7.8750   86.6600   30.2620   26.9360    2.5860   -0.0090    0.1410    3.0300   37.0000   37.0000 
9313.0157 2838.6072    7.8750   88.5490   32.1560   28.4620    2.5750   -0.0080    0.1530    3.0570   37.0000   37.0000 
9313.5157 2838.7595    7.8750   97.4630   32.6361   29.1649    2.5578   -0.0062    0.1506    3.1069   37.0000   37.0000 
9314.0157 2838.9121    7.8750  101.8390   31.1710   28.1070    2.5530   -0.0050    0.1500    3.1350   37.0000   37.0000 
9314.5157 2839.0645    7.8750  105.5030   25.1060   22.9480    2.5550   -0.0040    0.1610    3.1840   37.0000   37.0000 
9315.0157 2839.2168    7.8750  113.7270   17.3030   16.0130    2.5730   -0.0040    0.1830    3.1830   37.0000   37.0000 
9315.5157 2839.3691    7.8750  111.7492   12.7973   12.1142    2.5946   -0.0046    0.1984    3.1473   37.0000   37.0000 
9316.0157 2839.5215    7.8750  110.3410   12.1130   11.5610    2.6030   -0.0040    0.2020    3.1060   37.0000   37.0000 
9316.5157 2839.6741    7.8750   98.9510   13.5050   13.0320    2.6000   -0.0040    0.1950    3.0530   37.0000   37.0000 
9317.0157 2839.8264    7.8750   98.5510   14.5210   14.1210    2.5900   -0.0050    0.1800    2.9830   37.0000   37.0000 
9317.5157 2839.9788    7.8750  102.5761   15.9127   15.5504    2.5924   -0.0040    0.1629    2.8346   37.0000   37.0000 
9318.0157 2840.1311    7.8750  108.2410   16.2580   15.8880    2.5930   -0.0040    0.1540    2.8020   37.0000   37.0000 
9318.5157 2840.2837    7.8750  105.3530   18.4900   17.8550    2.5860   -0.0060    0.1430    2.8550   37.0000   37.0000 
9319.0157 2840.4360    7.8750   94.1120   21.4260   20.2330    2.5710   -0.0020    0.1320    2.9890   37.0000   37.0000 
9319.5157 2840.5884    7.8750   75.1712   24.6856   22.5388    2.5692   -0.0028    0.1254    3.2004   37.0000   37.0000 
