~VERSION INFORMATION
 VERS.                 2.0:   CWLS LOG ASCII STANDARD - VERSION 2.0
 WRAP.                  NO:   SINGLE LINE PER DEPTH STEP
 CREA.                 11/12/2017 11:36:24
#CREATED USING DSPetro VERSION 5000.10.1.3 BY H191660 ON 11/12/2017 11:36:24
~WELL INFORMATION
#MNEM.UNIT       DATA                          DESCRIPTION MNEMONIC
#---------      ---------------------------   --------------------------
 STRT    .FT        199.0157                  : START DEPTH
 STOP    .FT        12624.5157                : STOP DEPTH
 STEP    .FT        0.5000                    : STEP VALUE
 NULL    .      -999.0000                     : NULL VALUE
 DATE    .      11/12/2017                    : LAS file Creation Date
 WELL .      U_TEXAS_36994_4200338767 : Well Name
 COMP .                               : Company
 FLD  .      MAGUTEX                  : Field
 UWI  .      KUSWL_338767             : Unique Well Identifier (UWI)
 LOC  .                               : Location
 RWS  .      -999                     : Def_Rw
 WST  .      -999                     : Def_Rwt
 SRVC .                               : Contractor
~CURVE INFORMATION
#MNEM              UNIT       API CODE   Curve Type Comments
#----------  --------------- ----------  ---------- -----------
 DEPTH      .FT                        : Depth       
 DEPTH_(m)  .                          :             
 BitSize    .in                        : BitSize     
 GR_API     .API                       : GammaRay    Gamma Ray (API) - Measures the intensity of natural gamma-ray radiation emitted from formations containing radioactive elements, such as K, Th and U
 LLD_OHMM   .ohmm                      :             Laterlog Deep Resistivity - Measurement made several feet into the formation; generally considered a measurement of the undisturbed formation
 LLS_OHMM   .ohmm                      :             Laterlog Shallow Resistivity - one to two feet into the formation; generally considered to measure the formation
 RHOB_G_CC  .g/cc                      :             Formation Density - Measures the density of formation, including any void space or other materials contained in the subject volume
 DRHO_G_CC  .g/cc                      :             Density Correction - Investigates the correction to the Bulk Density log; used as an indication of hole condition to validate the Bulk Density measure
 NPHI_v/v   .ratio                     :             Enhanced Thermal Neutron Porosity in Selected Lithology
 PEF_B_E    .b/e-                      : PEF         Photoelectric Factor - A log of photoelectric absorption properties. Often expressed in an approximation unit barns/electron (b/e-)
 LITH       .                          : Flag        
 LITH_v2    .                          : Flag        
~A  DEPTH DEPTH_(m)  BitSize    GR_API   LLD_OHMM  LLS_OHMM RHOB_G_C  DRHO_G_C   NPHI_v/v  PEF_B_E     LITH    LITH_v2  
# ...
11772.0157 3588.1104    7.8750   96.6880   22.3720   21.2880    2.5630   -0.0090    0.2470    3.9870   37.0000   37.0000 
11772.5157 3588.2627    7.8750   96.6750   25.0300   23.7070    2.5840   -0.0070    0.2460    3.9630   37.0000   37.0000 
11773.0157 3588.4153    7.8750   93.1650   29.2550   27.5630    2.6040   -0.0060    0.2350    3.9430   37.0000   37.0000 
11773.5157 3588.5676    7.8750   81.4550   33.0770   31.0840    2.6160   -0.0040    0.2010    3.9210   37.0000   37.0000 
11774.0157 3588.7200    7.8750   73.0940   33.3650   31.3290    2.6230   -0.0040    0.2030    3.8510   37.0000   37.0000 
11774.5157 3588.8723    7.8750   76.2260   30.8180   29.0190    2.6210   -0.0040    0.1970    3.7730   37.0000   37.0000 
11775.0157 3589.0249    7.8750   77.5890   30.8260   29.0100    2.6110   -0.0040    0.2090    3.7640   37.0000   37.0000 
11775.5157 3589.1772    7.8750   82.5870   35.1620   32.7570    2.6080   -0.0040    0.2010    3.8270   37.0000   37.0000 
11776.0157 3589.3296    7.8750   80.8740   39.0240   36.4170    2.6030   -0.0030    0.2020    3.9340   37.0000   37.0000 
11776.5157 3589.4819    7.8750   87.3970   33.3090   31.4910    2.5910   -0.0030    0.2060    3.9880   37.0000   37.0000 
11777.0157 3589.6345    7.8750   92.4330   25.7190   24.4900    2.5750   -0.0020    0.2310    3.9060   37.0000   37.0000 
11777.5157 3589.7869    7.8750   95.3410   20.4670   19.6210    2.5660   -0.0080    0.2410    3.7580   37.0000   37.0000 
11778.0157 3589.9392    7.8750   91.0080   19.8390   19.1070    2.5640   -0.0070    0.2410    3.6240   37.0000   37.0000 
11778.5157 3590.0916    7.8750   84.9460   21.6690   20.9210    2.5670   -0.0080    0.2190    3.6570   37.0000   37.0000 
11779.0157 3590.2439    7.8750   78.0150   28.3870   27.5850    2.5820   -0.0020    0.1890    3.7840   37.0000   37.0000 
11779.5157 3590.3965    7.8750   72.8990   33.4430   32.8110    2.6070   -0.0030    0.1540    3.9500   37.0000   22.0000 
11780.0157 3590.5488    7.8750   73.0000   36.1970   35.8540    2.6350   -0.0030    0.1470    4.0290   37.0000   22.0000 
11780.5157 3590.7012    7.8750   77.4400   37.3670   37.0480    2.6540   -0.0020    0.1510    4.0110   37.0000   22.0000 
11781.0157 3590.8535    7.8750   80.8860   38.2980   37.7900    2.6580   -0.0020    0.1610    3.9720   37.0000   22.0000 
11781.5157 3591.0061    7.8750   81.2030   37.1360   36.3550    2.6590   -0.0010    0.1630    3.9390   37.0000   22.0000 
11782.0157 3591.1584    7.8750   82.7370   35.6560   34.4580    2.6490   -0.0030    0.1730    3.9840   37.0000   22.0000 
11782.5157 3591.3108    7.8750   75.7380   38.1820   36.6050    2.6420   -0.0030    0.1680    4.0180   37.0000   22.0000 
11783.0157 3591.4631    7.8750   71.3580   43.1720   41.3370    2.6300   -0.0040    0.1790    4.0390   37.0000   22.0000 
11783.5157 3591.6155    7.8750   71.5680   44.0180   42.1090    2.6230   -0.0030    0.1910    3.9600   37.0000   37.0000 
11784.0157 3591.7681    7.8750   77.8380   45.2500   43.2070    2.6060   -0.0030    0.2170    3.8740   37.0000   37.0000 
11784.5157 3591.9204    7.8750   82.3790   50.9010   48.4920    2.5800   -0.0050    0.2090    3.8370   37.0000   37.0000 
11785.0157 3592.0728    7.8750   81.2630   61.7090   58.6720    2.5550   -0.0080    0.1990    3.8710   37.0000   37.0000 
11785.5157 3592.2251    7.8750   78.4360   61.9600   59.0730    2.5490   -0.0080    0.1820    3.8580   37.0000   37.0000 
11786.0157 3592.3777    7.8750   73.6310   57.2190   55.1830    2.5470   -0.0060    0.1890    3.8320   37.0000   37.0000 
11786.5157 3592.5300    7.8750   76.5580   56.3770   54.8200    2.5400   -0.0060    0.2000    3.8160   37.0000   37.0000 
11787.0157 3592.6824    7.8750   85.4000   57.9140   56.3380    2.5240   -0.0060    0.2330    3.8000   37.0000   37.0000 
11787.5157 3592.8347    7.8750   92.1340   44.0360   42.6920    2.5080   -0.0060    0.2600    3.7670   37.0000   37.0000 
11788.0157 3592.9873    7.8750   90.3540   33.7470   32.6130    2.5120   -0.0030    0.2630    3.6710   37.0000   37.0000 
11788.5157 3593.1396    7.8750   89.5340   26.6000   25.6950    2.5150   -0.0050    0.2580    3.6960   37.0000   37.0000 
11789.0157 3593.2920    7.8750   89.5160   22.8740   22.1840    2.5390   -0.0060    0.2370    3.7140   37.0000   37.0000 
11789.5157 3593.4443    7.8750   91.2970   22.6440   22.0430    2.5560   -0.0080    0.2470    3.7810   37.0000   37.0000 
11790.0157 3593.5967    7.8750   91.3990   26.4210   25.7180    2.5750   -0.0010    0.2340    3.7860   37.0000   37.0000 
11790.5157 3593.7493    7.8750   93.3110   38.5850   37.2470    2.5720   -0.0030    0.2320    3.8160   37.0000   37.0000 
11791.0157 3593.9016    7.8750   94.7460   46.6860   44.5530    2.5550   -0.0040    0.2270    3.8160   37.0000   37.0000 
11791.5157 3594.0540    7.8750   94.0290   43.1210   40.6010    2.5320   -0.0090    0.2350    3.7630   37.0000   37.0000 
11792.0157 3594.2063    7.8750   90.8810   35.4740   32.8990    2.5190   -0.0070    0.2490    3.6780   37.0000   37.0000 
11792.5157 3594.3589    7.8750   85.5150   35.2470   32.1710    2.5180   -0.0050    0.2530    3.6320   37.0000   37.0000 
11793.0157 3594.5112    7.8750   81.4230   39.8500   35.7490    2.5340   -0.0040    0.2380    3.6100   37.0000   37.0000 
11793.5157 3594.6636    7.8750   78.4960   50.1220   44.6970    2.5640   -0.0020    0.2100    3.5530   37.0000   37.0000 
11794.0157 3594.8159    7.8750   82.0810   55.2610   49.5950    2.5750   -0.0020    0.1810    3.5420   37.0000   37.0000 
11794.5157 3594.9685    7.8750   82.8460   50.4500   45.8530    2.5660   -0.0020    0.1830    3.5270   37.0000   37.0000 
11795.0157 3595.1208    7.8750   87.9640   40.5990   37.1880    2.5340   -0.0050    0.1950    3.5840   37.0000   37.0000 
11795.5157 3595.2732    7.8750   89.1470   35.8860   33.0090    2.5250   -0.0050    0.2370    3.5620   37.0000   37.0000 
11796.0157 3595.4255    7.8750   92.2020   34.1790   31.7120    2.5250   -0.0040    0.2630    3.5510   37.0000   37.0000 
11796.5157 3595.5779    7.8750   87.7100   29.9980   28.2220    2.5380   -0.0020    0.2850    3.5210   37.0000   37.0000 
11797.0157 3595.7305    7.8750   90.8290   28.5190   27.2500    2.5450   -0.0010    0.2610    3.5220   37.0000   37.0000 
11797.5157 3595.8828    7.8750   95.2990   28.1660   27.2940    2.5420   -0.0020    0.2330    3.5770   37.0000   37.0000 
11798.0157 3596.0352    7.8750  102.8980   27.9700   27.5110    2.5350   -0.0050    0.2150    3.6860   37.0000   37.0000 
11798.5157 3596.1875    7.8750  107.3980   23.8000   23.5570    2.5370   -0.0010    0.2180    3.7770   37.0000   37.0000 
11799.0157 3596.3401    7.8750   98.6190   22.4040   22.1350    2.5470    0.0030    0.2350    3.8290   37.0000   37.0000 
11799.5157 3596.4924    7.8750   92.8830   23.1970   22.8570    2.5570    0.0050    0.2450    3.8230   37.0000   37.0000 
11800.0157 3596.6448    7.8750   83.5920   25.2560   24.8800    2.5570   -0.0020    0.2520    3.8070   37.0000   37.0000 
11800.5157 3596.7971    7.8750   87.2170   27.4090   27.0610    2.5530   -0.0070    0.2450    3.7720   37.0000   37.0000 
11801.0157 3596.9497    7.8750   88.6200   30.7470   30.4000    2.5460   -0.0070    0.2110    3.7560   37.0000   37.0000 
11801.5157 3597.1021    7.8750   89.0380   35.8100   35.4560    2.5530   -0.0050    0.2070    3.6930   37.0000   37.0000 
11802.0157 3597.2544    7.8750   94.2950   37.8500   37.5980    2.5430   -0.0050    0.2100    3.7130   37.0000   37.0000 
11802.5157 3597.4067    7.8750   93.9570   34.8540   34.5770    2.5350   -0.0040    0.2330    3.7020   37.0000   37.0000 
11803.0157 3597.5591    7.8750   99.2860   26.9860   26.7130    2.5190   -0.0050    0.2640    3.7380   37.0000   37.0000 
11803.5157 3597.7117    7.8750   99.0090   21.8700   21.6520    2.5200   -0.0040    0.2640    3.7240   37.0000   37.0000 
11804.0157 3597.8640    7.8750  103.3980   21.2500   21.0570    2.5230   -0.0040    0.2740    3.7230   37.0000   37.0000 
11804.5157 3598.0164    7.8750  100.7690   23.5270   23.4090    2.5220   -0.0050    0.2500    3.7460   37.0000   37.0000 
