~VERSION INFORMATION
 VERS.                 2.0:   CWLS LOG ASCII STANDARD - VERSION 2.0
 WRAP.                  NO:   SINGLE LINE PER DEPTH STEP
 CREA.                 11/12/2017 11:36:24
#CREATED USING DSPetro VERSION 5000.10.1.3 BY H191660 ON 11/12/2017 11:36:24
~WELL INFORMATION
#MNEM.UNIT       DATA                          DESCRIPTION MNEMONIC
#---------      ---------------------------   --------------------------
 STRT    .FT        199.0157                  : START DEPTH
 STOP    .FT        12624.5157                : STOP DEPTH
 STEP    .FT        0.5000                    : STEP VALUE
 NULL    .      -999.0000                     : NULL VALUE
 DATE    .      11/12/2017                    : LAS file Creation Date
 WELL .      U_TEXAS_36994_4200338767 : Well Name
 COMP .                               : Company
 FLD  .      MAGUTEX                  : Field
 UWI  .      KUSWL_338767             : Unique Well Identifier (UWI)
 LOC  .                               : Location
 RWS  .      -999                     : Def_Rw
 WST  .      -999                     : Def_Rwt
 SRVC .                               : Contractor
~CURVE INFORMATION
#MNEM              UNIT       API CODE   Curve Type Comments
#----------  --------------- ----------  ---------- -----------
 DEPTH      .FT                        : Depth       
 DEPTH_(m)  .                          :             
 BitSize    .in                        : BitSize     
 GR_API     .API                       : GammaRay    Gamma Ray (API) - Measures the intensity of natural gamma-ray radiation emitted from formations containing radioactive elements, such as K, Th and U
 LLD_OHMM   .ohmm                      :             Laterlog Deep Resistivity - Measurement made several feet into the formation; generally considered a measurement of the undisturbed formation
 LLS_OHMM   .ohmm                      :             Laterlog Shallow Resistivity - one to two feet into the formation; generally considered to measure the formation
 RHOB_G_CC  .g/cc                      :             Formation Density - Measures the density of formation, including any void space or other materials contained in the subject volume
 DRHO_G_CC  .g/cc                      :             Density Correction - Investigates the correction to the Bulk Density log; used as an indication of hole condition to validate the Bulk Density measure
 NPHI_v/v   .ratio                     :             Enhanced Thermal Neutron Porosity in Selected Lithology
 PEF_B_E    .b/e-                      : PEF         Photoelectric Factor - A log of photoelectric absorption properties. Often expressed in an approximation unit barns/electron (b/e-)
 LITH       .                          : Flag        
 LITH_v2    .                          : Flag        
~A  DEPTH DEPTH_(m)  BitSize    GR_API   LLD_OHMM  LLS_OHMM RHOB_G_C  DRHO_G_C   NPHI_v/v  PEF_B_E     LITH    LITH_v2  
# ...
10947.0157 3336.6504    7.8750   19.9760 1546.7619 2126.8268    2.7040   -0.0030    0.0080    4.9870   18.0000   18.0000 
10947.5157 3336.8027    7.8750   25.7159  982.2999 1283.5040    2.7029   -0.0026    0.0114    5.0073   18.0000   18.0000 
10948.0157 3336.9551    7.8750   28.4570  529.1950  679.4550    2.7070   -0.0020    0.0120    4.9700   18.0000   18.0000 
10948.5157 3337.1077    7.8750   36.8290  214.8950  279.8330    2.7110   -0.0020    0.0110    4.8700   18.0000   18.0000 
10949.0157 3337.2600    7.8750   41.8450  219.0814  280.1835    2.7110   -0.0030    0.0100    4.8160   18.0000   18.0000 
10949.5157 3337.4124    7.8750   56.2332 5140.8737 6041.1755    2.7086    0.0096    0.0068    4.8580   18.0000   18.0000 
10950.0157 3337.5647    7.8750   58.4820 12166.1004 14234.5410    2.7050    0.0090    0.0050    4.9340   18.0000   18.0000 
10950.5157 3337.7173    7.8750   54.6350 21900.4904 25629.6801    2.7220    0.0110    0.0020    4.9040   18.0000   18.0000 
10951.0157 3337.8696    7.8750   56.3530 23378.5900 30593.1898    2.7240   -0.0030   -0.0030    4.9490   18.0000   18.0000 
10951.5157 3338.0220    7.8750   97.0963 25453.5094 34350.1596    2.7263   -0.0010   -0.0026    4.7881   18.0000   18.0000 
10952.0157 3338.1743    7.8750  119.2190 21769.0689 28331.7774    2.7210   -0.0010   -0.0020    4.6520   18.0000   18.0000 
10952.5157 3338.3269    7.8750  122.9820 4900.9006 5987.6745    2.7160    0.0100    0.0050    4.2190   18.0000   18.0000 
10953.0157 3338.4792    7.8750  103.8230 1862.4580 2245.8168    2.6940    0.0120    0.0080    3.7390   18.0000   22.0000 
10953.5157 3338.6316    7.8750   80.3248 1385.6519 1632.5489    2.6954    0.0044    0.0076    3.7310   18.0000   22.0000 
10954.0157 3338.7839    7.8750   78.3460  951.4670 1129.1290    2.6990   -0.0070    0.0070    3.9040   18.0000   18.0000 
10954.5157 3338.9363    7.8750   78.7640  918.9550 1128.4771    2.7350   -0.0150    0.0080    4.2380   18.0000   18.0000 
10955.0157 3339.0889    7.8750   66.5600  941.5621 1196.9970    2.7650   -0.0200    0.0090    4.3070   18.0000   18.0000 
10955.5157 3339.2412    7.8750   40.9024 1489.5160 1972.4600    2.7776   -0.0090    0.0044    4.0998   18.0000   18.0000 
10956.0157 3339.3936    7.8750   29.2260 1423.0200 1923.9490    2.7740   -0.0060    0.0020    4.0540   18.0000   18.0000 
10956.5157 3339.5459    7.8750   25.4190 1446.2660 1942.4720    2.7560   -0.0020    0.0000    4.1760   18.0000   18.0000 
10957.0157 3339.6985    7.8750   26.5510 1490.9319 1933.7299    2.7510   -0.0020    0.0020    4.3050   18.0000   18.0000 
10957.5157 3339.8508    7.8750   27.0259  761.8657  979.3864    2.7362   -0.0038    0.0036    4.4734   18.0000   18.0000 
10958.0157 3340.0032    7.8750   25.4060  685.3180  876.3890    2.7320   -0.0050    0.0030    4.5020   18.0000   18.0000 
10958.5157 3340.1555    7.8750   26.1870  695.2081  867.7590    2.7250   -0.0060    0.0010    4.4890   18.0000   18.0000 
10959.0157 3340.3081    7.8750   31.9300 1302.1371 1639.4112    2.7270   -0.0050    0.0010    4.4310   18.0000   18.0000 
10959.5157 3340.4604    7.8750   57.0206 3104.8411 3910.6440    2.7094   -0.0044    0.0020    4.4824   18.0000   18.0000 
10960.0157 3340.6128    7.8750   76.0040 3135.4617 3901.3027    2.6950   -0.0050    0.0020    4.5410   18.0000   18.0000 
10960.5157 3340.7651    7.8750  106.3070  912.6430 1182.0269    2.6850   -0.0040    0.0030    4.5160   18.0000   22.0000 
10961.0157 3340.9175    7.8750  121.3120  660.3140  823.9680    2.6860   -0.0030    0.0090    4.3810   18.0000   22.0000 
10961.5157 3341.0701    7.8750   99.5207  671.7891  803.5787    2.6869   -0.0020    0.0172    4.0934   18.0000   18.0000 
10962.0157 3341.2224    7.8750   87.0380  820.6501  968.4370    2.6810   -0.0020    0.0160    3.9750   18.0000   18.0000 
10962.5157 3341.3748    7.8750   65.2750 1169.2921 1393.9751    2.6650   -0.0030    0.0060    3.8270   18.0000   18.0000 
10963.0157 3341.5271    7.8750   53.5700 2526.9933 3057.7225    2.6600   -0.0030    0.0000    3.7660   27.0000   18.0000 
10963.5157 3341.6797    7.8750   41.7387 7497.5309 9591.8009    2.6840   -0.0010    0.0014    3.8322   18.0000   18.0000 
10964.0157 3341.8320    7.8750   39.7800 8764.5478 11474.7196    2.6930   -0.0010    0.0020    3.8860   18.0000   18.0000 
10964.5157 3341.9844    7.8750   40.2040 8532.9820 10467.4399    2.6960   -0.0010    0.0030    3.9770   18.0000   18.0000 
10965.0157 3342.1367    7.8750   47.5920 3588.9150 4251.9301    2.6870   -0.0030    0.0040    4.1190   18.0000   18.0000 
10965.5157 3342.2893    7.8750   53.0731 2865.1722 3193.3640    2.7000   -0.0024    0.0064    4.3080   18.0000   18.0000 
10966.0157 3342.4417    7.8750   52.2200 3263.6070 3595.3011    2.7030   -0.0030    0.0070    4.4240   18.0000   18.0000 
10966.5157 3342.5940    7.8750   50.5490 3709.9460 4114.5708    2.7030   -0.0040    0.0060    4.5700   18.0000   18.0000 
10967.0157 3342.7463    7.8750   51.4020 3291.9579 3681.7470    2.6890   -0.0070    0.0060    4.6980   18.0000   18.0000 
10967.5157 3342.8987    7.8750   62.1965 2528.8010 2809.9470    2.6983   -0.0060    0.0066    4.5895   18.0000   18.0000 
10968.0157 3343.0513    7.8750   68.1750 2368.7940 2624.6231    2.7060   -0.0060    0.0060    4.5120   18.0000   22.0000 
10968.5157 3343.2036    7.8750   81.5180 2772.9041 3110.4121    2.7030   -0.0050    0.0050    4.4160   18.0000   22.0000 
10969.0157 3343.3560    7.8750   74.8140 3183.5631 3546.0841    2.6930   -0.0060    0.0050    4.3180   18.0000   22.0000 
10969.5157 3343.5083    7.8750   57.0537 4605.4599 5002.2612    2.6990   -0.0022    0.0046    4.1332   18.0000   22.0000 
10970.0157 3343.6609    7.8750   51.3300 4279.0208 4506.5296    2.7140   -0.0010    0.0040    4.0500   18.0000   18.0000 
10970.5157 3343.8132    7.8750   53.8390 1809.1040 1942.6670    2.7370    0.0000    0.0060    4.0960   18.0000   18.0000 
10971.0157 3343.9656    7.8750   50.9860 1347.5440 1454.1560    2.7450   -0.0010    0.0050    4.3020   18.0000   18.0000 
10971.5157 3344.1179    7.8750   36.7869 1686.6100 1845.2281    2.7394   -0.0026    0.0002    4.5993   18.0000   18.0000 
10972.0157 3344.2705    7.8750   30.6940 1963.0891 2172.6031    2.7400   -0.0020   -0.0010    4.6820   18.0000   18.0000 
10972.5157 3344.4229    7.8750   30.2160 2882.7131 3376.0671    2.7400    0.0000   -0.0030    4.7810   18.0000   18.0000 
10973.0157 3344.5752    7.8750   31.8660 4909.2978 5692.6581    2.7410    0.0000   -0.0030    4.8340   18.0000   18.0000 
10973.5157 3344.7275    7.8750   35.4849 4116.4177 4365.7409    2.7396   -0.0024   -0.0030    4.8483   18.0000   18.0000 
10974.0157 3344.8799    7.8750   33.9270 1140.3950 1258.0489    2.7420   -0.0030   -0.0030    4.8160   18.0000   18.0000 
10974.5157 3345.0325    7.8750   32.2770 1066.4383 1112.1853    2.7350   -0.0030    0.0000    4.7570   18.0000   18.0000 
10975.0157 3345.1848    7.8750   34.7200 4272.4528 3407.0556    2.6950   -0.0020    0.0090    4.5580   18.0000   18.0000 
10975.5157 3345.3372    7.8750   61.6967  145.9502  170.5322    2.5546    0.0307    0.0451    3.9218   27.0000   18.0000 
10976.0157 3345.4895    7.8750   80.5910   39.0100   57.4940    2.4720    0.0570    0.0690    3.5500   11.0000   18.0000 
10976.5157 3345.6421    7.8750  111.3180   22.1070   33.7350    2.3780    0.1670    0.1440    2.8610   37.0000   18.0000 
10977.0157 3345.7944    7.8750  130.1540   17.8120   27.7120    2.3010    0.2910    0.2160    2.2690   37.0000   18.0000 
10977.5157 3345.9468    7.8750  108.5120   14.1092   23.2596    2.0916    0.3257    0.3823    1.8987   11.0000   11.0000 
10978.0157 3346.0991    7.8750   94.1020   12.7120   21.4270    1.9500    0.2860    0.4670    1.8750   11.0000   11.0000 
10978.5157 3346.2517    7.8750   71.4430    8.9580   14.1430    1.7710    0.1560    0.4980    2.0610   11.0000   11.0000 
10979.0157 3346.4041    7.8750   51.1680    8.0250   11.8270    1.9340    0.0870    0.1760    2.5240   11.0000   11.0000 
10979.5157 3346.5564    7.8750   35.8128   86.1400  103.3415    2.4464    0.0676    0.0353    3.6291   11.0000   11.0000 
