~VERSION INFORMATION
 VERS.                 2.0:   CWLS LOG ASCII STANDARD - VERSION 2.0
 WRAP.                  NO:   SINGLE LINE PER DEPTH STEP
 CREA.                 11/12/2017 11:36:24
#CREATED USING DSPetro VERSION 5000.10.1.3 BY H191660 ON 11/12/2017 11:36:24
~WELL INFORMATION
#MNEM.UNIT       DATA                          DESCRIPTION MNEMONIC
#---------      ---------------------------   --------------------------
 STRT    .FT        199.0157                  : START DEPTH
 STOP    .FT        12624.5157                : STOP DEPTH
 STEP    .FT        0.5000                    : STEP VALUE
 NULL    .      -999.0000                     : NULL VALUE
 DATE    .      11/12/2017                    : LAS file Creation Date
 WELL .      U_TEXAS_36994_4200338767 : Well Name
 COMP .                               : Company
 FLD  .      MAGUTEX                  : Field
 UWI  .      KUSWL_338767             : Unique Well Identifier (UWI)
 LOC  .                               : Location
 RWS  .      -999                     : Def_Rw
 WST  .      -999                     : Def_Rwt
 SRVC .                               : Contractor
~CURVE INFORMATION
#MNEM              UNIT       API CODE   Curve Type Comments
#----------  --------------- ----------  ---------- -----------
 DEPTH      .FT                        : Depth       
 DEPTH_(m)  .                          :             
 BitSize    .in                        : BitSize     
 GR_API     .API                       : GammaRay    Gamma Ray (API) - Measures the intensity of natural gamma-ray radiation emitted from formations containing radioactive elements, such as K, Th and U
 LLD_OHMM   .ohmm                      :             Laterlog Deep Resistivity - Measurement made several feet into the formation; generally considered a measurement of the undisturbed formation
 LLS_OHMM   .ohmm                      :             Laterlog Shallow Resistivity - one to two feet into the formation; generally considered to measure the formation
 RHOB_G_CC  .g/cc                      :             Formation Density - Measures the density of formation, including any void space or other materials contained in the subject volume
 DRHO_G_CC  .g/cc                      :             Density Correction - Investigates the correction to the Bulk Density log; used as an indication of hole condition to validate the Bulk Density measure
 NPHI_v/v   .ratio                     :             Enhanced Thermal Neutron Porosity in Selected Lithology
 PEF_B_E    .b/e-                      : PEF         Photoelectric Factor - A log of photoelectric absorption properties. Often expressed in an approximation unit barns/electron (b/e-)
 LITH       .                          : Flag        
 LITH_v2    .                          : Flag        
~A  DEPTH DEPTH_(m)  BitSize    GR_API   LLD_OHMM  LLS_OHMM RHOB_G_C  DRHO_G_C   NPHI_v/v  PEF_B_E     LITH    LITH_v2  
# ...
5149.0157 1569.4200 -999.0000   43.4900 59999.9976 59999.9976    2.2840    0.2910    0.2280    9.8600 -999.0000    3.0000 
5149.5157 1569.5724 -999.0000   40.7640   83.2560   30.1064    2.3020    0.3010    0.2750    9.8390 -999.0000    3.0000 
5150.0157 1569.7249 -999.0000   33.1250  133.7210 59999.9976    2.3170    0.3030    0.2440    9.8100 -999.0000    3.0000 
5150.5157 1569.8772 -999.0000   33.5890  183.0944  327.6424    2.3320    0.3050    0.2720    9.7540 -999.0000    3.0000 
5151.0157 1570.0295 -999.0000   33.0180 60000.0000 60000.0000    2.3490    0.3170    0.2480    9.8000 -999.0000    3.0000 
5151.5157 1570.1820 -999.0000   34.3120 59999.9976 59999.9977    2.3490    0.3140    0.2480    9.7990 -999.0000    3.0000 
5152.0157 1570.3344 -999.0000   33.0570  140.7100  861.2154    2.3430    0.3070    0.2340    9.8320 -999.0000    3.0000 
5152.5157 1570.4868 -999.0000   37.1880 1139.1233 60000.0000    2.3410    0.3040    0.2520    9.8400 -999.0000    3.0000 
5153.0157 1570.6392 -999.0000   36.0860 60000.0000 59999.9976    2.3500    0.3170    0.2440    9.8640 -999.0000    3.0000 
5153.5157 1570.7916 -999.0000   33.1250 60000.0000  308.2214    2.3590    0.3280    0.2050    9.9020 -999.0000    3.0000 
5154.0157 1570.9440 -999.0000   28.6120 59999.9976 59999.9976    2.3540    0.3280    0.2020    9.9370 -999.0000    3.0000 
5154.5157 1571.0964 -999.0000   30.9210  313.7894  132.2560    2.3390    0.3140    0.1910    9.9910 -999.0000    3.0000 
5155.0157 1571.2488 -999.0000   34.7180 60000.0000  144.4644    2.3290    0.3080    0.2080    9.9920 -999.0000    3.0000 
5155.5157 1571.4012 -999.0000   38.4480 60000.0000 60000.0000    2.3270    0.3110    0.2130    9.9810 -999.0000    3.0000 
5156.0157 1571.5536 -999.0000   37.6140 60000.0000 60000.0000    2.3330    0.3230    0.2430    9.9720 -999.0000    3.0000 
5156.5157 1571.7061 -999.0000   37.7690 60000.0000 60000.0000    2.3330    0.3210    0.2490    9.9460 -999.0000    3.0000 
5157.0157 1571.8584 -999.0000   38.5530 59999.9976 59999.9978    2.3280    0.3110    0.2580    9.9180 -999.0000    3.0000 
5157.5157 1572.0107 -999.0000   35.7040   14.6640 5131.8367    2.3340    0.3100    0.2670    9.8750 -999.0000    3.0000 
5158.0157 1572.1632 -999.0000   37.1710  417.3134  412.5612    2.3400    0.3170    0.3180    9.8390 -999.0000    3.0000 
5158.5157 1572.3156 -999.0000   31.3660 59999.9999 5080.1311    2.3400    0.3170    0.2600    9.8070 -999.0000    3.0000 
5159.0157 1572.4680 -999.0000   25.8920 56870.5392 60000.0000    2.3600    0.3170    0.2340    9.7610 -999.0000    3.0000 
5159.5157 1572.6204 -999.0000   19.6380 59999.9976 60000.0000    2.3950    0.3190    0.2120    9.6710 -999.0000    3.0000 
5160.0157 1572.7728 -999.0000   17.4140  336.6001 59999.9976    2.4250    0.3300    0.2190    9.5080 -999.0000    3.0000 
5160.5157 1572.9252 -999.0000   20.7350 1463.4610  510.3524    2.4010    0.3330    0.1850    9.3260 -999.0000    3.0000 
5161.0157 1573.0776 -999.0000   21.2120   42.5670 60000.0000    2.3500    0.3330    0.1610    9.1250 -999.0000    3.0000 
5161.5157 1573.2300 -999.0000   23.4050 1138.2893 59999.9976    2.3210    0.3350    0.1690    8.9460 -999.0000    3.0000 
5162.0157 1573.3824 -999.0000   24.2680 59999.9982  452.6454    2.3190    0.3400    0.1910    8.8220 -999.0000    3.0000 
5162.5157 1573.5348 -999.0000   25.9120 14970.0795 59999.9976    2.3370    0.3460    0.1700    8.7660 -999.0000    3.0000 
5163.0157 1573.6873 -999.0000   26.5120  400.5730  215.0230    2.3350    0.3450    0.1750    8.7670 -999.0000    3.0000 
5163.5157 1573.8396 -999.0000   27.3160  126.1334 1537.4179    2.3250    0.3390    0.1830    8.7610 -999.0000    3.0000 
5164.0157 1573.9919 -999.0000   32.3380 60000.0000   59.9114    2.3020    0.3290    0.2190    8.7420 -999.0000    3.0000 
5164.5157 1574.1444 -999.0000   38.0450 60000.0000 60000.0000    2.2860    0.3190    0.2180    8.7250 -999.0000    3.0000 
5165.0157 1574.2968 -999.0000   45.1320 59999.9976 59999.9976    2.2800    0.3120    0.1840    8.6920 -999.0000    3.0000 
5165.5157 1574.4492 -999.0000   42.6220   31.9974   75.3504    2.2750    0.3050    0.1820    8.7020 -999.0000    3.0000 
5166.0157 1574.6016 -999.0000   37.4250 60000.0000 60000.0000    2.2750    0.3050    0.1920    8.7230 -999.0000    3.0000 
5166.5157 1574.7540 -999.0000   34.1840 59999.9976 60000.0000    2.2710    0.3020    0.1790    8.7390 -999.0000    3.0000 
5167.0157 1574.9064 -999.0000   34.9730  109.6114 60000.0000    2.2710    0.2990    0.1350    8.7380 -999.0000    3.0000 
5167.5157 1575.0588 -999.0000   37.2400 59999.9976 59999.9976    2.2760    0.2940    0.1330    8.7620 -999.0000    3.0000 
5168.0157 1575.2112 -999.0000   35.9370  203.1694  386.1844    2.2940    0.3120    0.1310    8.9410 -999.0000    3.0000 
5168.5157 1575.3636 -999.0000   35.5210 59999.9976 60000.0000    2.3130    0.3350    0.1340    9.1760 -999.0000    3.0000 
5169.0157 1575.5160 -999.0000   34.6840  257.6700 59999.9976    2.3300    0.3550    0.1140    9.4020 -999.0000    3.0000 
5169.5157 1575.6685 -999.0000   32.8350   49.4754   86.7814    2.3380    0.3530    0.1180    9.4780 -999.0000    3.0000 
5170.0157 1575.8208 -999.0000   29.1490 59999.9976 59999.9976    2.3420    0.3470    0.1090    9.5000 -999.0000    3.0000 
5170.5157 1575.9731 -999.0000   30.3590  486.1464   86.2830    2.3350    0.3380    0.1320    9.5110 -999.0000    3.0000 
5171.0157 1576.1256 -999.0000   33.8810 59999.9976 1260.9501    2.3230    0.3310    0.1290    9.5230 -999.0000    3.0000 
5171.5157 1576.2780 -999.0000   37.6140   28.7864 5426.7640    2.3240    0.3270    0.1470    9.5560 -999.0000    3.0000 
5172.0157 1576.4304 -999.0000   33.8620 60000.0000  226.4094    2.3270    0.3270    0.1310    9.6230 -999.0000    3.0000 
5172.5157 1576.5828 -999.0000   34.6990 60000.0000 60000.0000    2.3350    0.3300    0.1250    9.6950 -999.0000    3.0000 
5173.0157 1576.7352 -999.0000   37.2290 60000.0000 59999.9976    2.3350    0.3310    0.1210    9.7100 -999.0000    3.0000 
5173.5157 1576.8876 -999.0000   37.6780 59999.9976   77.8794    2.3410    0.3340    0.1240    9.6990 -999.0000    3.0000 
5174.0157 1577.0400 -999.0000   35.1260  350.8174 59999.9976    2.3540    0.3380    0.1230    9.7070 -999.0000    3.0000 
5174.5157 1577.1924 -999.0000   30.0860 59999.9976  299.1620    2.3650    0.3400    0.1370    9.7820 -999.0000    3.0000 
5175.0157 1577.3448 -999.0000   33.8510   60.6931  135.4840    2.3680    0.3300    0.1400    9.8270 -999.0000    3.0000 
5175.5157 1577.4972 -999.0000   32.1840 1435.1920  897.3463    2.3580    0.3240    0.1690    9.8640 -999.0000    3.0000 
5176.0157 1577.6497 -999.0000   36.1070   98.5614 59999.9977    2.3510    0.3230    0.1870    9.8980 -999.0000    3.0000 
5176.5157 1577.8020 -999.0000   32.3410 59999.9977 2107.2428    2.3380    0.3240    0.1750    9.9440 -999.0000    3.0000 
5177.0157 1577.9543 -999.0000   31.5400 2985.5920  258.8264    2.3450    0.3280    0.1210    9.9560 -999.0000    3.0000 
5177.5157 1578.1068 -999.0000   27.9960  960.4990 60000.0000    2.3520    0.3270    0.0960    9.9500 -999.0000    3.0000 
5178.0157 1578.2592 -999.0000   29.6700  146.3644 60000.0000    2.3760    0.3300    0.0920    9.9500 -999.0000    3.0000 
5178.5157 1578.4116 -999.0000   33.8550 59999.9976 60000.0000    2.3800    0.3250    0.1060    9.9800 -999.0000    3.0000 
5179.0157 1578.5640 -999.0000   32.3710  685.9114 60000.0000    2.3930    0.3250    0.1180   10.0000 -999.0000    3.0000 
5179.5157 1578.7164 -999.0000   32.7480 60000.0000 60000.0000    2.4010    0.3180    0.1360   10.0000 -999.0000    3.0000 
5180.0157 1578.8688 -999.0000   31.0750 59999.9977 60000.0000    2.3990    0.3020    0.1260   10.0000 -999.0000    3.0000 
5180.5157 1579.0212 -999.0000   27.9950 1527.1660 59999.9976    2.3700    0.2730    0.1300   10.0000 -999.0000    3.0000 
5181.0157 1579.1736 -999.0000   28.4120  278.7354  377.9470    2.3450    0.2570    0.1420   10.0000 -999.0000    3.0000 
5181.5157 1579.3260 -999.0000   27.1560 60000.0000  139.0000    2.3390    0.2580    0.1600   10.0000 -999.0000    3.0000 
