~VERSION INFORMATION
 VERS.                 2.0:   CWLS LOG ASCII STANDARD - VERSION 2.0
 WRAP.                  NO:   SINGLE LINE PER DEPTH STEP
 CREA.                 11/12/2017 11:36:24
#CREATED USING DSPetro VERSION 5000.10.1.3 BY H191660 ON 11/12/2017 11:36:24
~WELL INFORMATION
#MNEM.UNIT       DATA                          DESCRIPTION MNEMONIC
#---------      ---------------------------   --------------------------
 STRT    .FT        199.0157                  : START DEPTH
 STOP    .FT        12624.5157                : STOP DEPTH
 STEP    .FT        0.5000                    : STEP VALUE
 NULL    .      -999.0000                     : NULL VALUE
 DATE    .      11/12/2017                    : LAS file Creation Date
 WELL .      U_TEXAS_36994_4200338767 : Well Name
 COMP .                               : Company
 FLD  .      MAGUTEX                  : Field
 UWI  .      KUSWL_338767             : Unique Well Identifier (UWI)
 LOC  .                               : Location
 RWS  .      -999                     : Def_Rw
 WST  .      -999                     : Def_Rwt
 SRVC .                               : Contractor
~CURVE INFORMATION
#MNEM              UNIT       API CODE   Curve Type Comments
#----------  --------------- ----------  ---------- -----------
 DEPTH      .FT                        : Depth       
 DEPTH_(m)  .                          :             
 BitSize    .in                        : BitSize     
 GR_API     .API                       : GammaRay    Gamma Ray (API) - Measures the intensity of natural gamma-ray radiation emitted from formations containing radioactive elements, such as K, Th and U
 LLD_OHMM   .ohmm                      :             Laterlog Deep Resistivity - Measurement made several feet into the formation; generally considered a measurement of the undisturbed formation
 LLS_OHMM   .ohmm                      :             Laterlog Shallow Resistivity - one to two feet into the formation; generally considered to measure the formation
 RHOB_G_CC  .g/cc                      :             Formation Density - Measures the density of formation, including any void space or other materials contained in the subject volume
 DRHO_G_CC  .g/cc                      :             Density Correction - Investigates the correction to the Bulk Density log; used as an indication of hole condition to validate the Bulk Density measure
 NPHI_v/v   .ratio                     :             Enhanced Thermal Neutron Porosity in Selected Lithology
 PEF_B_E    .b/e-                      : PEF         Photoelectric Factor - A log of photoelectric absorption properties. Often expressed in an approximation unit barns/electron (b/e-)
 LITH       .                          : Flag        
 LITH_v2    .                          : Flag        
~A  DEPTH DEPTH_(m)  BitSize    GR_API   LLD_OHMM  LLS_OHMM RHOB_G_C  DRHO_G_C   NPHI_v/v  PEF_B_E     LITH    LITH_v2  
# ...
8449.0157 2575.2600    7.8750  119.0710  139.9950  164.7960    2.5000   -0.0030    0.2500    3.3280   37.0000   37.0000 
8449.5157 2575.4124    7.8750  112.7690  179.2140  206.9831    2.5277   -0.0056    0.2278    3.5413   37.0000   37.0000 
8450.0157 2575.5647    7.8750  111.4830  187.8780  215.6070    2.5510   -0.0050    0.2200    3.6060   37.0000   37.0000 
8450.5157 2575.7173    7.8750  124.4520  193.9860  219.5410    2.5530   -0.0070    0.2620    3.6820   37.0000   37.0000 
8451.0157 2575.8696    7.8750  134.7200  207.9600  231.3670    2.5120   -0.0090    0.2720    3.6510   37.0000   37.0000 
8451.5157 2576.0220    7.8750  139.1828  244.7210  271.7289    2.4709   -0.0090    0.2713    3.4902   37.0000   37.0000 
8452.0157 2576.1743    7.8750  139.8460  243.3370  271.4050    2.4650   -0.0090    0.2570    3.4320   37.0000   37.0000 
8452.5157 2576.3269    7.8750  137.3190  193.6210  222.2320    2.4760   -0.0060    0.2520    3.3640   37.0000   37.0000 
8453.0157 2576.4792    7.8750  140.9480  135.5780  158.2050    2.4690   -0.0080    0.2550    3.3970   37.0000   37.0000 
8453.5157 2576.6316    7.8750  142.9625  103.0016  122.5053    2.4888   -0.0052    0.2632    3.2761   37.0000   37.0000 
8454.0157 2576.7839    7.8750  144.9640   96.2050  115.9560    2.5020   -0.0040    0.2710    3.2240   37.0000   37.0000 
8454.5157 2576.9363    7.8750  142.2960   72.5500   88.1170    2.5250   -0.0010    0.2610    3.1630   37.0000   37.0000 
8455.0157 2577.0889    7.8750  127.7770   65.6590   80.2410    2.5320   -0.0010    0.2590    3.2250   37.0000   37.0000 
8455.5157 2577.2412    7.8750  104.3501   82.1667  100.0286    2.5332   -0.0044    0.2080    3.4748   37.0000   37.0000 
8456.0157 2577.3936    7.8750   96.9980  101.5630  123.3160    2.5380   -0.0050    0.1890    3.5830   37.0000   37.0000 
8456.5157 2577.5459    7.8750  111.9080   72.1620   87.8530    2.5440   -0.0050    0.1900    3.6560   37.0000   37.0000 
8457.0157 2577.6985    7.8750  133.1560   56.7550   69.8500    2.5360   -0.0040    0.2250    3.6010   37.0000   37.0000 
8457.5157 2577.8508    7.8750  140.5802   82.7849  100.4561    2.5055   -0.0054    0.2648    3.5160   37.0000   37.0000 
8458.0157 2578.0032    7.8750  135.0060  117.9540  142.8240    2.4900   -0.0060    0.2660    3.5190   37.0000   37.0000 
8458.5157 2578.1555    7.8750  127.3800  149.8870  181.6070    2.4770   -0.0080    0.2520    3.5560   37.0000   37.0000 
8459.0157 2578.3081    7.8750  118.7160  161.2810  197.3730    2.4800   -0.0060    0.2510    3.5820   37.0000   37.0000 
8459.5157 2578.4604    7.8750  120.3605  193.2957  238.7272    2.4980    0.0050    0.2692    3.6055   37.0000   37.0000 
8460.0157 2578.6128    7.8750  124.1720  202.7350  250.9350    2.5010    0.0050    0.2710    3.6270   37.0000   37.0000 
8460.5157 2578.7651    7.8750  135.9390  198.8470  244.2130    2.5050    0.0060    0.2690    3.5360   37.0000   37.0000 
8461.0157 2578.9175    7.8750  139.7670  158.8220  191.4870    2.4930   -0.0040    0.2660    3.4420   37.0000   37.0000 
8461.5157 2579.0701    7.8750  141.5764  123.2021  146.5244    2.4812   -0.0068    0.2761    3.3774   37.0000   37.0000 
8462.0157 2579.2224    7.8750  137.7940  116.5410  137.9930    2.4800   -0.0080    0.2660    3.3780   37.0000   37.0000 
8462.5157 2579.3748    7.8750  133.0040  132.1440  156.3990    2.4900   -0.0080    0.2320    3.4040   37.0000   37.0000 
8463.0157 2579.5271    7.8750  110.6970  170.3500  203.1000    2.5060   -0.0070    0.2140    3.4880   37.0000   37.0000 
8463.5157 2579.6797    7.8750   89.6380  268.2800  328.6692    2.5307   -0.0084    0.1599    3.8800   18.0000   22.0000 
8464.0157 2579.8320    7.8750   84.3080  332.0230  410.5170    2.5480   -0.0090    0.1420    4.0690   18.0000   22.0000 
8464.5157 2579.9844    7.8750   92.6960  604.7790  772.7970    2.5700   -0.0060    0.1400    4.2910   18.0000   22.0000 
8465.0157 2580.1367    7.8750  112.2340  627.1250  820.8010    2.5590   -0.0040    0.1740    4.2170   18.0000   22.0000 
8465.5157 2580.2893    7.8750  127.8446  346.4292  454.3719    2.5064   -0.0038    0.2201    3.7308   37.0000   37.0000 
8466.0157 2580.4417    7.8750  130.0850  312.6010  407.2210    2.4850   -0.0050    0.2290    3.5160   37.0000   37.0000 
8466.5157 2580.5940    7.8750  128.7490  318.2850  411.2030    2.4720   -0.0090    0.2320    3.3880   37.0000   37.0000 
8467.0157 2580.7463    7.8750  118.7220  316.5540  405.3230    2.4830   -0.0130    0.2200    3.5540   37.0000   37.0000 
8467.5157 2580.8987    7.8750  113.3840  223.2374  286.2255    2.5376   -0.0108    0.1941    3.8718   37.0000   37.0000 
8468.0157 2581.0513    7.8750  109.4230  145.0090  189.9000    2.5630   -0.0090    0.1900    3.9860   37.0000   37.0000 
8468.5157 2581.2036    7.8750  116.5850  117.5920  157.1610    2.5820   -0.0060    0.1950    4.0640   37.0000   37.0000 
8469.0157 2581.3560    7.8750  116.8880  116.4050  156.4570    2.5770   -0.0040    0.2270    4.0150   37.0000   37.0000 
8469.5157 2581.5083    7.8750  121.3825  141.3507  189.8109    2.5504   -0.0036    0.2214    3.8115   37.0000   37.0000 
8470.0157 2581.6609    7.8750  119.6690  114.9940  155.0950    2.5450   -0.0030    0.2160    3.6810   37.0000   37.0000 
8470.5157 2581.8132    7.8750  112.4430   87.8040  118.4570    2.5480   -0.0020    0.1830    3.4420   37.0000   37.0000 
8471.0157 2581.9656    7.8750  109.8170   70.4600   94.5230    2.5560   -0.0010    0.1700    3.2140   37.0000   37.0000 
8471.5157 2582.1179    7.8750  114.3923   62.2953   83.2010    2.5373   -0.0036    0.1642    3.1057   37.0000   37.0000 
8472.0157 2582.2705    7.8750  118.6530   58.4880   77.9350    2.5230   -0.0060    0.1690    3.1140   37.0000   37.0000 
8472.5157 2582.4229    7.8750  120.8660   61.5410   81.2190    2.5090   -0.0080    0.1830    3.2040   37.0000   37.0000 
8473.0157 2582.5752    7.8750  116.5630   59.5500   77.0510    2.5240   -0.0060    0.1850    3.2400   37.0000   37.0000 
8473.5157 2582.7275    7.8750  112.5645   56.1384   72.4080    2.5578   -0.0012    0.1826    3.1841   37.0000   37.0000 
8474.0157 2582.8799    7.8750  111.2880   57.4460   74.1820    2.5680    0.0000    0.1760    3.1380   37.0000   37.0000 
8474.5157 2583.0325    7.8750  112.1740   62.6420   80.6200    2.5650    0.0000    0.1830    3.0810   37.0000   37.0000 
8475.0157 2583.1848    7.8750  113.9670   65.7880   84.3950    2.5530   -0.0020    0.1770    3.0480   37.0000   37.0000 
8475.5157 2583.3372    7.8750  116.1837   68.7439   87.0620    2.5514   -0.0052    0.1806    3.0222   37.0000   37.0000 
8476.0157 2583.4895    7.8750  119.2270   70.5730   88.6300    2.5490   -0.0070    0.1830    3.0420   37.0000   37.0000 
8476.5157 2583.6421    7.8750  125.9960   64.6110   79.9920    2.5420   -0.0100    0.2050    3.0690   37.0000   37.0000 
8477.0157 2583.7944    7.8750  130.1250   59.2810   72.0110    2.5300   -0.0110    0.1950    3.0690   37.0000   37.0000 
8477.5157 2583.9468    7.8750  145.6639   71.5285   83.9986    2.5197   -0.0078    0.2035    3.0392   37.0000   37.0000 
8478.0157 2584.0991    7.8750  152.4670   80.6060   93.4730    2.5150   -0.0060    0.2130    3.0510   37.0000   37.0000 
8478.5157 2584.2517    7.8750  172.5630   90.8490  104.1250    2.5070   -0.0040    0.2500    3.1080   37.0000   37.0000 
8479.0157 2584.4041    7.8750  175.3140   94.7240  108.3140    2.4920   -0.0040    0.2370    3.1910   37.0000   37.0000 
8479.5157 2584.5564    7.8750  172.4018   96.7437  110.7190    2.4838   -0.0044    0.2426    3.1962   37.0000   37.0000 
8480.0157 2584.7087    7.8750  163.5240   95.6780  109.5910    2.4820   -0.0050    0.2540    3.1890   37.0000   37.0000 
8480.5157 2584.8611    7.8750  154.7920   83.2840   95.6580    2.4870   -0.0070    0.2620    3.1810   37.0000   37.0000 
8481.0157 2585.0137    7.8750  132.3330   63.1680   73.1250    2.5080   -0.0070    0.2250    3.1430   37.0000   37.0000 
8481.5157 2585.1660    7.8750  122.1781   47.0787   55.2735    2.5327   -0.0080    0.1871    3.0975   37.0000   37.0000 
8482.0157 2585.3184    7.8750  120.0430   43.9930   51.8130    2.5410   -0.0080    0.1800    3.0660   37.0000   37.0000 
