~VERSION INFORMATION
 VERS.                 2.0:   CWLS LOG ASCII STANDARD - VERSION 2.0
 WRAP.                  NO:   SINGLE LINE PER DEPTH STEP
 CREA.                 11/12/2017 11:36:24
#CREATED USING DSPetro VERSION 5000.10.1.3 BY H191660 ON 11/12/2017 11:36:24
~WELL INFORMATION
#MNEM.UNIT       DATA                          DESCRIPTION MNEMONIC
#---------      ---------------------------   --------------------------
 STRT    .FT        199.0157                  : START DEPTH
 STOP    .FT        12624.5157                : STOP DEPTH
 STEP    .FT        0.5000                    : STEP VALUE
 NULL    .      -999.0000                     : NULL VALUE
 DATE    .      11/12/2017                    : LAS file Creation Date
 WELL .      U_TEXAS_36994_4200338767 : Well Name
 COMP .                               : Company
 FLD  .      MAGUTEX                  : Field
 UWI  .      KUSWL_338767             : Unique Well Identifier (UWI)
 LOC  .                               : Location
 RWS  .      -999                     : Def_Rw
 WST  .      -999                     : Def_Rwt
 SRVC .                               : Contractor
~CURVE INFORMATION
#MNEM              UNIT       API CODE   Curve Type Comments
#----------  --------------- ----------  ---------- -----------
 DEPTH      .FT                        : Depth       
 DEPTH_(m)  .                          :             
 BitSize    .in                        : BitSize     
 GR_API     .API                       : GammaRay    Gamma Ray (API) - Measures the intensity of natural gamma-ray radiation emitted from formations containing radioactive elements, such as K, Th and U
 LLD_OHMM   .ohmm                      :             Laterlog Deep Resistivity - Measurement made several feet into the formation; generally considered a measurement of the undisturbed formation
 LLS_OHMM   .ohmm                      :             Laterlog Shallow Resistivity - one to two feet into the formation; generally considered to measure the formation
 RHOB_G_CC  .g/cc                      :             Formation Density - Measures the density of formation, including any void space or other materials contained in the subject volume
 DRHO_G_CC  .g/cc                      :             Density Correction - Investigates the correction to the Bulk Density log; used as an indication of hole condition to validate the Bulk Density measure
 NPHI_v/v   .ratio                     :             Enhanced Thermal Neutron Porosity in Selected Lithology
 PEF_B_E    .b/e-                      : PEF         Photoelectric Factor - A log of photoelectric absorption properties. Often expressed in an approximation unit barns/electron (b/e-)
 LITH       .                          : Flag        
 LITH_v2    .                          : Flag        
~A  DEPTH DEPTH_(m)  BitSize    GR_API   LLD_OHMM  LLS_OHMM RHOB_G_C  DRHO_G_C   NPHI_v/v  PEF_B_E     LITH    LITH_v2  
# ...
4324.0157 1317.9600 -999.0000   37.8190  111.1570  743.7759    2.0490    0.1650    0.2210    8.4630 -999.0000    3.0000 
4324.5157 1318.1124 -999.0000   37.3610 59999.9980 59999.9980    2.0580    0.1700    0.2300    8.3560 -999.0000    3.0000 
4325.0157 1318.2648 -999.0000   31.2160    7.6160  827.4810    2.0580    0.1750    0.2490    8.2680 -999.0000    3.0000 
4325.5157 1318.4172 -999.0000   33.2590  609.6450 60000.0000    2.0470    0.1790    0.2540    8.2470 -999.0000    3.0000 
4326.0157 1318.5696 -999.0000   33.3370 60000.0000 59999.9980    2.0280    0.1760    0.2310    8.2250 -999.0000    3.0000 
4326.5157 1318.7220 -999.0000   33.2900 59999.9980  171.0150    2.0210    0.1760    0.2250    8.2510 -999.0000    3.0000 
4327.0157 1318.8744 -999.0000   30.8290  699.5600  150.4300    2.0240    0.1830    0.2370    8.2920 -999.0000    3.0000 
4327.5157 1319.0269 -999.0000   30.3340   82.3630 60000.0000    2.0230    0.1930    0.2500    8.3530 -999.0000    3.0000 
4328.0157 1319.1792 -999.0000   29.8220 60000.0000 59999.9980    2.0220    0.1960    0.2690    8.3250 -999.0000    3.0000 
4328.5157 1319.3315 -999.0000   28.1140 60000.0000  215.4100    2.0200    0.1960    0.2530    8.2460 -999.0000    3.0000 
4329.0157 1319.4840 -999.0000   28.1890 60000.0000 59999.9980    2.0200    0.1980    0.3130    8.1920 -999.0000    3.0000 
4329.5157 1319.6364 -999.0000   28.7010 60000.0000   99.8920    2.0270    0.2040    0.2920    8.1570 -999.0000    3.0000 
4330.0157 1319.7888 -999.0000   30.8270 59999.9980 59999.9980    2.0270    0.2030    0.2920    8.1430 -999.0000    3.0000 
4330.5157 1319.9412 -999.0000   31.1690  152.1260  239.3920    2.0220    0.1950    0.2620    8.0700 -999.0000    3.0000 
4331.0157 1320.0936 -999.0000   35.1270 59999.9980 60000.0000    2.0100    0.1870    0.2730    8.0240 -999.0000    3.0000 
4331.5157 1320.2460 -999.0000   36.8000   30.9100 60000.0000    2.0060    0.1850    0.2810    7.9500 -999.0000    3.0000 
4332.0157 1320.3984 -999.0000   43.9530 60000.0000 60000.0000    2.0150    0.1910    0.3210    7.8870 -999.0000    3.0000 
4332.5157 1320.5508 -999.0000   44.9980 59999.9980 59999.9980    2.0310    0.1970    0.2900    7.8250 -999.0000    3.0000 
4333.0157 1320.7032 -999.0000   46.2530  306.0660  172.4741    2.0380    0.1980    0.2840    7.7820 -999.0000    3.0000 
4333.5157 1320.8556 -999.0000   38.2670 60000.0000 2825.8830    2.0380    0.1970    0.2410    7.7860 -999.0000    3.0000 
4334.0157 1321.0081 -999.0000   37.7810 60000.0000 60000.0000    2.0370    0.1940    0.2240    7.7800 -999.0000    3.0000 
4334.5157 1321.1604 -999.0000   36.9440 59999.9980 60000.0000    2.0340    0.1940    0.2090    7.7890 -999.0000    3.0000 
4335.0157 1321.3127 -999.0000   42.4190  507.3910 59999.9980    2.0350    0.1940    0.2110    7.7850 -999.0000    3.0000 
4335.5157 1321.4652 -999.0000   39.6260 59999.9980  555.2150    2.0280    0.1920    0.1850    7.7810 -999.0000    3.0000 
4336.0157 1321.6176 -999.0000   41.6610   63.1070  685.6959    2.0210    0.1880    0.1800    7.7920 -999.0000    3.0000 
4336.5157 1321.7700 -999.0000   42.0790 60000.0000 59999.9980    2.0140    0.1800    0.1640    7.7570 -999.0000    3.0000 
4337.0157 1321.9224 -999.0000   48.6940 59999.9980  446.8051    2.0170    0.1800    0.1940    7.7460 -999.0000    3.0000 
4337.5157 1322.0748 -999.0000   48.3330  417.6130 3379.2738    2.0270    0.1850    0.2450    7.7400 -999.0000    3.0000 
4338.0157 1322.2272 -999.0000   50.0820    2.5920 59999.9980    2.0390    0.1930    0.2980    7.7800 -999.0000    3.0000 
4338.5157 1322.3796 -999.0000   46.1550  149.7840  226.0110    2.0420    0.1940    0.4090    7.8100 -999.0000    3.0000 
4339.0157 1322.5320 -999.0000   49.0170  105.2380  215.3236    2.0390    0.1940    0.4240    7.8370 -999.0000    3.0000 
4339.5157 1322.6844 -999.0000   46.3100 59999.9980 19494.3802    2.0350    0.1950    0.3830    7.8560 -999.0000    3.0000 
4340.0157 1322.8368 -999.0000   45.3730  510.9690  326.8431    2.0370    0.1980    0.3170    7.9060 -999.0000    3.0000 
4340.5157 1322.9893 -999.0000   44.6680  180.2870 2226.8310    2.0420    0.1990    0.2570    7.9340 -999.0000    3.0000 
4341.0157 1323.1416 -999.0000   40.7050   12.8040 60000.0000    2.0370    0.1940    0.2220    7.9420 -999.0000    3.0000 
4341.5157 1323.2939 -999.0000   44.5190 60000.0000 60000.0000    2.0280    0.1870    0.2250    7.8910 -999.0000    3.0000 
4342.0157 1323.4464 -999.0000   38.5540 59999.9980 59999.9980    2.0150    0.1790    0.2270    7.8440 -999.0000    3.0000 
4342.5157 1323.5988 -999.0000   37.4900  182.0310  166.1570    2.0060    0.1750    0.2300    7.8370 -999.0000    3.0000 
4343.0157 1323.7512 -999.0000   29.5070  118.6110  353.7470    2.0070    0.1790    0.2310    7.9020 -999.0000    3.0000 
4343.5157 1323.9036 -999.0000   24.1310 60000.0000   16.8700    2.0050    0.1870    0.2360    7.9890 -999.0000    3.0000 
4344.0157 1324.0560 -999.0000   28.5310 60000.0000 60000.0000    2.0090    0.1920    0.2470    8.0090 -999.0000    3.0000 
4344.5157 1324.2084 -999.0000   32.7480 59999.9981 59999.9981    2.0090    0.1940    0.2580    7.9890 -999.0000    3.0000 
4345.0157 1324.3608 -999.0000   38.1230 1703.8459 1202.0260    2.0130    0.1940    0.2340    7.9710 -999.0000    3.0000 
4345.5157 1324.5132 -999.0000   33.7240 59999.9980  863.2400    2.0170    0.1980    0.2630    8.0470 -999.0000    3.0000 
4346.0157 1324.6656 -999.0000   30.7950  291.5800 2620.2409    2.0180    0.2000    0.2670    8.1490 -999.0000    3.0000 
4346.5157 1324.8180 -999.0000   25.8160   34.5320   62.1460    2.0380    0.2080    0.3020    8.2450 -999.0000    3.0000 
4347.0157 1324.9705 -999.0000   21.3220 59999.9980  211.9150    2.0690    0.2220    0.2020    8.3040 -999.0000    3.0000 
4347.5157 1325.1228 -999.0000   16.3000  195.6460  246.9230    2.1030    0.2400    0.1240    8.3350 -999.0000    3.0000 
4348.0157 1325.2751 -999.0000   19.1950 60000.0000 60000.0000    2.1090    0.2450    0.0760    8.3010 -999.0000    3.0000 
4348.5157 1325.4276 -999.0000   22.0130 59999.9980 59999.9981    2.0970    0.2340    0.0610    8.2270 -999.0000    3.0000 
4349.0157 1325.5800 -999.0000   24.9420  435.7480 1764.9911    2.0810    0.2170    0.0570    8.1560 -999.0000    3.0000 
4349.5157 1325.7324 -999.0000   23.7210 60000.0000 4774.1527    2.0820    0.2140    0.0550    8.1550 -999.0000    3.0000 
4350.0157 1325.8848 -999.0000   22.6040 59999.9980 1491.8010    2.0860    0.2190    0.0560    8.1890 -999.0000    3.0000 
4350.5157 1326.0372 -999.0000   20.0730   64.0740   53.2440    2.0930    0.2270    0.0490    8.2490 -999.0000    3.0000 
4351.0157 1326.1896 -999.0000   19.6260  142.3520  292.0420    2.0990    0.2300    0.0520    8.2800 -999.0000    3.0000 
4351.5157 1326.3420 -999.0000   19.0680  260.1030 1523.4320    2.1090    0.2330    0.0550    8.3090 -999.0000    3.0000 
4352.0157 1326.4944 -999.0000   22.0170 59999.9980  513.9849    2.1190    0.2320    0.0650    8.2830 -999.0000    3.0000 
4352.5157 1326.6469 -999.0000   17.8610  776.7620 60000.0000    2.1170    0.2260    0.0710    8.2760 -999.0000    3.0000 
4353.0157 1326.7992 -999.0000   18.9780   53.0090 60000.0000    2.1100    0.2150    0.0620    8.2380 -999.0000    3.0000 
4353.5157 1326.9517 -999.0000   18.9470 60000.0000 60000.0000    2.1010    0.2060    0.0660    8.2150 -999.0000    3.0000 
4354.0157 1327.1040 -999.0000   26.7720 59999.9980 59999.9980    2.1090    0.2050    0.0790    8.1730 -999.0000    3.0000 
4354.5157 1327.2563 -999.0000   29.9320   77.8660   43.2190    2.1130    0.2070    0.1170    8.1890 -999.0000    3.0000 
4355.0157 1327.4088 -999.0000   32.0550  160.8650  575.1070    2.1180    0.2040    0.1430    8.1960 -999.0000    3.0000 
4355.5157 1327.5612 -999.0000   33.1110  231.8480 60000.0000    2.1420    0.2050    0.1850    8.2530 -999.0000    3.0000 
4356.0157 1327.7136 -999.0000   35.7100 60000.0000 60000.0000    2.1910    0.2140    0.1880    8.3020 -999.0000    3.0000 
4356.5157 1327.8660 -999.0000   39.8400 59999.9980 59999.9980    2.2320    0.2320    0.1890    8.3240 -999.0000    3.0000 
