~VERSION INFORMATION
 VERS.                 2.0:   CWLS LOG ASCII STANDARD - VERSION 2.0
 WRAP.                  NO:   SINGLE LINE PER DEPTH STEP
 CREA.                 11/12/2017 11:36:24
#CREATED USING DSPetro VERSION 5000.10.1.3 BY H191660 ON 11/12/2017 11:36:24
~WELL INFORMATION
#MNEM.UNIT       DATA                          DESCRIPTION MNEMONIC
#---------      ---------------------------   --------------------------
 STRT    .FT        199.0157                  : START DEPTH
 STOP    .FT        12624.5157                : STOP DEPTH
 STEP    .FT        0.5000                    : STEP VALUE
 NULL    .      -999.0000                     : NULL VALUE
 DATE    .      11/12/2017                    : LAS file Creation Date
 WELL .      U_TEXAS_36994_4200338767 : Well Name
 COMP .                               : Company
 FLD  .      MAGUTEX                  : Field
 UWI  .      KUSWL_338767             : Unique Well Identifier (UWI)
 LOC  .                               : Location
 RWS  .      -999                     : Def_Rw
 WST  .      -999                     : Def_Rwt
 SRVC .                               : Contractor
~CURVE INFORMATION
#MNEM              UNIT       API CODE   Curve Type Comments
#----------  --------------- ----------  ---------- -----------
 DEPTH      .FT                        : Depth       
 DEPTH_(m)  .                          :             
 BitSize    .in                        : BitSize     
 GR_API     .API                       : GammaRay    Gamma Ray (API) - Measures the intensity of natural gamma-ray radiation emitted from formations containing radioactive elements, such as K, Th and U
 LLD_OHMM   .ohmm                      :             Laterlog Deep Resistivity - Measurement made several feet into the formation; generally considered a measurement of the undisturbed formation
 LLS_OHMM   .ohmm                      :             Laterlog Shallow Resistivity - one to two feet into the formation; generally considered to measure the formation
 RHOB_G_CC  .g/cc                      :             Formation Density - Measures the density of formation, including any void space or other materials contained in the subject volume
 DRHO_G_CC  .g/cc                      :             Density Correction - Investigates the correction to the Bulk Density log; used as an indication of hole condition to validate the Bulk Density measure
 NPHI_v/v   .ratio                     :             Enhanced Thermal Neutron Porosity in Selected Lithology
 PEF_B_E    .b/e-                      : PEF         Photoelectric Factor - A log of photoelectric absorption properties. Often expressed in an approximation unit barns/electron (b/e-)
 LITH       .                          : Flag        
 LITH_v2    .                          : Flag        
~A  DEPTH DEPTH_(m)  BitSize    GR_API   LLD_OHMM  LLS_OHMM RHOB_G_C  DRHO_G_C   NPHI_v/v  PEF_B_E     LITH    LITH_v2  
 199.0157   60.6600 -999.0000   30.6730 60000.0000  224.2750    2.3480    0.2910    0.9940   10.0000 -999.0000 -999.0000 
 199.5157   60.8124 -999.0000   30.6730 60000.0000  224.2750    2.3480    0.2910    0.9940   10.0000 -999.0000 -999.0000 
 200.0157   60.9648 -999.0000   30.6730 60000.0000  224.2750    2.3480    0.2910    0.9940   10.0000 -999.0000 -999.0000 
 200.5157   61.1172 -999.0000   30.6730 60000.0000  224.2750    2.3480    0.2910    0.9940   10.0000 -999.0000 -999.0000 
 201.0157   61.2696 -999.0000   30.6730 60000.0000  224.2750    2.3480    0.2910    0.9940   10.0000 -999.0000 -999.0000 
 201.5157   61.4220 -999.0000   30.6730 60000.0000  224.2750    2.3480    0.2910    0.9940   10.0000 -999.0000 -999.0000 
 202.0157   61.5744 -999.0000   30.6730 60000.0000  224.2750    2.3480    0.2910    0.9940   10.0000 -999.0000 -999.0000 
 202.5157   61.7268 -999.0000   30.6730 60000.0000  224.2750    2.3480    0.2910    0.9940   10.0000 -999.0000 -999.0000 
 203.0157   61.8792 -999.0000   30.6730 60000.0000  224.2750    2.3480    0.2910    0.9940   10.0000 -999.0000 -999.0000 
 203.5157   62.0316 -999.0000   30.6730 60000.0000  224.2750    2.3480    0.2910    0.9940   10.0000 -999.0000 -999.0000 
 204.0157   62.1840 -999.0000   30.6730 60000.0000  224.2750    2.3480    0.2910    0.9940   10.0000 -999.0000 -999.0000 
 204.5157   62.3364 -999.0000   30.6730 60000.0000  224.2750    2.3480    0.2910    0.9940   10.0000 -999.0000 -999.0000 
 205.0157   62.4888 -999.0000   30.6730 60000.0000  224.2750    2.3480    0.2910    0.9940   10.0000 -999.0000 -999.0000 
 205.5157   62.6412 -999.0000   30.6730 60000.0000  224.2750    2.3480    0.2910    0.9940   10.0000 -999.0000 -999.0000 
 206.0157   62.7936 -999.0000   30.6730 60000.0000  224.2750    2.3480    0.2910    0.9940   10.0000 -999.0000 -999.0000 
 206.5157   62.9460 -999.0000   30.6730 60000.0000  224.2750    2.3480    0.2910    0.9940   10.0000 -999.0000    3.0000 
 207.0157   63.0984 -999.0000   30.6730 60000.0000  224.2750    2.3480    0.2910    0.9940   10.0000 -999.0000    3.0000 
 207.5157   63.2508 -999.0000   30.6730 60000.0000  224.2750    2.3480    0.2910    0.9940   10.0000 -999.0000    3.0000 
 208.0157   63.4032 -999.0000   30.6730 60000.0000  224.2750    2.3480    0.2910    0.9940   10.0000 -999.0000    3.0000 
 208.5157   63.5556 -999.0000   32.5970 60000.0000  224.2750    2.3480    0.2910    1.0180   10.0000 -999.0000    3.0000 
 209.0157   63.7080 -999.0000   33.9900 60000.0000 60000.0000    2.3480    0.2910    0.7100   10.0000 -999.0000    3.0000 
 209.5157   63.8604 -999.0000   35.1330 60000.0000 60000.0000    2.3480    0.2910    0.8400   10.0000 -999.0000    3.0000 
 210.0157   64.0128 -999.0000   33.1570  153.3970 2533.3191    2.3480    0.2910    0.8600   10.0000 -999.0000    3.0000 
 210.5157   64.1652 -999.0000   35.7000 60000.0000  146.5670    2.3480    0.2910    0.8740   10.0000 -999.0000    3.0000 
 211.0157   64.3176 -999.0000   34.2780 60000.0000  112.6760    2.3480    0.2910    0.8590   10.0000 -999.0000    3.0000 
 211.5157   64.4700 -999.0000   33.1890  122.4610  435.3180    2.3480    0.2910    0.7170   10.0000 -999.0000    3.0000 
 212.0157   64.6224 -999.0000   27.8610   82.3630  233.5010    2.3480    0.2910    1.2720   10.0000 -999.0000    3.0000 
 212.5157   64.7748 -999.0000   32.5970 60000.0000 60000.0000    2.3480    0.2910    1.3320   10.0000 -999.0000    3.0000 
 213.0157   64.9272 -999.0000   35.6930  832.3660  978.6660    2.3480    0.2910    1.4290   10.0000 -999.0000    3.0000 
 213.5157   65.0796 -999.0000   40.7700 60000.0000 60000.0000    2.3480    0.2910    1.0210   10.0000 -999.0000    3.0000 
 214.0157   65.2320 -999.0000   40.4560  605.3390    8.2120    2.3480    0.2910    0.6910   10.0000 -999.0000    3.0000 
 214.5157   65.3844 -999.0000   41.2940 60000.0000   12.8270    2.3480    0.2910    0.6140   10.0000 -999.0000    3.0000 
 215.0157   65.5368 -999.0000   40.3630 60000.0000 60000.0000    2.3400    0.2850    0.7550   10.0000 -999.0000    3.0000 
 215.5157   65.6892 -999.0000   39.5980  162.1770  326.1690    2.3370    0.2800    0.7160   10.0000 -999.0000    3.0000 
 216.0157   65.8416 -999.0000   36.7790 60000.0000 60000.0000    2.3340    0.2780    0.7580   10.0000 -999.0000    3.0000 
 216.5157   65.9940 -999.0000   34.8600  458.8430   71.0430    2.3190    0.2690    0.6770   10.0000 -999.0000    3.0000 
 217.0157   66.1464 -999.0000   36.7770 60000.0000 60000.0000    2.3030    0.2570    0.9230   10.0000 -999.0000    3.0000 
 217.5157   66.2988 -999.0000   38.1700 60000.0000 60000.0000    2.2960    0.2470    0.7350   10.0000 -999.0000    3.0000 
 218.0157   66.4512 -999.0000   43.2240 60000.0000 60000.0000    2.2990    0.2470    1.0810   10.0000 -999.0000    3.0000 
 218.5157   66.6036 -999.0000   38.1830  468.2480 1503.4700    2.3060    0.2560    1.0680   10.0000 -999.0000    3.0000 
 219.0157   66.7560 -999.0000   41.5640  477.1110  656.8220    2.3150    0.2670    2.0580   10.0000 -999.0000    3.0000 
 219.5157   66.9084 -999.0000   38.1810   13.5550 60000.0000    2.3260    0.2760    1.7910   10.0000 -999.0000    3.0000 
 220.0157   67.0608 -999.0000   44.6150 60000.0000 60000.0000    2.3320    0.2780    1.6870   10.0000 -999.0000    3.0000 
 220.5157   67.2132 -999.0000   41.5130 60000.0000  194.7450    2.3350    0.2780    1.2190   10.0000 -999.0000    3.0000 
 221.0157   67.3656 -999.0000   40.3990  103.8970  156.4680    2.3210    0.2680    1.3950   10.0000 -999.0000    3.0000 
 221.5157   67.5180 -999.0000   34.8550 60000.0000 60000.0000    2.3060    0.2600    2.0650   10.0000 -999.0000    3.0000 
 222.0157   67.6704 -999.0000   33.4350 60000.0000 60000.0000    2.3020    0.2620    1.9450   10.0000 -999.0000    3.0000 
 222.5157   67.8228 -999.0000   33.4640  258.0650 60000.0000    2.3110    0.2710    2.6250   10.0000 -999.0000    3.0000 
 223.0157   67.9752 -999.0000   34.7230 60000.0000  210.6930    2.3230    0.2810    1.5640   10.0000 -999.0000    3.0000 
 223.5157   68.1276 -999.0000   34.1680 60000.0000 60000.0000    2.3250    0.2830    1.4060   10.0000 -999.0000    3.0000 
 224.0157   68.2800 -999.0000   35.8430  327.7040  440.1740    2.3250    0.2820    1.0250   10.0000 -999.0000    3.0000 
 224.5157   68.4324 -999.0000   33.9980   79.2800  193.5210    2.3110    0.2760    1.1650   10.0000 -999.0000    3.0000 
 225.0157   68.5848 -999.0000   39.5950   10.0890 60000.0000    2.3050    0.2730    1.4940   10.0000 -999.0000    3.0000 
 225.5157   68.7372 -999.0000   37.8910  363.3370 60000.0000    2.3060    0.2710    0.8580   10.0000 -999.0000    3.0000 
 226.0157   68.8896 -999.0000   40.6770  322.6710 60000.0000    2.3170    0.2700    0.6010   10.0000 -999.0000    3.0000 
 226.5157   69.0420 -999.0000   40.7160  225.7790 2293.7891    2.3180    0.2610    0.4480   10.0000 -999.0000    3.0000 
 227.0157   69.1944 -999.0000   43.7450 60000.0000   11.8420    2.3080    0.2510    0.5200   10.0000 -999.0000    3.0000 
 227.5157   69.3468 -999.0000   45.4550  141.6030   21.1290    2.3000    0.2450    0.5870   10.0000 -999.0000    3.0000 
 228.0157   69.4992 -999.0000   44.5800   39.2220 60000.0000    2.3050    0.2500    0.7580   10.0000 -999.0000    3.0000 
 228.5157   69.6516 -999.0000   42.6660 60000.0000 60000.0000    2.3110    0.2560    1.0230   10.0000 -999.0000    3.0000 
 229.0157   69.8040 -999.0000   45.1350  105.7220  999.2190    2.3130    0.2590    1.1970   10.0000 -999.0000    3.0000 
 229.5157   69.9564 -999.0000   46.2490 60000.0000 60000.0000    2.3060    0.2550    0.7030   10.0000 -999.0000    3.0000 
 230.0157   70.1088 -999.0000   45.7220 60000.0000 60000.0000    2.3070    0.2580    0.6540   10.0000 -999.0000    3.0000 
 230.5157   70.2612 -999.0000   41.2310 1960.6310 60000.0000    2.3120    0.2620    0.5210   10.0000 -999.0000    3.0000 
 231.0157   70.4136 -999.0000   39.8740   34.3850 60000.0000    2.3160    0.2650    0.4520   10.0000 -999.0000    3.0000 
 231.5157   70.5660 -999.0000   41.4820 60000.0000  126.8290    2.3100    0.2610    0.3510   10.0000 -999.0000    3.0000 
