~VERSION INFORMATION
 VERS.                 2.0:   CWLS LOG ASCII STANDARD - VERSION 2.0
 WRAP.                  NO:   SINGLE LINE PER DEPTH STEP
 CREA.                 11/12/2017 11:36:24
#CREATED USING DSPetro VERSION 5000.10.1.3 BY H191660 ON 11/12/2017 11:36:24
~WELL INFORMATION
#MNEM.UNIT       DATA                          DESCRIPTION MNEMONIC
#---------      ---------------------------   --------------------------
 STRT    .FT        199.0157                  : START DEPTH
 STOP    .FT        12624.5157                : STOP DEPTH
 STEP    .FT        0.5000                    : STEP VALUE
 NULL    .      -999.0000                     : NULL VALUE
 DATE    .      11/12/2017                    : LAS file Creation Date
 WELL .      U_TEXAS_36994_4200338767 : Well Name
 COMP .                               : Company
 FLD  .      MAGUTEX                  : Field
 UWI  .      KUSWL_338767             : Unique Well Identifier (UWI)
 LOC  .                               : Location
 RWS  .      -999                     : Def_Rw
 WST  .      -999                     : Def_Rwt
 SRVC .                               : Contractor
~CURVE INFORMATION
#MNEM              UNIT       API CODE   Curve Type Comments
#----------  --------------- ----------  ---------- -----------
 DEPTH      .FT                        : Depth       
 DEPTH_(m)  .                          :             
 BitSize    .in                        : BitSize     
 GR_API     .API                       : GammaRay    Gamma Ray (API) - Measures the intensity of natural gamma-ray radiation emitted from formations containing radioactive elements, such as K, Th and U
 LLD_OHMM   .ohmm                      :             Laterlog Deep Resistivity - Measurement made several feet into the formation; generally considered a measurement of the undisturbed formation
 LLS_OHMM   .ohmm                      :             Laterlog Shallow Resistivity - one to two feet into the formation; generally considered to measure the formation
 RHOB_G_CC  .g/cc                      :             Formation Density - Measures the density of formation, including any void space or other materials contained in the subject volume
 DRHO_G_CC  .g/cc                      :             Density Correction - Investigates the correction to the Bulk Density log; used as an indication of hole condition to validate the Bulk Density measure
 NPHI_v/v   .ratio                     :             Enhanced Thermal Neutron Porosity in Selected Lithology
 PEF_B_E    .b/e-                      : PEF         Photoelectric Factor - A log of photoelectric absorption properties. Often expressed in an approximation unit barns/electron (b/e-)
 LITH       .                          : Flag        
 LITH_v2    .                          : Flag        
~A  DEPTH DEPTH_(m)  BitSize    GR_API   LLD_OHMM  LLS_OHMM RHOB_G_C  DRHO_G_C   NPHI_v/v  PEF_B_E     LITH    LITH_v2  
# ...
1024.0157  312.1200 -999.0000   35.3860 59999.9996   32.7870    2.3040    0.2360    0.4620   10.0000 -999.0000    3.0000 
1024.5157  312.2724 -999.0000   38.6740   87.5480  200.6884    2.2570    0.2230    0.4960   10.0000 -999.0000    3.0000 
1025.0157  312.4248 -999.0000   42.0820  135.1084 59999.9996    2.1680    0.1950    0.5300   10.0000 -999.0000    3.0000 
1025.5157  312.5772 -999.0000   40.8260 59999.9996   67.6310    2.0910    0.1660    0.6010    9.9960 -999.0000    3.0000 
1026.0157  312.7296 -999.0000   34.4340 1190.2270  324.4840    2.0660    0.1540    0.7170    9.9960 -999.0000    3.0000 
1026.5157  312.8820 -999.0000   28.7300  645.8794  262.0284    2.0310    0.1270    0.8630    9.9960 -999.0000    3.0000 
1027.0157  313.0344 -999.0000   25.4950 60000.0000 60000.0000    1.9810    0.0870    0.9510   10.0000 -999.0000    3.0000 
1027.5157  313.1868 -999.0000   23.5780 59999.9996 59999.9996    1.9340    0.0470    1.6490   10.0000 -999.0000    3.0000 
1028.0157  313.3392 -999.0000   25.1790   48.2314   61.6490    1.9160    0.0300    1.2190   10.0000 -999.0000    3.0000 
1028.5157  313.4916 -999.0000   31.9190 60000.0000  610.2440    1.9120    0.0270    0.6340   10.0000 -999.0000    3.0000 
1029.0157  313.6440 -999.0000   38.9780 59999.9996  580.8330    1.9230    0.0350    0.4750   10.0000 -999.0000    3.0000 
1029.5157  313.7964 -999.0000   42.4160  201.5600 3358.6560    1.9350    0.0460    0.5110   10.0000 -999.0000    3.0000 
1030.0157  313.9488 -999.0000   40.6790   20.4380  218.9760    1.9350    0.0470    0.4500   10.0000 -999.0000    3.0000 
1030.5157  314.1012 -999.0000   40.7340   40.6770    3.5480    1.9090    0.0330    0.4910   10.0000 -999.0000    3.0000 
1031.0157  314.2536 -999.0000   35.8110   54.9134   48.3384    1.8820    0.0160    0.6360   10.0000 -999.0000    3.0000 
1031.5157  314.4060 -999.0000   34.8390 60000.0000 59999.9996    1.8800    0.0160    0.6780   10.0000 -999.0000    3.0000 
1032.0157  314.5584 -999.0000   29.3990 59999.9996  319.3670    1.8860    0.0180    0.5040   10.0000 -999.0000    3.0000 
1032.5157  314.7108 -999.0000   29.3540   91.4470  139.9400    1.8820    0.0160    0.4710   10.0000 -999.0000    3.0000 
1033.0157  314.8632 -999.0000   30.6520  240.8700  338.3450    1.8730    0.0130    0.6410   10.0000 -999.0000    3.0000 
1033.5157  315.0156 -999.0000   31.4510  149.3874   54.5594    1.8630    0.0100    0.7530   10.0000 -999.0000    3.0000 
1034.0157  315.1680 -999.0000   38.5190 60000.0000 59999.9996    1.8620    0.0100    0.4850   10.0000 -999.0000    3.0000 
1034.5157  315.3204 -999.0000   39.3050 59999.9996  362.8650    1.8630    0.0100    0.4390   10.0000 -999.0000    3.0000 
1035.0157  315.4728 -999.0000   42.7070  363.1214 1113.2304    1.8640    0.0100    0.4680   10.0000 -999.0000    3.0000 
1035.5157  315.6252 -999.0000   36.7520 59999.9996 60000.0000    1.8790    0.0290    0.6940   10.0000 -999.0000    3.0000 
1036.0157  315.7776 -999.0000   32.9080   53.9280 59999.9996    1.9010    0.0550    1.2070   10.0000 -999.0000    3.0000 
1036.5157  315.9300 -999.0000   32.4730  310.3764  412.6110    1.9130    0.0730    1.7250   10.0000 -999.0000    3.0000 
1037.0157  316.0824 -999.0000   29.5810 60000.0000   66.4080    1.9230    0.0890    2.1330   10.0000 -999.0000    3.0000 
1037.5157  316.2348 -999.0000   30.0900 59999.9997   97.3234    1.9010    0.0690    1.7210    9.8570 -999.0000    3.0000 
1038.0157  316.3872 -999.0000   29.6710 7828.3485 59999.9996    1.8820    0.0520    1.1950    9.6400 -999.0000    3.0000 
1038.5157  316.5396 -999.0000   36.3150 59999.9996   26.8980    1.8530    0.0160    0.8740    9.3470 -999.0000    3.0000 
1039.0157  316.6920 -999.0000   38.6000    2.7560   10.4980    1.8430    0.0100    0.8550    9.1570 -999.0000    3.0000 
1039.5157  316.8444 -999.0000   42.7840   76.5264  219.6740    1.8360    0.0110    0.8100    9.0020 -999.0000    3.0000 
1040.0157  316.9968 -999.0000   40.7000 59999.9996  444.9174    1.8210    0.0140    0.6640    8.8700 -999.0000    3.0000 
1040.5157  317.1492 -999.0000   41.0100   53.5640 59999.9996    1.8130    0.0130    0.5440    8.7010 -999.0000    3.0000 
1041.0157  317.3016 -999.0000   37.1960  134.9680  129.7240    1.8120    0.0120    0.4590    8.5180 -999.0000    3.0000 
1041.5157  317.4540 -999.0000   32.7850   39.8220 1250.0250    1.8190    0.0110    0.4680    8.3410 -999.0000    3.0000 
1042.0157  317.6064 -999.0000   35.6100   52.7234  791.2640    1.8210    0.0110    0.6050    8.2610 -999.0000    3.0000 
1042.5157  317.7588 -999.0000   32.7410 60000.0000  825.3280    1.8190    0.0100    0.9190    8.2330 -999.0000    3.0000 
1043.0157  317.9112 -999.0000   41.3210 59999.9996   29.8814    1.8110    0.0100    1.7730    8.2750 -999.0000    3.0000 
1043.5157  318.0636 -999.0000   36.3970  658.8970 59999.9996    1.8110    0.0110    1.0630    8.3040 -999.0000    3.0000 
1044.0157  318.2160 -999.0000   31.9000  637.3290    6.2974    1.8120    0.0120    0.8520    8.3470 -999.0000    3.0000 
1044.5157  318.3684 -999.0000   28.1930  172.9014 60000.0000    1.8130    0.0130    0.5030    8.3960 -999.0000    3.0000 
1045.0157  318.5208 -999.0000   27.7480 60000.0000 60000.0000    1.8110    0.0140    0.4450    8.4540 -999.0000    3.0000 
1045.5157  318.6732 -999.0000   32.1950 59999.9996 60000.0000    1.8060    0.0120    0.5410    8.5580 -999.0000    3.0000 
1046.0157  318.8256 -999.0000   33.4670   22.3450 59999.9996    1.8100    0.0130    0.8520    8.6890 -999.0000    3.0000 
1046.5157  318.9780 -999.0000   37.1690   24.9270   36.6444    1.8110    0.0130    1.4450    8.8440 -999.0000    3.0000 
1047.0157  319.1304 -999.0000   39.7170  216.5320 60000.0000    1.8140    0.0130    1.5610    8.9980 -999.0000    3.0000 
1047.5157  319.2828 -999.0000   36.8710  186.9304 60000.0000    1.8150    0.0130    1.3100    9.1470 -999.0000    3.0000 
1048.0157  319.4352 -999.0000   33.6140 60000.0000 59999.9996    1.8210    0.0130    0.7740    9.3000 -999.0000    3.0000 
1048.5157  319.5876 -999.0000   32.7340 59999.9996  224.2020    1.8270    0.0130    0.5430    9.4490 -999.0000    3.0000 
1049.0157  319.7400 -999.0000   37.2370   41.7610  151.3980    1.8270    0.0120    0.5290    9.6160 -999.0000    3.0000 
1049.5157  319.8924 -999.0000   38.8260   20.2164    9.5134    1.8310    0.0110    0.7640    9.7430 -999.0000    3.0000 
1050.0157  320.0448 -999.0000   37.7670 60000.0000 60000.0000    1.8380    0.0110    0.5550    9.8450 -999.0000    3.0000 
1050.5157  320.1972 -999.0000   33.5820 59999.9996 59999.9996    1.8460    0.0110    0.4740    9.9080 -999.0000    3.0000 
1051.0157  320.3496 -999.0000   33.6280 2003.9474 6370.5258    1.8480    0.0110    0.5410    9.9700 -999.0000    3.0000 
1051.5157  320.5020 -999.0000   35.7980 59999.9996  679.9990    1.8440    0.0110    1.0340   10.0000 -999.0000    3.0000 
1052.0157  320.6544 -999.0000   34.1240  567.1004 2186.4145    1.8480    0.0100    0.8870   10.0000 -999.0000    3.0000 
1052.5157  320.8068 -999.0000   30.9280 60000.0000 60000.0000    1.8540    0.0100    0.5900   10.0000 -999.0000    3.0000 
1053.0157  320.9592 -999.0000   31.4830 59999.9996 60000.0000    1.8680    0.0100    0.8140   10.0000 -999.0000    3.0000 
1053.5157  321.1116 -999.0000   35.6680  387.9620 59999.9996    1.8710    0.0090    0.7940   10.0000 -999.0000    3.0000 
1054.0157  321.2640 -999.0000   41.1820  411.8770   19.1744    1.8730    0.0100    0.9990   10.0000 -999.0000    3.0000 
1054.5157  321.4164 -999.0000   37.0470  104.9450 59999.9996    1.8730    0.0100    0.7820   10.0000 -999.0000    3.0000 
1055.0157  321.5688 -999.0000   32.0360  372.7580 2249.9809    1.8740    0.0120    0.6330   10.0000 -999.0000    3.0000 
1055.5157  321.7212 -999.0000   27.6270  180.5190  992.8914    1.8750    0.0120    0.5680    9.9540 -999.0000    3.0000 
1056.0157  321.8736 -999.0000   30.9280   10.2954 60000.0000    1.8670    0.0110    0.6940    9.8630 -999.0000    3.0000 
1056.5157  322.0260 -999.0000   36.5140 59999.9996 59999.9996    1.8950    0.0370    1.3510    9.7400 -999.0000    3.0000 
