~VERSION INFORMATION
 VERS.                 2.0:   CWLS LOG ASCII STANDARD - VERSION 2.0
 WRAP.                  NO:   SINGLE LINE PER DEPTH STEP
 CREA.                 11/12/2017 11:36:24
#CREATED USING DSPetro VERSION 5000.10.1.3 BY H191660 ON 11/12/2017 11:36:24
~WELL INFORMATION
#MNEM.UNIT       DATA                          DESCRIPTION MNEMONIC
#---------      ---------------------------   --------------------------
 STRT    .FT        199.0157                  : START DEPTH
 STOP    .FT        12624.5157                : STOP DEPTH
 STEP    .FT        0.5000                    : STEP VALUE
 NULL    .      -999.0000                     : NULL VALUE
 DATE    .      11/12/2017                    : LAS file Creation Date
 WELL .      U_TEXAS_36994_4200338767 : Well Name
 COMP .                               : Company
 FLD  .      MAGUTEX                  : Field
 UWI  .      KUSWL_338767             : Unique Well Identifier (UWI)
 LOC  .                               : Location
 RWS  .      -999                     : Def_Rw
 WST  .      -999                     : Def_Rwt
 SRVC .                               : Contractor
~CURVE INFORMATION
#MNEM              UNIT       API CODE   Curve Type Comments
#----------  --------------- ----------  ---------- -----------
 DEPTH      .FT                        : Depth       
 DEPTH_(m)  .                          :             
 BitSize    .in                        : BitSize     
 GR_API     .API                       : GammaRay    Gamma Ray (API) - Measures the intensity of natural gamma-ray radiation emitted from formations containing radioactive elements, such as K, Th and U
 LLD_OHMM   .ohmm                      :             Laterlog Deep Resistivity - Measurement made several feet into the formation; generally considered a measurement of the undisturbed formation
 LLS_OHMM   .ohmm                      :             Laterlog Shallow Resistivity - one to two feet into the formation; generally considered to measure the formation
 RHOB_G_CC  .g/cc                      :             Formation Density - Measures the density of formation, including any void space or other materials contained in the subject volume
 DRHO_G_CC  .g/cc                      :             Density Correction - Investigates the correction to the Bulk Density log; used as an indication of hole condition to validate the Bulk Density measure
 NPHI_v/v   .ratio                     :             Enhanced Thermal Neutron Porosity in Selected Lithology
 PEF_B_E    .b/e-                      : PEF         Photoelectric Factor - A log of photoelectric absorption properties. Often expressed in an approximation unit barns/electron (b/e-)
 LITH       .                          : Flag        
 LITH_v2    .                          : Flag        
~A  DEPTH DEPTH_(m)  BitSize    GR_API   LLD_OHMM  LLS_OHMM RHOB_G_C  DRHO_G_C   NPHI_v/v  PEF_B_E     LITH    LITH_v2  
# ...
6774.5157 2064.8723    7.8750  106.1970   12.1220   13.6030    2.5490   -0.0140    0.1570    3.0990   37.0000   37.0000 
6775.0157 2065.0249    7.8750  104.2370   10.0480   11.4300    2.5310   -0.0170    0.1770    3.1770   37.0000   37.0000 
6775.5157 2065.1772    7.8750  108.3030    9.5070   10.9260    2.5210   -0.0160    0.1910    3.2230   37.0000   37.0000 
6776.0157 2065.3296    7.8750  101.6010   11.7730   13.4380    2.5290   -0.0140    0.1910    3.1840   37.0000   37.0000 
6776.5157 2065.4819    7.8750   96.4610   13.3320   15.0740    2.5500   -0.0090    0.1810    3.0450   37.0000   37.0000 
6777.0157 2065.6345    7.8750   92.6340   10.8920   12.3910    2.5610   -0.0070    0.1640    2.9150   37.0000   37.0000 
6777.5157 2065.7869    7.8750   99.3360   10.0370   11.3400    2.5580   -0.0050    0.1580    2.8520   37.0000   37.0000 
6778.0157 2065.9392    7.8750  107.8180    9.6680   10.8060    2.5450   -0.0070    0.1530    2.9040   37.0000   22.0000 
6778.5157 2066.0916    7.8750  107.1010   10.4310   11.4800    2.5390   -0.0080    0.1630    2.9520   37.0000   37.0000 
6779.0157 2066.2439    7.8750  102.0890   10.0090   10.9090    2.5420   -0.0080    0.1670    2.9220   37.0000   37.0000 
6779.5157 2066.3965    7.8750   97.1450    9.1530   10.0020    2.5400   -0.0080    0.1690    2.8450   37.0000   37.0000 
6780.0157 2066.5488    7.8750   97.9310    7.7780    8.5350    2.5350   -0.0080    0.1650    2.7780   37.0000   37.0000 
6780.5157 2066.7012    7.8750   97.8500    8.0670    8.8240    2.5330   -0.0080    0.1700    2.7530   37.0000   37.0000 
6781.0157 2066.8535    7.8750   95.2020    8.7170    9.4670    2.5340   -0.0080    0.1630    2.8040   37.0000   37.0000 
6781.5157 2067.0061    7.8750   89.5710    9.2010    9.9540    2.5310   -0.0110    0.1580    2.8850   37.0000   22.0000 
6782.0157 2067.1584    7.8750   83.4340    8.9390    9.7180    2.5200   -0.0170    0.1540    2.9650   37.0000   22.0000 
6782.5157 2067.3108    7.8750   78.3720    8.3050    9.1440    2.5220   -0.0190    0.1450    2.9360   37.0000   22.0000 
6783.0157 2067.4631    7.8750   78.6270    8.1020    9.0630    2.5330   -0.0170    0.1390    2.8690   37.0000   22.0000 
6783.5157 2067.6155    7.8750   83.3320    8.6540    9.7910    2.5460   -0.0130    0.1350    2.8570   37.0000   22.0000 
6784.0157 2067.7681    7.8750   80.8610    8.7730   10.1580    2.5610   -0.0080    0.1420    2.8680   37.0000   22.0000 
6784.5157 2067.9204    7.8750   70.3410    6.1960    7.4870    2.5500   -0.0100    0.1490    2.9310   37.0000   22.0000 
6785.0157 2068.0728    7.8750   59.9870    5.0770    6.2360    2.5280   -0.0090    0.1500    2.8990   37.0000   22.0000 
6785.5157 2068.2251    7.8750   57.6830    4.2830    5.3170    2.4960   -0.0090    0.1510    2.8150   37.0000   22.0000 
6786.0157 2068.3777    7.8750   56.9670    4.2320    5.2760    2.4820   -0.0070    0.1330    2.7130   36.0000   36.0000 
6786.5157 2068.5300    7.8750   52.7830    4.7170    5.8350    2.4800   -0.0130    0.1050    2.8270   36.0000   36.0000 
6787.0157 2068.6824    7.8750   45.3820    3.2580    4.0120    2.5140   -0.0190    0.0840    3.1580   36.0000   36.0000 
6787.5157 2068.8347    7.8750   44.4840    3.6430    4.4520    2.5720   -0.0200    0.0740    3.5270   37.0000   22.0000 
6788.0157 2068.9873    7.8750   47.0850    3.5240    4.2830    2.6290   -0.0110    0.0770    3.5860   37.0000   22.0000 
6788.5157 2069.1396    7.8750   52.5710    5.6610    7.0050    2.6200   -0.0070    0.0850    3.4720   37.0000   22.0000 
6789.0157 2069.2920    7.8750   56.1390    8.5830   10.5290    2.5950   -0.0060    0.0760    3.2830   37.0000   22.0000 
6789.5157 2069.4443    7.8750   53.7180   15.5910   18.1450    2.5860   -0.0080    0.0630    3.2460   37.0000   22.0000 
6790.0157 2069.5967    7.8750   57.5900   21.5870   23.2710    2.6000   -0.0060    0.0600    3.2250   37.0000   22.0000 
6790.5157 2069.7493    7.8750   60.1730   10.9440   11.9980    2.5920   -0.0050    0.0840    3.1520   37.0000   22.0000 
6791.0157 2069.9016    7.8750   68.9440    7.8050    8.6640    2.5670   -0.0030    0.1260    2.9540   37.0000   22.0000 
6791.5157 2070.0540    7.8750   76.8390    6.4200    7.1790    2.5300   -0.0020    0.1450    2.8170   37.0000   22.0000 
6792.0157 2070.2063    7.8750   80.4720    5.5820    6.2920    2.5040   -0.0010    0.1590    2.7370   37.0000   22.0000 
6792.5157 2070.3589    7.8750   84.8580    5.0880    5.7750    2.4840   -0.0020    0.1690    2.7350   37.0000   36.0000 
6793.0157 2070.5112    7.8750   80.5510    4.8310    5.5140    2.4820   -0.0030    0.1800    2.6710   37.0000   37.0000 
6793.5157 2070.6636    7.8750   80.4990    4.7850    5.4410    2.4780   -0.0040    0.1860    2.6350   37.0000   37.0000 
6794.0157 2070.8159    7.8750   81.1250    4.6610    5.2380    2.4640   -0.0060    0.1820    2.6430   37.0000   36.0000 
6794.5157 2070.9685    7.8750   79.6900    4.5630    5.0810    2.4530   -0.0070    0.1800    2.6510   37.0000   22.0000 
6795.0157 2071.1208    7.8750   82.2480    4.5000    4.9790    2.4560   -0.0090    0.1740    2.6180   37.0000   22.0000 
6795.5157 2071.2732    7.8750   82.8860    4.4380    4.8820    2.4650   -0.0100    0.1650    2.5880   37.0000   22.0000 
6796.0157 2071.4255    7.8750   90.4350    4.4410    4.8160    2.4740   -0.0120    0.1580    2.5690   36.0000   36.0000 
6796.5157 2071.5779    7.8750   90.7410    4.5470    4.8390    2.4780   -0.0110    0.1610    2.5700   37.0000   22.0000 
6797.0157 2071.7305    7.8750   87.8560    4.5050    4.7270    2.4700   -0.0110    0.1730    2.6220   37.0000   36.0000 
6797.5157 2071.8828    7.8750   84.3140    4.4080    4.5730    2.4630   -0.0070    0.1720    2.6490   37.0000   22.0000 
6798.0157 2072.0352    7.8750   79.6680    4.3450    4.4820    2.4490   -0.0030    0.1680    2.6900   37.0000   22.0000 
6798.5157 2072.1875    7.8750   80.1020    4.3870    4.5080    2.4480    0.0040    0.1740    2.6700   37.0000   22.0000 
6799.0157 2072.3401    7.8750   83.9140    4.3730    4.4790    2.4450    0.0040    0.1830    2.6740   37.0000   22.0000 
6799.5157 2072.4924    7.8750   82.3530    4.2550    4.3490    2.4450   -0.0020    0.1770    2.6880   37.0000   22.0000 
6800.0157 2072.6448    7.8750   80.8720    4.2010    4.2950    2.4630   -0.0040    0.1830    2.6160   37.0000   36.0000 
6800.5157 2072.7971    7.8750   78.4930    4.1860    4.2750    2.4770   -0.0030    0.1740    2.5360   37.0000   36.0000 
6801.0157 2072.9497    7.8750   81.5960    4.1760    4.2670    2.4810   -0.0020    0.1770    2.4920   37.0000   36.0000 
6801.5157 2073.1021    7.8750   81.1780    4.1560    4.2390    2.4630   -0.0060    0.1740    2.5580   37.0000   22.0000 
6802.0157 2073.2544    7.8750   78.7910    4.1880    4.2660    2.4560   -0.0090    0.1770    2.6010   37.0000   22.0000 
6802.5157 2073.4067    7.8750   76.8300    4.1650    4.2370    2.4600   -0.0090    0.1720    2.5960   37.0000   22.0000 
6803.0157 2073.5591    7.8750   76.3420    4.1100    4.1780    2.4710   -0.0060    0.1690    2.5670   37.0000   22.0000 
6803.5157 2073.7117    7.8750   76.7140    4.0700    4.1350    2.4710   -0.0060    0.1680    2.5820   37.0000   22.0000 
6804.0157 2073.8640    7.8750   81.7790    4.0560    4.1140    2.4650   -0.0080    0.1710    2.6190   37.0000   22.0000 
6804.5157 2074.0164    7.8750   83.6890    4.0260    4.0760    2.4530   -0.0120    0.1820    2.6710   37.0000   22.0000 
6805.0157 2074.1687    7.8750   84.1070    3.9640    4.0070    2.4530   -0.0120    0.2010    2.6690   37.0000   37.0000 
6805.5157 2074.3213    7.8750   84.1070    3.9240    3.9640    2.4570   -0.0100    0.2080    2.6400   37.0000   37.0000 
6806.0157 2074.4736    7.8750   82.4760    3.8760    3.9070    2.4620   -0.0050    0.2130    2.6020   37.0000   37.0000 
6806.5157 2074.6260    7.8750   79.5360    3.8830    3.9050    2.4510   -0.0080    0.1950    2.6270   37.0000   22.0000 
6807.0157 2074.7783    7.8750   72.1360    3.8660    3.8880    2.4460   -0.0090    0.1930    2.6410   37.0000   36.0000 
6807.5157 2074.9309    7.8750   72.1360    3.7970    3.8160    2.4390   -0.0100    0.1840    2.6630   37.0000   22.0000 
