~VERSION INFORMATION
 VERS.                 2.0:   CWLS LOG ASCII STANDARD - VERSION 2.0
 WRAP.                  NO:   SINGLE LINE PER DEPTH STEP
 CREA.                 11/12/2017 11:36:24
#CREATED USING DSPetro VERSION 5000.10.1.3 BY H191660 ON 11/12/2017 11:36:24
~WELL INFORMATION
#MNEM.UNIT       DATA                          DESCRIPTION MNEMONIC
#---------      ---------------------------   --------------------------
 STRT    .FT        199.0157                  : START DEPTH
 STOP    .FT        12624.5157                : STOP DEPTH
 STEP    .FT        0.5000                    : STEP VALUE
 NULL    .      -999.0000                     : NULL VALUE
 DATE    .      11/12/2017                    : LAS file Creation Date
 WELL .      U_TEXAS_36994_4200338767 : Well Name
 COMP .                               : Company
 FLD  .      MAGUTEX                  : Field
 UWI  .      KUSWL_338767             : Unique Well Identifier (UWI)
 LOC  .                               : Location
 RWS  .      -999                     : Def_Rw
 WST  .      -999                     : Def_Rwt
 SRVC .                               : Contractor
~CURVE INFORMATION
#MNEM              UNIT       API CODE   Curve Type Comments
#----------  --------------- ----------  ---------- -----------
 DEPTH      .FT                        : Depth       
 DEPTH_(m)  .                          :             
 BitSize    .in                        : BitSize     
 GR_API     .API                       : GammaRay    Gamma Ray (API) - Measures the intensity of natural gamma-ray radiation emitted from formations containing radioactive elements, such as K, Th and U
 LLD_OHMM   .ohmm                      :             Laterlog Deep Resistivity - Measurement made several feet into the formation; generally considered a measurement of the undisturbed formation
 LLS_OHMM   .ohmm                      :             Laterlog Shallow Resistivity - one to two feet into the formation; generally considered to measure the formation
 RHOB_G_CC  .g/cc                      :             Formation Density - Measures the density of formation, including any void space or other materials contained in the subject volume
 DRHO_G_CC  .g/cc                      :             Density Correction - Investigates the correction to the Bulk Density log; used as an indication of hole condition to validate the Bulk Density measure
 NPHI_v/v   .ratio                     :             Enhanced Thermal Neutron Porosity in Selected Lithology
 PEF_B_E    .b/e-                      : PEF         Photoelectric Factor - A log of photoelectric absorption properties. Often expressed in an approximation unit barns/electron (b/e-)
 LITH       .                          : Flag        
 LITH_v2    .                          : Flag        
~A  DEPTH DEPTH_(m)  BitSize    GR_API   LLD_OHMM  LLS_OHMM RHOB_G_C  DRHO_G_C   NPHI_v/v  PEF_B_E     LITH    LITH_v2  
# ...
10122.0157 3085.1904    7.8750  106.1320   44.3190   47.1330    2.6040   -0.0020    0.2060    3.4550   37.0000   37.0000 
10122.5157 3085.3428    7.8750   97.4520   42.0520   49.5270    2.5920   -0.0030    0.2030    3.3300   37.0000   37.0000 
10123.0157 3085.4951    7.8750   78.6100   47.9930   56.0380    2.5820   -0.0080    0.1720    3.3770   37.0000   37.0000 
10123.5157 3085.6477    7.8750   47.9031  130.9682  159.6166    2.6127   -0.0126    0.0920    3.8508   18.0000   18.0000 
10124.0157 3085.8000    7.8750   43.8900  199.9880  248.0910    2.6360   -0.0120    0.0770    4.0960   18.0000   18.0000 
10124.5157 3085.9524    7.8750   56.0970  574.9879  604.8540    2.6650   -0.0070    0.0820    4.3120   18.0000   18.0000 
10125.0157 3086.1047    7.8750   78.6250  112.3850  122.1120    2.6530   -0.0020    0.1400    4.1780   37.0000   37.0000 
10125.5157 3086.2571    7.8750   93.2178   64.8420   74.4090    2.5887   -0.0010    0.2031    3.5320   37.0000   37.0000 
10126.0157 3086.4097    7.8750   92.3540   63.7260   73.8040    2.5590   -0.0010    0.2180    3.2340   37.0000   37.0000 
10126.5157 3086.5620    7.8750   90.1010  102.2080  119.2130    2.5310   -0.0010    0.1970    2.8550   37.0000   37.0000 
10127.0157 3086.7144    7.8750   89.9600  174.0750  202.5870    2.5090   -0.0030    0.1890    2.7260   37.0000   37.0000 
10127.5157 3086.8667    7.8750   94.8424  167.6829  196.0844    2.4962   -0.0044    0.1896    2.7575   37.0000   37.0000 
10128.0157 3087.0193    7.8750   95.3370  140.4550  165.3700    2.4950   -0.0050    0.1890    2.7900   37.0000   37.0000 
10128.5157 3087.1716    7.8750   91.5480  127.7970  146.2120    2.5180   -0.0030    0.1780    2.8510   37.0000   37.0000 
10129.0157 3087.3240    7.8750   89.9230  127.5320  131.8650    2.5300   -0.0050    0.1700    3.0540   37.0000   37.0000 
10129.5157 3087.4763    7.8750   87.9970  152.4516  148.5823    2.5274   -0.0072    0.1730    3.2859   37.0000   37.0000 
10130.0157 3087.6289    7.8750   89.4740  153.5550  150.6820    2.5160   -0.0090    0.1790    3.3410   37.0000   37.0000 
10130.5157 3087.7813    7.8750   93.2500  131.8470  133.6670    2.5020   -0.0070    0.2030    3.1980   37.0000   37.0000 
10131.0157 3087.9336    7.8750   97.1040  122.6200  128.3780    2.4900   -0.0060    0.2100    2.9690   37.0000   37.0000 
10131.5157 3088.0859    7.8750   98.5579  169.0037  184.8044    2.4812   -0.0062    0.1925    2.7760   37.0000   37.0000 
10132.0157 3088.2383    7.8750  100.3810  194.8060  215.1800    2.4770   -0.0080    0.1860    2.7510   37.0000   37.0000 
10132.5157 3088.3909    7.8750  104.4590  174.5170  194.7210    2.4720   -0.0090    0.1970    2.8150   37.0000   37.0000 
10133.0157 3088.5432    7.8750  107.5180  145.9150  161.4940    2.4820   -0.0080    0.1980    2.8560   37.0000   37.0000 
10133.5157 3088.6956    7.8750  104.0001  150.2090  161.9658    2.4890   -0.0046    0.1879    2.8482   37.0000   37.0000 
10134.0157 3088.8479    7.8750  102.1510  152.1730  161.4570    2.4920   -0.0040    0.1820    2.8180   37.0000   37.0000 
10134.5157 3089.0005    7.8750   97.0020  146.5660  151.4880    2.5000   -0.0020    0.1920    2.7960   37.0000   37.0000 
10135.0157 3089.1528    7.8750   84.6840  159.9280  160.0510    2.5210   -0.0020    0.1780    2.9040   37.0000   37.0000 
10135.5157 3089.3052    7.8750   77.0630  233.8803  234.2164    2.5592   -0.0034    0.1402    3.3163   37.0000   37.0000 
10136.0157 3089.4575    7.8750   77.8130  238.9370  244.3890    2.5730   -0.0040    0.1360    3.4850   37.0000   37.0000 
10136.5157 3089.6101    7.8750   95.9560  161.0920  182.2290    2.5640   -0.0070    0.1560    3.5810   37.0000   37.0000 
10137.0157 3089.7625    7.8750  106.9950  113.0880  136.2430    2.5320   -0.0100    0.1980    3.4160   37.0000   37.0000 
10137.5157 3089.9148    7.8750  111.9794  106.6051  130.4873    2.4874   -0.0130    0.2114    3.1402   37.0000   37.0000 
10138.0157 3090.0671    7.8750  110.7390  114.4950  139.5070    2.4760   -0.0130    0.2060    3.0350   37.0000   37.0000 
10138.5157 3090.2195    7.8750  114.0390  117.2470  142.3110    2.4670   -0.0110    0.1880    2.9590   37.0000   37.0000 
10139.0157 3090.3721    7.8750  110.4200   93.1550  113.5760    2.4760   -0.0080    0.1770    2.9040   37.0000   37.0000 
10139.5157 3090.5244    7.8750   89.6824   67.8369   81.3010    2.5287   -0.0046    0.1537    3.0874   37.0000   37.0000 
10140.0157 3090.6768    7.8750   76.5190   72.4440   85.3250    2.5610   -0.0040    0.1280    3.2520   37.0000   37.0000 
10140.5157 3090.8291    7.8750   54.8910  118.2130  135.3690    2.6110   -0.0040    0.0870    3.6990   18.0000   18.0000 
10141.0157 3090.9817    7.8750   57.4410  387.0370  482.4610    2.6430   -0.0040    0.0770    3.9750   18.0000   18.0000 
10141.5157 3091.1340    7.8750   89.1434  120.1653  141.6289    2.6150   -0.0062    0.1227    3.8115   18.0000   18.0000 
10142.0157 3091.2864    7.8750  108.2580   67.2320   81.5890    2.5900   -0.0080    0.1590    3.6420   37.0000   37.0000 
10142.5157 3091.4387    7.8750  120.1690   45.7140   56.2950    2.5600   -0.0080    0.2130    3.3190   37.0000   37.0000 
10143.0157 3091.5913    7.8750  117.9370   54.9580   68.6700    2.5500   -0.0060    0.2280    3.1390   37.0000   37.0000 
10143.5157 3091.7437    7.8750  109.3013   62.0094   79.1218    2.5434   -0.0038    0.2036    3.0620   37.0000   37.0000 
10144.0157 3091.8960    7.8750  107.4010   68.6480   88.5600    2.5320   -0.0050    0.1940    3.0710   37.0000   37.0000 
10144.5157 3092.0483    7.8750  102.3880   66.8790   88.1200    2.5080   -0.0080    0.1990    3.1110   37.0000   37.0000 
10145.0157 3092.2007    7.8750  104.1650   84.2740  110.5620    2.4930   -0.0090    0.1970    3.1490   37.0000   37.0000 
10145.5157 3092.3533    7.8750  107.0389   68.6344   87.8321    2.5049   -0.0086    0.2019    3.1529   37.0000   37.0000 
10146.0157 3092.5056    7.8750  110.7540   54.8530   69.7270    2.5120   -0.0080    0.1930    3.1600   37.0000   37.0000 
10146.5157 3092.6580    7.8750  112.6350   40.9920   51.7200    2.5390   -0.0050    0.2120    3.1210   37.0000   37.0000 
10147.0157 3092.8103    7.8750  112.8330   38.7290   48.6700    2.5530   -0.0030    0.2030    3.1320   37.0000   37.0000 
10147.5157 3092.9629    7.8750  109.4462   64.9094   80.0255    2.5639   -0.0012    0.1930    3.2066   37.0000   37.0000 
10148.0157 3093.1152    7.8750  104.5900   76.8690   94.5320    2.5580   -0.0030    0.1740    3.2960   37.0000   37.0000 
10148.5157 3093.2676    7.8750  103.4210  107.2030  136.1860    2.5510   -0.0050    0.1740    3.3950   37.0000   37.0000 
10149.0157 3093.4199    7.8750  107.7670   71.6200   92.1720    2.5400   -0.0060    0.1930    3.3590   37.0000   37.0000 
10149.5157 3093.5725    7.8750  119.2768   62.4319   78.9484    2.5114   -0.0068    0.2362    3.1652   37.0000   37.0000 
10150.0157 3093.7249    7.8750  122.9840   60.3840   75.5470    2.4940   -0.0080    0.2500    3.1040   37.0000   37.0000 
10150.5157 3093.8772    7.8750  119.6380   64.9020   79.4370    2.4700   -0.0100    0.2590    3.1260   37.0000   37.0000 
10151.0157 3094.0295    7.8750  107.7240   73.7420   88.4090    2.4820   -0.0100    0.2570    3.2090   37.0000   37.0000 
10151.5157 3094.1819    7.8750   65.7124  124.5928  144.2602    2.5720   -0.0040    0.1255    3.4933   37.0000   37.0000 
10152.0157 3094.3345    7.8750   49.5740  175.9991  203.1271    2.6190   -0.0010    0.0720    3.6950   18.0000   18.0000 
10152.5157 3094.4868    7.8750   28.3080 1338.5094 1491.0383    2.6760    0.0000    0.0340    4.1850   18.0000   18.0000 
10153.0157 3094.6392    7.8750   27.6460 6192.4445 6076.5866    2.6910   -0.0010    0.0260    4.6380   18.0000   18.0000 
10153.5157 3094.7915    7.8750   41.6868 2110.7599 2178.0768    2.6692   -0.0034    0.0416    4.8262   18.0000   18.0000 
10154.0157 3094.9441    7.8750   51.4370 1003.2719 1014.8779    2.6590   -0.0040    0.0530    4.7890   18.0000   18.0000 
10154.5157 3095.0964    7.8750   66.4860  348.0750  356.1670    2.6440   -0.0030    0.0780    4.5120   18.0000   18.0000 
