~VERSION INFORMATION
 VERS.                 2.0:   CWLS LOG ASCII STANDARD - VERSION 2.0
 WRAP.                  NO:   SINGLE LINE PER DEPTH STEP
 CREA.                 11/12/2017 11:36:24
#CREATED USING DSPetro VERSION 5000.10.1.3 BY H191660 ON 11/12/2017 11:36:24
~WELL INFORMATION
#MNEM.UNIT       DATA                          DESCRIPTION MNEMONIC
#---------      ---------------------------   --------------------------
 STRT    .FT        199.0157                  : START DEPTH
 STOP    .FT        12624.5157                : STOP DEPTH
 STEP    .FT        0.5000                    : STEP VALUE
 NULL    .      -999.0000                     : NULL VALUE
 DATE    .      11/12/2017                    : LAS file Creation Date
 WELL .      U_TEXAS_36994_4200338767 : Well Name
 COMP .                               : Company
 FLD  .      MAGUTEX                  : Field
 UWI  .      KUSWL_338767             : Unique Well Identifier (UWI)
 LOC  .                               : Location
 RWS  .      -999                     : Def_Rw
 WST  .      -999                     : Def_Rwt
 SRVC .                               : Contractor
~CURVE INFORMATION
#MNEM              UNIT       API CODE   Curve Type Comments
#----------  --------------- ----------  ---------- -----------
 DEPTH      .FT                        : Depth       
 DEPTH_(m)  .                          :             
 BitSize    .in                        : BitSize     
 GR_API     .API                       : GammaRay    Gamma Ray (API) - Measures the intensity of natural gamma-ray radiation emitted from formations containing radioactive elements, such as K, Th and U
 LLD_OHMM   .ohmm                      :             Laterlog Deep Resistivity - Measurement made several feet into the formation; generally considered a measurement of the undisturbed formation
 LLS_OHMM   .ohmm                      :             Laterlog Shallow Resistivity - one to two feet into the formation; generally considered to measure the formation
 RHOB_G_CC  .g/cc                      :             Formation Density - Measures the density of formation, including any void space or other materials contained in the subject volume
 DRHO_G_CC  .g/cc                      :             Density Correction - Investigates the correction to the Bulk Density log; used as an indication of hole condition to validate the Bulk Density measure
 NPHI_v/v   .ratio                     :             Enhanced Thermal Neutron Porosity in Selected Lithology
 PEF_B_E    .b/e-                      : PEF         Photoelectric Factor - A log of photoelectric absorption properties. Often expressed in an approximation unit barns/electron (b/e-)
 LITH       .                          : Flag        
 LITH_v2    .                          : Flag        
~A  DEPTH DEPTH_(m)  BitSize    GR_API   LLD_OHMM  LLS_OHMM RHOB_G_C  DRHO_G_C   NPHI_v/v  PEF_B_E     LITH    LITH_v2  
# ...
3499.0157 1066.5000 -999.0000   20.9300 59999.9984  364.6940    2.2800    0.2460   -0.0020   10.0000 -999.0000    3.0000 
3499.5157 1066.6523 -999.0000   19.7550   80.2086  271.7251    2.2620    0.2430   -0.0050   10.0000 -999.0000    3.0000 
3500.0157 1066.8048 -999.0000   18.9420 59999.9984 2139.1240    2.2510    0.2410   -0.0070   10.0000 -999.0000    3.0000 
3500.5157 1066.9572 -999.0000   19.3600  306.9780  417.2086    2.2410    0.2340   -0.0040   10.0000 -999.0000    3.0000 
3501.0157 1067.1096 -999.0000   18.8040   91.9780 60000.0000    2.2380    0.2260    0.0010    9.9720 -999.0000    3.0000 
3501.5157 1067.2620 -999.0000   18.8250  377.3936 60000.0000    2.2340    0.2160    0.0070    9.9720 -999.0000    3.0000 
3502.0157 1067.4144 -999.0000   17.1320 60000.0000 59999.9987    2.2510    0.2180    0.0110    9.9720 -999.0000    3.0000 
3502.5157 1067.5668 -999.0000   14.6470 60000.0000 10751.5496    2.2600    0.2220    0.0060   10.0000 -999.0000    3.0000 
3503.0157 1067.7192 -999.0000   14.1890 59999.9984 1379.9546    2.2860    0.2350    0.0000   10.0000 -999.0000    3.0000 
3503.5157 1067.8716 -999.0000   13.3870  334.0080 60000.0000    2.3310    0.2460   -0.0020   10.0000 -999.0000    3.0000 
3504.0157 1068.0240 -999.0000   15.8720   54.0390 60000.0000    2.3970    0.2600    0.0020   10.0000 -999.0000    3.0000 
3504.5157 1068.1764 -999.0000   17.5650  270.3370 60000.0000    2.4260    0.2640    0.0110   10.0000 -999.0000    3.0000 
3505.0157 1068.3289 -999.0000   20.0350  137.0886 60000.0000    2.3950    0.2560    0.0090   10.0000 -999.0000    3.0000 
3505.5157 1068.4812 -999.0000   19.6410 59999.9987 60000.0000    2.3430    0.2360    0.0090   10.0000 -999.0000    3.0000 
3506.0157 1068.6335 -999.0000   17.9680 10771.7595 59999.9984    2.3070    0.2220    0.0060   10.0000 -999.0000    3.0000 
3506.5157 1068.7860 -999.0000   16.7170   76.3510  144.0893    2.3120    0.2270    0.0080   10.0000 -999.0000    3.0000 
3507.0157 1068.9384 -999.0000   18.4210  123.8000 13195.0797    2.3320    0.2450    0.0070   10.0000 -999.0000    3.0000 
3507.5157 1069.0908 -999.0000   21.1810  170.3770  258.2740    2.3520    0.2620    0.0080   10.0000 -999.0000    3.0000 
3508.0157 1069.2432 -999.0000   23.2940   30.7456   58.3490    2.3570    0.2660    0.0160   10.0000 -999.0000    3.0000 
3508.5157 1069.3956 -999.0000   22.8170 59999.9984  133.0700    2.3510    0.2650    0.0320   10.0000 -999.0000    3.0000 
3509.0157 1069.5480 -999.0000   22.5670   77.7460  182.7571    2.3430    0.2630    0.0620   10.0000 -999.0000    3.0000 
3509.5157 1069.7004 -999.0000   25.4960   25.1510 3641.4528    2.3340    0.2550    0.0900   10.0000 -999.0000    3.0000 
3510.0157 1069.8528 -999.0000   26.9310  151.0256  783.1830    2.3190    0.2430    0.1540   10.0000 -999.0000    3.0000 
3510.5157 1070.0052 -999.0000   33.1560 59999.9984  183.4370    2.3080    0.2340    0.2320   10.0000 -999.0000    3.0000 
3511.0157 1070.1576 -999.0000   41.9430  168.4826 1714.4715    2.2720    0.2230    0.4380   10.0000 -999.0000    3.0000 
3511.5157 1070.3101 -999.0000   53.9270 60000.0000 60000.0000    2.2100    0.2030    0.7780   10.0000 -999.0000    3.0000 
3512.0157 1070.4624 -999.0000   64.3490 59999.9984 59999.9984    2.1560    0.1880    0.6250    9.9700 -999.0000    3.0000 
3512.5157 1070.6147 -999.0000   66.5220  915.0780   78.6283    2.1360    0.1830    0.4310    9.8830 -999.0000    3.0000 
3513.0157 1070.7672 -999.0000   68.9450 1561.7629 11307.1901    2.1420    0.1870    0.4150    9.8110 -999.0000    3.0000 
3513.5157 1070.9196 -999.0000   63.5960   55.7696  244.8410    2.1300    0.1820    0.4570    9.8120 -999.0000    3.0000 
3514.0157 1071.0720 -999.0000   58.4330 60000.0000  725.6310    2.0740    0.1450    0.4650    9.7590 -999.0000    3.0000 
3514.5157 1071.2244 -999.0000   51.8260 60000.0000 1309.4655    2.0680    0.1440    0.4780    9.7480 -999.0000    3.0000 
3515.0157 1071.3768 -999.0000   49.7330 60000.0000 60000.0000    2.0880    0.1470    0.3650    9.6590 -999.0000    3.0000 
3515.5157 1071.5292 -999.0000   48.5580 59999.9984 59999.9984    2.1450    0.1800    0.3160    9.6640 -999.0000    3.0000 
3516.0157 1071.6816 -999.0000   44.7430  191.2416  337.9231    2.1570    0.1810    0.2660    9.6330 -999.0000    3.0000 
3516.5157 1071.8340 -999.0000   42.2330 60000.0000 2208.2816    2.1600    0.1840    0.2800    9.6490 -999.0000    3.0000 
3517.0157 1071.9865 -999.0000   41.7950 59999.9984 60000.0000    2.1490    0.1850    0.3730    9.7250 -999.0000    3.0000 
3517.5157 1072.1388 -999.0000   50.5500  429.2240 60000.0000    2.0890    0.1470    0.4700    9.7430 -999.0000    3.0000 
3518.0157 1072.2913 -999.0000   55.9900  382.9726 59999.9984    1.9950    0.0880    0.7480    9.8170 -999.0000    3.0000 
3518.5157 1072.4436 -999.0000   59.6870 60000.0000   48.8056    1.9180    0.0310    0.7700    9.8450 -999.0000    3.0000 
3519.0157 1072.5959 -999.0000   57.3300 60000.0000 60000.0000    1.9000    0.0130    0.7910    9.9000 -999.0000    3.0000 
3519.5157 1072.7484 -999.0000   52.6710 60000.0000 60000.0000    1.9780    0.0700    0.5680    9.9280 -999.0000    3.0000 
3520.0157 1072.9008 -999.0000   48.1370 60000.0000 60000.0000    2.0810    0.1370    0.4450    9.9590 -999.0000    3.0000 
3520.5157 1073.0532 -999.0000   45.5540 59999.9984 59999.9984    2.1710    0.1970    0.3600   10.0000 -999.0000    3.0000 
3521.0157 1073.2056 -999.0000   45.0700  252.2870  260.8370    2.2110    0.2130    0.3320   10.0000 -999.0000    3.0000 
3521.5157 1073.3580 -999.0000   40.0160  173.8756   10.0116    2.2620    0.2320    0.1020   10.0000 -999.0000    3.0000 
3522.0157 1073.5104 -999.0000   29.9730 59999.9984 59999.9984    2.3350    0.2570    0.0150   10.0000 -999.0000    3.0000 
3522.5157 1073.6628 -999.0000   21.7260   93.7890  616.9986    2.4040    0.2790   -0.0100   10.0000 -999.0000    3.0000 
3523.0157 1073.8152 -999.0000   19.6410  156.0130 59999.9984    2.4360    0.2890   -0.0140   10.0000 -999.0000    3.0000 
3523.5157 1073.9677 -999.0000   23.0010  419.4820  527.1030    2.4620    0.3000   -0.0120   10.0000 -999.0000    3.0000 
3524.0157 1074.1200 -999.0000   20.8940  413.6646  445.4796    2.4640    0.2970   -0.0110   10.0000 -999.0000    3.0000 
3524.5157 1074.2725 -999.0000   18.4240 59999.9984 59999.9984    2.4660    0.2930   -0.0060   10.0000 -999.0000    3.0000 
3525.0157 1074.4248 -999.0000   15.8720  314.5660  491.7576    2.4590    0.2890   -0.0010   10.0000 -999.0000    3.0000 
3525.5157 1074.5771 -999.0000   18.3990   58.4376 60000.0000    2.4640    0.2850    0.0090   10.0000 -999.0000    3.0000 
3526.0157 1074.7296 -999.0000   20.8690 60000.0000 60000.0000    2.4780    0.2860    0.0110   10.0000 -999.0000    3.0000 
3526.5157 1074.8820 -999.0000   20.8970 60000.0000 59999.9984    2.4880    0.2860    0.0190   10.0000 -999.0000    3.0000 
3527.0157 1075.0344 -999.0000   21.3150 60000.0000 1319.9016    2.5040    0.2930    0.0180   10.0000 -999.0000    3.0000 
3527.5157 1075.1868 -999.0000   22.1490 59999.9984 60000.0000    2.5070    0.2950    0.0250   10.0000 -999.0000    3.0000 
3528.0157 1075.3392 -999.0000   20.0770  179.4486 60000.0000    2.5080    0.2970    0.0240   10.0000 -999.0000    3.0000 
3528.5157 1075.4916 -999.0000   19.6340 59999.9984 59999.9984    2.5010    0.2950    0.0340   10.0000 -999.0000    3.0000 
3529.0157 1075.6440 -999.0000   23.8610  118.0690  591.8380    2.4980    0.2930    0.0350   10.0000 -999.0000    3.0000 
3529.5157 1075.7964 -999.0000   34.6590  181.8756  281.9336    2.4880    0.2860    0.0560   10.0000 -999.0000    3.0000 
3530.0157 1075.9489 -999.0000   43.1100 60000.0000 60000.0000    2.4530    0.2710    0.0880   10.0000 -999.0000    3.0000 
3530.5157 1076.1012 -999.0000   47.6370 59999.9984 59999.9984    2.3840    0.2470    0.1320   10.0000 -999.0000    3.0000 
3531.0157 1076.2535 -999.0000   48.5350  210.1466  170.9736    2.3290    0.2270    0.1820   10.0000 -999.0000    3.0000 
3531.5157 1076.4060 -999.0000   52.3130 60000.0000 60000.0000    2.3040    0.2170    0.2540    9.9920 -999.0000    3.0000 
