~VERSION INFORMATION
 VERS.                 2.0:   CWLS LOG ASCII STANDARD - VERSION 2.0
 WRAP.                  NO:   SINGLE LINE PER DEPTH STEP
 CREA.                 11/12/2017 11:36:24
#CREATED USING DSPetro VERSION 5000.10.1.3 BY H191660 ON 11/12/2017 11:36:24
~WELL INFORMATION
#MNEM.UNIT       DATA                          DESCRIPTION MNEMONIC
#---------      ---------------------------   --------------------------
 STRT    .FT        199.0157                  : START DEPTH
 STOP    .FT        12624.5157                : STOP DEPTH
 STEP    .FT        0.5000                    : STEP VALUE
 NULL    .      -999.0000                     : NULL VALUE
 DATE    .      11/12/2017                    : LAS file Creation Date
 WELL .      U_TEXAS_36994_4200338767 : Well Name
 COMP .                               : Company
 FLD  .      MAGUTEX                  : Field
 UWI  .      KUSWL_338767             : Unique Well Identifier (UWI)
 LOC  .                               : Location
 RWS  .      -999                     : Def_Rw
 WST  .      -999                     : Def_Rwt
 SRVC .                               : Contractor
~CURVE INFORMATION
#MNEM              UNIT       API CODE   Curve Type Comments
#----------  --------------- ----------  ---------- -----------
 DEPTH      .FT                        : Depth       
 DEPTH_(m)  .                          :             
 BitSize    .in                        : BitSize     
 GR_API     .API                       : GammaRay    Gamma Ray (API) - Measures the intensity of natural gamma-ray radiation emitted from formations containing radioactive elements, such as K, Th and U
 LLD_OHMM   .ohmm                      :             Laterlog Deep Resistivity - Measurement made several feet into the formation; generally considered a measurement of the undisturbed formation
 LLS_OHMM   .ohmm                      :             Laterlog Shallow Resistivity - one to two feet into the formation; generally considered to measure the formation
 RHOB_G_CC  .g/cc                      :             Formation Density - Measures the density of formation, including any void space or other materials contained in the subject volume
 DRHO_G_CC  .g/cc                      :             Density Correction - Investigates the correction to the Bulk Density log; used as an indication of hole condition to validate the Bulk Density measure
 NPHI_v/v   .ratio                     :             Enhanced Thermal Neutron Porosity in Selected Lithology
 PEF_B_E    .b/e-                      : PEF         Photoelectric Factor - A log of photoelectric absorption properties. Often expressed in an approximation unit barns/electron (b/e-)
 LITH       .                          : Flag        
 LITH_v2    .                          : Flag        
~A  DEPTH DEPTH_(m)  BitSize    GR_API   LLD_OHMM  LLS_OHMM RHOB_G_C  DRHO_G_C   NPHI_v/v  PEF_B_E     LITH    LITH_v2  
# ...
1849.0157  563.5800 -999.0000   58.2880 60000.0000 59999.9992    2.0070    0.1660    0.2890    8.7490 -999.0000    3.0000 
1849.5157  563.7324 -999.0000   52.5430 59999.9992 2277.1499    2.0100    0.1720    0.3040    8.9090 -999.0000    3.0000 
1850.0157  563.8848 -999.0000   48.9300  344.1078  160.8070    2.0100    0.1730    0.3330    9.0410 -999.0000    3.0000 
1850.5157  564.0372 -999.0000   49.5390 59999.9992  336.3528    2.0110    0.1680    0.3190    9.1050 -999.0000    3.0000 
1851.0157  564.1896 -999.0000   52.9550   96.2900 59999.9992    2.0120    0.1630    0.3000    9.1340 -999.0000    3.0000 
1851.5157  564.3420 -999.0000   58.3070  157.8738 2649.8596    2.0170    0.1630    0.3020    9.2210 -999.0000    3.0000 
1852.0157  564.4944 -999.0000   59.8240 59999.9992 59999.9992    2.0250    0.1670    0.3210    9.3490 -999.0000    3.0000 
1852.5157  564.6468 -999.0000   59.9190  889.0988  655.9698    2.0320    0.1740    0.2940    9.5090 -999.0000    3.0000 
1853.0157  564.7992 -999.0000   60.2640 60000.0000 60000.0000    2.0280    0.1730    0.2650    9.5910 -999.0000    3.0000 
1853.5157  564.9516 -999.0000   58.1380 59999.9992 59999.9992    2.0190    0.1690    0.2860    9.6460 -999.0000    3.0000 
1854.0157  565.1040 -999.0000   62.9960   76.9688  555.7508    2.0140    0.1620    0.2900    9.6780 -999.0000    3.0000 
1854.5157  565.2564 -999.0000   61.7450 59999.9992 59999.9992    2.0210    0.1610    0.3450    9.7060 -999.0000    3.0000 
1855.0157  565.4088 -999.0000   62.2790  554.8720   83.6560    2.0370    0.1660    0.2740    9.6990 -999.0000    3.0000 
1855.5157  565.5612 -999.0000   61.8900  143.7160  114.5678    2.0440    0.1670    0.2790    9.6480 -999.0000    3.0000 
1856.0157  565.7136 -999.0000   62.7950   98.5598 59999.9992    2.0450    0.1600    0.2430    9.5860 -999.0000    3.0000 
1856.5157  565.8660 -999.0000   59.3850 60000.0000    9.4380    2.0350    0.1460    0.2500    9.5250 -999.0000    3.0000 
1857.0157  566.0184 -999.0000   61.8670 60000.0000  147.9300    1.9860    0.0990    0.2460    9.4610 -999.0000    3.0000 
1857.5157  566.1708 -999.0000   62.7290 60000.0000 2281.7078    1.9370    0.0590    0.2460    9.4080 -999.0000    3.0000 
1858.0157  566.3232 -999.0000   67.7310 59999.9992 59999.9992    1.9220    0.0520    0.2870    9.3980 -999.0000    3.0000 
1858.5157  566.4756 -999.0000   65.8090  723.5998 1102.7718    1.9370    0.0690    0.3530    9.3960 -999.0000    3.0000 
1859.0157  566.6280 -999.0000   71.1280 59999.9992 60000.0000    1.9340    0.0700    0.4500    9.3510 -999.0000    3.0000 
1859.5157  566.7804 -999.0000   78.4980  187.4968 60000.0000    1.9450    0.0810    0.4300    9.3270 -999.0000    3.0000 
1860.0157  566.9328 -999.0000   77.4920 59999.9993 60000.0000    1.9680    0.1040    0.4530    9.2650 -999.0000    3.0000 
1860.5157  567.0852 -999.0000   76.5190 7727.3168 60000.0000    2.0130    0.1460    0.4100    9.2190 -999.0000    3.0000 
1861.0157  567.2376 -999.0000   70.0670  202.6848 60000.0000    2.0170    0.1510    0.3650    9.0660 -999.0000    3.0000 
1861.5157  567.3900 -999.0000   65.4640 60000.0000 59999.9992    2.0220    0.1560    0.3150    8.9820 -999.0000    3.0000 
1862.0157  567.5424 -999.0000   64.4690 60000.0000  109.5960    2.0220    0.1570    0.2610    8.9120 -999.0000    3.0000 
1862.5157  567.6948 -999.0000   54.3800 60000.0000  147.6738    2.0150    0.1570    0.2870    8.8490 -999.0000    3.0000 
1863.0157  567.8472 -999.0000   55.5200 60000.0000 60000.0000    2.0120    0.1600    0.2310    8.8040 -999.0000    3.0000 
1863.5157  567.9996 -999.0000   54.5690 60000.0000 59999.9992    2.0090    0.1670    0.2520    8.7780 -999.0000    3.0000 
1864.0157  568.1520 -999.0000   56.7630 59999.9992  272.4880    2.0190    0.1770    0.2190    8.7630 -999.0000    3.0000 
1864.5157  568.3044 -999.0000   53.3310  264.8858   14.7740    2.0270    0.1860    0.2410    8.7240 -999.0000    3.0000 
1865.0157  568.4568 -999.0000   46.3020 59999.9992  775.4230    2.0400    0.1960    0.1950    8.6510 -999.0000    3.0000 
1865.5157  568.6092 -999.0000   44.3860  109.1960  258.0118    2.0390    0.2000    0.1770    8.5970 -999.0000    3.0000 
1866.0157  568.7616 -999.0000   46.6780  318.9338 60000.0000    2.0280    0.1990    0.1810    8.5640 -999.0000    3.0000 
1866.5157  568.9140 -999.0000   49.1210 60000.0000 60000.0000    2.0240    0.1990    0.2060    8.5720 -999.0000    3.0000 
1867.0157  569.0664 -999.0000   58.6820 59999.9992 60000.0000    2.0320    0.1990    0.2500    8.5940 -999.0000    3.0000 
1867.5157  569.2188 -999.0000   63.2850   37.3748 60000.0000    2.0490    0.2050    0.2260    8.6620 -999.0000    3.0000 
1868.0157  569.3712 -999.0000   67.5920 60000.0000 60000.0000    2.0580    0.2090    0.1980    8.7570 -999.0000    3.0000 
1868.5157  569.5236 -999.0000   70.8690 60000.0000 60000.0000    2.0600    0.2140    0.2090    8.8830 -999.0000    3.0000 
1869.0157  569.6760 -999.0000   73.7010 60000.0000 59999.9992    2.0600    0.2140    0.2560    8.9900 -999.0000    3.0000 
1869.5157  569.8284 -999.0000   72.1360 59999.9992    1.4550    2.0620    0.2120    0.2730    9.0830 -999.0000    3.0000 
1870.0157  569.9808 -999.0000   61.5230  259.9650  388.8470    2.0650    0.2110    0.2820    9.1690 -999.0000    3.0000 
1870.5157  570.1332 -999.0000   52.9940  156.6970 2483.9460    2.0750    0.2130    0.2600    9.2480 -999.0000    3.0000 
1871.0157  570.2856 -999.0000   47.7490    5.2990  527.1600    2.0840    0.2160    0.2100    9.3570 -999.0000    3.0000 
1871.5157  570.4380 -999.0000   47.8240  237.9918  534.2808    2.0950    0.2180    0.1590    9.5020 -999.0000    3.0000 
1872.0157  570.5904 -999.0000   48.0820 59999.9994 60000.0000    2.1000    0.2150    0.1480    9.6270 -999.0000    3.0000 
1872.5157  570.7428 -999.0000   51.9050 12598.9108 59999.9992    2.1090    0.2070    0.1770    9.6690 -999.0000    3.0000 
1873.0157  570.8952 -999.0000   58.6090 59999.9992   19.4040    2.1120    0.1980    0.2570    9.6530 -999.0000    3.0000 
1873.5157  571.0476 -999.0000   63.1290  182.2050  373.7560    2.1160    0.1930    0.2970    9.6830 -999.0000    3.0000 
1874.0157  571.2000 -999.0000   65.6670  134.8200  730.2508    2.1070    0.1850    0.3200    9.7800 -999.0000    3.0000 
1874.5157  571.3524 -999.0000   68.4770   64.9948 60000.0000    2.1060    0.1770    0.2700    9.8560 -999.0000    3.0000 
1875.0157  571.5048 -999.0000   60.1900 60000.0000 60000.0000    2.1110    0.1710    0.2040    9.8960 -999.0000    3.0000 
1875.5157  571.6572 -999.0000   51.7440 60000.0000 60000.0000    2.1270    0.1760    0.1480    9.9250 -999.0000    3.0000 
1876.0157  571.8096 -999.0000   45.2090 60000.0000 60000.0000    2.1350    0.1840    0.1160    9.9720 -999.0000    3.0000 
1876.5157  571.9620 -999.0000   45.8520 59999.9992 59999.9992    2.1340    0.1920    0.1140   10.0000 -999.0000    3.0000 
1877.0157  572.1144 -999.0000   52.1790    2.6098   98.8520    2.1380    0.1970    0.1480   10.0000 -999.0000    3.0000 
1877.5157  572.2668 -999.0000   49.5430 60000.0000   11.3528    2.1370    0.1930    0.1790   10.0000 -999.0000    3.0000 
1878.0157  572.4192 -999.0000   57.4360 60000.0000 60000.0000    2.1410    0.1870    0.2430   10.0000 -999.0000    3.0000 
1878.5157  572.5716 -999.0000   72.0810 59999.9992 59999.9992    2.1420    0.1830    0.2440   10.0000 -999.0000    3.0000 
1879.0157  572.7240 -999.0000   86.1160  330.6668  216.1700    2.1460    0.1880    0.2910   10.0000 -999.0000    3.0000 
1879.5157  572.8764 -999.0000   83.4380 60000.0000 1132.6578    2.1520    0.1900    0.2210   10.0000 -999.0000    3.0000 
1880.0157  573.0288 -999.0000   63.7720 60000.0000 59999.9992    2.1590    0.1850    0.1910   10.0000 -999.0000    3.0000 
1880.5157  573.1812 -999.0000   53.3050 60000.0000  202.8388    2.1680    0.1780    0.1620   10.0000 -999.0000    3.0000 
1881.0157  573.3336 -999.0000   49.0630 59999.9992 59999.9992    2.1890    0.1720    0.1680   10.0000 -999.0000    3.0000 
1881.5157  573.4860 -999.0000   52.2930  157.3608 2953.7598    2.2400    0.1760    0.1900   10.0000 -999.0000    3.0000 
