~VERSION INFORMATION
 VERS.                 2.0:   CWLS LOG ASCII STANDARD - VERSION 2.0
 WRAP.                  NO:   SINGLE LINE PER DEPTH STEP
 CREA.                 11/12/2017 11:36:24
#CREATED USING DSPetro VERSION 5000.10.1.3 BY H191660 ON 11/12/2017 11:36:24
~WELL INFORMATION
#MNEM.UNIT       DATA                          DESCRIPTION MNEMONIC
#---------      ---------------------------   --------------------------
 STRT    .FT        199.0157                  : START DEPTH
 STOP    .FT        12624.5157                : STOP DEPTH
 STEP    .FT        0.5000                    : STEP VALUE
 NULL    .      -999.0000                     : NULL VALUE
 DATE    .      11/12/2017                    : LAS file Creation Date
 WELL .      U_TEXAS_36994_4200338767 : Well Name
 COMP .                               : Company
 FLD  .      MAGUTEX                  : Field
 UWI  .      KUSWL_338767             : Unique Well Identifier (UWI)
 LOC  .                               : Location
 RWS  .      -999                     : Def_Rw
 WST  .      -999                     : Def_Rwt
 SRVC .                               : Contractor
~CURVE INFORMATION
#MNEM              UNIT       API CODE   Curve Type Comments
#----------  --------------- ----------  ---------- -----------
 DEPTH      .FT                        : Depth       
 DEPTH_(m)  .                          :             
 BitSize    .in                        : BitSize     
 GR_API     .API                       : GammaRay    Gamma Ray (API) - Measures the intensity of natural gamma-ray radiation emitted from formations containing radioactive elements, such as K, Th and U
 LLD_OHMM   .ohmm                      :             Laterlog Deep Resistivity - Measurement made several feet into the formation; generally considered a measurement of the undisturbed formation
 LLS_OHMM   .ohmm                      :             Laterlog Shallow Resistivity - one to two feet into the formation; generally considered to measure the formation
 RHOB_G_CC  .g/cc                      :             Formation Density - Measures the density of formation, including any void space or other materials contained in the subject volume
 DRHO_G_CC  .g/cc                      :             Density Correction - Investigates the correction to the Bulk Density log; used as an indication of hole condition to validate the Bulk Density measure
 NPHI_v/v   .ratio                     :             Enhanced Thermal Neutron Porosity in Selected Lithology
 PEF_B_E    .b/e-                      : PEF         Photoelectric Factor - A log of photoelectric absorption properties. Often expressed in an approximation unit barns/electron (b/e-)
 LITH       .                          : Flag        
 LITH_v2    .                          : Flag        
~A  DEPTH DEPTH_(m)  BitSize    GR_API   LLD_OHMM  LLS_OHMM RHOB_G_C  DRHO_G_C   NPHI_v/v  PEF_B_E     LITH    LITH_v2  
# ...
7611.5157 2319.9900    7.8750   62.1040   80.2200   91.4660    2.6070   -0.0030    0.1300    4.3960   22.0000   22.0000 
7612.0157 2320.1423    7.8750   68.0720   68.5470   78.2300    2.5930   -0.0030    0.1410    4.4330   22.0000   22.0000 
7612.5157 2320.2949    7.8750   63.7750   58.4160   66.5240    2.5810   -0.0040    0.1410    4.4200   22.0000   22.0000 
7613.0157 2320.4473    7.8750   62.9380   51.0270   57.9660    2.5850   -0.0030    0.1570    4.3230   22.0000   22.0000 
7613.5157 2320.5996    7.8750   57.4470   51.6560   58.5380    2.5990   -0.0010    0.1620    4.1750   22.0000   22.0000 
7614.0157 2320.7520    7.8750   55.0600   59.4350   66.9690    2.6030    0.0000    0.1720    4.1180   22.0000   22.0000 
7614.5157 2320.9043    7.8750   52.7580   81.9270   91.5620    2.5980    0.0010    0.1650    4.1380   22.0000   22.0000 
7615.0157 2321.0569    7.8750   52.5200  111.0620  123.0830    2.5780   -0.0010    0.1600    4.2630   22.0000   22.0000 
7615.5157 2321.2092    7.8750   52.0420  135.8520  148.8020    2.5640   -0.0030    0.1500    4.3680   22.0000   22.0000 
7616.0157 2321.3616    7.8750   49.1130  151.9750  163.5050    2.5580   -0.0040    0.1600    4.4360   22.0000   22.0000 
7616.5157 2321.5139    7.8750   51.7390  164.8630  174.1840    2.5570   -0.0040    0.1540    4.4680   22.0000   22.0000 
7617.0157 2321.6665    7.8750   50.4520  182.5410  188.6580    2.5530   -0.0030    0.1630    4.5000   37.0000   22.0000 
7617.5157 2321.8188    7.8750   48.6060  207.5120  210.9920    2.5430    0.0040    0.1450    4.5680   18.0000   18.0000 
7618.0157 2321.9712    7.8750   45.8570  250.1610  251.5000    2.5500    0.0200    0.1330    4.5950   18.0000   18.0000 
7618.5157 2322.1235    7.8750   46.6670  289.9270  291.8780    2.5680    0.0340    0.1110    4.6190   18.0000   18.0000 
7619.0157 2322.2759    7.8750   44.7570  310.7880  313.9840    2.5790    0.0260    0.1010    4.6850   18.0000   18.0000 
7619.5157 2322.4285    7.8750   37.0160  311.1040  314.6140    2.5900    0.0110    0.1000    4.7110   18.0000   18.0000 
7620.0157 2322.5808    7.8750   35.3450  305.0130  309.7510    2.5980   -0.0010    0.1050    4.6820   18.0000   18.0000 
7620.5157 2322.7332    7.8750   40.8350  285.7680  292.2750    2.6040    0.0000    0.1160    4.6190   18.0000   18.0000 
7621.0157 2322.8855    7.8750   49.6230  266.5750  275.7180    2.5940   -0.0020    0.1260    4.6490   18.0000   18.0000 
7621.5157 2323.0381    7.8750   54.8750  247.5880  260.5610    2.5830   -0.0040    0.1270    4.7140   18.0000   18.0000 
7622.0157 2323.1904    7.8750   55.1140  240.2190  257.9440    2.5880   -0.0040    0.1250    4.7060   18.0000   18.0000 
7622.5157 2323.3428    7.8750   58.0430  211.9760  231.9420    2.5950   -0.0040    0.1260    4.6760   18.0000   18.0000 
7623.0157 2323.4951    7.8750   54.7000  183.3770  203.5710    2.5980   -0.0030    0.1220    4.6430   18.0000   18.0000 
7623.5157 2323.6477    7.8750   57.9570  147.0050  164.6180    2.5830   -0.0050    0.1240    4.6940   18.0000   18.0000 
7624.0157 2323.8000    7.8750   60.3120  119.6150  134.5780    2.5730   -0.0040    0.1380    4.6810   18.0000   18.0000 
7624.5157 2323.9524    7.8750   64.8480   98.6670  111.1470    2.5530   -0.0070    0.1580    4.6810   18.0000   18.0000 
7625.0157 2324.1047    7.8750   66.5220   96.6660  108.6810    2.5380   -0.0080    0.1700    4.5780   18.0000   18.0000 
7625.5157 2324.2571    7.8750   67.2380  104.4020  116.7210    2.5350   -0.0080    0.1670    4.4230   37.0000   22.0000 
7626.0157 2324.4097    7.8750   64.4130  116.7660  130.2740    2.5420   -0.0060    0.1620    4.2860   22.0000   22.0000 
7626.5157 2324.5620    7.8750   58.5230  123.8640  138.3090    2.5460   -0.0040    0.1560    4.2790   22.0000   22.0000 
7627.0157 2324.7144    7.8750   51.3620  146.1020  162.8570    2.5340    0.0000    0.1570    4.4420   22.0000   22.0000 
7627.5157 2324.8667    7.8750   51.3220  174.4650  193.6190    2.5300    0.0080    0.1510    4.5620   18.0000   18.0000 
7628.0157 2325.0193    7.8750   50.3710  221.1040  242.5810    2.5330    0.0080    0.1350    4.6180   18.0000   18.0000 
7628.5157 2325.1716    7.8750   49.4160  231.0490  249.0890    2.5380    0.0030    0.1220    4.6610   18.0000   18.0000 
7629.0157 2325.3240    7.8750   49.4160  196.7650  209.4090    2.5440   -0.0060    0.1150    4.6980   18.0000   18.0000 
7629.5157 2325.4763    7.8750   51.5650  157.3030  165.5160    2.5560   -0.0060    0.1190    4.7120   18.0000   18.0000 
7630.0157 2325.6289    7.8750   53.9890  135.3460  141.2500    2.5780   -0.0050    0.1220    4.6660   18.0000   18.0000 
7630.5157 2325.7813    7.8750   51.2400  147.0890  152.5840    2.5940   -0.0060    0.1220    4.6700   18.0000   18.0000 
7631.0157 2325.9336    7.8750   47.4200  179.5890  186.5470    2.6030   -0.0060    0.1110    4.7090   18.0000   18.0000 
7631.5157 2326.0859    7.8750   44.6010  224.7780  234.9630    2.6160    0.0050    0.1030    4.6850   18.0000   18.0000 
7632.0157 2326.2383    7.8750   44.2470  237.4100  252.1870    2.6200    0.0200    0.1040    4.6800   18.0000   18.0000 
7632.5157 2326.3909    7.8750   46.9090  224.4350  240.5750    2.6180    0.0400    0.1200    4.6140   37.0000   22.0000 
7633.0157 2326.5432    7.8750   54.6090  200.8420  215.0410    2.5930    0.0400    0.1420    4.6130   22.0000   22.0000 
7633.5157 2326.6956    7.8750   66.3060  164.9350  175.9270    2.5630    0.0260    0.1600    4.5370   22.0000   22.0000 
7634.0157 2326.8479    7.8750   72.5260  124.4200  132.9690    2.5390    0.0180    0.1750    4.3820   22.0000   22.0000 
7634.5157 2327.0005    7.8750   75.6590   91.0260   97.8160    2.5170    0.0120    0.1980    4.2440   22.0000   22.0000 
7635.0157 2327.1528    7.8750   69.4970   82.0780   88.4050    2.5120    0.0090    0.2140    4.1390   22.0000   22.0000 
7635.5157 2327.3052    7.8750   62.7640   95.4130  102.7530    2.5210   -0.0030    0.1930    4.1390   22.0000   22.0000 
7636.0157 2327.4575    7.8750   58.1690  119.2550  128.3140    2.5380   -0.0070    0.1580    4.1930   22.0000   22.0000 
7636.5157 2327.6101    7.8750   58.1690  105.8470  113.7800    2.5560   -0.0040    0.1480    4.2290   22.0000   22.0000 
7637.0157 2327.7625    7.8750   60.7310   90.5750   97.3270    2.5540   -0.0030    0.1650    4.2870   22.0000   22.0000 
7637.5157 2327.9148    7.8750   57.0360   98.0770  104.5460    2.5600   -0.0020    0.1620    4.2800   22.0000   22.0000 
7638.0157 2328.0671    7.8750   56.5570  126.7830  133.5560    2.5620   -0.0030    0.1420    4.3660   37.0000   22.0000 
7638.5157 2328.2195    7.8750   50.9190  148.6870  154.4480    2.5710   -0.0040    0.1230    4.4780   18.0000   22.0000 
7639.0157 2328.3721    7.8750   49.9990  149.9640  153.8760    2.5890   -0.0020    0.1130    4.5820   18.0000   18.0000 
7639.5157 2328.5244    7.8750   51.1430  154.7240  157.0260    2.6120   -0.0030    0.1040    4.6560   18.0000   18.0000 
7640.0157 2328.6768    7.8750   60.6650  141.0480  140.7130    2.6300   -0.0010    0.1050    4.7270   18.0000   18.0000 
7640.5157 2328.8291    7.8750   71.6700  131.5320  129.4090    2.6210   -0.0030    0.1000    4.8530   18.0000   18.0000 
7641.0157 2328.9817    7.8750   68.1200  116.7630  113.3320    2.6170   -0.0010    0.1020    4.9550   18.0000   18.0000 
7641.5157 2329.1340    7.8750   64.1020  128.8750  124.0160    2.6180   -0.0010    0.0880    5.0770   18.0000   18.0000 
7642.0157 2329.2864    7.8750   50.6750  149.9770  142.9430    2.6370    0.0060    0.0790    5.1920   18.0000   18.0000 
7642.5157 2329.4387    7.8750   51.9280  199.6670  187.8890    2.6540    0.0050    0.0620    5.2760   18.0000   18.0000 
7643.0157 2329.5913    7.8750   48.3390  210.5560  193.8160    2.6600    0.0020    0.0600    5.3280   18.0000   18.0000 
7643.5157 2329.7437    7.8750   51.4080  190.9730  172.3010    2.6680   -0.0050    0.0600    5.2570   18.0000   18.0000 
7644.0157 2329.8960    7.8750   45.3840  153.1790  136.4440    2.6810   -0.0030    0.0580    5.1380   18.0000   18.0000 
7644.5157 2330.0483    7.8750   46.3070  146.4490  128.9460    2.6890   -0.0030    0.0530    5.0680   18.0000   18.0000 
