~VERSION INFORMATION
 VERS.                 2.0:   CWLS LOG ASCII STANDARD - VERSION 2.0
 WRAP.                  NO:   SINGLE LINE PER DEPTH STEP
 CREA.                 11/12/2017 11:36:24
#CREATED USING DSPetro VERSION 5000.10.1.3 BY H191660 ON 11/12/2017 11:36:24
~WELL INFORMATION
#MNEM.UNIT       DATA                          DESCRIPTION MNEMONIC
#---------      ---------------------------   --------------------------
 STRT    .FT        199.0157                  : START DEPTH
 STOP    .FT        12624.5157                : STOP DEPTH
 STEP    .FT        0.5000                    : STEP VALUE
 NULL    .      -999.0000                     : NULL VALUE
 DATE    .      11/12/2017                    : LAS file Creation Date
 WELL .      U_TEXAS_36994_4200338767 : Well Name
 COMP .                               : Company
 FLD  .      MAGUTEX                  : Field
 UWI  .      KUSWL_338767             : Unique Well Identifier (UWI)
 LOC  .                               : Location
 RWS  .      -999                     : Def_Rw
 WST  .      -999                     : Def_Rwt
 SRVC .                               : Contractor
~CURVE INFORMATION
#MNEM              UNIT       API CODE   Curve Type Comments
#----------  --------------- ----------  ---------- -----------
 DEPTH      .FT                        : Depth       
 DEPTH_(m)  .                          :             
 BitSize    .in                        : BitSize     
 GR_API     .API                       : GammaRay    Gamma Ray (API) - Measures the intensity of natural gamma-ray radiation emitted from formations containing radioactive elements, such as K, Th and U
 LLD_OHMM   .ohmm                      :             Laterlog Deep Resistivity - Measurement made several feet into the formation; generally considered a measurement of the undisturbed formation
 LLS_OHMM   .ohmm                      :             Laterlog Shallow Resistivity - one to two feet into the formation; generally considered to measure the formation
 RHOB_G_CC  .g/cc                      :             Formation Density - Measures the density of formation, including any void space or other materials contained in the subject volume
 DRHO_G_CC  .g/cc                      :             Density Correction - Investigates the correction to the Bulk Density log; used as an indication of hole condition to validate the Bulk Density measure
 NPHI_v/v   .ratio                     :             Enhanced Thermal Neutron Porosity in Selected Lithology
 PEF_B_E    .b/e-                      : PEF         Photoelectric Factor - A log of photoelectric absorption properties. Often expressed in an approximation unit barns/electron (b/e-)
 LITH       .                          : Flag        
 LITH_v2    .                          : Flag        
~A  DEPTH DEPTH_(m)  BitSize    GR_API   LLD_OHMM  LLS_OHMM RHOB_G_C  DRHO_G_C   NPHI_v/v  PEF_B_E     LITH    LITH_v2  
# ...
5974.0157 1820.8800 -999.0000   68.7010 59999.9972 60000.0000    2.4120    0.3040    0.1340   10.0000 -999.0000    3.0000 
5974.5157 1821.0323 -999.0000   68.9590   30.7188 59999.9973    2.4220    0.3070    0.1370   10.0000 -999.0000    3.0000 
5975.0157 1821.1848 -999.0000   69.7920 59999.9974 2216.5347    2.4350    0.3060    0.1460   10.0000 -999.0000    3.0000 
5975.5157 1821.3372 -999.0000   61.0050 3973.2369 60000.0000    2.4220    0.2900    0.1340   10.0000 -999.0000    3.0000 
5976.0157 1821.4896 -999.0000   63.4410   56.1048 59999.9972    2.4110    0.2810    0.1410   10.0000 -999.0000    3.0000 
5976.5157 1821.6420 -999.0000   62.7760 59999.9972   77.3880    2.3970    0.2770    0.1540   10.0000 -999.0000    3.0000 
5977.0157 1821.7944 -999.0000   60.2000  146.2373   71.8042    2.3980    0.2850    0.1430   10.0000 -999.0000    3.0000 
5977.5157 1821.9468 -999.0000   64.4590 28463.7710 4341.7238    2.4000    0.2900    0.1260   10.0000 -999.0000    3.0000 
5978.0157 1822.0992 -999.0000   63.5380 59999.9973 60000.0000    2.4000    0.2890    0.1130   10.0000 -999.0000    3.0000 
5978.5157 1822.2516 -999.0000   61.8700  875.0278 60000.0000    2.4110    0.2880    0.0890   10.0000 -999.0000    3.0000 
5979.0157 1822.4041 -999.0000   55.5930 60000.0000 60000.0000    2.4200    0.2910    0.0900   10.0000 -999.0000    3.0000 
5979.5157 1822.5564 -999.0000   53.8450 60000.0000 59999.9973    2.4300    0.3020    0.0890   10.0000 -999.0000    3.0000 
5980.0157 1822.7087 -999.0000   59.0040 60000.0000 1654.5256    2.4380    0.3060    0.1040   10.0000 -999.0000    3.0000 
5980.5157 1822.8612 -999.0000   68.1080 60000.0000 59999.9972    2.4260    0.2930    0.1100   10.0000 -999.0000    3.0000 
5981.0157 1823.0135 -999.0000   75.7150 59999.9972  334.0210    2.4190    0.2750    0.1310   10.0000 -999.0000    3.0000 
5981.5157 1823.1660 -999.0000   80.2390  526.5150  505.1617    2.4040    0.2600    0.1690   10.0000 -999.0000    3.0000 
5982.0157 1823.3184 -999.0000   79.2670  757.9448 60000.0000    2.4060    0.2620    0.1730   10.0000 -999.0000    3.0000 
5982.5157 1823.4708 -999.0000   71.7350 59999.9973 59999.9972    2.4040    0.2700    0.1720   10.0000 -999.0000    3.0000 
5983.0157 1823.6232 -999.0000   62.5290  716.4868  557.3057    2.4160    0.2830    0.1400   10.0000 -999.0000    3.0000 
5983.5157 1823.7756 -999.0000   59.0000 60000.0000 60000.0000    2.4270    0.2850    0.1350   10.0000 -999.0000    3.0000 
5984.0157 1823.9280 -999.0000   58.9250 60000.0000 59999.9973    2.4350    0.2800    0.1390   10.0000 -999.0000    3.0000 
5984.5157 1824.0804 -999.0000   59.3440 60000.0000  596.1047    2.4280    0.2720    0.1610   10.0000 -999.0000    3.0000 
5985.0157 1824.2328 -999.0000   58.9820 60000.0000 60000.0000    2.4270    0.2710    0.1660   10.0000 -999.0000    3.0000 
5985.5157 1824.3853 -999.0000   61.6520 59999.9973 60000.0000    2.4360    0.2790    0.1560   10.0000 -999.0000    3.0000 
5986.0157 1824.5376 -999.0000   64.5080 1409.3559 59999.9973    2.4380    0.2790    0.1700   10.0000 -999.0000    3.0000 
5986.5157 1824.6899 -999.0000   64.0330  228.0638  841.9167    2.4300    0.2740    0.1690   10.0000 -999.0000    3.0000 
5987.0157 1824.8424 -999.0000   66.4590 59999.9972 59999.9972    2.4180    0.2690    0.1690   10.0000 -999.0000    3.0000 
5987.5157 1824.9948 -999.0000   66.0420   83.8410  173.9588    2.4140    0.2710    0.1540   10.0000 -999.0000    3.0000 
5988.0157 1825.1472 -999.0000   63.1130  660.2841 59999.9973    2.4210    0.2760    0.1420   10.0000 -999.0000    3.0000 
5988.5157 1825.2996 -999.0000   55.7930 2288.4130 2312.2990    2.4250    0.2790    0.1500   10.0000 -999.0000    3.0000 
5989.0157 1825.4520 -999.0000   56.3570  217.2158  154.3778    2.4210    0.2780    0.1670   10.0000 -999.0000    3.0000 
5989.5157 1825.6044 -999.0000   60.4560 59999.9972 60000.0000    2.4150    0.2810    0.2060   10.0000 -999.0000    3.0000 
5990.0157 1825.7568 -999.0000   66.9390  345.1590 60000.0000    2.4090    0.2800    0.2040   10.0000 -999.0000    3.0000 
5990.5157 1825.9092 -999.0000   63.5170  232.9070 60000.0000    2.4120    0.2720    0.2240   10.0000 -999.0000    3.0000 
5991.0157 1826.0616 -999.0000   58.0980  107.4580 59999.9972    2.4140    0.2590    0.1860   10.0000 -999.0000    3.0000 
5991.5157 1826.2140 -999.0000   53.9130  164.4160  489.6278    2.4030    0.2500    0.1830   10.0000 -999.0000    3.0000 
5992.0157 1826.3665 -999.0000   58.2630   18.7568 60000.0000    2.3960    0.2500    0.1620   10.0000 -999.0000    3.0000 
5992.5157 1826.5188 -999.0000   59.1660 60000.0000 59999.9973    2.3850    0.2500    0.1930   10.0000 -999.0000    3.0000 
5993.0157 1826.6711 -999.0000   55.7560 59999.9972 1017.1008    2.3970    0.2560    0.2160   10.0000 -999.0000    3.0000 
5993.5157 1826.8236 -999.0000   49.7320  228.7288 60000.0000    2.4090    0.2540    0.2870   10.0000 -999.0000    3.0000 
5994.0157 1826.9760 -999.0000   47.6400 60000.0000 60000.0000    2.4450    0.2620    0.2510   10.0000 -999.0000    3.0000 
5994.5157 1827.1284 -999.0000   48.4740 60000.0000 59999.9974    2.4850    0.2710    0.2640   10.0000 -999.0000    3.0000 
5995.0157 1827.2808 -999.0000   59.5250 59999.9972 3917.3957    2.4990    0.2800    0.2330   10.0000 -999.0000    3.0000 
5995.5157 1827.4332 -999.0000   63.7090  276.2500 59999.9972    2.4770    0.2720    0.2670   10.0000 -999.0000    3.0000 
5996.0157 1827.5856 -999.0000   60.0090   30.3600  629.3198    2.4410    0.2550    0.2550   10.0000 -999.0000    3.0000 
5996.5157 1827.7380 -999.0000   59.3250  468.4688 60000.0000    2.4180    0.2460    0.2670   10.0000 -999.0000    3.0000 
5997.0157 1827.8904 -999.0000   53.4670 59999.9972 59999.9972    2.4060    0.2480    0.2460   10.0000 -999.0000    3.0000 
5997.5157 1828.0428 -999.0000   60.7800   47.7228  100.1278    2.3960    0.2530    0.2220   10.0000 -999.0000    3.0000 
5998.0157 1828.1952 -999.0000   54.6680 59999.9972 59999.9972    2.4000    0.2570    0.2240   10.0000 -999.0000    3.0000 
5998.5157 1828.3477 -999.0000   60.4500  373.0240  560.8950    2.4130    0.2590    0.2390   10.0000 -999.0000    3.0000 
5999.0157 1828.5000 -999.0000   58.1580  333.6803 1179.8439    2.4300    0.2710    0.2740   10.0000 -999.0000    3.0000 
5999.5157 1828.6523 -999.0000   56.8320 27708.6519  167.6708    2.4390    0.2860    0.2480   10.0000 -999.0000    3.0000 
6000.0157 1828.8048 -999.0000   53.4960 59999.9972 59999.9972    2.4370    0.2980    0.2240   10.0000 -999.0000    3.0000 
6000.5157 1828.9572 -999.0000   53.9150    0.4320  187.3251    2.4290    0.2980    0.2210   10.0000 -999.0000    3.0000 
6001.0157 1829.1096 -999.0000   59.2440  215.5748 1741.3137    2.4250    0.2960    0.2430   10.0000 -999.0000    3.0000 
6001.5157 1829.2620 -999.0000   62.6550 59999.9972 59999.9972    2.4300    0.2970    0.2030    9.9820 -999.0000    3.0000 
6002.0157 1829.4144 -999.0000   60.4990  192.7568  411.7108    2.4420    0.2990    0.2180    9.9320 -999.0000    3.0000 
6002.5157 1829.5668 -999.0000   58.0990 59999.9972 60000.0000    2.4520    0.3000    0.2490    9.8270 -999.0000    3.0000 
6003.0157 1829.7192 -999.0000   56.4260   91.6230 59999.9972    2.4520    0.2950    0.2880    9.6890 -999.0000    3.0000 
6003.5157 1829.8716 -999.0000   59.7610   57.8428  108.4898    2.4410    0.2850    0.2800    9.4980 -999.0000    3.0000 
6004.0157 1830.0240 -999.0000   58.8090 60000.0000 60000.0000    2.3980    0.2630    0.2240    9.2740 -999.0000    3.0000 
6004.5157 1830.1764 -999.0000   59.6460 60000.0000 59999.9972    2.3450    0.2460    0.2150    8.9890 -999.0000    3.0000 
6005.0157 1830.3289 -999.0000   58.4670 60000.0000  224.4858    2.2940    0.2370    0.1870    8.6520 -999.0000    3.0000 
6005.5157 1830.4812 -999.0000   57.6750 60000.0000 60000.0000    2.2710    0.2480    0.1880    8.3320 -999.0000    3.0000 
6006.0157 1830.6335 -999.0000   54.3270 60000.0000 59999.9972    2.2530    0.2640    0.2070    8.0490 -999.0000    3.0000 
6006.5157 1830.7860 -999.0000   56.8380 59999.9973  416.9223    2.2340    0.2840    0.2050    7.8540 -999.0000    3.0000 
