~VERSION INFORMATION
 VERS.                 2.0:   CWLS LOG ASCII STANDARD - VERSION 2.0
 WRAP.                  NO:   SINGLE LINE PER DEPTH STEP
 CREA.                 11/12/2017 11:36:24
#CREATED USING DSPetro VERSION 5000.10.1.3 BY H191660 ON 11/12/2017 11:36:24
~WELL INFORMATION
#MNEM.UNIT       DATA                          DESCRIPTION MNEMONIC
#---------      ---------------------------   --------------------------
 STRT    .FT        199.0157                  : START DEPTH
 STOP    .FT        12624.5157                : STOP DEPTH
 STEP    .FT        0.5000                    : STEP VALUE
 NULL    .      -999.0000                     : NULL VALUE
 DATE    .      11/12/2017                    : LAS file Creation Date
 WELL .      U_TEXAS_36994_4200338767 : Well Name
 COMP .                               : Company
 FLD  .      MAGUTEX                  : Field
 UWI  .      KUSWL_338767             : Unique Well Identifier (UWI)
 LOC  .                               : Location
 RWS  .      -999                     : Def_Rw
 WST  .      -999                     : Def_Rwt
 SRVC .                               : Contractor
~CURVE INFORMATION
#MNEM              UNIT       API CODE   Curve Type Comments
#----------  --------------- ----------  ---------- -----------
 DEPTH      .FT                        : Depth       
 DEPTH_(m)  .                          :             
 BitSize    .in                        : BitSize     
 GR_API     .API                       : GammaRay    Gamma Ray (API) - Measures the intensity of natural gamma-ray radiation emitted from formations containing radioactive elements, such as K, Th and U
 LLD_OHMM   .ohmm                      :             Laterlog Deep Resistivity - Measurement made several feet into the formation; generally considered a measurement of the undisturbed formation
 LLS_OHMM   .ohmm                      :             Laterlog Shallow Resistivity - one to two feet into the formation; generally considered to measure the formation
 RHOB_G_CC  .g/cc                      :             Formation Density - Measures the density of formation, including any void space or other materials contained in the subject volume
 DRHO_G_CC  .g/cc                      :             Density Correction - Investigates the correction to the Bulk Density log; used as an indication of hole condition to validate the Bulk Density measure
 NPHI_v/v   .ratio                     :             Enhanced Thermal Neutron Porosity in Selected Lithology
 PEF_B_E    .b/e-                      : PEF         Photoelectric Factor - A log of photoelectric absorption properties. Often expressed in an approximation unit barns/electron (b/e-)
 LITH       .                          : Flag        
 LITH_v2    .                          : Flag        
~A  DEPTH DEPTH_(m)  BitSize    GR_API   LLD_OHMM  LLS_OHMM RHOB_G_C  DRHO_G_C   NPHI_v/v  PEF_B_E     LITH    LITH_v2  
# ...
2674.0157  815.0400 -999.0000   86.5550 3610.2189   79.3042    2.1480    0.1970    0.1580    9.6160 -999.0000    3.0000 
2674.5157  815.1924 -999.0000   57.5550   10.0212 59999.9988    2.1070    0.1780    0.1030    9.5680 -999.0000    3.0000 
2675.0157  815.3448 -999.0000   36.6320 60000.0000   92.7782    2.0730    0.1610    0.0850    9.4770 -999.0000    3.0000 
2675.5157  815.4972 -999.0000   30.4180 60000.0000 59999.9988    2.0350    0.1360    0.0970    9.4010 -999.0000    3.0000 
2676.0157  815.6496 -999.0000   30.9270 60000.0000 1217.9282    1.9890    0.1000    0.1420    9.3140 -999.0000    3.0000 
2676.5157  815.8020 -999.0000   26.3240 59999.9988 59999.9988    1.9720    0.0970    0.1230    9.3980 -999.0000    3.0000 
2677.0157  815.9544 -999.0000   23.3950  106.6230  803.9410    1.9390    0.0710    0.0780    9.4170 -999.0000    3.0000 
2677.5157  816.1068 -999.0000   19.5340   58.9752  812.4800    1.9410    0.0710    0.0460    9.4630 -999.0000    3.0000 
2678.0157  816.2592 -999.0000   23.2650 60000.0000 1552.5229    1.9400    0.0670    0.0270    9.4890 -999.0000    3.0000 
2678.5157  816.4116 -999.0000   26.1940 59999.9988  122.2510    1.9390    0.0630    0.0220    9.5080 -999.0000    3.0000 
2679.0157  816.5640 -999.0000   26.7440   31.7610  939.5410    1.9270    0.0520    0.0210    9.5200 -999.0000    3.0000 
2679.5157  816.7164 -999.0000   26.3270   90.6640  481.3020    1.8850    0.0150    0.0230    9.4870 -999.0000    3.0000 
2680.0157  816.8688 -999.0000   29.8320  115.6662  205.7832    1.8950    0.0160    0.0190    9.4700 -999.0000    3.0000 
2680.5157  817.0212 -999.0000   31.5050 59999.9988 59999.9988    1.9060    0.0160    0.0230    9.4680 -999.0000    3.0000 
2681.0157  817.1736 -999.0000   31.9580  127.3530   99.8670    1.9180    0.0170    0.0290    9.4270 -999.0000    3.0000 
2681.5157  817.3260 -999.0000   27.1640   67.4822   53.1502    1.9140    0.0140    0.0320    9.4150 -999.0000    3.0000 
2682.0157  817.4784 -999.0000   28.0010 59999.9988 59999.9988    1.9020    0.0110    0.0250    9.3930 -999.0000    3.0000 
2682.5157  817.6308 -999.0000   30.6050   18.1602  548.6682    1.8950    0.0110    0.0100    9.3730 -999.0000    3.0000 
2683.0157  817.7832 -999.0000   29.4140 59999.9988 59999.9988    1.8910    0.0140    0.0020    9.3520 -999.0000    3.0000 
2683.5157  817.9356 -999.0000   32.2980  108.0190  132.9380    1.8940    0.0170   -0.0020    9.3310 -999.0000    3.0000 
2684.0157  818.0880 -999.0000   30.9490  358.6972 2267.4152    1.8970    0.0200    0.0090    9.3250 -999.0000    3.0000 
2684.5157  818.2404 -999.0000   32.1740 60000.0000 60000.0000    1.8960    0.0210    0.0240    9.3560 -999.0000    3.0000 
2685.0157  818.3928 -999.0000   33.0080 59999.9988 60000.0000    1.8960    0.0230    0.0450    9.3320 -999.0000    3.0000 
2685.5157  818.5452 -999.0000   33.3010  851.6950 60000.0000    1.9200    0.0460    0.0680    9.3190 -999.0000    3.0000 
2686.0157  818.6976 -999.0000   32.8500   61.1482 60000.0000    1.9720    0.0910    0.0980    9.2860 -999.0000    3.0000 
2686.5157  818.8500 -999.0000   27.4870 59999.9988 59999.9988    2.0190    0.1340    0.1250    9.2510 -999.0000    3.0000 
2687.0157  819.0024 -999.0000   25.0690   21.1670  186.7230    2.0400    0.1580    0.1730    9.2050 -999.0000    3.0000 
2687.5157  819.1548 -999.0000   22.5910  397.9030  116.4270    2.0130    0.1450    0.2530    9.1220 -999.0000    3.0000 
2688.0157  819.3072 -999.0000   26.7470   80.1872   46.4352    2.0070    0.1450    0.2840    9.0890 -999.0000    3.0000 
2688.5157  819.4596 -999.0000   27.9980 60000.0000 60000.0000    1.9990    0.1380    0.1750    9.0660 -999.0000    3.0000 
2689.0157  819.6120 -999.0000   34.2740 60000.0000 60000.0000    2.0180    0.1520    0.0690    9.0970 -999.0000    3.0000 
2689.5157  819.7644 -999.0000   30.8960 59999.9988 60000.0000    2.0220    0.1550    0.0210    9.1260 -999.0000    3.0000 
2690.0157  819.9168 -999.0000   27.6110  315.2652 60000.0000    2.0250    0.1630    0.0100    9.1960 -999.0000    3.0000 
2690.5157  820.0692 -999.0000   27.5640 59999.9988 59999.9988    2.0280    0.1710    0.0040    9.3000 -999.0000    3.0000 
2691.0157  820.2216 -999.0000   27.5950  231.9010 1444.8249    2.0350    0.1810    0.0090    9.4800 -999.0000    3.0000 
2691.5157  820.3740 -999.0000   28.6570  290.3962  460.2652    2.0550    0.1960    0.0140    9.6940 -999.0000    3.0000 
2692.0157  820.5264 -999.0000   24.5190 59999.9988 59999.9988    2.0750    0.2110    0.0160    9.8800 -999.0000    3.0000 
2692.5157  820.6788 -999.0000   22.4270   56.9290  742.8940    2.1120    0.2250    0.0210    9.9840 -999.0000    3.0000 
2693.0157  820.8312 -999.0000   22.1770  168.5052 1128.2362    2.1630    0.2330    0.0110   10.0000 -999.0000    3.0000 
2693.5157  820.9836 -999.0000   18.4110 60000.0000 60000.0000    2.2210    0.2350    0.0130    9.9920 -999.0000    3.0000 
2694.0157  821.1360 -999.0000   22.1390 60000.0000 60000.0000    2.2480    0.2300    0.0180    9.9130 -999.0000    3.0000 
2694.5157  821.2884 -999.0000   22.5580 60000.0000 59999.9988    2.2050    0.2140    0.0330    9.8080 -999.0000    3.0000 
2695.0157  821.4408 -999.0000   24.6250 59999.9988  578.6392    2.1400    0.2010    0.0240    9.6510 -999.0000    3.0000 
2695.5157  821.5932 -999.0000   20.5000  576.4102 60000.0000    2.0820    0.1930    0.0000    9.5580 -999.0000    3.0000 
2696.0157  821.7456 -999.0000   20.0540 59999.9988 59999.9988    2.0710    0.1950   -0.0150    9.5060 -999.0000    3.0000 
2696.5157  821.8980 -999.0000   20.4970  119.8360   63.2532    2.0710    0.1950   -0.0240    9.5060 -999.0000    3.0000 
2697.0157  822.0504 -999.0000   22.3990  865.3970 59999.9989    2.0760    0.1930   -0.0270    9.5570 -999.0000    3.0000 
2697.5157  822.2028 -999.0000   19.9160  203.9800 3590.9442    2.0770    0.1910   -0.0310    9.5990 -999.0000    3.0000 
2698.0157  822.3552 -999.0000   21.5900  102.0840 59999.9988    2.0770    0.1890   -0.0310    9.6440 -999.0000    3.0000 
2698.5157  822.5076 -999.0000   22.9800   51.7160   76.3312    2.0740    0.1850   -0.0310    9.6290 -999.0000    3.0000 
2699.0157  822.6600 -999.0000   25.5180    9.0722 59999.9988    2.0740    0.1820   -0.0220    9.6180 -999.0000    3.0000 
2699.5157  822.8124 -999.0000   22.2900 59999.9988 1736.5890    2.0790    0.1810   -0.0020    9.6120 -999.0000    3.0000 
2700.0157  822.9648 -999.0000   20.2320  152.9092  590.6672    2.0840    0.1810    0.0380    9.6000 -999.0000    3.0000 
2700.5157  823.1172 -999.0000   21.4260 59999.9988 59999.9988    2.0780    0.1780    0.0760    9.5730 -999.0000    3.0000 
2701.0157  823.2696 -999.0000   31.7680  252.6272  226.5240    2.0630    0.1730    0.0970    9.5380 -999.0000    3.0000 
2701.5157  823.4220 -999.0000   35.2690 60000.0000 2201.0761    2.0490    0.1720    0.1020    9.5300 -999.0000    3.0000 
2702.0157  823.5744 -999.0000   37.8120 60000.0000 60000.0000    2.0440    0.1710    0.0690    9.5110 -999.0000    3.0000 
2702.5157  823.7268 -999.0000   31.0830 60000.0000 59999.9988    2.0480    0.1720    0.0430    9.5080 -999.0000    3.0000 
2703.0157  823.8792 -999.0000   30.9300 60000.0000  182.9762    2.0610    0.1770    0.0240    9.5170 -999.0000    3.0000 
2703.5157  824.0316 -999.0000   28.8380 60000.0000 59999.9988    2.0760    0.1840    0.0150    9.5500 -999.0000    3.0000 
2704.0157  824.1840 -999.0000   28.0040 60000.0000  125.3442    2.0800    0.1860    0.0090    9.5430 -999.0000    3.0000 
2704.5157  824.3364 -999.0000   24.6830 60000.0000 59999.9988    2.0770    0.1850    0.0100    9.5240 -999.0000    3.0000 
2705.0157  824.4888 -999.0000   23.2590 60000.0000   21.9133    2.0770    0.1830    0.0100    9.5200 -999.0000    3.0000 
2705.5157  824.6412 -999.0000   24.9640 59999.9988 12884.0205    2.0920    0.1880    0.0210    9.5580 -999.0000    3.0000 
2706.0157  824.7936 -999.0000   21.5760  207.5042 60000.0000    2.1070    0.1910    0.0260    9.6030 -999.0000    3.0000 
2706.5157  824.9460 -999.0000   25.5100 59999.9988 59999.9990    2.1160    0.1940    0.0280    9.6570 -999.0000    3.0000 
