~VERSION INFORMATION
 VERS.                 2.0:   CWLS LOG ASCII STANDARD - VERSION 2.0
 WRAP.                  NO:   SINGLE LINE PER DEPTH STEP
 CREA.                 11/12/2017 11:36:24
#CREATED USING DSPetro VERSION 5000.10.1.3 BY H191660 ON 11/12/2017 11:36:24
~WELL INFORMATION
#MNEM.UNIT       DATA                          DESCRIPTION MNEMONIC
#---------      ---------------------------   --------------------------
 STRT    .FT        199.0157                  : START DEPTH
 STOP    .FT        12624.5157                : STOP DEPTH
 STEP    .FT        0.5000                    : STEP VALUE
 NULL    .      -999.0000                     : NULL VALUE
 DATE    .      11/12/2017                    : LAS file Creation Date
 WELL .      U_TEXAS_36994_4200338767 : Well Name
 COMP .                               : Company
 FLD  .      MAGUTEX                  : Field
 UWI  .      KUSWL_338767             : Unique Well Identifier (UWI)
 LOC  .                               : Location
 RWS  .      -999                     : Def_Rw
 WST  .      -999                     : Def_Rwt
 SRVC .                               : Contractor
~CURVE INFORMATION
#MNEM              UNIT       API CODE   Curve Type Comments
#----------  --------------- ----------  ---------- -----------
 DEPTH      .FT                        : Depth       
 DEPTH_(m)  .                          :             
 BitSize    .in                        : BitSize     
 GR_API     .API                       : GammaRay    Gamma Ray (API) - Measures the intensity of natural gamma-ray radiation emitted from formations containing radioactive elements, such as K, Th and U
 LLD_OHMM   .ohmm                      :             Laterlog Deep Resistivity - Measurement made several feet into the formation; generally considered a measurement of the undisturbed formation
 LLS_OHMM   .ohmm                      :             Laterlog Shallow Resistivity - one to two feet into the formation; generally considered to measure the formation
 RHOB_G_CC  .g/cc                      :             Formation Density - Measures the density of formation, including any void space or other materials contained in the subject volume
 DRHO_G_CC  .g/cc                      :             Density Correction - Investigates the correction to the Bulk Density log; used as an indication of hole condition to validate the Bulk Density measure
 NPHI_v/v   .ratio                     :             Enhanced Thermal Neutron Porosity in Selected Lithology
 PEF_B_E    .b/e-                      : PEF         Photoelectric Factor - A log of photoelectric absorption properties. Often expressed in an approximation unit barns/electron (b/e-)
 LITH       .                          : Flag        
 LITH_v2    .                          : Flag        
~A  DEPTH DEPTH_(m)  BitSize    GR_API   LLD_OHMM  LLS_OHMM RHOB_G_C  DRHO_G_C   NPHI_v/v  PEF_B_E     LITH    LITH_v2  
# ...
12597.0157 3839.5703 -999.0000   75.0390  595.4590  508.7260    2.7130    0.0270    0.0090    3.9670   18.0000   18.0000 
12597.5157 3839.7229 -999.0000   75.0390  478.5090  425.1970    2.7150    0.0270    0.0090    3.9370   18.0000   18.0000 
12598.0157 3839.8752 -999.0000   75.0390  313.9100  298.1900    2.7120    0.0290    0.0090    3.9130   18.0000   18.0000 
12598.5157 3840.0276 -999.0000   75.0390  275.7300  270.2920    2.7160    0.0390    0.0090    3.9140   18.0000   18.0000 
12599.0157 3840.1799 -999.0000   75.0390  272.1320  269.1320    2.7110    0.0470    0.0090    3.9280   18.0000   18.0000 
12599.5157 3840.3325 -999.0000   75.0390  291.8000  291.1460    2.7120    0.0520    0.0090    3.9330   18.0000   18.0000 
12600.0157 3840.4849 -999.0000   75.0390  288.4610  284.8800    2.6880    0.0360    0.0090    3.8970   18.0000   18.0000 
12600.5157 3840.6372 -999.0000   75.0390  285.7150  280.3760    2.6880    0.0340    0.0090    3.8980   18.0000   18.0000 
12601.0157 3840.7896 -999.0000   75.0390  281.6120  273.3720    2.6960    0.0300    0.0090    3.9180   18.0000   18.0000 
12601.5157 3840.9419 -999.0000   75.0390  279.2820  265.8580    2.7220    0.0390    0.0090    3.9830   18.0000   18.0000 
12602.0157 3841.0945 -999.0000   75.0390  319.1450  290.6320    2.7260    0.0350    0.0090    4.0230   18.0000   18.0000 
12602.5157 3841.2468 -999.0000   75.0390  520.8760  426.2300    2.7200    0.0310    0.0090    4.0370   18.0000   18.0000 
12603.0157 3841.3992 -999.0000   75.0390  881.6580  682.3780    2.7230    0.0350    0.0090    4.0120   18.0000   18.0000 
12603.5157 3841.5515 -999.0000   75.0390 1013.4650  840.8460    2.7250    0.0400    0.0090    3.9610   18.0000   18.0000 
12604.0157 3841.7041 -999.0000   75.0390  857.9870  745.2220    2.7260    0.0490    0.0090    3.8940   18.0000   18.0000 
12604.5157 3841.8564 -999.0000   75.0390  949.1340  806.4950    2.6530    0.0410    0.0090    3.8080 -999.0000 -999.0000 
12605.0157 3842.0088 -999.0000   75.0390  910.9050  764.7080    2.3930    0.0150    0.0090    3.7830 -999.0000 -999.0000 
12605.5157 3842.1611 -999.0000   75.0390  927.1230  764.4540    2.1530    0.0410    0.0110    3.5830 -999.0000 -999.0000 
12606.0157 3842.3137 -999.0000   75.0390  930.1820  752.9180    2.0320    0.1310    0.0110    3.3940 -999.0000 -999.0000 
12606.5157 3842.4661 -999.0000   75.0390  924.7748  746.4869    2.1080    0.2490    0.0110    3.1720 -999.0000 -999.0000 
12607.0157 3842.6184 -999.0000   75.0390 60000.0000 60000.0000    2.1650    0.3120    0.0110    3.1760 -999.0000 -999.0000 
12607.5157 3842.7708 -999.0000   75.0390 59999.9946 59999.9943    2.1700    0.3200    0.0110    3.2180 -999.0000 -999.0000 
12608.0157 3842.9231 -999.0000   75.0390 5382.5113 2392.0448    2.1660    0.3170    0.0110    3.2470 -999.0000 -999.0000 
12608.5157 3843.0757 -999.0000   75.0390 60000.0000 60000.0000    2.1650    0.3150    0.0110    3.2540 -999.0000 -999.0000 
12609.0157 3843.2280 -999.0000   75.0390 59999.9942 60000.0000    2.1650    0.3150    0.0110    3.2550 -999.0000 -999.0000 
12609.5157 3843.3804 -999.0000   75.0390 1231.2226 60000.0000    2.1650    0.3150    0.0110    3.2550 -999.0000 -999.0000 
12610.0157 3843.5327 -999.0000   75.0390 6904.4174 59999.9941    2.1650    0.3150    0.0110    3.2550 -999.0000 -999.0000 
12610.5157 3843.6853 -999.0000   75.0390 59999.9945  178.4115    2.1650    0.3150    0.0110    3.2550 -999.0000 -999.0000 
12611.0157 3843.8376 -999.0000   75.0390 4801.4834 5334.0914    2.1650    0.3150    0.0110    3.2550 -999.0000 -999.0000 
12611.5157 3843.9900 -999.0000   75.0390   36.6560 1375.4078    2.1650    0.3150    0.0110    3.2550 -999.0000 -999.0000 
12612.0157 3844.1423 -999.0000   75.0390 60000.0000 60000.0000    2.1650    0.3150    0.0110    3.2550 -999.0000 -999.0000 
12612.5157 3844.2949 -999.0000   75.0390 59999.9948 59999.9954    2.1650    0.3150    0.0110    3.2540 -999.0000 -999.0000 
12613.0157 3844.4473 -999.0000   75.0390 7202.4573 13706.3991    2.1650    0.3150    0.0110    3.2530 -999.0000 -999.0000 
12613.5157 3844.5996 -999.0000   75.0390  378.0919  471.5079    2.1650    0.3150    0.0110    3.2510 -999.0000 -999.0000 
12614.0157 3844.7520 -999.0000   75.0390 59999.9941 60000.0000    2.1650    0.3150    0.0110    3.2460 -999.0000 -999.0000 
12614.5157 3844.9043 -999.0000   75.0390  130.3320 59999.9942    2.1650    0.3150    0.0110    3.2360 -999.0000 -999.0000 
12615.0157 3845.0569 -999.0000   75.0390 59999.9941 1873.1600    2.1650    0.3150    0.0110    3.2230 -999.0000 -999.0000 
12615.5157 3845.2092 -999.0000   75.0390  460.9832 1507.9448    2.1640    0.3150    0.0120    3.2090 -999.0000 -999.0000 
12616.0157 3845.3616 -999.0000   75.0390 2718.2102  257.1679    2.1640    0.3140    0.0120    3.1940 -999.0000 -999.0000 
12616.5157 3845.5139 -999.0000   75.0390 4865.3296 60000.0000    2.1640    0.3140    0.0110    3.1800 -999.0000 -999.0000 
12617.0157 3845.6665 -999.0000   75.0390  172.2789 60000.0000    2.1640    0.3140    0.0110    3.1650 -999.0000 -999.0000 
12617.5157 3845.8188 -999.0000   75.0390 60000.0000 60000.0000    2.1630    0.3140    0.0110    3.1500 -999.0000 -999.0000 
12618.0157 3845.9712 -999.0000   75.0390 59999.9940 60000.0000    2.1630    0.3130    0.0110    3.1360 -999.0000 -999.0000 
12618.5157 3846.1235 -999.0000   75.0390    0.0000 60000.0000    2.1630    0.5400    0.0110    3.1220 -999.0000 -999.0000 
12619.0157 3846.2759 -999.0000   75.0390    0.0000 60000.0000    2.1630    1.2190    0.0110    3.1090 -999.0000 -999.0000 
12619.5157 3846.4285 -999.0000   75.0390    0.0000 60000.0000 -999.0000 -999.0000    0.0110 -999.0000 -999.0000 -999.0000 
12620.0157 3846.5808 -999.0000   75.0390    0.0000 60000.0000 -999.0000 -999.0000    0.0110 -999.0000 -999.0000 -999.0000 
12620.5157 3846.7332 -999.0000   75.0390    0.0000 60000.0000 -999.0000 -999.0000    0.0110 -999.0000 -999.0000 -999.0000 
12621.0157 3846.8855 -999.0000   75.0390    0.0000 60000.0000 -999.0000 -999.0000    0.0110 -999.0000 -999.0000 -999.0000 
12621.5157 3847.0381 -999.0000   75.0390    0.0000 60000.0000 -999.0000 -999.0000    0.0110 -999.0000 -999.0000 -999.0000 
12622.0157 3847.1904 -999.0000   75.0390    0.0000 60000.0000 -999.0000 -999.0000    0.0110 -999.0000 -999.0000 -999.0000 
12622.5157 3847.3428 -999.0000   75.0390    0.0000 60000.0000 -999.0000 -999.0000    0.0110 -999.0000 -999.0000 -999.0000 
12623.0157 3847.4951 -999.0000   75.0390    0.0000 60000.0000 -999.0000 -999.0000    0.0110 -999.0000 -999.0000 -999.0000 
12623.5157 3847.6477 -999.0000   75.0390    0.0009 60000.0000 -999.0000 -999.0000    0.0110 -999.0000 -999.0000 -999.0000 
12624.0157 3847.8000 -999.0000   75.0390 9230.7709 60000.0000 -999.0000 -999.0000    0.0110 -999.0000 -999.0000 -999.0000 
12624.5157 -999.0000 -999.0000 -999.0000 -999.0000 -999.0000 -999.0000 -999.0000 -999.0000 -999.0000 -999.0000 -999.0000 
