~VERSION INFORMATION
 VERS.                 2.0:   CWLS LOG ASCII STANDARD - VERSION 2.0
 WRAP.                  NO:   SINGLE LINE PER DEPTH STEP
 CREA.                 19/12/2017 14:19:34
#CREATED USING DSPetro VERSION 5000.10.1.3 BY H191660 ON 19/12/2017 14:19:34
~WELL INFORMATION
#MNEM.UNIT       DATA                          DESCRIPTION MNEMONIC
#---------      ---------------------------   --------------------------
 STRT    .FT        127.9856                  : START DEPTH
 STOP    .FT        8799.9855                 : STOP DEPTH
 STEP    .FT        0.5000                    : STEP VALUE
 NULL    .      -999.0000                     : NULL VALUE
 DATE    .      19/12/2017                    : LAS file Creation Date
 WELL  .      UB_13_14_4200343837  : Well Name
 COM1  .      OIL PRODUCER         : Well Comment
 COMP  .                           : Company
 FLD   .      FULLERTON (WOLFCAMP) : Field
 UWI   .      202                  : Unique Well Identifier (UWI)
 LOC   .                           : Location
 PDAT  .      3261                 : Permanent Datum
 EPDAT .      Ground Level         : Reference Elevation
 LGMEA .      42                   : Log Measured from
 DRMEA .      42                   : Drill Measured From
 APDAT .      KB                   : Elevation Above Permanent Datum
 KB    .      3303                 : KB Elevation
 DF    .      3302                 : DF Elevation
 GL    .      3261                 : GL Elevation
 RWS   .      0                    : Def_Rw
 WST   .      0                    : Def_Rwt
 DATS  .      02/03/2012           : Spud Date
 MDEC  .      0                    : Magnetic Declination
 SRVC  .      SCH                  : Contractor
~CURVE INFORMATION
#MNEM              UNIT       API CODE   Curve Type Comments
#----------  --------------- ----------  ---------- -----------
 DEPTH      .FT                        : Depth       
 DEPTH_(m)  .                          :             
 BitSize    .in                        : bitSize     
 GR_API     .API                       : GammaRay    Gamma Ray (API) - Measures the intensity of natural gamma-ray radiation emitted from formations containing radioactive elements, such as K, Th and U
 LLD_OHMM   .ohmm                      :             Laterlog Deep Resistivity - Measurement made several feet into the formation; generally considered a measurement of the undisturbed formation
 LLM_OHMM   .ohm.m                     :             Laterlog Medium Resistivity - Measurement made approximately two to three feet into the formation - units of ohmm
 LLS_OHMM   .ohmm                      :             Laterlog Shallow Resistivity - one to two feet into the formation; generally considered to measure the formation
 NPHI_v/v   .ratio                     :             Neutron Porosity - Measured with an neutron logging device calibrated to a given matrix (limestone, sandstone and dolomite)
 RHOB_G_CC  .g/cc                      :             Formation Density - Measures the density of formation, including any void space or other materials contained in the subject volume
 PEF_B_E    .b/e-                      : PEF         Photoelectric Factor - A log of photoelectric absorption properties. Often expressed in an approximation unit barns/electron (b/e-)
 LITH       .                          : LITH        Lithology Curve
 LITH_v2    .                          : LITH        Lithology Curve
~A  DEPTH DEPTH_(m)  BitSize    GR_API   LLD_OHMM  LLM_OHMM  LLS_OHMM  NPHI_v/v RHOB_G_C   PEF_B_E     LITH    LITH_v2  
# ...
1811.4856  552.1408    8.7500   64.1653   92.5372   68.7381   75.3623    0.1459    2.5672    2.9595 -999.0000   37.0000 
1811.9856  552.2932    8.7500   59.0785  105.1377   76.9156   74.3507    0.1161    2.6668    3.7450 -999.0000   37.0000 
1812.4856  552.4456    8.7500   46.2496  387.2289  266.9877   90.9004    0.0503    2.7667    4.2294 -999.0000   37.0000 
1812.9856  552.5980    8.7500   46.2495  387.2308  266.9890   90.9005    0.0503    2.7667    4.2294 -999.0000   37.0000 
1813.4856  552.7504    8.7500   18.3633 2333.2878 1086.4165   87.9980   -0.0027    2.9093    4.9060 -999.0000    1.0000 
1813.9856  552.9028    8.7500   18.3693 2326.2700 1085.2560   87.9764   -0.0027    2.9093    4.9059 -999.0000    1.0000 
1814.4856  553.0552    8.7500   12.0322 42973.4766 3107.4792  126.4692   -0.0047    2.9432    5.0091 -999.0000    1.0000 
1814.9856  553.2076    8.7500   10.6975 20851.4277 2725.4387  125.7021   -0.0044    2.9474    4.9382 -999.0000    1.0000 
1815.4856  553.3600    8.7500   10.6975 20851.2793 2725.4360  125.7021   -0.0044    2.9474    4.9382 -999.0000    1.0000 
1815.9856  553.5124    8.7500   11.1007 8653.0947 2517.5815  138.7662   -0.0037    2.9392    4.8779 -999.0000    1.0000 
1816.4856  553.6648    8.7500   11.0996 8652.9844 2517.5410  138.7580   -0.0037    2.9392    4.8779 -999.0000    1.0000 
1816.9856  553.8172    8.7500   12.6031 2535.9773 1438.6364  141.4630   -0.0049    2.9333    4.9708 -999.0000    1.0000 
1817.4856  553.9696    8.7500   13.7942 2983.7451 1604.2399  141.1312   -0.0053    2.9344    5.0430    1.0000    1.0000 
1817.9856  554.1220    8.7500   13.7942 2983.7480 1604.2410  141.1312   -0.0053    2.9344    5.0430    1.0000    1.0000 
1818.4856  554.2744    8.7500   13.0381 4440.1582 2150.5645  144.4901   -0.0054    2.9325    5.1283    1.0000    1.0000 
1818.9856  554.4268    8.7500   13.0393 4442.9551 2151.3711  144.4924   -0.0054    2.9325    5.1283    1.0000    1.0000 
1819.4856  554.5792    8.7500   12.1895 2920.1602 1860.3949  144.2125   -0.0044    2.9326    5.0791    1.0000    1.0000 
1819.9856  554.7316    8.7500   12.9328 4632.6943 2190.3599  146.3217   -0.0026    2.9278    5.0699    1.0000    1.0000 
1820.4856  554.8840    8.7500   12.9328 4632.7061 2190.3621  146.3217   -0.0026    2.9278    5.0699    1.0000    1.0000 
1820.9856  555.0364    8.7500   18.5137 2273.6948 1628.4788  145.0540    0.0246    2.8938    4.9432    1.0000    1.0000 
1821.4856  555.1888    8.7500   18.5072 2276.8269 1630.5380  145.0747    0.0246    2.8938    4.9433    1.0000    1.0000 
1821.9856  555.3412    8.7500   23.4986  243.9727  276.4868  134.4949    0.0231    2.8694    4.8611    1.0000    1.0000 
1822.4856  555.4936    8.7500   19.4258  482.2279  519.7281  152.1455    0.0027    2.9044    4.9138    1.0000    1.0000 
1822.9856  555.6460    8.7500   19.4258  482.2295  519.7298  152.1456    0.0027    2.9044    4.9138    1.0000    1.0000 
1823.4856  555.7984    8.7500   13.2582 2007.5876 1610.2317  180.4310   -0.0055    2.9432    4.9252    1.0000    1.0000 
1823.9856  555.9508    8.7500   13.2581 2003.0570 1609.0750  180.4122   -0.0055    2.9432    4.9252    1.0000    1.0000 
1824.4856  556.1032    8.7500   13.8436 6753.3960 2789.4900  207.4780   -0.0065    2.9583    4.9440    1.0000    1.0000 
1824.9856  556.2556    8.7500   13.8907 7071.2090 2780.9160  211.9862   -0.0073    2.9775    4.9765    1.0000    1.0000 
1825.4856  556.4080    8.7500   13.8907 7071.2109 2780.9160  211.9862   -0.0073    2.9775    4.9765    1.0000    1.0000 
1825.9856  556.5604    8.7500   13.4242 5403.7935 2272.1904  215.3133   -0.0059    2.9773    4.8579    1.0000    1.0000 
1826.4856  556.7128    8.7500   13.4236 5404.1699 2272.3401  215.3159   -0.0059    2.9773    4.8581    1.0000    1.0000 
1826.9856  556.8652    8.7500   19.2453 3956.6418 1698.7050  202.9290    0.0042    2.9316    4.3452    1.0000    1.0000 
1827.4856  557.0176    8.7500   32.6601  374.5202  256.7151  140.8835    0.0218    2.8642    3.8770   21.9999    1.0000 
1827.9856  557.1700    8.7500   32.6602  374.4959  256.7053  140.8831    0.0218    2.8642    3.8770   22.0000    1.0000 
1828.4856  557.3224    8.7500   74.4622   25.1175   21.4821   25.7307    0.1404    2.6582    3.0704   22.0000   22.0000 
1828.9856  557.4748    8.7500   74.4391   25.1242   21.4866   25.7360    0.1403    2.6583    3.0705   22.0000   22.0000 
1829.4856  557.6272    8.7500   92.3653   23.8705   22.8314   34.4098    0.1840    2.5846    3.0144   22.0000   22.0000 
1829.9856  557.7796    8.7500   93.2143   25.2679   25.3846   39.0918    0.1655    2.5921    3.0107   22.0000   22.0000 
1830.4856  557.9320    8.7500   93.2143   25.2679   25.3846   39.0918    0.1655    2.5921    3.0107   22.0000   22.0000 
1830.9856  558.0844    8.7500   95.7191   23.7971   26.2778   27.6112    0.1789    2.5846    2.8819   22.0000   22.0000 
1831.4856  558.2368    8.7500   95.7137   23.8015   26.2821   27.6167    0.1789    2.5846    2.8819   22.0000   22.0000 
1831.9856  558.3892    8.7500  103.9002   20.5510   23.4506   24.9510    0.2300    2.5680    3.0217   22.0000   22.0000 
1832.4856  558.5416    8.7500   99.8436   22.1997   25.1192   26.6177    0.2347    2.5660    3.1908   22.0000   22.0000 
1832.9856  558.6940    8.7500   99.8436   22.1997   25.1192   26.6177    0.2347    2.5660    3.1908   22.0000   22.0000 
1833.4856  558.8464    8.7500   96.0595   24.7775   26.7386   26.2250    0.2098    2.6096    3.3216   22.0000   22.0000 
1833.9856  558.9988    8.7500   96.0569   24.7755   26.7378   26.2234    0.2098    2.6096    3.3216   22.0000   22.0000 
1834.4856  559.1512    8.7500   94.2676   28.5253   28.2863   27.7586    0.2029    2.6092    3.3158   22.0000   22.0000 
1834.9856  559.3036    8.7500   95.1697   21.0219   20.0304   20.0777    0.2126    2.5978    3.3453   22.0000   22.0000 
1835.4856  559.4560    8.7500   95.1697   21.0218   20.0303   20.0776    0.2126    2.5978    3.3453   22.0000   22.0000 
1835.9856  559.6084    8.7500   78.3167   26.9538   22.6334   24.1830    0.1763    2.6509    3.7034   22.0000   22.0000 
1836.4856  559.7608    8.7500   78.3420   26.9375   22.6228   24.1647    0.1764    2.6508    3.7029   22.0000   22.0000 
1836.9856  559.9132    8.7500   36.8313  243.4675  166.1167  106.8782    0.0098    2.8363    4.4829    1.0001    1.0000 
1837.4856  560.0656    8.7500   21.3340 3864.5813 1611.6552  163.3655   -0.0056    2.9178    4.8046    1.0000    1.0000 
1837.9856  560.2180    8.7500   21.3339 3864.6060 1611.6650  163.3659   -0.0056    2.9178    4.8046    1.0000    1.0000 
1838.4856  560.3704    8.7500   11.6545 37145.5820 3533.4158  178.9790   -0.0086    2.9528    5.1553    1.0000    1.0000 
1838.9856  560.5228    8.7500   11.6554 37086.0508 3533.0139  178.9767   -0.0086    2.9528    5.1553    1.0000    1.0000 
1839.4856  560.6752    8.7500   11.6878 99999.5703 4249.5732  188.4858   -0.0086    2.9569    5.1500    1.0000    1.0000 
1839.9856  560.8276    8.7500   12.8559 100000.0000 4024.3774  184.0115   -0.0089    2.9622    5.1075    1.0000    1.0000 
1840.4856  560.9800    8.7500   12.8559 100000.0000 4024.3760  184.0115   -0.0089    2.9622    5.1075    1.0000    1.0000 
1840.9856  561.1324    8.7500   12.2027 100000.0000 3822.9905  172.7567   -0.0092    2.9731    5.0335    1.0000    1.0000 
1841.4856  561.2848    8.7500   12.2035 100000.0000 3822.9629  172.7592   -0.0092    2.9731    5.0335    1.0000    1.0000 
1841.9856  561.4372    8.7500   11.1956 100000.0000 4060.7644  167.4452   -0.0097    2.9696    5.0721    1.0000    1.0000 
1842.4856  561.5896    8.7500   12.3513 100000.0000 3716.8345  158.8673   -0.0098    2.9712    5.0597    1.0000    1.0000 
1842.9856  561.7420    8.7500   12.3513 100000.0000 3716.8320  158.8672   -0.0098    2.9712    5.0597    1.0000    1.0000 
1843.4856  561.8944    8.7500   13.3097 100000.0000 3665.9954  145.1712   -0.0099    2.9717    5.0885    1.0000    1.0000 
1843.9856  562.0468    8.7500   13.3093 100000.0000 3666.0281  145.1824   -0.0099    2.9717    5.0885    1.0000    1.0000 
