~VERSION INFORMATION
 VERS.                 2.0:   CWLS LOG ASCII STANDARD - VERSION 2.0
 WRAP.                  NO:   SINGLE LINE PER DEPTH STEP
 CREA.                 19/12/2017 14:19:34
#CREATED USING DSPetro VERSION 5000.10.1.3 BY H191660 ON 19/12/2017 14:19:34
~WELL INFORMATION
#MNEM.UNIT       DATA                          DESCRIPTION MNEMONIC
#---------      ---------------------------   --------------------------
 STRT    .FT        127.9856                  : START DEPTH
 STOP    .FT        8799.9855                 : STOP DEPTH
 STEP    .FT        0.5000                    : STEP VALUE
 NULL    .      -999.0000                     : NULL VALUE
 DATE    .      19/12/2017                    : LAS file Creation Date
 WELL  .      UB_13_14_4200343837  : Well Name
 COM1  .      OIL PRODUCER         : Well Comment
 COMP  .                           : Company
 FLD   .      FULLERTON (WOLFCAMP) : Field
 UWI   .      202                  : Unique Well Identifier (UWI)
 LOC   .                           : Location
 PDAT  .      3261                 : Permanent Datum
 EPDAT .      Ground Level         : Reference Elevation
 LGMEA .      42                   : Log Measured from
 DRMEA .      42                   : Drill Measured From
 APDAT .      KB                   : Elevation Above Permanent Datum
 KB    .      3303                 : KB Elevation
 DF    .      3302                 : DF Elevation
 GL    .      3261                 : GL Elevation
 RWS   .      0                    : Def_Rw
 WST   .      0                    : Def_Rwt
 DATS  .      02/03/2012           : Spud Date
 MDEC  .      0                    : Magnetic Declination
 SRVC  .      SCH                  : Contractor
~CURVE INFORMATION
#MNEM              UNIT       API CODE   Curve Type Comments
#----------  --------------- ----------  ---------- -----------
 DEPTH      .FT                        : Depth       
 DEPTH_(m)  .                          :             
 BitSize    .in                        : bitSize     
 GR_API     .API                       : GammaRay    Gamma Ray (API) - Measures the intensity of natural gamma-ray radiation emitted from formations containing radioactive elements, such as K, Th and U
 LLD_OHMM   .ohmm                      :             Laterlog Deep Resistivity - Measurement made several feet into the formation; generally considered a measurement of the undisturbed formation
 LLM_OHMM   .ohm.m                     :             Laterlog Medium Resistivity - Measurement made approximately two to three feet into the formation - units of ohmm
 LLS_OHMM   .ohmm                      :             Laterlog Shallow Resistivity - one to two feet into the formation; generally considered to measure the formation
 NPHI_v/v   .ratio                     :             Neutron Porosity - Measured with an neutron logging device calibrated to a given matrix (limestone, sandstone and dolomite)
 RHOB_G_CC  .g/cc                      :             Formation Density - Measures the density of formation, including any void space or other materials contained in the subject volume
 PEF_B_E    .b/e-                      : PEF         Photoelectric Factor - A log of photoelectric absorption properties. Often expressed in an approximation unit barns/electron (b/e-)
 LITH       .                          : LITH        Lithology Curve
 LITH_v2    .                          : LITH        Lithology Curve
~A  DEPTH DEPTH_(m)  BitSize    GR_API   LLD_OHMM  LLM_OHMM  LLS_OHMM  NPHI_v/v RHOB_G_C   PEF_B_E     LITH    LITH_v2  
# ...
6962.4856 2122.1655    8.7500   58.8390   51.4655   39.3857   21.4665    0.0979    2.7245    3.0554   12.0000   22.0000 
6962.9856 2122.3181    8.7500   57.2148   55.9531   41.3743   22.5817    0.0911    2.7255    3.0738   12.0000   22.0000 
6963.4856 2122.4705    8.7500   59.4737   55.7897   40.3132   22.3661    0.0892    2.7273    3.0540   12.0000   22.0000 
6963.9856 2122.6228    8.7500   60.6427   51.0949   36.5951   21.8244    0.0794    2.7250    3.0046   12.0000   22.0000 
6964.4856 2122.7751    8.7500   69.2761   48.6072   34.9999   22.0878    0.0888    2.7183    2.9438   12.0000   37.0000 
6964.9856 2122.9275    8.7500   77.0031   47.7089   34.7971   23.6434    0.0978    2.7014    2.9133   12.0000   37.0000 
6965.4856 2123.0801    8.7500   87.0085   43.9454   32.3003   23.7863    0.1186    2.6812    2.9218   36.9993   37.0000 
6965.9856 2123.2324    8.7500   91.7553   45.9744   33.8401   25.2098    0.1237    2.6757    2.9881   37.0000   37.0000 
6966.4856 2123.3848    8.7500   89.2206   45.5237   33.6237   25.2651    0.0999    2.7056    3.1141   12.0007   37.0000 
6966.9856 2123.5371    8.7500   74.7351   64.9418   48.5602   36.5177    0.0602    2.7629    3.2562   12.0000   37.0000 
6967.4856 2123.6897    8.7500   60.3969  468.0590  285.5188   56.8434    0.0258    2.8138    3.3886   12.0000   37.0000 
6967.9856 2123.8420    8.7500   52.1690  474.7616  292.6804   56.0832    0.0176    2.8397    3.4630   12.0000   12.0000 
6968.4856 2123.9944    8.7500   54.7074  239.9092  182.3206   52.8991    0.0175    2.8469    3.4917   12.0000   12.0000 
6968.9856 2124.1467    8.7500   55.6654  233.9470  179.8263   52.0778    0.0212    2.8461    3.4842   12.0000   12.0000 
6969.4856 2124.2993    8.7500   60.8534  233.5994  191.4277   54.0302    0.0271    2.8344    3.4708   12.0000   12.0000 
6969.9856 2124.4517    8.7500   63.3924  143.7667  130.4804   53.7879    0.0362    2.8182    3.4388   12.0000   12.0000 
6970.4856 2124.6040    8.7500   71.4287   89.0356   86.6770   50.1032    0.0435    2.8035    3.3865   12.0000   12.0000 
6970.9856 2124.7563    8.7500   74.2436   74.8312   76.0571   49.1226    0.0556    2.7866    3.3604   12.0000   12.0000 
6971.4856 2124.9087    8.7500   79.5539   67.6701   70.1666   48.1716    0.0612    2.7776    3.3571   12.0000   12.0000 
6971.9856 2125.0613    8.7500   76.5639   84.5417   87.8816   50.4424    0.0541    2.7814    3.3954   12.0000   12.0000 
6972.4856 2125.2136    8.7500   69.2312  121.2539  122.7142   53.7693    0.0343    2.8056    3.4236   12.0000   12.0000 
6972.9856 2125.3660    8.7500   57.2428  246.4613  226.7391   57.1699    0.0190    2.8242    3.4710   12.0000   12.0000 
6973.4856 2125.5183    8.7500   51.3449  282.7158  252.2264   57.8067    0.0164    2.8312    3.5143   12.0000   12.0000 
6973.9856 2125.6709    8.7500   53.5444  386.0187  317.4289   59.0889    0.0157    2.8315    3.5568   12.0000   12.0000 
6974.4856 2125.8232    8.7500   60.2225  439.8043  344.1159   59.6459    0.0139    2.8336    3.6108   12.0000   12.0000 
6974.9856 2125.9756    8.7500   64.2990  952.0008  554.6517   60.0346    0.0102    2.8398    3.6771   12.0000   12.0000 
6975.4856 2126.1279    8.7500   66.9956 1282.9680  652.8487   62.2730    0.0078    2.8485    3.7438   12.0000   12.0000 
6975.9856 2126.2805    8.7500   66.8243 1137.5610  566.3290   57.8885    0.0071    2.8567    3.8000   12.0000   12.0000 
6976.4856 2126.4329    8.7500   67.2106 1969.5363  748.2629   57.4121    0.0073    2.8649    3.8104   12.0000   12.0000 
6976.9856 2126.5852    8.7500   64.9754 1745.1251  690.9803   57.0296    0.0081    2.8729    3.7825   12.0000   12.0000 
6977.4856 2126.7375    8.7500   61.5593 1022.9078  548.9015   57.3308    0.0072    2.8778    3.7062   12.0000   12.0000 
6977.9856 2126.8899    8.7500   62.2216 1393.8558  666.7732   57.0676    0.0074    2.8764    3.6517   12.0000   12.0000 
6978.4856 2127.0425    8.7500   70.2599 1108.3998  629.5167   57.0566    0.0090    2.8697    3.5903   12.0000   12.0000 
6978.9856 2127.1948    8.7500   78.4659  631.8077  453.9497   57.4279    0.0143    2.8654    3.5232   12.0000   12.0000 
6979.4856 2127.3472    8.7500   79.5147  221.0007  204.0421   54.0806    0.0237    2.8485    3.4746   12.0000   12.0000 
6979.9856 2127.4995    8.7500   73.3393  143.6777  141.0381   53.7564    0.0363    2.8328    3.4196   12.0000   12.0000 
6980.4856 2127.6521    8.7500   67.8929  119.7580  119.0599   53.7795    0.0484    2.8141    3.3753   12.0000   12.0000 
6980.9856 2127.8044    8.7500   64.4157   99.8750  101.0373   52.8055    0.0555    2.8079    3.3028   12.0000   12.0000 
6981.4856 2127.9568    8.7500   65.7993  101.2446  101.9461   53.9242    0.0558    2.8008    3.2895   12.0000   12.0000 
6981.9856 2128.1091    8.7500   63.9228  126.9928  125.1805   55.8693    0.0428    2.8155    3.2812   12.0000   12.0000 
6982.4856 2128.2615    8.7500   63.8342  196.6908  185.8944   58.3782    0.0272    2.8361    3.2976   12.0000   12.0000 
6982.9856 2128.4141    8.7500   62.4997  429.4645  347.4221   60.6107    0.0178    2.8655    3.3149   12.0000   12.0000 
6983.4856 2128.5664    8.7500   64.2873 1995.1422  837.8564   61.6472    0.0162    2.8891    3.3561   12.0000   12.0000 
6983.9856 2128.7188    8.7500   64.5967 1728.9343  728.5381   59.8113    0.0151    2.9048    3.3734   12.0000   12.0000 
6984.4856 2128.8711    8.7500   61.0881 2102.6147  749.2234   58.2231    0.0158    2.8934    3.3933   12.0000   12.0000 
6984.9856 2129.0237    8.7500   59.6314 3435.9307  870.8849   56.9389    0.0170    2.8702    3.3661   12.0000   12.0000 
6985.4856 2129.1760    8.7500   54.3882 1611.5909  652.2622   53.8937    0.0186    2.8392    3.3212   12.0000   12.0000 
6985.9856 2129.3284    8.7500   46.7245  668.7456  416.9008   51.3148    0.0248    2.8269    3.2152   12.0000   12.0000 
6986.4856 2129.4807    8.7500   36.3484  237.3136  202.4182   47.7646    0.0422    2.8060    3.1264   12.0000   12.0000 
6986.9856 2129.6333    8.7500   29.6267  112.0445  108.1645   43.3175    0.0661    2.7944    3.0582   12.0000   12.0000 
6987.4856 2129.7856    8.7500   27.5530  111.5719  108.6199   42.4017    0.0823    2.7680    3.0768   12.0000   12.0000 
6987.9856 2129.9380    8.7500   27.1449  114.6517  112.0048   37.5182    0.0879    2.7514    3.1125   12.0000   12.0000 
6988.4856 2130.0903    8.7500   28.2920   38.0176   40.6176   25.3364    0.0855    2.7626    3.2218   12.0000   12.0000 
6988.9856 2130.2427    8.7500   30.4720  105.1905  105.5056   32.1677    0.0839    2.7940    3.3408   12.0000   12.0000 
6989.4856 2130.3953    8.7500   30.9904  124.2083  120.3251   33.3745    0.0789    2.8111    3.5863   12.0000   12.0000 
6989.9856 2130.5476    8.7500   33.6396  145.9625  139.4557   32.6131    0.0711    2.8174    3.8096   12.0000   12.0000 
6990.4856 2130.7000    8.7500   33.3737  207.4075  181.9585   33.4244    0.0554    2.8207    3.9768   12.0000   12.0000 
6990.9856 2130.8523    8.7500   35.7469  491.6472  326.2964   34.9337    0.0391    2.8479    3.9250   12.0000   12.0000 
6991.4856 2131.0049    8.7500   34.8088  780.0895  409.2618   34.0513    0.0252    2.8542    3.8153   12.0000   12.0000 
6991.9856 2131.1572    8.7500   34.5959 1545.7910  524.6884   32.6509    0.0212    2.8578    3.6481   12.0000   12.0000 
6992.4856 2131.3096    8.7500   33.4919 1110.3800  460.5788   30.7047    0.0197    2.8542    3.4932   12.0000   12.0000 
6992.9856 2131.4619    8.7500   31.9643  246.8511  173.1157   27.1718    0.0208    2.8541    3.3196   12.0000   12.0000 
6993.4856 2131.6145    8.7500   30.9807  286.4709  193.1911   30.0988    0.0184    2.8560    3.1986   12.0000   12.0000 
6993.9856 2131.7668    8.7500   29.2993  354.1180  230.1599   37.0399    0.0161    2.8558    3.1788   12.0000   12.0000 
6994.4856 2131.9192    8.7500   28.7296  522.4772  307.6710   43.2183    0.0117    2.8503    3.2292   12.0000   12.0000 
6994.9856 2132.0715    8.7500   29.2874  612.1675  349.0506   44.7008    0.0087    2.8472    3.2565   12.0000   12.0000 
6995.4856 2132.2239    8.7500   31.1895 2560.5105  751.5107   48.0531    0.0058    2.8504    3.2662   12.0000   12.0000 
