~VERSION INFORMATION
 VERS.                 2.0:   CWLS LOG ASCII STANDARD - VERSION 2.0
 WRAP.                  NO:   SINGLE LINE PER DEPTH STEP
 CREA.                 19/12/2017 14:19:34
#CREATED USING DSPetro VERSION 5000.10.1.3 BY H191660 ON 19/12/2017 14:19:34
~WELL INFORMATION
#MNEM.UNIT       DATA                          DESCRIPTION MNEMONIC
#---------      ---------------------------   --------------------------
 STRT    .FT        127.9856                  : START DEPTH
 STOP    .FT        8799.9855                 : STOP DEPTH
 STEP    .FT        0.5000                    : STEP VALUE
 NULL    .      -999.0000                     : NULL VALUE
 DATE    .      19/12/2017                    : LAS file Creation Date
 WELL  .      UB_13_14_4200343837  : Well Name
 COM1  .      OIL PRODUCER         : Well Comment
 COMP  .                           : Company
 FLD   .      FULLERTON (WOLFCAMP) : Field
 UWI   .      202                  : Unique Well Identifier (UWI)
 LOC   .                           : Location
 PDAT  .      3261                 : Permanent Datum
 EPDAT .      Ground Level         : Reference Elevation
 LGMEA .      42                   : Log Measured from
 DRMEA .      42                   : Drill Measured From
 APDAT .      KB                   : Elevation Above Permanent Datum
 KB    .      3303                 : KB Elevation
 DF    .      3302                 : DF Elevation
 GL    .      3261                 : GL Elevation
 RWS   .      0                    : Def_Rw
 WST   .      0                    : Def_Rwt
 DATS  .      02/03/2012           : Spud Date
 MDEC  .      0                    : Magnetic Declination
 SRVC  .      SCH                  : Contractor
~CURVE INFORMATION
#MNEM              UNIT       API CODE   Curve Type Comments
#----------  --------------- ----------  ---------- -----------
 DEPTH      .FT                        : Depth       
 DEPTH_(m)  .                          :             
 BitSize    .in                        : bitSize     
 GR_API     .API                       : GammaRay    Gamma Ray (API) - Measures the intensity of natural gamma-ray radiation emitted from formations containing radioactive elements, such as K, Th and U
 LLD_OHMM   .ohmm                      :             Laterlog Deep Resistivity - Measurement made several feet into the formation; generally considered a measurement of the undisturbed formation
 LLM_OHMM   .ohm.m                     :             Laterlog Medium Resistivity - Measurement made approximately two to three feet into the formation - units of ohmm
 LLS_OHMM   .ohmm                      :             Laterlog Shallow Resistivity - one to two feet into the formation; generally considered to measure the formation
 NPHI_v/v   .ratio                     :             Neutron Porosity - Measured with an neutron logging device calibrated to a given matrix (limestone, sandstone and dolomite)
 RHOB_G_CC  .g/cc                      :             Formation Density - Measures the density of formation, including any void space or other materials contained in the subject volume
 PEF_B_E    .b/e-                      : PEF         Photoelectric Factor - A log of photoelectric absorption properties. Often expressed in an approximation unit barns/electron (b/e-)
 LITH       .                          : LITH        Lithology Curve
 LITH_v2    .                          : LITH        Lithology Curve
~A  DEPTH DEPTH_(m)  BitSize    GR_API   LLD_OHMM  LLM_OHMM  LLS_OHMM  NPHI_v/v RHOB_G_C   PEF_B_E     LITH    LITH_v2  
# ...
8101.4856 2469.3328    8.7500   61.1904 1284.1962  663.3204   58.2480    0.0118    2.6626    4.0561   22.0000   18.0000 
8101.9856 2469.4851    8.7500   63.5323  301.8438  254.2086   57.6611    0.0109    2.6647    4.0253   22.0000   18.0000 
8102.4856 2469.6377    8.7500   63.1598  770.2014  490.9792   60.8931    0.0128    2.6613    4.0480   22.0000   18.0000 
8102.9856 2469.7900    8.7500   57.5324  452.3701  330.7442   57.2946    0.0146    2.6564    4.1220   22.0000   18.0000 
8103.4856 2469.9424    8.7500   59.8107  286.9581  234.5059   54.0689    0.0208    2.6451    4.2470   22.0000   18.0000 
8103.9856 2470.0947    8.7500   77.5467  261.3649  216.7524   53.6344    0.0492    2.6416    4.2908   22.0000   18.0000 
8104.4856 2470.2473    8.7500   92.3423   71.4010   69.9075   43.1898    0.0611    2.6416    4.3090   22.0000   22.0000 
8104.9856 2470.3997    8.7500   85.0083  237.3720  208.4518   48.7402    0.0547    2.6592    4.3577   22.0000   22.0000 
8105.4856 2470.5520    8.7500   58.4062  438.4046  330.0294   49.2102    0.0214    2.6779    4.4857   22.0000   22.0000 
8105.9856 2470.7043    8.7500   37.0644  288.8232  240.6832   47.0784    0.0112    2.6980    4.5928   22.0000   18.0000 
8106.4856 2470.8567    8.7500   31.3160  287.5408  242.9853   46.3072    0.0083    2.6985    4.6727   22.0000   18.0000 
8106.9856 2471.0093    8.7500   34.6825  397.6200  307.9356   46.4726    0.0118    2.6947    4.7004   22.0000   18.0000 
8107.4856 2471.1616    8.7500   39.3127  289.2358  237.1770   44.7547    0.0151    2.6836    4.7356   22.0000   18.0000 
8107.9856 2471.3140    8.7500   50.5420  222.9584  191.1193   43.9808    0.0253    2.6805    4.7710   22.0000   18.0000 
8108.4856 2471.4663    8.7500   63.4571  101.1825   92.3655   39.2980    0.0372    2.6806    4.8092   22.0000   18.0000 
8108.9856 2471.6189    8.7500   66.3845  114.2412  101.0394   39.8634    0.0417    2.6841    4.8009   22.0000   18.0000 
8109.4856 2471.7712    8.7500   66.4911  363.3792  268.8273   44.0387    0.0426    2.6871    4.7437   22.0000   18.0000 
8109.9856 2471.9236    8.7500   58.8097  284.1021  221.6074   42.3534    0.0354    2.6941    4.6539   22.0000   18.0000 
8110.4856 2472.0759    8.7500   54.9265  330.1107  249.0220   42.7444    0.0265    2.7031    4.6109   22.0000   18.0000 
8110.9856 2472.2285    8.7500   48.2738  540.1151  352.4566   43.5666    0.0178    2.7091    4.5802   22.0000   18.0000 
8111.4856 2472.3809    8.7500   51.2006  423.0326  295.0832   41.8430    0.0181    2.7091    4.5711   22.0000   18.0000 
8111.9856 2472.5332    8.7500   62.1284  339.5580  248.8293   41.4662    0.0269    2.7015    4.5341   22.0000   18.0000 
8112.4856 2472.6855    8.7500   71.3358  273.5996  195.7846   36.7487    0.0391    2.7061    4.5639   22.0000   18.0000 
8112.9856 2472.8379    8.7500   67.6463  573.9051  329.8138   38.2859    0.0397    2.7072    4.6342   22.0000   18.0000 
8113.4856 2472.9905    8.7500   58.7921  583.3325  328.2794   37.3067    0.0341    2.7137    4.7286   22.0000   18.0000 
8113.9856 2473.1428    8.7500   49.5847  484.7881  288.1121   35.6745    0.0272    2.7107    4.7597   22.0000   18.0000 
8114.4856 2473.2952    8.7500   46.3281  647.4974  355.2462   37.3001    0.0244    2.7128    4.7364   22.0000   18.0000 
8114.9856 2473.4475    8.7500   43.9332  557.8395  326.8128   36.2332    0.0233    2.7087    4.7235   22.0000   18.0000 
8115.4856 2473.6001    8.7500   43.6138  532.0212  322.2302   35.9679    0.0242    2.7034    4.7382   22.0000   18.0000 
8115.9856 2473.7524    8.7500   44.7728  496.9426  305.6389   35.1046    0.0260    2.6981    4.7932   22.0000   18.0000 
8116.4856 2473.9048    8.7500   44.7077  407.3571  265.6263   33.7319    0.0276    2.6943    4.8722   22.0000   18.0000 
8116.9856 2474.0571    8.7500   44.6012  403.4601  260.2283   32.6547    0.0274    2.7003    4.8812   22.0000   18.0000 
8117.4856 2474.2097    8.7500   43.5231  347.7391  238.5631   32.0871    0.0253    2.6966    4.8956   22.0000   18.0000 
8117.9856 2474.3621    8.7500   42.5238  350.8656  238.4231   32.5838    0.0235    2.6992    4.8391   22.0000   18.0000 
8118.4856 2474.5144    8.7500   41.9108  538.7316  319.8210   33.6171    0.0250    2.6939    4.8231   22.0000   18.0000 
8118.9856 2474.6667    8.7500   43.8798  298.1435  216.8598   32.9131    0.0272    2.6980    4.7751   22.0000   18.0000 
8119.4856 2474.8191    8.7500   43.0816  281.0290  210.5638   32.8639    0.0276    2.7009    4.7411   22.0000   18.0000 
8119.9856 2474.9717    8.7500   44.2406  607.8967  352.3261   34.1057    0.0222    2.7045    4.7089   22.0000   18.0000 
8120.4856 2475.1240    8.7500   44.9858  604.9101  351.1619   33.5077    0.0227    2.6996    4.7207   22.0000   18.0000 
8120.9856 2475.2764    8.7500   46.4228  346.1016  248.3988   33.4460    0.0251    2.6929    4.7413   22.0000   18.0000 
8121.4856 2475.4287    8.7500   44.4911  359.0095  256.5353   35.0588    0.0291    2.6870    4.7576   22.0000   18.0000 
8121.9856 2475.5813    8.7500   40.9785  407.0474  281.2499   35.6418    0.0267    2.6856    4.7368   22.0000   18.0000 
8122.4856 2475.7336    8.7500   43.8523  376.1319  277.9618   37.1981    0.0240    2.6790    4.7186   22.0000   18.0000 
8122.9856 2475.8860    8.7500   56.9877  335.6554  254.7197   36.6507    0.0436    2.6707    4.6951   22.0000   18.0000 
8123.4856 2476.0383    8.7500   64.6516  127.4598  117.1238   33.6093    0.0573    2.6809    4.7096   22.0000   18.0000 
8123.9856 2476.1907    8.7500   63.0021  166.7596  146.5193   35.0525    0.0642    2.6995    4.7249   22.0000   18.0000 
8124.4856 2476.3433    8.7500   50.9154  240.6003  196.9681   36.2514    0.0449    2.7052    4.7741   22.0000   18.0000 
8124.9856 2476.4956    8.7500   44.7949  369.5810  268.9509   37.2583    0.0368    2.6929    4.8222   22.0000   18.0000 
8125.4856 2476.6479    8.7500   50.8852  526.0226  336.6587   37.9376    0.0491    2.6815    4.8890   22.0000   18.0000 
8125.9856 2476.8003    8.7500   58.7263  139.3336  123.5617   34.8262    0.0650    2.6788    4.9826   22.0000   18.0000 
8126.4856 2476.9529    8.7500   61.4407  200.6732  167.2133   36.0134    0.0678    2.6777    5.0145   22.0000   18.0000 
8126.9856 2477.1052    8.7500   58.3836  378.2015  267.1104   36.7367    0.0576    2.6781    4.9547   22.0000   18.0000 
8127.4856 2477.2576    8.7500   54.0196  426.2042  287.1554   37.4870    0.0469    2.6891    4.8313   22.0000   18.0000 
8127.9856 2477.4099    8.7500   51.1417  383.0943  262.5393   37.0476    0.0440    2.6988    4.6874   22.0000   18.0000 
8128.4856 2477.5625    8.7500   49.8644  847.5494  421.3512   37.8613    0.0429    2.6962    4.6157   22.0000   18.0000 
8128.9856 2477.7148    8.7500   46.1390  453.5927  289.9723   37.0725    0.0435    2.6907    4.5643   22.0000   18.0000 
8129.4856 2477.8672    8.7500   46.7460  367.2810  251.1387   36.8976    0.0455    2.6910    4.5413   22.0000   18.0000 
8129.9856 2478.0195    8.7500   46.1606  731.8057  390.4499   37.3395    0.0496    2.6978    4.5412   22.0000   18.0000 
8130.4856 2478.1719    8.7500   52.1211  420.8416  277.3184   36.9637    0.0571    2.6923    4.5265   22.0000   18.0000 
8130.9856 2478.3245    8.7500   56.3079  331.2862  235.2137   37.8410    0.0638    2.6869    4.5752   22.0000   18.0000 
8131.4856 2478.4768    8.7500   55.3777  294.7590  220.9937   35.2130    0.0597    2.6829    4.6224   22.0000   18.0000 
8131.9856 2478.6292    8.7500   50.2687  370.5644  262.0591   33.9827    0.0538    2.6908    4.6977   22.0000   18.0000 
8132.4856 2478.7815    8.7500   49.7244 1227.7987  488.2799   32.7236    0.0596    2.6916    4.6524   22.0000   18.0000 
8132.9856 2478.9341    8.7500   57.8926  365.2675  262.5142   29.3077    0.0720    2.6835    4.4551   22.0000   18.0000 
8133.4856 2479.0864    8.7500   65.7693  348.0883  253.0276   28.0171    0.0829    2.6761    4.1990   22.0000   18.0000 
8133.9856 2479.2388    8.7500   68.4188  139.8286  130.4812   24.5899    0.0757    2.6783    3.9850   22.0000   18.0000 
8134.4856 2479.3911    8.7500   68.3656  177.8002  158.2744   24.3769    0.0755    2.6881    3.8797   22.0000   22.0000 
