~VERSION INFORMATION
 VERS.                 2.0:   CWLS LOG ASCII STANDARD - VERSION 2.0
 WRAP.                  NO:   SINGLE LINE PER DEPTH STEP
 CREA.                 19/12/2017 14:19:34
#CREATED USING DSPetro VERSION 5000.10.1.3 BY H191660 ON 19/12/2017 14:19:34
~WELL INFORMATION
#MNEM.UNIT       DATA                          DESCRIPTION MNEMONIC
#---------      ---------------------------   --------------------------
 STRT    .FT        127.9856                  : START DEPTH
 STOP    .FT        8799.9855                 : STOP DEPTH
 STEP    .FT        0.5000                    : STEP VALUE
 NULL    .      -999.0000                     : NULL VALUE
 DATE    .      19/12/2017                    : LAS file Creation Date
 WELL  .      UB_13_14_4200343837  : Well Name
 COM1  .      OIL PRODUCER         : Well Comment
 COMP  .                           : Company
 FLD   .      FULLERTON (WOLFCAMP) : Field
 UWI   .      202                  : Unique Well Identifier (UWI)
 LOC   .                           : Location
 PDAT  .      3261                 : Permanent Datum
 EPDAT .      Ground Level         : Reference Elevation
 LGMEA .      42                   : Log Measured from
 DRMEA .      42                   : Drill Measured From
 APDAT .      KB                   : Elevation Above Permanent Datum
 KB    .      3303                 : KB Elevation
 DF    .      3302                 : DF Elevation
 GL    .      3261                 : GL Elevation
 RWS   .      0                    : Def_Rw
 WST   .      0                    : Def_Rwt
 DATS  .      02/03/2012           : Spud Date
 MDEC  .      0                    : Magnetic Declination
 SRVC  .      SCH                  : Contractor
~CURVE INFORMATION
#MNEM              UNIT       API CODE   Curve Type Comments
#----------  --------------- ----------  ---------- -----------
 DEPTH      .FT                        : Depth       
 DEPTH_(m)  .                          :             
 BitSize    .in                        : bitSize     
 GR_API     .API                       : GammaRay    Gamma Ray (API) - Measures the intensity of natural gamma-ray radiation emitted from formations containing radioactive elements, such as K, Th and U
 LLD_OHMM   .ohmm                      :             Laterlog Deep Resistivity - Measurement made several feet into the formation; generally considered a measurement of the undisturbed formation
 LLM_OHMM   .ohm.m                     :             Laterlog Medium Resistivity - Measurement made approximately two to three feet into the formation - units of ohmm
 LLS_OHMM   .ohmm                      :             Laterlog Shallow Resistivity - one to two feet into the formation; generally considered to measure the formation
 NPHI_v/v   .ratio                     :             Neutron Porosity - Measured with an neutron logging device calibrated to a given matrix (limestone, sandstone and dolomite)
 RHOB_G_CC  .g/cc                      :             Formation Density - Measures the density of formation, including any void space or other materials contained in the subject volume
 PEF_B_E    .b/e-                      : PEF         Photoelectric Factor - A log of photoelectric absorption properties. Often expressed in an approximation unit barns/electron (b/e-)
 LITH       .                          : LITH        Lithology Curve
 LITH_v2    .                          : LITH        Lithology Curve
~A  DEPTH DEPTH_(m)  BitSize    GR_API   LLD_OHMM  LLM_OHMM  LLS_OHMM  NPHI_v/v RHOB_G_C   PEF_B_E     LITH    LITH_v2  
# ...
4081.4856 1244.0367    8.7500   39.2095   15.1177   11.0786   12.2796    0.1616    2.7255    3.2397   12.0000   12.0000 
4081.9856 1244.1892    8.7500   34.2764   33.8329   24.0061   27.2653    0.1209    2.7620    3.2283   12.0000   12.0000 
4082.4856 1244.3416    8.7500   31.0885   43.1162   28.2839   30.5506    0.1068    2.7798    3.2648   12.0000   12.0000 
4082.9856 1244.4940    8.7500   30.1122   43.1918   27.2387   29.6074    0.0982    2.7871    3.3374   12.0000   12.0000 
4083.4856 1244.6464    8.7500   29.2901   69.2820   40.4523   38.2403    0.0855    2.7959    3.4086   12.0000   12.0000 
4083.9856 1244.7988    8.7500   28.0568   82.1503   46.0625   43.6700    0.0684    2.8113    3.4372   12.0000   12.0000 
4084.4856 1244.9512    8.7500   28.8808   98.2128   54.9258   47.6041    0.0639    2.8172    3.4431   12.0000   12.0000 
4084.9856 1245.1036    8.7500   30.1655   44.7116   27.7199   34.7846    0.0772    2.8059    3.4194   12.0000   12.0000 
4085.4856 1245.2560    8.7500   34.3791   27.4132   17.4974   26.1708    0.1021    2.7791    3.3932   12.0000   12.0000 
4085.9856 1245.4084    8.7500   39.4132   16.2063   10.7218   14.8347    0.1194    2.7486    3.3898   12.0000   12.0000 
4086.4856 1245.5608    8.7500   48.8167   17.2070   11.7774   17.1214    0.1187    2.7185    3.4586   12.0000   12.0000 
4086.9856 1245.7133    8.7500   60.4814   12.8248    9.1122   13.6648    0.1160    2.6930    3.5448   12.0000   12.0000 
4087.4856 1245.8656    8.7500   67.5819   10.4079    7.5169   10.3667    0.1317    2.6834    3.6233   12.0000   12.0000 
4087.9856 1246.0179    8.7500   68.0960    7.5455    5.6111    7.1943    0.1188    2.7117    3.7096   12.0000   12.0000 
4088.4856 1246.1704    8.7500   58.5383   15.9108   11.8270   15.9875    0.0879    2.7484    3.7616   12.0000   22.0000 
4088.9856 1246.3228    8.7500   54.1208   71.2467   50.6771   38.5092    0.0425    2.7725    3.7917   12.0000   22.0000 
4089.4856 1246.4752    8.7500   52.3221   40.8992   30.3924   31.2384    0.0355    2.7581    3.6953   21.9998   22.0000 
4089.9856 1246.6276    8.7500   57.6147   41.6623   31.4633   31.5605    0.0434    2.7356    3.5714   22.0000   22.0000 
4090.4856 1246.7800    8.7500   64.3207   44.0541   34.6086   32.6807    0.0569    2.7170    3.4087   22.0000   22.0000 
4090.9856 1246.9324    8.7500   70.2300   23.2664   20.0273   23.8934    0.0717    2.6944    3.3392   22.0000   22.0000 
4091.4856 1247.0848    8.7500   72.7480   17.2774   15.3249   20.0569    0.0893    2.6796    3.3111   22.0000   22.0000 
4091.9856 1247.2372    8.7500   68.4977   16.3778   15.0943   19.7275    0.0979    2.6727    3.3335   22.0000   22.0000 
4092.4856 1247.3896    8.7500   65.3118   24.5225   22.8412   24.2702    0.0923    2.6846    3.3647   22.0000   22.0000 
4092.9856 1247.5420    8.7500   62.9461   27.1261   25.5416   25.7306    0.0793    2.6958    3.4128   22.0000   22.0000 
4093.4856 1247.6945    8.7500   62.0211   34.3084   32.2314   28.1538    0.0784    2.7002    3.3962   22.0000   22.0000 
4093.9856 1247.8468    8.7500   62.0725   26.6261   25.1030   25.8164    0.0968    2.6785    3.3700   22.0000   22.0000 
4094.4856 1247.9991    8.7500   60.2760   14.4691   13.5331   19.2530    0.1134    2.6633    3.4006   22.0000   22.0000 
4094.9856 1248.1516    8.7500   56.6277   14.0342   12.7826   18.9741    0.0964    2.6848    3.6335   22.0000   22.0000 
4095.4856 1248.3040    8.7500   44.2437   27.0937   23.3245   27.2394    0.0517    2.7727    4.0214   12.0002   22.0000 
4095.9856 1248.4564    8.7500   35.2363  314.2127  232.9639   51.6677    0.0222    2.8640    4.4203    1.0002   22.0000 
4096.4856 1248.6088    8.7500   31.7934   54.9703   53.3281   42.9584    0.0214    2.8953    4.6888    1.0000    1.0000 
4096.9856 1248.7612    8.7500   33.9002   25.5777   25.5394   33.3597    0.0291    2.8828    4.7743    1.0000    1.0000 
4097.4856 1248.9136    8.7500   33.9663   81.7602   74.3406   43.5099    0.0241    2.8730    4.6487    1.0000    1.0000 
4097.9856 1249.0660    8.7500   32.8211  112.6732   95.8622   41.7951    0.0155    2.8692    4.3445    1.0000    1.0000 
4098.4856 1249.2184    8.7500   37.6119  115.3068   76.0755   37.2740    0.0202    2.8238    3.9411   11.9998   22.0000 
4098.9856 1249.3708    8.7500   45.6887   30.1525   22.6605   21.5955    0.0340    2.7441    3.5850   21.9998   22.0000 
4099.4856 1249.5232    8.7500   53.2058   27.4958   21.8578   20.3183    0.0583    2.6790    3.3330   22.0000   22.0000 
4099.9856 1249.6755    8.7500   59.4629   16.3543   14.7070   14.4961    0.0875    2.6329    3.1874   22.0000   22.0000 
4100.4856 1249.8280    8.7500   64.1465   10.7040   10.4915    9.4841    0.1278    2.5953    3.1021   22.0000   22.0000 
4100.9856 1249.9803    8.7500   67.5894    7.0958    7.2835    6.4282    0.1772    2.5591    3.0781   22.0000   22.0000 
4101.4856 1250.1328    8.7500   69.7476    7.2769    8.3734    6.8164    0.1773    2.5589    3.0650   22.0000   22.0000 
4101.9856 1250.2852    8.7500   68.3950   10.7041   12.7951   10.0631    0.1674    2.5830    3.0946   22.0000   22.0000 
4102.4856 1250.4376    8.7500   68.9840   13.1890   15.9655   12.2205    0.1586    2.6027    3.1704   22.0000   22.0000 
4102.9856 1250.5900    8.7500   68.0591   10.0632   11.9267    8.8798    0.1716    2.6085    3.2474   22.0000   22.0000 
4103.4856 1250.7424    8.7500   69.0354   10.2346   11.5640    8.4759    0.1678    2.6062    3.3238   22.0000   22.0000 
4103.9856 1250.8948    8.7500   69.5767   14.9006   15.7584   12.7279    0.1483    2.6186    3.3915   22.0000   22.0000 
4104.4856 1251.0472    8.7500   65.8770   18.8548   17.5393   16.2801    0.1319    2.6453    3.5421   22.0000   22.0000 
4104.9856 1251.1996    8.7500   60.1328   15.1566   12.7831   14.3884    0.1050    2.7084    3.8014   12.0002   22.0000 
4105.4856 1251.3521    8.7500   46.6185   15.0594   11.0016   14.5154    0.0476    2.8087    4.2027   12.0000    1.0000 
4105.9856 1251.5044    8.7500   32.6414  180.2811  112.8339   40.2131    0.0064    2.9088    4.6047    1.0002    1.0000 
4106.4856 1251.6567    8.7500   20.2977  599.6257  313.1045   48.9032   -0.0052    2.9687    4.9010    1.0000    1.0000 
4106.9856 1251.8092    8.7500   14.9021 2127.4688  840.9818   57.9537   -0.0062    2.9852    5.0056    1.0000    1.0000 
4107.4856 1251.9615    8.7500   14.1312 2432.9031  988.7149   59.6335   -0.0043    2.9777    4.9496    1.0000    1.0000 
4107.9856 1252.1140    8.7500   19.6624 1409.1432  729.1730   59.0055    0.0051    2.9513    4.8158    1.0000    1.0000 
4108.4856 1252.2664    8.7500   28.7578   39.8071   40.5134   39.9278    0.0208    2.9142    4.6555    1.0000    1.0000 
4108.9856 1252.4188    8.7500   34.5130   24.3822   24.9962   32.6283    0.0345    2.8770    4.6508    1.0000    1.0000 
4109.4856 1252.5712    8.7500   32.3219   84.5604   83.6921   47.8562    0.0204    2.8794    4.7709    1.0000    1.0000 
4109.9856 1252.7236    8.7500   24.8838  508.1575  415.5158   57.9706    0.0128    2.8895    4.9431    1.0000    1.0000 
4110.4856 1252.8760    8.7500   23.3421  338.9577  307.8891   55.5738    0.0155    2.8989    4.9914    1.0000    1.0000 
4110.9856 1253.0284    8.7500   24.1130  120.8560  119.8053   51.5027    0.0285    2.8874    4.9692    1.0000    1.0000 
4111.4856 1253.1808    8.7500   24.9737   97.1614   99.3110   49.0749    0.0263    2.8903    4.9112    1.0000    1.0000 
4111.9856 1253.3333    8.7500   21.7934  140.5478  143.8931   53.0921    0.0151    2.9167    4.8400    1.0000    1.0000 
4112.4856 1253.4856    8.7500   20.4572  564.2357  451.9320   61.1340    0.0086    2.9299    4.7968    1.0000    1.0000 
4112.9856 1253.6379    8.7500   22.2043  289.4416  272.8469   57.2603    0.0086    2.9332    4.7269    1.0000    1.0000 
4113.4856 1253.7904    8.7500   26.0527   64.2174   62.5775   49.1756    0.0097    2.9230    4.7054    1.0000    1.0000 
4113.9856 1253.9427    8.7500   26.4144  214.3344  196.3157   62.8390    0.0065    2.9379    4.6975    1.0000    1.0000 
4114.4856 1254.0952    8.7500   24.3589 1308.2156  755.1461   68.2207    0.0033    2.9409    4.7383    1.0000    1.0000 
