~VERSION INFORMATION
 VERS.                 2.0:   CWLS LOG ASCII STANDARD - VERSION 2.0
 WRAP.                  NO:   SINGLE LINE PER DEPTH STEP
 CREA.                 19/12/2017 14:19:34
#CREATED USING DSPetro VERSION 5000.10.1.3 BY H191660 ON 19/12/2017 14:19:34
~WELL INFORMATION
#MNEM.UNIT       DATA                          DESCRIPTION MNEMONIC
#---------      ---------------------------   --------------------------
 STRT    .FT        127.9856                  : START DEPTH
 STOP    .FT        8799.9855                 : STOP DEPTH
 STEP    .FT        0.5000                    : STEP VALUE
 NULL    .      -999.0000                     : NULL VALUE
 DATE    .      19/12/2017                    : LAS file Creation Date
 WELL  .      UB_13_14_4200343837  : Well Name
 COM1  .      OIL PRODUCER         : Well Comment
 COMP  .                           : Company
 FLD   .      FULLERTON (WOLFCAMP) : Field
 UWI   .      202                  : Unique Well Identifier (UWI)
 LOC   .                           : Location
 PDAT  .      3261                 : Permanent Datum
 EPDAT .      Ground Level         : Reference Elevation
 LGMEA .      42                   : Log Measured from
 DRMEA .      42                   : Drill Measured From
 APDAT .      KB                   : Elevation Above Permanent Datum
 KB    .      3303                 : KB Elevation
 DF    .      3302                 : DF Elevation
 GL    .      3261                 : GL Elevation
 RWS   .      0                    : Def_Rw
 WST   .      0                    : Def_Rwt
 DATS  .      02/03/2012           : Spud Date
 MDEC  .      0                    : Magnetic Declination
 SRVC  .      SCH                  : Contractor
~CURVE INFORMATION
#MNEM              UNIT       API CODE   Curve Type Comments
#----------  --------------- ----------  ---------- -----------
 DEPTH      .FT                        : Depth       
 DEPTH_(m)  .                          :             
 BitSize    .in                        : bitSize     
 GR_API     .API                       : GammaRay    Gamma Ray (API) - Measures the intensity of natural gamma-ray radiation emitted from formations containing radioactive elements, such as K, Th and U
 LLD_OHMM   .ohmm                      :             Laterlog Deep Resistivity - Measurement made several feet into the formation; generally considered a measurement of the undisturbed formation
 LLM_OHMM   .ohm.m                     :             Laterlog Medium Resistivity - Measurement made approximately two to three feet into the formation - units of ohmm
 LLS_OHMM   .ohmm                      :             Laterlog Shallow Resistivity - one to two feet into the formation; generally considered to measure the formation
 NPHI_v/v   .ratio                     :             Neutron Porosity - Measured with an neutron logging device calibrated to a given matrix (limestone, sandstone and dolomite)
 RHOB_G_CC  .g/cc                      :             Formation Density - Measures the density of formation, including any void space or other materials contained in the subject volume
 PEF_B_E    .b/e-                      : PEF         Photoelectric Factor - A log of photoelectric absorption properties. Often expressed in an approximation unit barns/electron (b/e-)
 LITH       .                          : LITH        Lithology Curve
 LITH_v2    .                          : LITH        Lithology Curve
~A  DEPTH DEPTH_(m)  BitSize    GR_API   LLD_OHMM  LLM_OHMM  LLS_OHMM  NPHI_v/v RHOB_G_C   PEF_B_E     LITH    LITH_v2  
# ...
4684.4856 1427.8312    8.7500   50.9110   38.6712   41.4795   30.2191    0.1033    2.7517    3.1473   12.0000   12.0000 
4684.9856 1427.9836    8.7500   50.2941   27.6560   29.6857   25.6487    0.1223    2.7502    3.1611   12.0000   12.0000 
4685.4856 1428.1360    8.7500   44.3335   34.5429   36.6359   27.1853    0.1007    2.7726    3.1470   12.0000   12.0000 
4685.9856 1428.2885    8.7500   38.4792   77.0599   79.2195   40.6976    0.0641    2.8021    3.1411   12.0000   12.0000 
4686.4856 1428.4408    8.7500   34.7005  525.3648  386.1762   55.7330    0.0319    2.8262    3.1361   12.0000   12.0000 
4686.9856 1428.5931    8.7500   33.9021  132.0934  116.9819   47.9503    0.0327    2.8330    3.1443   12.0000   12.0000 
4687.4856 1428.7456    8.7500   34.1150  167.5572  142.9262   50.9013    0.0397    2.8248    3.1629   12.0000   12.0000 
4687.9856 1428.8979    8.7500   32.3290  260.1432  203.4969   53.0209    0.0445    2.8099    3.1744   12.0000   12.0000 
4688.4856 1429.0504    8.7500   29.7212  149.0794  122.7289   49.1142    0.0489    2.7880    3.1882   12.0000   12.0000 
4688.9856 1429.2028    8.7500   28.7099   58.7801   52.4609   33.3658    0.0657    2.7801    3.1528   12.0000   12.0000 
4689.4856 1429.3552    8.7500   28.0476   49.0319   44.4762   30.7904    0.0722    2.7811    3.1116   12.0000   12.0000 
4689.9856 1429.5076    8.7500   28.7927  118.3529  103.3887   46.4167    0.0662    2.7882    3.0796   12.0000   12.0000 
4690.4856 1429.6600    8.7500   27.7815  174.4701  148.2757   51.2828    0.0501    2.7947    3.0673   12.0000   12.0000 
4690.9856 1429.8124    8.7500   28.3138  229.1138  184.7965   51.5476    0.0410    2.7984    3.0670   12.0000   12.0000 
4691.4856 1429.9648    8.7500   28.9524  176.3087  147.4623   50.4560    0.0441    2.7964    3.0881   12.0000   12.0000 
4691.9856 1430.1172    8.7500   32.3151  103.6775   92.5032   47.5206    0.0627    2.7840    3.1193   12.0000   12.0000 
4692.4856 1430.2697    8.7500   36.4590   42.5125   40.0427   31.0471    0.0804    2.7701    3.1444   12.0000   12.0000 
4692.9856 1430.4220    8.7500   37.0190   51.0871   46.6132   34.8700    0.0809    2.7694    3.1486   12.0000   12.0000 
4693.4856 1430.5743    8.7500   33.6563  155.8115  126.7964   49.7806    0.0621    2.7853    3.1365   12.0000   12.0000 
4693.9856 1430.7268    8.7500   28.0754  244.9452  188.5508   52.5201    0.0417    2.7984    3.1370   12.0000   12.0000 
4694.4856 1430.8792    8.7500   26.7172  267.2081  206.7390   55.0245    0.0364    2.8026    3.0978   12.0000   12.0000 
4694.9856 1431.0316    8.7500   30.8150   83.7788   73.8864   46.2454    0.0571    2.7867    3.0746   12.0000   12.0000 
4695.4856 1431.1840    8.7500   39.3835   33.9196   31.4510   29.2491    0.0802    2.7796    3.0405   12.0000   12.0000 
4695.9856 1431.3364    8.7500   40.8207   42.1518   39.7792   33.9580    0.0817    2.7825    3.0439   12.0000   12.0000 
4696.4856 1431.4888    8.7500   36.4567  205.9614  176.4234   53.3988    0.0584    2.7977    3.0343   12.0000   12.0000 
4696.9856 1431.6412    8.7500   26.9164  335.5844  264.9433   56.2085    0.0398    2.8008    3.0518   12.0000   12.0000 
4697.4856 1431.7936    8.7500   22.6055  258.5752  213.6345   55.0407    0.0369    2.7934    3.0718   12.0000   12.0000 
4697.9856 1431.9460    8.7500   22.7650  252.7349  205.3170   55.1469    0.0394    2.7871    3.0908   12.0000   12.0000 
4698.4856 1432.0984    8.7500   26.3977  191.8743  161.7116   53.3964    0.0386    2.7838    3.0847   12.0000   12.0000 
4698.9856 1432.2509    8.7500   40.0223  128.1355  111.6523   50.4184    0.0508    2.7752    3.0902   12.0000   12.0000 
4699.4856 1432.4032    8.7500   59.1819   52.5213   48.1695   33.2897    0.0897    2.7649    3.0973   12.0000   12.0000 
4699.9856 1432.5555    8.7500   66.4222   28.3538   26.6859   22.6136    0.1093    2.7661    3.1063   12.0000   12.0000 
4700.4856 1432.7080    8.7500   56.9490   60.6932   55.6231   33.9557    0.0986    2.7864    3.0837   12.0000   12.0000 
4700.9856 1432.8604    8.7500   36.7784  246.7636  199.2381   50.1921    0.0572    2.8054    3.0686   12.0000   12.0000 
4701.4856 1433.0128    8.7500   26.6641  265.8214  216.5426   49.6008    0.0401    2.8169    3.0329   12.0000   12.0000 
4701.9856 1433.1652    8.7500   27.4622  194.0029  165.1814   47.7371    0.0388    2.8070    3.0178   12.0000   12.0000 
4702.4856 1433.3176    8.7500   40.9803  121.1490  107.5632   43.8863    0.0629    2.7871    3.0310   12.0000   12.0000 
4702.9856 1433.4700    8.7500   54.1792   36.0928   34.1231   26.6490    0.0862    2.7698    3.0984   12.0000   12.0000 
4703.4856 1433.6224    8.7500   58.5434   31.3780   29.1354   24.9497    0.0923    2.7704    3.2194   12.0000   12.0000 
4703.9856 1433.7748    8.7500   46.5806   89.7897   77.1953   44.7755    0.0666    2.7857    3.3440   12.0000   12.0000 
4704.4856 1433.9272    8.7500   33.2753  402.0540  283.2272   55.1773    0.0324    2.8017    3.4108   12.0000   12.0000 
4704.9856 1434.0796    8.7500   28.0596  406.0706  284.4754   57.2302    0.0249    2.8114    3.3794   12.0000   12.0000 
4705.4856 1434.2321    8.7500   33.1568  340.7953  248.8786   57.4536    0.0282    2.8184    3.2962   12.0000   12.0000 
4705.9856 1434.3844    8.7500   41.9383  172.8911  142.9554   56.9383    0.0303    2.8166    3.2566   12.0000   12.0000 
4706.4856 1434.5367    8.7500   50.0812  263.5294  209.3913   61.1996    0.0304    2.8245    3.2017   12.0000   12.0000 
4706.9856 1434.6892    8.7500   77.4900  291.1576  226.1722   62.4254    0.0351    2.8126    3.1772   12.0000   12.0000 
4707.4856 1434.8416    8.7500  145.3462   97.2962   85.5566   50.4247    0.0700    2.7839    3.1637   12.0000   12.0000 
4707.9856 1434.9940    8.7500  211.9794   38.6114   36.4591   28.8451    0.1231    2.7274    3.2244   12.0000   37.0000 
4708.4856 1435.1464    8.7500  211.1823   27.8742   27.5206   21.4520    0.1621    2.6878    3.2511   12.0000   37.0000 
4708.9856 1435.2988    8.7500  144.4894   19.1490   19.4285   15.8268    0.1678    2.6851    3.2073   12.0000   37.0000 
4709.4856 1435.4512    8.7500   73.0664   23.5386   24.0154   17.7486    0.1464    2.7103    3.1244   12.0000   12.0000 
4709.9856 1435.6036    8.7500   43.7405   37.9607   38.4825   23.7172    0.1257    2.7451    3.0494   12.0000   12.0000 
4710.4856 1435.7560    8.7500   37.4146   76.8554   75.8711   33.0937    0.1150    2.7596    3.0207   12.0000   12.0000 
4710.9856 1435.9084    8.7500   34.8580   78.0788   76.7066   33.4328    0.1291    2.7533    3.0196   12.0000   12.0000 
4711.4856 1436.0608    8.7500   35.7628   42.6280   42.7587   23.4085    0.1514    2.7416    3.0471   12.0000   12.0000 
4711.9856 1436.2133    8.7500   38.7430   38.7530   37.3673   22.0385    0.1477    2.7526    3.0812   12.0000   12.0000 
4712.4856 1436.3656    8.7500   38.7983   98.9838   84.0497   41.6806    0.1127    2.7844    3.1185   12.0000   12.0000 
4712.9856 1436.5179    8.7500   36.8291  195.3624  148.6631   57.0400    0.0729    2.8022    3.1748   12.0000   12.0000 
4713.4856 1436.6704    8.7500   32.5715  140.7456  109.8385   55.4183    0.0575    2.7976    3.2209   12.0000   12.0000 
4713.9856 1436.8228    8.7500   32.1457   94.9825   74.1995   49.9378    0.0575    2.7803    3.2621   12.0000   12.0000 
4714.4856 1436.9752    8.7500   32.3724  122.4915   93.4678   51.6183    0.0659    2.7740    3.2933   12.0000   12.0000 
4714.9856 1437.1276    8.7500   33.1708   77.9361   61.2633   38.4506    0.0744    2.7767    3.3383   12.0000   12.0000 
4715.4856 1437.2800    8.7500   35.6190   54.1218   43.1048   29.2527    0.0706    2.7850    3.3591   12.0000   12.0000 
4715.9856 1437.4324    8.7500   44.8911  142.1667  104.8170   39.7598    0.0581    2.7950    3.3340   12.0000   12.0000 
4716.4856 1437.5848    8.7500   63.5716  290.3216  194.8557   47.1602    0.0470    2.7889    3.3000   12.0000   12.0000 
4716.9856 1437.7372    8.7500   80.5492  241.1118  167.1208   43.2970    0.0480    2.7847    3.2817   12.0000   12.0000 
4717.4856 1437.8896    8.7500   90.4761  152.6228  110.7198   36.4717    0.0568    2.7762    3.2915   12.0000   12.0000 
