~VERSION INFORMATION
 VERS.                 2.0:   CWLS LOG ASCII STANDARD - VERSION 2.0
 WRAP.                  NO:   SINGLE LINE PER DEPTH STEP
 CREA.                 19/12/2017 14:19:34
#CREATED USING DSPetro VERSION 5000.10.1.3 BY H191660 ON 19/12/2017 14:19:34
~WELL INFORMATION
#MNEM.UNIT       DATA                          DESCRIPTION MNEMONIC
#---------      ---------------------------   --------------------------
 STRT    .FT        127.9856                  : START DEPTH
 STOP    .FT        8799.9855                 : STOP DEPTH
 STEP    .FT        0.5000                    : STEP VALUE
 NULL    .      -999.0000                     : NULL VALUE
 DATE    .      19/12/2017                    : LAS file Creation Date
 WELL  .      UB_13_14_4200343837  : Well Name
 COM1  .      OIL PRODUCER         : Well Comment
 COMP  .                           : Company
 FLD   .      FULLERTON (WOLFCAMP) : Field
 UWI   .      202                  : Unique Well Identifier (UWI)
 LOC   .                           : Location
 PDAT  .      3261                 : Permanent Datum
 EPDAT .      Ground Level         : Reference Elevation
 LGMEA .      42                   : Log Measured from
 DRMEA .      42                   : Drill Measured From
 APDAT .      KB                   : Elevation Above Permanent Datum
 KB    .      3303                 : KB Elevation
 DF    .      3302                 : DF Elevation
 GL    .      3261                 : GL Elevation
 RWS   .      0                    : Def_Rw
 WST   .      0                    : Def_Rwt
 DATS  .      02/03/2012           : Spud Date
 MDEC  .      0                    : Magnetic Declination
 SRVC  .      SCH                  : Contractor
~CURVE INFORMATION
#MNEM              UNIT       API CODE   Curve Type Comments
#----------  --------------- ----------  ---------- -----------
 DEPTH      .FT                        : Depth       
 DEPTH_(m)  .                          :             
 BitSize    .in                        : bitSize     
 GR_API     .API                       : GammaRay    Gamma Ray (API) - Measures the intensity of natural gamma-ray radiation emitted from formations containing radioactive elements, such as K, Th and U
 LLD_OHMM   .ohmm                      :             Laterlog Deep Resistivity - Measurement made several feet into the formation; generally considered a measurement of the undisturbed formation
 LLM_OHMM   .ohm.m                     :             Laterlog Medium Resistivity - Measurement made approximately two to three feet into the formation - units of ohmm
 LLS_OHMM   .ohmm                      :             Laterlog Shallow Resistivity - one to two feet into the formation; generally considered to measure the formation
 NPHI_v/v   .ratio                     :             Neutron Porosity - Measured with an neutron logging device calibrated to a given matrix (limestone, sandstone and dolomite)
 RHOB_G_CC  .g/cc                      :             Formation Density - Measures the density of formation, including any void space or other materials contained in the subject volume
 PEF_B_E    .b/e-                      : PEF         Photoelectric Factor - A log of photoelectric absorption properties. Often expressed in an approximation unit barns/electron (b/e-)
 LITH       .                          : LITH        Lithology Curve
 LITH_v2    .                          : LITH        Lithology Curve
~A  DEPTH DEPTH_(m)  BitSize    GR_API   LLD_OHMM  LLM_OHMM  LLS_OHMM  NPHI_v/v RHOB_G_C   PEF_B_E     LITH    LITH_v2  
# ...
 691.9856  210.9172 -999.0000   51.4164  260.3275  260.3275  260.3275    0.8967    1.6353    3.5159 -999.0000    3.0000 
 692.4856  211.0696 -999.0000   53.0510 99999.7734 99999.7734 99999.7734    0.8858    1.6355    3.5502 -999.0000    3.0000 
 692.9856  211.2220 -999.0000   53.0510 100000.0000 100000.0000 100000.0000    0.8858    1.6355    3.5502 -999.0000    3.0000 
 693.4856  211.3744 -999.0000   55.6621  130.3895 100000.0000 100000.0000    0.5268    1.6389    3.6346 -999.0000    3.0000 
 693.9856  211.5268 -999.0000   55.6589    0.0102 100000.0000 100000.0000    0.5268    1.6389    3.6345 -999.0000    3.0000 
 694.4856  211.6792 -999.0000   58.8006  270.3432  270.5693  270.5693    0.6950    1.6435    3.7534 -999.0000    3.0000 
 694.9856  211.8316 -999.0000   63.2594 99999.7734 99999.7734 99999.7734    0.7354    1.6474    3.8012 -999.0000    3.0000 
 695.4856  211.9840 -999.0000   63.2594 100000.0000 100000.0000 100000.0000    0.7354    1.6474    3.8012 -999.0000    3.0000 
 695.9856  212.1364 -999.0000   56.1022    0.2585    0.2511    0.2586    0.6683    1.6824    3.8771 -999.0000    3.0000 
 696.4856  212.2888 -999.0000   56.1060    0.0318    0.0244    0.0319    0.6684    1.6824    3.8770 -999.0000    3.0000 
 696.9856  212.4412 -999.0000   54.6873    0.0504    0.0551    0.0762    0.5775    1.7148    4.0600 -999.0000    3.0000 
 697.4856  212.5936 -999.0000   53.4238    0.0210    0.0183    0.0277    0.6773    1.7235    4.1586 -999.0000    3.0000 
 697.9856  212.7460 -999.0000   53.4238    0.0210    0.0183    0.0277    0.6773    1.7235    4.1586 -999.0000    3.0000 
 698.4856  212.8984 -999.0000   50.8196    0.0376  130.1950  130.2028    0.6375    1.7417    4.2707 -999.0000    3.0000 
 698.9856  213.0508 -999.0000   50.8160    0.0376    0.0369    0.0500    0.6376    1.7417    4.2707 -999.0000    3.0000 
 699.4856  213.2032 -999.0000   47.6190    0.0283    0.0212    0.0269    0.6541    1.7364    4.2641 -999.0000    3.0000 
 699.9856  213.3556 -999.0000   50.2946    0.0289    0.0224    0.0324    0.6438    1.7404    4.2128 -999.0000    3.0000 
 700.4856  213.5080 -999.0000   50.2946    0.0289    0.0224    0.0324    0.6438    1.7404    4.2128 -999.0000    3.0000 
 700.9856  213.6604 -999.0000   59.5375    0.0531    0.0570    0.0774    0.7330    1.7360    4.1497 -999.0000    3.0000 
 701.4856  213.8128 -999.0000   59.5336    0.0531    0.0570    0.0774    0.7330    1.7360    4.1496 -999.0000    3.0000 
 701.9856  213.9652 -999.0000   58.4163  260.3666  260.3666  260.3744    0.7085    1.7410    4.2787 -999.0000    3.0000 
 702.4856  214.1176 -999.0000   58.4906 99999.7734 99999.7734 99999.7734    0.6543    1.7384    4.3306 -999.0000    3.0000 
 702.9856  214.2700 -999.0000   58.4906 100000.0000 100000.0000 100000.0000    0.6543    1.7384    4.3306 -999.0000    3.0000 
 703.4856  214.4224 -999.0000   57.5141    0.2510  130.4091  130.4169    0.6760    1.7296    4.3355 -999.0000    3.0000 
 703.9856  214.5748 -999.0000   57.5220    0.0213    0.0151    0.0207    0.6760    1.7296    4.3355 -999.0000    3.0000 
 704.4856  214.7272 -999.0000   51.7087  260.3510  260.3510  260.3666    0.8189    1.7637    4.3438 -999.0000    3.0000 
 704.9856  214.8796 -999.0000   51.1886 99999.7734 99999.7734 99999.7734    0.8835    1.8000    4.3872 -999.0000    3.0000 
 705.4856  215.0320 -999.0000   51.1886 100000.0000 100000.0000 100000.0000    0.8835    1.8000    4.3872 -999.0000    3.0000 
 705.9856  215.1844 -999.0000   49.3262 99869.8438 99869.8438 99869.8438    0.7217    1.8235    4.5784 -999.0000    3.0000 
 706.4856  215.3368 -999.0000   49.3260 100000.0000 100000.0000 100000.0000    0.7217    1.8235    4.5783 -999.0000    3.0000 
 706.9856  215.4892 -999.0000   54.1023    0.3163    0.3314    0.3454    0.7160    1.8048    4.7705 -999.0000    3.0000 
 707.4856  215.6416 -999.0000   57.1493    0.1118    0.1231    0.1554    0.6945    1.8085    4.8193 -999.0000    3.0000 
 707.9856  215.7940 -999.0000   57.1493    0.1118    0.1231    0.1554    0.6945    1.8085    4.8193 -999.0000    3.0000 
 708.4856  215.9464 -999.0000   57.8913    0.0815    0.0939    0.1097    0.6998    1.8118    4.8964 -999.0000    3.0000 
 708.9856  216.0988 -999.0000   57.8949    0.0816    0.0940    0.1098    0.6998    1.8118    4.8963 -999.0000    3.0000 
 709.4856  216.2512 -999.0000   56.4860    0.0544  260.3666  260.3900    0.6320    1.8168    4.9805 -999.0000    3.0000 
 709.9856  216.4036 -999.0000   59.4586    0.0062 99999.7656 99999.7656    0.6428    1.8152    4.9907 -999.0000    3.0000 
 710.4856  216.5560 -999.0000   59.4586    0.0062 100000.0000 100000.0000    0.6428    1.8152    4.9907 -999.0000    3.0000 
 710.9856  216.7084 -999.0000   59.6059 99869.6094 100000.0000 99869.8438    0.5836    1.8264    5.0202 -999.0000    3.0000 
 711.4856  216.8608 -999.0000   59.6083 100000.0000 100000.0000 100000.0000    0.5836    1.8264    5.0202 -999.0000    3.0000 
 711.9856  217.0132 -999.0000   60.4374  270.5684  270.5606  270.5684    0.6016    1.8427    5.0488 -999.0000    3.0000 
 712.4856  217.1656 -999.0000   64.1533 99999.7656 99999.7656 99999.7656    0.5883    1.8404    5.0131 -999.0000    3.0000 
 712.9856  217.3180 -999.0000   64.1533 100000.0000 100000.0000 100000.0000    0.5883    1.8404    5.0131 -999.0000    3.0000 
 713.4856  217.4704 -999.0000   63.7769    0.2495  140.4131  140.4131    0.4634    1.8347    4.9646 -999.0000    3.0000 
 713.9856  217.6228 -999.0000   63.7811    0.0158    0.0062    0.0096    0.4634    1.8347    4.9645 -999.0000    3.0000 
 714.4856  217.7752 -999.0000   59.9106    0.0356    0.0297    0.0394    0.5062    1.8405    5.0806 -999.0000    3.0000 
 714.9856  217.9276 -999.0000   61.7687    0.0274    0.0231    0.0322    0.5668    1.8468    5.1493 -999.0000    3.0000 
 715.4856  218.0800 -999.0000   61.7687    0.0274    0.0231    0.0322    0.5668    1.8468    5.1493 -999.0000    3.0000 
 715.9856  218.2324 -999.0000   63.2562 99869.6094 99869.6094 99869.6094    0.5116    1.8539    5.1629 -999.0000    3.0000 
 716.4856  218.3848 -999.0000   63.2596 100000.0000 100000.0000 100000.0000    0.5117    1.8539    5.1629 -999.0000    3.0000 
 716.9856  218.5372 -999.0000   54.7838    0.2613  270.5783  270.5783    0.5342    1.8579    5.1041 -999.0000    3.0000 
 717.4856  218.6896 -999.0000   61.7683    0.0061 99999.7656 99999.7656    0.5733    1.8639    5.1114 -999.0000    3.0000 
 717.9856  218.8420 -999.0000   61.7683    0.0061 100000.0000 100000.0000    0.5733    1.8639    5.1114 -999.0000    3.0000 
 718.4856  218.9944 -999.0000   66.4525  130.1638 100000.0000 100000.0000    0.5903    1.8524    5.0207 -999.0000    3.0000 
 718.9856  219.1468 -999.0000   66.4626    0.0115 100000.0000 100000.0000    0.5903    1.8524    5.0208 -999.0000    3.0000 
 719.4856  219.2992 -999.0000   56.0251 99999.7656 100000.0000 100000.0000    0.7696    1.8240    4.8890 -999.0000    3.0000 
 719.9856  219.4516 -999.0000   53.5731 100000.0000 100000.0000 100000.0000    0.8984    1.8165    4.8400 -999.0000    3.0000 
 720.4856  219.6040 -999.0000   53.5731 100000.0000 100000.0000 100000.0000    0.8984    1.8165    4.8400 -999.0000    3.0000 
 720.9856  219.7564 -999.0000   60.7978 99869.8438 99869.8438 99869.8438    0.8082    1.8162    4.6467 -999.0000    3.0000 
 721.4856  219.9088 -999.0000   60.8004 100000.0000 100000.0000 100000.0000    0.8083    1.8162    4.6468 -999.0000    3.0000 
 721.9856  220.0612 -999.0000   58.3131    0.2860    0.2855    0.3008    0.8105    1.8055    4.4877 -999.0000    3.0000 
 722.4856  220.2136 -999.0000   47.5373    0.0134    0.0027    0.0042    0.7849    1.8057    4.5093 -999.0000    3.0000 
 722.9856  220.3660 -999.0000   47.5373    0.0134    0.0027    0.0042    0.7849    1.8057    4.5093 -999.0000    3.0000 
 723.4856  220.5184 -999.0000   49.5532  130.2028  130.2028  130.2263    0.6982    1.8115    4.6447 -999.0000    3.0000 
 723.9856  220.6708 -999.0000   49.5493    0.0481    0.0446    0.0606    0.6983    1.8115    4.6446 -999.0000    3.0000 
 724.4856  220.8232 -999.0000   46.5096    0.0378    0.0347    0.0466    0.7257    1.8142    4.8128 -999.0000    3.0000 
