~VERSION INFORMATION
 VERS.                 2.0:   CWLS LOG ASCII STANDARD - VERSION 2.0
 WRAP.                  NO:   SINGLE LINE PER DEPTH STEP
 CREA.                 19/12/2017 14:19:34
#CREATED USING DSPetro VERSION 5000.10.1.3 BY H191660 ON 19/12/2017 14:19:34
~WELL INFORMATION
#MNEM.UNIT       DATA                          DESCRIPTION MNEMONIC
#---------      ---------------------------   --------------------------
 STRT    .FT        127.9856                  : START DEPTH
 STOP    .FT        8799.9855                 : STOP DEPTH
 STEP    .FT        0.5000                    : STEP VALUE
 NULL    .      -999.0000                     : NULL VALUE
 DATE    .      19/12/2017                    : LAS file Creation Date
 WELL  .      UB_13_14_4200343837  : Well Name
 COM1  .      OIL PRODUCER         : Well Comment
 COMP  .                           : Company
 FLD   .      FULLERTON (WOLFCAMP) : Field
 UWI   .      202                  : Unique Well Identifier (UWI)
 LOC   .                           : Location
 PDAT  .      3261                 : Permanent Datum
 EPDAT .      Ground Level         : Reference Elevation
 LGMEA .      42                   : Log Measured from
 DRMEA .      42                   : Drill Measured From
 APDAT .      KB                   : Elevation Above Permanent Datum
 KB    .      3303                 : KB Elevation
 DF    .      3302                 : DF Elevation
 GL    .      3261                 : GL Elevation
 RWS   .      0                    : Def_Rw
 WST   .      0                    : Def_Rwt
 DATS  .      02/03/2012           : Spud Date
 MDEC  .      0                    : Magnetic Declination
 SRVC  .      SCH                  : Contractor
~CURVE INFORMATION
#MNEM              UNIT       API CODE   Curve Type Comments
#----------  --------------- ----------  ---------- -----------
 DEPTH      .FT                        : Depth       
 DEPTH_(m)  .                          :             
 BitSize    .in                        : bitSize     
 GR_API     .API                       : GammaRay    Gamma Ray (API) - Measures the intensity of natural gamma-ray radiation emitted from formations containing radioactive elements, such as K, Th and U
 LLD_OHMM   .ohmm                      :             Laterlog Deep Resistivity - Measurement made several feet into the formation; generally considered a measurement of the undisturbed formation
 LLM_OHMM   .ohm.m                     :             Laterlog Medium Resistivity - Measurement made approximately two to three feet into the formation - units of ohmm
 LLS_OHMM   .ohmm                      :             Laterlog Shallow Resistivity - one to two feet into the formation; generally considered to measure the formation
 NPHI_v/v   .ratio                     :             Neutron Porosity - Measured with an neutron logging device calibrated to a given matrix (limestone, sandstone and dolomite)
 RHOB_G_CC  .g/cc                      :             Formation Density - Measures the density of formation, including any void space or other materials contained in the subject volume
 PEF_B_E    .b/e-                      : PEF         Photoelectric Factor - A log of photoelectric absorption properties. Often expressed in an approximation unit barns/electron (b/e-)
 LITH       .                          : LITH        Lithology Curve
 LITH_v2    .                          : LITH        Lithology Curve
~A  DEPTH DEPTH_(m)  BitSize    GR_API   LLD_OHMM  LLM_OHMM  LLS_OHMM  NPHI_v/v RHOB_G_C   PEF_B_E     LITH    LITH_v2  
# ...
2942.9856  897.0220    8.7500   21.3749  164.7736  619.6439    5.2766    0.1629    1.7669    3.0429   16.0000   15.0000 
2943.4856  897.1744    8.7500   24.7162   89.7290  184.6421    4.7224    0.1093    1.9700    3.3988   16.0000   15.0000 
2943.9856  897.3268    8.7500   24.7149   89.7507  184.6884    4.7203    0.1093    1.9700    3.3986   16.0000   15.0000 
2944.4856  897.4792    8.7500   24.2459  166.4719  115.9891    7.8488    0.1687    1.9170    3.7210   16.0000   15.0000 
2944.9856  897.6316    8.7500   21.2904  246.4238  204.1898    8.4233    0.1720    2.0318    3.9982   16.0000   15.0000 
2945.4856  897.7840    8.7500   21.2904  246.4247  204.1908    8.4233    0.1720    2.0318    3.9982   16.0000   15.0000 
2945.9856  897.9364    8.7500   16.8701  993.6320  548.0090    9.0962    0.0113    2.5885    4.8497   16.0000   15.0000 
2946.4856  898.0888    8.7500   16.8712  989.0610  547.4186    9.0806    0.0113    2.5883    4.8494   16.0000   15.0000 
2946.9856  898.2412    8.7500   16.0188 1389.4714  663.6276   43.8130    0.0006    2.8137    5.1889 -999.0000    1.0000 
2947.4856  898.3936    8.7500   16.4289  408.2048  242.8622   51.3713   -0.0004    2.8733    5.1166    1.0000    1.0000 
2947.9856  898.5460    8.7500   16.4289  408.1938  242.8575   51.3714   -0.0004    2.8733    5.1166    1.0000    1.0000 
2948.4856  898.6984    8.7500   16.4962  561.3734  257.9467   40.8507   -0.0009    2.9047    4.9098    1.0000    1.0000 
2948.9856  898.8508    8.7500   16.4950  561.7507  258.0467   40.8479   -0.0009    2.9048    4.9100    1.0000    1.0000 
2949.4856  899.0032    8.7500   18.6036   24.2380   22.0305   30.2600    0.0263    2.8112    4.4892    1.0000    1.0000 
2949.9856  899.1556    8.7500   19.3524   35.6194   33.4510   32.8104    0.0325    2.7837    4.2877   21.9998    1.0000 
2950.4856  899.3080    8.7500   19.3524   35.6195   33.4511   32.8104    0.0325    2.7837    4.2877   22.0000    1.0000 
2950.9856  899.4604    8.7500   17.5541  133.4341  113.0963   18.0577    0.0049    2.7019    4.5969   22.0000   22.0000 
2951.4856  899.6128    8.7500   17.5539  133.1748  112.9503   18.0539    0.0049    2.7021    4.5965   22.0000   22.0000 
2951.9856  899.7652    8.7500   18.5191   40.4236   38.1306   16.6570    0.0453    2.4113    5.0474   16.0001   22.0000 
2952.4856  899.9176    8.7500   18.4678  112.8240  112.5879   23.1147    0.0318    2.4541    5.0918   16.0000   22.0000 
2952.9856  900.0700    8.7500   18.4678  112.8248  112.5887   23.1148    0.0318    2.4541    5.0918   16.0000   22.0000 
2953.4856  900.2224    8.7500   16.4607 1070.1052  493.7193   25.7232   -0.0026    2.8061    5.1304 -999.0000    1.0000 
2953.9856  900.3748    8.7500   16.4601 1070.1121  493.7902   25.7229   -0.0026    2.8061    5.1305 -999.0000    1.0000 
2954.4856  900.5272    8.7500   15.1298  414.6992  253.1843   21.9803    0.0191    2.7891    4.8150    1.0000    1.0000 
2954.9856  900.6796    8.7500   17.5226   48.3830   48.9197   13.7252    0.0827    2.7631    4.3486    1.0000    1.0000 
2955.4856  900.8320    8.7500   17.5226   48.3789   48.9174   13.7251    0.0827    2.7631    4.3486    1.0000    1.0000 
2955.9856  900.9844    8.7500   25.2121    7.1797    8.2788    5.9171    0.1977    2.7539    3.3029   21.9998   22.0000 
2956.4856  901.1368    8.7500   25.2050    7.1762    8.2747    5.9114    0.1977    2.7539    3.3035   22.0000   22.0000 
2956.9856  901.2892    8.7500   32.2168   11.3037   13.1472   14.8741    0.2427    2.7540    2.7158 -999.0000   22.0000 
2957.4856  901.4416    8.7500   31.4465    7.9953    9.4224    9.0832    0.2686    2.7283    2.7335 -999.0000   22.0000 
2957.9856  901.5940    8.7500   31.4465    7.9953    9.4224    9.0831    0.2686    2.7283    2.7335 -999.0000   22.0000 
2958.4856  901.7464    8.7500   25.4767   11.4942   13.8025    9.8122    0.1585    2.7405    3.6168   22.0000   22.0000 
2958.9856  901.8988    8.7500   25.4784   11.4316   13.7335    9.7753    0.1586    2.7404    3.6161   22.0000   22.0000 
2959.4856  902.0512    8.7500   21.1047   49.4794   53.9194   39.3928    0.0234    2.8703    4.6521    1.0002    1.0000 
2959.9856  902.2036    8.7500   18.3449  223.7908  196.7834   52.2320    0.0081    2.9202    4.8247    1.0000    1.0000 
2960.4856  902.3560    8.7500   18.3449  223.7928  196.7850   52.2321    0.0081    2.9202    4.8247    1.0000    1.0000 
2960.9856  902.5084    8.7500   14.4917   34.7767   34.8782   35.4617   -0.0007    2.9526    4.9262    1.0000    1.0000 
2961.4856  902.6608    8.7500   14.4909   34.7771   34.8797   35.4668   -0.0007    2.9526    4.9262    1.0000    1.0000 
2961.9856  902.8132    8.7500   16.3940  238.6537  180.8697   38.9674    0.0035    2.9567    4.9588    1.0000    1.0000 
2962.4856  902.9656    8.7500   17.1465   47.8382   44.4835   39.8685    0.0042    2.9655    4.9980    1.0000    1.0000 
2962.9856  903.1180    8.7500   17.1465   47.8360   44.4820   39.8685    0.0042    2.9655    4.9980    1.0000    1.0000 
2963.4856  903.2704    8.7500   16.5331  475.3148  276.6406   53.3627    0.0000    2.9599    4.8664    1.0000    1.0000 
2963.9856  903.4228    8.7500   16.5299  475.9870  277.0000   53.3921    0.0000    2.9599    4.8666    1.0000    1.0000 
2964.4856  903.5752    8.7500   20.0096   42.5038   39.0861   22.7061    0.0032    2.8981    4.6196    1.0000    1.0000 
2964.9856  903.7276    8.7500   19.3946  213.5230  130.2471   18.9029    0.0035    2.8598    4.5179    1.0000    1.0000 
2965.4856  903.8800    8.7500   19.3946  213.5249  130.2481   18.9029    0.0035    2.8598    4.5179    1.0000    1.0000 
2965.9856  904.0324    8.7500   18.6779   75.8584   50.0713    6.0753    0.0046    2.3133    3.6504   21.9998   15.0000 
2966.4856  904.1848    8.7500   18.6770   75.8926   50.0932    6.0726    0.0045    2.3138    3.6510   22.0000   15.0000 
2966.9856  904.3372    8.7500   19.5266  119.2678   95.1530   13.7313    0.1211    1.6988    3.0179   16.0001   15.0000 
2967.4856  904.4896    8.7500   19.4754  254.0319  228.6758   10.8408    0.1172    1.8504    3.2466   16.0000   15.0000 
2967.9856  904.6420    8.7500   19.4754  254.0334  228.6773   10.8408    0.1172    1.8504    3.2466   16.0000   15.0000 
2968.4856  904.7944    8.7500   18.2410  756.8808  968.7104   10.0456    0.0747    1.9812    3.5439   16.0000   15.0000 
2968.9856  904.9468    8.7500   18.2421  756.6653  849.5504   10.0453    0.0747    1.9812    3.5439   16.0000   15.0000 
2969.4856  905.0992    8.7500   18.6961 1928.3746 99719.6484   12.2366    0.1085    2.0062    3.6393   16.0000   15.0000 
2969.9856  905.2516    8.7500   17.6714  776.8146  396.5590   30.7176    0.1067    2.1347    3.8490   16.0000   15.0000 
2970.4856  905.4040    8.7500   17.6714  776.8015  395.4321   30.7178    0.1067    2.1347    3.8490   16.0000   15.0000 
2970.9856  905.5564    8.7500   16.2329  275.1585  198.9379   37.6641    0.0621    2.6892    4.5792   21.9999    1.0000 
2971.4856  905.7088    8.7500   16.2326  275.1174  198.8730   37.6551    0.0622    2.6889    4.5787   22.0000    1.0000 
2971.9856  905.8612    8.7500   16.2903  320.7194  264.4587   43.2654   -0.0083    2.9410    5.2000    1.0002    1.0000 
2972.4856  906.0136    8.7500   16.5978  504.1064  342.8829   42.5286   -0.0091    2.8667    5.1763    1.0000    1.0000 
2972.9856  906.1660    8.7500   16.5978  504.1085  342.8838   42.5286   -0.0091    2.8667    5.1763    1.0000    1.0000 
2973.4856  906.3184    8.7500   16.5127 1597.7676  822.6935   64.9215    0.0082    2.8052    4.9769    1.0000    1.0000 
2973.9856  906.4708    8.7500   16.5115 1599.5680  823.5478   64.9422    0.0082    2.8052    4.9774    1.0000    1.0000 
2974.4856  906.6232    8.7500   20.4181   71.9763   75.6541   40.1669    0.0902    2.8493    3.8677   21.9998    1.0000 
2974.9856  906.7756    8.7500   27.7484   24.1101   26.5386   25.7700    0.1281    2.8164    3.1390   22.0000    1.0000 
2975.4856  906.9280    8.7500   27.7485   24.1096   26.5380   25.7698    0.1281    2.8164    3.1390   22.0000    1.0000 
2975.9856  907.0804    8.7500   29.8409   59.3840   57.8051   21.5810    0.0467    2.8099    3.1537   22.0000    1.0000 
