~VERSION INFORMATION
 VERS.                 2.0:   CWLS LOG ASCII STANDARD - VERSION 2.0
 WRAP.                  NO:   SINGLE LINE PER DEPTH STEP
 CREA.                 19/12/2017 14:19:34
#CREATED USING DSPetro VERSION 5000.10.1.3 BY H191660 ON 19/12/2017 14:19:34
~WELL INFORMATION
#MNEM.UNIT       DATA                          DESCRIPTION MNEMONIC
#---------      ---------------------------   --------------------------
 STRT    .FT        127.9856                  : START DEPTH
 STOP    .FT        8799.9855                 : STOP DEPTH
 STEP    .FT        0.5000                    : STEP VALUE
 NULL    .      -999.0000                     : NULL VALUE
 DATE    .      19/12/2017                    : LAS file Creation Date
 WELL  .      UB_13_14_4200343837  : Well Name
 COM1  .      OIL PRODUCER         : Well Comment
 COMP  .                           : Company
 FLD   .      FULLERTON (WOLFCAMP) : Field
 UWI   .      202                  : Unique Well Identifier (UWI)
 LOC   .                           : Location
 PDAT  .      3261                 : Permanent Datum
 EPDAT .      Ground Level         : Reference Elevation
 LGMEA .      42                   : Log Measured from
 DRMEA .      42                   : Drill Measured From
 APDAT .      KB                   : Elevation Above Permanent Datum
 KB    .      3303                 : KB Elevation
 DF    .      3302                 : DF Elevation
 GL    .      3261                 : GL Elevation
 RWS   .      0                    : Def_Rw
 WST   .      0                    : Def_Rwt
 DATS  .      02/03/2012           : Spud Date
 MDEC  .      0                    : Magnetic Declination
 SRVC  .      SCH                  : Contractor
~CURVE INFORMATION
#MNEM              UNIT       API CODE   Curve Type Comments
#----------  --------------- ----------  ---------- -----------
 DEPTH      .FT                        : Depth       
 DEPTH_(m)  .                          :             
 BitSize    .in                        : bitSize     
 GR_API     .API                       : GammaRay    Gamma Ray (API) - Measures the intensity of natural gamma-ray radiation emitted from formations containing radioactive elements, such as K, Th and U
 LLD_OHMM   .ohmm                      :             Laterlog Deep Resistivity - Measurement made several feet into the formation; generally considered a measurement of the undisturbed formation
 LLM_OHMM   .ohm.m                     :             Laterlog Medium Resistivity - Measurement made approximately two to three feet into the formation - units of ohmm
 LLS_OHMM   .ohmm                      :             Laterlog Shallow Resistivity - one to two feet into the formation; generally considered to measure the formation
 NPHI_v/v   .ratio                     :             Neutron Porosity - Measured with an neutron logging device calibrated to a given matrix (limestone, sandstone and dolomite)
 RHOB_G_CC  .g/cc                      :             Formation Density - Measures the density of formation, including any void space or other materials contained in the subject volume
 PEF_B_E    .b/e-                      : PEF         Photoelectric Factor - A log of photoelectric absorption properties. Often expressed in an approximation unit barns/electron (b/e-)
 LITH       .                          : LITH        Lithology Curve
 LITH_v2    .                          : LITH        Lithology Curve
~A  DEPTH DEPTH_(m)  BitSize    GR_API   LLD_OHMM  LLM_OHMM  LLS_OHMM  NPHI_v/v RHOB_G_C   PEF_B_E     LITH    LITH_v2  
# ...
5253.9856 1601.4148    8.7500   33.3620   27.0412   21.1928   13.4500    0.2262    2.6338    3.2130   12.0000   12.0000 
5254.4856 1601.5671    8.7500   31.3928   20.5052   16.7812   11.2019    0.2066    2.6451    3.2037   12.0000   12.0000 
5254.9856 1601.7196    8.7500   31.8718   37.8359   31.8984   17.8679    0.2027    2.6546    3.1927   12.0000   12.0000 
5255.4856 1601.8719    8.7500   33.3619   16.4162   14.9195   11.3039    0.2140    2.6526    3.1889   12.0000   12.0000 
5255.9856 1602.0244    8.7500   34.3732   14.3021   13.2881    9.8922    0.2287    2.6558    3.1494   12.0000   12.0000 
5256.4856 1602.1768    8.7500   35.8634   16.4586   14.9192   10.9338    0.2210    2.6872    3.1617   12.0000   12.0000 
5256.9856 1602.3292    8.7500   36.6361   26.9747   23.4000   16.5248    0.1786    2.7322    3.2562   12.0000   12.0000 
5257.4856 1602.4816    8.7500   37.2116   74.5456   60.4557   31.4986    0.1328    2.7717    3.4131   12.0000   12.0000 
5257.9856 1602.6340    8.7500   36.6262   77.8327   62.7254   33.8933    0.1069    2.7843    3.4318   12.0000   12.0000 
5258.4856 1602.7864    8.7500   35.5953   66.4417   53.8157   33.7724    0.0927    2.7732    3.3334   12.0000   12.0000 
5258.9856 1602.9388    8.7500   36.1905   65.5440   52.8709   34.4501    0.1011    2.7564    3.1394   12.0000   12.0000 
5259.4856 1603.0912    8.7500   34.3908   46.7629   36.9991   29.2401    0.1067    2.7327    3.0160   12.0000   12.0000 
5259.9856 1603.2437    8.7500   34.6569   34.5971   26.8921   24.3127    0.1193    2.7142    2.9922   12.0000   12.0000 
5260.4856 1603.3960    8.7500   34.3908   79.7573   57.9072   38.3230    0.1156    2.7070    3.0581   12.0000   12.0000 
5260.9856 1603.5483    8.7500   35.1635  262.3781  170.8394   54.0333    0.1058    2.7090    3.1353   12.0000   12.0000 
5261.4856 1603.7008    8.7500   36.2812  336.7855  207.6288   53.0243    0.1025    2.7174    3.1368   12.0000   12.0000 
5261.9856 1603.8531    8.7500   35.9519   76.6482   55.1740   29.3881    0.1029    2.7170    3.1032   12.0000   12.0000 
5262.4856 1604.0056    8.7500   36.6596   67.2213   49.0224   24.9329    0.1027    2.7194    3.1144   12.0000   12.0000 
5262.9856 1604.1580    8.7500   34.9565  107.6324   75.3313   31.1982    0.0928    2.7197    3.1616   12.0000   12.0000 
5263.4856 1604.3104    8.7500   34.2943   93.1205   65.5383   30.5691    0.0912    2.7090    3.1631   12.0000   12.0000 
5263.9856 1604.4628    8.7500   32.5380   43.9062   32.4188   20.0274    0.1011    2.6919    3.0981   12.0000   12.0000 
5264.4856 1604.6152    8.7500   32.0590   35.6999   27.0797   16.7460    0.1177    2.6907    3.0529   12.0000   12.0000 
5264.9856 1604.7676    8.7500   31.4007   47.1094   37.1155   17.0113    0.1206    2.7090    3.0876   12.0000   12.0000 
5265.4856 1604.9200    8.7500   29.9104   52.9114   42.2398   17.6214    0.1230    2.7332    3.1130   12.0000   12.0000 
5265.9856 1605.0724    8.7500   28.3670   81.1579   64.5888   19.3293    0.1102    2.7361    3.0866   12.0000   12.0000 
5266.4856 1605.2249    8.7500   27.9767   65.8708   53.7024   17.4711    0.1259    2.7225    3.0624   12.0000   12.0000 
5266.9856 1605.3772    8.7500   27.8704   47.2824   41.5402   16.3488    0.1427    2.6961    3.0855   12.0000   12.0000 
5267.4856 1605.5295    8.7500   30.5846   38.0108   34.4185   14.6614    0.1834    2.6695    3.1325   12.0000   12.0000 
5267.9856 1605.6820    8.7500   34.2746   18.6376   17.9187   10.7886    0.1997    2.6514    3.1556   12.0000   12.0000 
5268.4856 1605.8344    8.7500   38.2997   19.9877   18.9807   11.2022    0.2005    2.6504    3.1687   12.0000   12.0000 
5268.9856 1605.9868    8.7500   39.7309   24.4464   22.3325   11.8059    0.1786    2.6726    3.1919   12.0000   12.0000 
5269.4856 1606.1392    8.7500   41.4340   27.8346   25.0749   12.4407    0.1571    2.7135    3.2776   12.0000   12.0000 
5269.9856 1606.2916    8.7500   43.6356   50.4727   43.0345   15.3274    0.1339    2.7459    3.3516   12.0000   12.0000 
5270.4856 1606.4440    8.7500   45.1811   65.4063   53.9444   16.8672    0.1195    2.7581    3.4072   12.0000   12.0000 
5270.9856 1606.5964    8.7500   42.1474   47.9077   38.9284   14.4076    0.1131    2.7492    3.3338   12.0000   12.0000 
5271.4856 1606.7488    8.7500   38.8477   47.9357   37.6786   15.0180    0.1206    2.7347    3.2710   12.0000   12.0000 
5271.9856 1606.9012    8.7500   34.3810   95.9723   66.8496   25.1926    0.1295    2.7219    3.1977   12.0000   12.0000 
5272.4856 1607.0536    8.7500   33.0150  145.4327   92.8944   37.3756    0.1366    2.7055    3.1397   12.0000   12.0000 
5272.9856 1607.2061    8.7500   33.9730  156.5481   93.3878   44.5905    0.1406    2.6801    2.9863   12.0000   12.0000 
5273.4856 1607.3584    8.7500   34.7181  165.3423   94.2722   48.2334    0.1495    2.6449    2.7680   12.0000   12.0000 
5273.9856 1607.5107    8.7500   33.7246  192.4113  109.3869   50.0953    0.1611    2.6236    2.5874   12.0000   12.0000 
5274.4856 1607.6632    8.7500   31.1050  241.4750  137.2054   56.3076    0.1707    2.6311    2.5784   12.0000   12.0000 
5274.9856 1607.8156    8.7500   31.0516  292.5980  169.1840   66.9290    0.1689    2.6693    2.7751   12.0000   12.0000 
5275.4856 1607.9680    8.7500   33.3579  250.0149  150.0008   72.7254    0.1479    2.7147    2.9981   12.0000   12.0000 
5275.9856 1608.1204    8.7500   36.5097  372.4278  228.2570   80.0412    0.1216    2.7504    3.1183   12.0000   12.0000 
5276.4856 1608.2728    8.7500   36.5868  436.9655  273.6782   81.8587    0.0878    2.7602    3.0984   12.0000   12.0000 
5276.9856 1608.4252    8.7500   35.5755  167.8488  125.6111   71.7735    0.0784    2.7484    3.0461   12.0000   12.0000 
5277.4856 1608.5776    8.7500   34.6708   92.3801   72.6252   59.3153    0.0713    2.7396    3.0444   12.0000   12.0000 
5277.9856 1608.7300    8.7500   33.4014   98.0303   78.1605   61.0293    0.0727    2.7466    3.1093   12.0000   12.0000 
5278.4856 1608.8824    8.7500   31.7515  214.3846  162.5128   73.0675    0.0629    2.7699    3.3101   12.0000   12.0000 
5278.9856 1609.0348    8.7500   29.0630  255.4829  194.9964   75.8405    0.0660    2.7941    3.5548   12.0000   12.0000 
5279.4856 1609.1873    8.7500   30.3619  163.8431  130.4238   68.3034    0.0813    2.8099    3.7253   12.0000   12.0000 
5279.9856 1609.3396    8.7500   32.0413   94.8657   78.9813   57.1858    0.0974    2.8033    3.6919   12.0000   12.0000 
5280.4856 1609.4919    8.7500   35.7942   75.3655   65.1476   54.4826    0.1044    2.7788    3.5585   12.0000   12.0000 
5280.9856 1609.6444    8.7500   34.9960  105.6448   91.2941   56.8888    0.0917    2.7667    3.4037   12.0000   12.0000 
5281.4856 1609.7968    8.7500   33.7817  167.7848  140.6940   58.0005    0.0913    2.7662    3.3169   12.0000   12.0000 
5281.9856 1609.9492    8.7500   31.8659  156.1511  132.7246   54.4645    0.1039    2.7705    3.2148   12.0000   12.0000 
5282.4856 1610.1016    8.7500   35.0630  104.7146   94.1274   44.6584    0.1142    2.7705    3.1227   12.0000   12.0000 
5282.9856 1610.2540    8.7500   36.8332  174.5577  148.9211   47.8877    0.1084    2.7775    3.0529   12.0000   12.0000 
5283.4856 1610.4064    8.7500   36.6735  167.2589  142.6811   40.0807    0.0984    2.7865    3.0246   12.0000   12.0000 
5283.9856 1610.5588    8.7500   34.9132   91.4744   81.4921   31.2329    0.1126    2.7757    3.0149   12.0000   12.0000 
5284.4856 1610.7112    8.7500   34.4125   35.6692   33.1269   18.6708    0.1354    2.7423    2.9848   12.0000   12.0000 
5284.9856 1610.8636    8.7500   34.4125   29.3124   27.3847   15.6300    0.1396    2.7151    2.9207   12.0000   12.0000 
5285.4856 1611.0160    8.7500   33.7443   50.6836   45.9098   18.4009    0.1199    2.7246    2.8834   12.0000   12.0000 
5285.9856 1611.1685    8.7500   33.3401   68.2623   61.4050   19.2781    0.0970    2.7424    2.8703   12.0000   12.0000 
5286.4856 1611.3208    8.7500   31.9564  184.9760  148.5708   22.8023    0.0805    2.7642    2.9347   12.0000   12.0000 
5286.9856 1611.4731    8.7500   34.4399  124.3438  109.5760   22.4199    0.0738    2.7587    3.0155   12.0000   12.0000 
