~VERSION INFORMATION
 VERS.                 2.0:   CWLS LOG ASCII STANDARD - VERSION 2.0
 WRAP.                  NO:   SINGLE LINE PER DEPTH STEP
 CREA.                 19/12/2017 14:19:34
#CREATED USING DSPetro VERSION 5000.10.1.3 BY H191660 ON 19/12/2017 14:19:34
~WELL INFORMATION
#MNEM.UNIT       DATA                          DESCRIPTION MNEMONIC
#---------      ---------------------------   --------------------------
 STRT    .FT        127.9856                  : START DEPTH
 STOP    .FT        8799.9855                 : STOP DEPTH
 STEP    .FT        0.5000                    : STEP VALUE
 NULL    .      -999.0000                     : NULL VALUE
 DATE    .      19/12/2017                    : LAS file Creation Date
 WELL  .      UB_13_14_4200343837  : Well Name
 COM1  .      OIL PRODUCER         : Well Comment
 COMP  .                           : Company
 FLD   .      FULLERTON (WOLFCAMP) : Field
 UWI   .      202                  : Unique Well Identifier (UWI)
 LOC   .                           : Location
 PDAT  .      3261                 : Permanent Datum
 EPDAT .      Ground Level         : Reference Elevation
 LGMEA .      42                   : Log Measured from
 DRMEA .      42                   : Drill Measured From
 APDAT .      KB                   : Elevation Above Permanent Datum
 KB    .      3303                 : KB Elevation
 DF    .      3302                 : DF Elevation
 GL    .      3261                 : GL Elevation
 RWS   .      0                    : Def_Rw
 WST   .      0                    : Def_Rwt
 DATS  .      02/03/2012           : Spud Date
 MDEC  .      0                    : Magnetic Declination
 SRVC  .      SCH                  : Contractor
~CURVE INFORMATION
#MNEM              UNIT       API CODE   Curve Type Comments
#----------  --------------- ----------  ---------- -----------
 DEPTH      .FT                        : Depth       
 DEPTH_(m)  .                          :             
 BitSize    .in                        : bitSize     
 GR_API     .API                       : GammaRay    Gamma Ray (API) - Measures the intensity of natural gamma-ray radiation emitted from formations containing radioactive elements, such as K, Th and U
 LLD_OHMM   .ohmm                      :             Laterlog Deep Resistivity - Measurement made several feet into the formation; generally considered a measurement of the undisturbed formation
 LLM_OHMM   .ohm.m                     :             Laterlog Medium Resistivity - Measurement made approximately two to three feet into the formation - units of ohmm
 LLS_OHMM   .ohmm                      :             Laterlog Shallow Resistivity - one to two feet into the formation; generally considered to measure the formation
 NPHI_v/v   .ratio                     :             Neutron Porosity - Measured with an neutron logging device calibrated to a given matrix (limestone, sandstone and dolomite)
 RHOB_G_CC  .g/cc                      :             Formation Density - Measures the density of formation, including any void space or other materials contained in the subject volume
 PEF_B_E    .b/e-                      : PEF         Photoelectric Factor - A log of photoelectric absorption properties. Often expressed in an approximation unit barns/electron (b/e-)
 LITH       .                          : LITH        Lithology Curve
 LITH_v2    .                          : LITH        Lithology Curve
~A  DEPTH DEPTH_(m)  BitSize    GR_API   LLD_OHMM  LLM_OHMM  LLS_OHMM  NPHI_v/v RHOB_G_C   PEF_B_E     LITH    LITH_v2  
 127.9856   39.0100 -999.0000 -999.0000 -999.0000 -999.0000 -999.0000 -999.0000 -999.0000 -999.0000 -999.0000 -999.0000 
 128.4856   39.1624 -999.0000   46.2388    0.0075    0.0038    0.0072 -999.0000    1.6628    4.3995 -999.0000 -999.0000 
 128.9856   39.3148 -999.0000   46.2388    0.0075    0.0038    0.0072 -999.0000    1.6628    4.3995 -999.0000 -999.0000 
 129.4856   39.4672 -999.0000   46.2388    0.0075    0.0038    0.0072 -999.0000    1.6628    4.3995 -999.0000 -999.0000 
 129.9856   39.6196 -999.0000   46.2388    0.0075    0.0038    0.0072 -999.0000    1.6628    4.3995 -999.0000 -999.0000 
 130.4856   39.7720 -999.0000   46.2388    0.0075    0.0038    0.0072 -999.0000    1.6628    4.3995 -999.0000 -999.0000 
 130.9856   39.9244 -999.0000   46.2388    0.0075    0.0038    0.0072 -999.0000    1.6628    4.3995 -999.0000 -999.0000 
 131.4856   40.0768 -999.0000   46.2388    0.0075    0.0038    0.0072 -999.0000    1.6628    4.3995 -999.0000 -999.0000 
 131.9856   40.2292 -999.0000   46.2388    0.0075    0.0038    0.0072 -999.0000    1.6628    4.3995 -999.0000 -999.0000 
 132.4856   40.3816 -999.0000   46.2388    0.0075    0.0038    0.0072 -999.0000    1.6628    4.3995 -999.0000 -999.0000 
 132.9856   40.5340 -999.0000   46.2388    0.0075    0.0038    0.0072 -999.0000    1.6628    4.3995 -999.0000 -999.0000 
 133.4856   40.6864 -999.0000   46.2388    0.0075    0.0038    0.0072 -999.0000    1.6628    4.3995 -999.0000 -999.0000 
 133.9856   40.8388 -999.0000   46.2388    0.0075    0.0038    0.0072 -999.0000    1.6628    4.3995 -999.0000 -999.0000 
 134.4856   40.9912 -999.0000   46.2388    0.0075    0.0038    0.0072 -999.0000    1.6628    4.3995 -999.0000    3.0000 
 134.9856   41.1436 -999.0000   46.2388    0.0075    0.0038    0.0072 -999.0000    1.6628    4.3995 -999.0000    3.0000 
 135.4856   41.2960 -999.0000   46.2388    0.0075    0.0038    0.0072 -999.0000    1.6628    4.3995 -999.0000    3.0000 
 135.9856   41.4484 -999.0000   46.2388    0.0075    0.0038    0.0072 -999.0000    1.6628    4.3995 -999.0000    3.0000 
 136.4856   41.6008 -999.0000   46.2388    0.0075    0.0038    0.0072 -999.0000    1.6628    4.3995 -999.0000    3.0000 
 136.9856   41.7532 -999.0000   46.2388    0.0075    0.0038    0.0072 -999.0000    1.6628    4.3995 -999.0000    3.0000 
 137.4856   41.9056 -999.0000   46.2388    0.0075    0.0038    0.0072 -999.0000    1.6628    4.3995 -999.0000    3.0000 
 137.9856   42.0580 -999.0000   46.2388    0.0075    0.0038    0.0072 -999.0000    1.6628    4.3995 -999.0000    3.0000 
 138.4856   42.2104 -999.0000   46.2388    0.0075    0.0038    0.0072 -999.0000    1.6628    4.3995 -999.0000    3.0000 
 138.9856   42.3628 -999.0000   46.2388    0.0075    0.0038    0.0072 -999.0000    1.6628    4.3995 -999.0000    3.0000 
 139.4856   42.5152 -999.0000   46.2388    0.0075    0.0038    0.0072 -999.0000    1.6628    4.3995 -999.0000    3.0000 
 139.9856   42.6676 -999.0000   46.2388    0.0075    0.0038    0.0072 -999.0000    1.6628    4.3995 -999.0000    3.0000 
 140.4856   42.8200 -999.0000   46.2388    0.0075    0.0038    0.0072 -999.0000    1.6628    4.3995 -999.0000    3.0000 
 140.9856   42.9724 -999.0000   46.2388    0.0075    0.0038    0.0072 -999.0000    1.6628    4.3995 -999.0000    3.0000 
 141.4856   43.1248 -999.0000   46.2388    0.0075    0.0038    0.0072 -999.0000    1.6628    4.3995 -999.0000    3.0000 
 141.9856   43.2772 -999.0000   46.2388    0.0075    0.0038    0.0072 -999.0000    1.6628    4.3995 -999.0000    3.0000 
 142.4856   43.4296 -999.0000   46.2388    0.0075    0.0038    0.0072 -999.0000    1.6628    4.3995 -999.0000    3.0000 
 142.9856   43.5820 -999.0000   46.2388    0.0075    0.0038    0.0072 -999.0000    1.6628    4.3995 -999.0000    3.0000 
 143.4856   43.7344 -999.0000   46.2388    0.0075    0.0038    0.0072 -999.0000    1.6628    4.3995 -999.0000    3.0000 
 143.9856   43.8868 -999.0000   46.2388    0.0075    0.0038    0.0072 -999.0000    1.6628    4.3995 -999.0000    3.0000 
 144.4856   44.0392 -999.0000   46.2388    0.0075    0.0038    0.0072 -999.0000    1.6628    4.3995 -999.0000    3.0000 
 144.9856   44.1916 -999.0000   46.2388    0.0075    0.0038    0.0072 -999.0000    1.6628    4.3995 -999.0000    3.0000 
 145.4856   44.3440 -999.0000   46.2388    0.0075    0.0038    0.0072 -999.0000    1.6628    4.3995 -999.0000    3.0000 
 145.9856   44.4964 -999.0000   46.2388    0.0075    0.0038    0.0072 -999.0000    1.6628    4.3995 -999.0000    3.0000 
 146.4856   44.6488 -999.0000   46.2388    0.0075    0.0038    0.0072 -999.0000    1.6628    4.3995 -999.0000    3.0000 
 146.9856   44.8012 -999.0000   46.2388    0.0075    0.0038    0.0072 -999.0000    1.6628    4.3995 -999.0000    3.0000 
 147.4856   44.9536 -999.0000   46.2388    0.0075    0.0038    0.0072 -999.0000    1.6628    4.3995 -999.0000    3.0000 
 147.9856   45.1060 -999.0000   46.2388    0.0075    0.0038    0.0072 -999.0000    1.6628    4.3995 -999.0000    3.0000 
 148.4856   45.2584 -999.0000   46.2388    0.0075    0.0038    0.0072 -999.0000    1.6628    4.3995 -999.0000    3.0000 
 148.9856   45.4108 -999.0000   46.2388    0.0075    0.0038    0.0072 -999.0000    1.6628    4.3995 -999.0000    3.0000 
 149.4856   45.5632 -999.0000   46.2388    0.0075    0.0038    0.0072 -999.0000    1.6628    4.3995 -999.0000    3.0000 
 149.9856   45.7156 -999.0000   46.2388    0.0075    0.0038    0.0072 -999.0000    1.6628    4.3995 -999.0000    3.0000 
 150.4856   45.8680 -999.0000   46.2388    0.0075    0.0038    0.0072 -999.0000    1.6628    4.3995 -999.0000    3.0000 
 150.9856   46.0204 -999.0000   46.2438    0.0075    0.0038    0.0072 -999.0000    1.6628    4.3995 -999.0000    3.0000 
 151.4856   46.1728 -999.0000   46.2388    0.0075    0.0038    0.0072 -999.0000    1.6628    4.3995 -999.0000    3.0000 
 151.9856   46.3252 -999.0000   52.1017    0.0075    0.0038    0.0072 -999.0000    1.6628    4.3995 -999.0000    3.0000 
 152.4856   46.4776 -999.0000   56.7503    0.0075    0.0038    0.0072 -999.0000    1.6628    4.3995 -999.0000    3.0000 
 152.9856   46.6300 -999.0000   56.7503    0.0075    0.0038    0.0072 -999.0000    1.6628    4.3995 -999.0000    3.0000 
 153.4856   46.7824 -999.0000   61.6682    0.0075    0.0038    0.0072 -999.0000    1.6628    4.3995 -999.0000    3.0000 
 153.9856   46.9348 -999.0000   61.6691    0.0075    0.0038    0.0072 -999.0000    1.6628    4.3995 -999.0000    3.0000 
 154.4856   47.0872 -999.0000   61.5416    0.0075    0.0038    0.0072 -999.0000    1.6628    4.3995 -999.0000    3.0000 
 154.9856   47.2396 -999.0000   62.4415    0.0075    0.0038    0.0072 -999.0000    1.6628    4.3995 -999.0000    3.0000 
 155.4856   47.3920 -999.0000   62.4415    0.0075    0.0038    0.0072 -999.0000    1.6628    4.3995 -999.0000    3.0000 
 155.9856   47.5444 -999.0000   67.2760    0.0075    0.0038    0.0072 -999.0000    1.6628    4.3995 -999.0000    3.0000 
 156.4856   47.6968 -999.0000   67.2741    0.0075    0.0038    0.0072 -999.0000    1.6628    4.3995 -999.0000    3.0000 
 156.9856   47.8492 -999.0000   64.1282    0.0075    0.0038    0.0072 -999.0000    1.6628    4.3995 -999.0000    3.0000 
 157.4856   48.0016 -999.0000   59.9064    0.0075    0.0038    0.0072    0.6167    1.6628    4.3995 -999.0000    3.0000 
 157.9856   48.1540 -999.0000   59.9064    0.0075    0.0038    0.0072    0.6167    1.6628    4.3995 -999.0000    3.0000 
 158.4856   48.3064 -999.0000   56.1965    0.0075    0.0038    0.0072    0.5394    1.6628    4.3995 -999.0000    3.0000 
 158.9856   48.4588 -999.0000   56.2021    0.0075    0.0038    0.0072    0.5393    1.6628    4.3995 -999.0000    3.0000 
 159.4856   48.6112 -999.0000   45.4355    0.0075    0.0038    0.0072    0.7217    1.6628    4.3995 -999.0000    3.0000 
 159.9856   48.7636 -999.0000   44.9049    0.0075    0.0038    0.0072    0.7989    1.6628    4.3995 -999.0000    3.0000 
 160.4856   48.9160 -999.0000   44.9049    0.0075    0.0038    0.0072    0.7989    1.6628    4.3995 -999.0000    3.0000 
 160.9856   49.0684 -999.0000   48.0066    0.0075    0.0038    0.0072    0.7494    1.6628    4.3995 -999.0000    3.0000 
