~VERSION INFORMATION
 VERS.                 2.0:   CWLS LOG ASCII STANDARD - VERSION 2.0
 WRAP.                  NO:   SINGLE LINE PER DEPTH STEP
 CREA.                 19/12/2017 14:19:34
#CREATED USING DSPetro VERSION 5000.10.1.3 BY H191660 ON 19/12/2017 14:19:34
~WELL INFORMATION
#MNEM.UNIT       DATA                          DESCRIPTION MNEMONIC
#---------      ---------------------------   --------------------------
 STRT    .FT        127.9856                  : START DEPTH
 STOP    .FT        8799.9855                 : STOP DEPTH
 STEP    .FT        0.5000                    : STEP VALUE
 NULL    .      -999.0000                     : NULL VALUE
 DATE    .      19/12/2017                    : LAS file Creation Date
 WELL  .      UB_13_14_4200343837  : Well Name
 COM1  .      OIL PRODUCER         : Well Comment
 COMP  .                           : Company
 FLD   .      FULLERTON (WOLFCAMP) : Field
 UWI   .      202                  : Unique Well Identifier (UWI)
 LOC   .                           : Location
 PDAT  .      3261                 : Permanent Datum
 EPDAT .      Ground Level         : Reference Elevation
 LGMEA .      42                   : Log Measured from
 DRMEA .      42                   : Drill Measured From
 APDAT .      KB                   : Elevation Above Permanent Datum
 KB    .      3303                 : KB Elevation
 DF    .      3302                 : DF Elevation
 GL    .      3261                 : GL Elevation
 RWS   .      0                    : Def_Rw
 WST   .      0                    : Def_Rwt
 DATS  .      02/03/2012           : Spud Date
 MDEC  .      0                    : Magnetic Declination
 SRVC  .      SCH                  : Contractor
~CURVE INFORMATION
#MNEM              UNIT       API CODE   Curve Type Comments
#----------  --------------- ----------  ---------- -----------
 DEPTH      .FT                        : Depth       
 DEPTH_(m)  .                          :             
 BitSize    .in                        : bitSize     
 GR_API     .API                       : GammaRay    Gamma Ray (API) - Measures the intensity of natural gamma-ray radiation emitted from formations containing radioactive elements, such as K, Th and U
 LLD_OHMM   .ohmm                      :             Laterlog Deep Resistivity - Measurement made several feet into the formation; generally considered a measurement of the undisturbed formation
 LLM_OHMM   .ohm.m                     :             Laterlog Medium Resistivity - Measurement made approximately two to three feet into the formation - units of ohmm
 LLS_OHMM   .ohmm                      :             Laterlog Shallow Resistivity - one to two feet into the formation; generally considered to measure the formation
 NPHI_v/v   .ratio                     :             Neutron Porosity - Measured with an neutron logging device calibrated to a given matrix (limestone, sandstone and dolomite)
 RHOB_G_CC  .g/cc                      :             Formation Density - Measures the density of formation, including any void space or other materials contained in the subject volume
 PEF_B_E    .b/e-                      : PEF         Photoelectric Factor - A log of photoelectric absorption properties. Often expressed in an approximation unit barns/electron (b/e-)
 LITH       .                          : LITH        Lithology Curve
 LITH_v2    .                          : LITH        Lithology Curve
~A  DEPTH DEPTH_(m)  BitSize    GR_API   LLD_OHMM  LLM_OHMM  LLS_OHMM  NPHI_v/v RHOB_G_C   PEF_B_E     LITH    LITH_v2  
# ...
3511.9856 1070.4532    8.7500   55.4458   84.0860   38.7165   27.1221    0.0730    2.2309    3.4433   16.0000   36.0000 
3512.4856 1070.6056    8.7500   53.9041   26.4231   12.9171   17.6531    0.1017    2.2342    3.5794   16.0000   36.0000 
3512.9856 1070.7581    8.7500   52.6709   36.6195   17.6585   20.1915    0.1010    2.2666    3.6374   16.0000   36.0000 
3513.4856 1070.9104    8.7500   53.2360   58.6653   27.3097   23.8005    0.0853    2.3325    3.5516   16.0000   36.0000 
3513.9856 1071.0627    8.7500   57.2955   54.2627   25.5058   23.9739    0.0656    2.3801    3.3760   21.9999   36.0000 
3514.4856 1071.2152    8.7500   59.8648  134.9167   64.8148   17.8884    0.0387    2.4036    3.1805   22.0000   36.0000 
3514.9856 1071.3676    8.7500   60.2759  130.6972   64.0066   12.8740    0.0245    2.4051    3.0604   22.0000   36.0000 
3515.4856 1071.5200    8.7500   58.7251  128.8369   63.9944   12.5682    0.0184    2.4006    2.9876   22.0000   36.0000 
3515.9856 1071.6724    8.7500   59.5988  114.9716   66.1422   15.5905    0.0231    2.4042    2.9429   22.0000   36.0000 
3516.4856 1071.8248    8.7500   60.2669   90.9668   59.1687   12.3943    0.0289    2.4053    2.9045   22.0000   36.0000 
3516.9856 1071.9772    8.7500   63.8731   69.8813   49.8778   10.6109    0.0367    2.4085    2.8628   22.0000   36.0000 
3517.4856 1072.1296    8.7500   64.1814   59.5821   45.1505   10.0998    0.0421    2.4115    2.8636   22.0000   36.0000 
3517.9856 1072.2820    8.7500   66.0313   45.1371   37.5217   10.0381    0.0617    2.4109    2.8979   22.0000   36.0000 
3518.4856 1072.4344    8.7500   63.6161   19.9947   18.1733    8.2928    0.0856    2.3713    2.9854   22.0000   36.0000 
3518.9856 1072.5868    8.7500   62.6912   12.4728   11.6747    6.7000    0.1099    2.3049    3.1617   22.0000   36.0000 
3519.4856 1072.7393    8.7500   58.0572   11.6313   10.8491    5.9444    0.1211    2.2166    3.3904   16.0001   36.0000 
3519.9856 1072.8916    8.7500   51.3257    9.8270    9.2377    5.2931    0.0993    2.1393    3.6320   16.0000   16.0000 
3520.4856 1073.0439    8.7500   43.0011   12.8991   11.7319    5.8727    0.0639    2.0440    3.7883   16.0000   16.0000 
3520.9856 1073.1964    8.7500   35.5593   51.7278   29.0943    6.9297    0.0649    2.0050    3.9558   16.0000   16.0000 
3521.4856 1073.3488    8.7500   30.3179   85.3996   63.1456    9.0663    0.0415    2.0606    4.0670   16.0000   16.0000 
3521.9856 1073.5012    8.7500   28.1320  169.1044   95.9700    6.6500    0.0432    1.9670    4.4636   16.0000   16.0000 
3522.4856 1073.6536    8.7500   27.3099  138.9198   28.6846    4.4561    0.0832    1.7855    4.7892   21.9999   16.0000 
3522.9856 1073.8060    8.7500   28.0294  122.6781   23.8268    4.7732    0.1229    1.6173    4.5598   22.0000   16.0000 
3523.4856 1073.9584    8.7500   27.8000  219.1276  100.0697    5.5977    0.1061    1.6542    3.8765   22.0000   16.0000 
3523.9856 1074.1108    8.7500   26.9778  407.1864   44.4451    3.8344    0.0493    1.6746    3.1904   16.0001   16.0000 
3524.4856 1074.2632    8.7500   25.8473  548.9033   71.7233    3.5561    0.0571    1.6084    2.9745   21.9999   16.0000 
3524.9856 1074.4156    8.7500   22.8668 1091.2396  177.8664    3.4255    0.1335    1.5702    2.8959   16.0001   16.0000 
3525.4856 1074.5680    8.7500   21.5822 1142.1772  201.9486    3.3572    0.1921    1.6251    2.8388   16.0000   16.0000 
3525.9856 1074.7203    8.7500   22.6613  625.8382  385.0076    2.4876    0.1613    1.6690    2.9281   16.0000   16.0000 
3526.4856 1074.8728    8.7500   23.2266  434.7011  201.8697    2.1557    0.1383    1.6551    2.9983   16.0000   16.0000 
3526.9856 1075.0251    8.7500   22.8467  489.8973  192.4974    2.7679    0.1687    1.6132    2.9714   16.0000   16.0000 
3527.4856 1075.1776    8.7500   20.9454  556.9311  156.4687    3.4704    0.2906    1.5864    2.9198   16.0000   16.0000 
3527.9856 1075.3300    8.7500   23.2577  858.6127  154.4987    3.2062    0.4009    1.6422    2.9114   16.0000   16.0000 
3528.4856 1075.4824    8.7500   30.9857  298.8607  132.2072    2.7373    0.3227    1.8324    2.9972   16.0000   16.0000 
3528.9856 1075.6348    8.7500   39.4644   30.3735   53.0554    3.7677    0.1903    2.0982    3.0873   21.9999   16.0000 
3529.4856 1075.7872    8.7500   49.6853   71.2543   59.0840    7.5512    0.0636    2.2955    3.1218   22.0000   22.0000 
3529.9856 1075.9396    8.7500   56.8059   77.8848   53.8511   10.4012    0.0589    2.3643    3.0911   22.0000   22.0000 
3530.4856 1076.0920    8.7500   64.8736   54.8755   46.2843   15.4621    0.0877    2.3719    3.0758   22.0000   22.0000 
3530.9856 1076.2444    8.7500   66.9342   32.0551   29.9416    9.0471    0.1024    2.4296    3.2812   22.0000   22.0000 
3531.4856 1076.3969    8.7500   60.3274   27.1813   26.3524    8.3455    0.0823    2.4970    3.6571   22.0000   22.0000 
3531.9856 1076.5492    8.7500   45.2198   58.7131   60.4702   18.6340    0.0318    2.5111    4.1013   16.0001   15.0000 
3532.4856 1076.7015    8.7500   31.4612  139.3481  107.8241   16.7866    0.0166    2.4564    4.4306   16.0000   15.0000 
3532.9856 1076.8540    8.7500   23.7533  224.6806  117.9489   10.5669    0.0197    2.4492    4.6963   16.0000   15.0000 
3533.4856 1077.0063    8.7500   20.9270  259.2247  122.9052   11.2730    0.0255    2.5369    4.8989   16.0000   15.0000 
3533.9856 1077.1588    8.7500   19.3726  279.8487  107.3108   12.8077    0.0149    2.6866    5.0784   18.0000    1.0000 
3534.4856 1077.3112    8.7500   18.3063  273.5194  102.0673   12.0909    0.0073    2.8054    5.2360   21.9999    1.0000 
3534.9856 1077.4636    8.7500   18.5119  790.5008   94.1893   10.1658    0.0032    2.8615    5.2501    1.0003    1.0000 
3535.4856 1077.6160    8.7500   17.3299  203.3482   51.2893    5.8485    0.0012    2.7048    5.5381   17.9998   16.0000 
3535.9856 1077.7684    8.7500   16.3922  275.4128   61.5994    5.6925    0.0063    2.2119    6.4088   21.9999   16.0000 
3536.4856 1077.9208    8.7500   15.7755  431.2037   37.9552    1.6526    0.0326    1.7551    5.8819   22.0000   16.0000 
3536.9856 1078.0732    8.7500   17.3685  184.0337   45.0000    1.8278    0.1481    1.4853    4.8061   22.0000   16.0000 
3537.4856 1078.2256    8.7500   17.5227  289.3642  136.9471    2.9077    0.2732    1.5240    3.0971   16.0001   16.0000 
3537.9856 1078.3781    8.7500   18.1393  395.4369  234.2438    3.9171    0.4194    1.5181    2.8687   16.0000   16.0000 
3538.4856 1078.5304    8.7500   20.5068  335.2007 1268.5480    2.8221    0.4196    1.5818    2.8982   16.0000   16.0000 
3538.9856 1078.6827    8.7500   28.4202  340.7542 99998.6563    1.5320    0.3709    1.7834    3.0618   16.0000   16.0000 
3539.4856 1078.8352    8.7500   37.8752   45.4787  229.8195    1.9295    0.2600    2.0851    3.3520   16.0000   16.0000 
3539.9856 1078.9875    8.7500   45.7336   20.3420   29.7443    5.9010    0.1426    2.3191    3.6004   21.9999   16.0000 
3540.4856 1079.1400    8.7500   51.3348   58.8371   53.3555   14.6283    0.0721    2.4197    3.6473   22.0000   22.0000 
3540.9856 1079.2924    8.7500   52.5167   61.0692   50.4147   19.5061    0.0410    2.4251    3.5617   22.0000   22.0000 
3541.4856 1079.4448    8.7500   56.3706   71.9228   64.1678   29.3759    0.0304    2.4059    3.5943   16.0001   22.0000 
3541.9856 1079.5972    8.7500   55.3428   68.3005   61.5048   27.3770    0.0301    2.3734    3.7904   16.0000   22.0000 
3542.4856 1079.7496    8.7500   56.2532   69.6303   62.8149   24.8581    0.0470    2.3223    4.0886   16.0000   15.0000 
3542.9856 1079.9020    8.7500   49.1620   55.0150   51.3080   20.9668    0.0739    2.3112    4.3358   16.0000   15.0000 
3543.4856 1080.0544    8.7500   39.9125   66.1556   52.5858   26.5188    0.0668    2.3895    4.6111   16.0000   15.0000 
3543.9856 1080.2068    8.7500   30.0096  217.6232  136.7239   33.7606    0.0300    2.5308    4.9058   16.0000   15.0000 
3544.4856 1080.3593    8.7500   22.1476 1078.7612  439.0104   42.8472    0.0091    2.6576    5.1909   18.0000    1.0000 
3544.9856 1080.5116    8.7500   19.8002 1350.8373  476.4222   38.6507    0.0094    2.7212    5.3530   18.0000    1.0000 
