~VERSION INFORMATION
 VERS.                 2.0:   CWLS LOG ASCII STANDARD - VERSION 2.0
 WRAP.                  NO:   SINGLE LINE PER DEPTH STEP
 CREA.                 19/12/2017 14:19:34
#CREATED USING DSPetro VERSION 5000.10.1.3 BY H191660 ON 19/12/2017 14:19:34
~WELL INFORMATION
#MNEM.UNIT       DATA                          DESCRIPTION MNEMONIC
#---------      ---------------------------   --------------------------
 STRT    .FT        127.9856                  : START DEPTH
 STOP    .FT        8799.9855                 : STOP DEPTH
 STEP    .FT        0.5000                    : STEP VALUE
 NULL    .      -999.0000                     : NULL VALUE
 DATE    .      19/12/2017                    : LAS file Creation Date
 WELL  .      UB_13_14_4200343837  : Well Name
 COM1  .      OIL PRODUCER         : Well Comment
 COMP  .                           : Company
 FLD   .      FULLERTON (WOLFCAMP) : Field
 UWI   .      202                  : Unique Well Identifier (UWI)
 LOC   .                           : Location
 PDAT  .      3261                 : Permanent Datum
 EPDAT .      Ground Level         : Reference Elevation
 LGMEA .      42                   : Log Measured from
 DRMEA .      42                   : Drill Measured From
 APDAT .      KB                   : Elevation Above Permanent Datum
 KB    .      3303                 : KB Elevation
 DF    .      3302                 : DF Elevation
 GL    .      3261                 : GL Elevation
 RWS   .      0                    : Def_Rw
 WST   .      0                    : Def_Rwt
 DATS  .      02/03/2012           : Spud Date
 MDEC  .      0                    : Magnetic Declination
 SRVC  .      SCH                  : Contractor
~CURVE INFORMATION
#MNEM              UNIT       API CODE   Curve Type Comments
#----------  --------------- ----------  ---------- -----------
 DEPTH      .FT                        : Depth       
 DEPTH_(m)  .                          :             
 BitSize    .in                        : bitSize     
 GR_API     .API                       : GammaRay    Gamma Ray (API) - Measures the intensity of natural gamma-ray radiation emitted from formations containing radioactive elements, such as K, Th and U
 LLD_OHMM   .ohmm                      :             Laterlog Deep Resistivity - Measurement made several feet into the formation; generally considered a measurement of the undisturbed formation
 LLM_OHMM   .ohm.m                     :             Laterlog Medium Resistivity - Measurement made approximately two to three feet into the formation - units of ohmm
 LLS_OHMM   .ohmm                      :             Laterlog Shallow Resistivity - one to two feet into the formation; generally considered to measure the formation
 NPHI_v/v   .ratio                     :             Neutron Porosity - Measured with an neutron logging device calibrated to a given matrix (limestone, sandstone and dolomite)
 RHOB_G_CC  .g/cc                      :             Formation Density - Measures the density of formation, including any void space or other materials contained in the subject volume
 PEF_B_E    .b/e-                      : PEF         Photoelectric Factor - A log of photoelectric absorption properties. Often expressed in an approximation unit barns/electron (b/e-)
 LITH       .                          : LITH        Lithology Curve
 LITH_v2    .                          : LITH        Lithology Curve
~A  DEPTH DEPTH_(m)  BitSize    GR_API   LLD_OHMM  LLM_OHMM  LLS_OHMM  NPHI_v/v RHOB_G_C   PEF_B_E     LITH    LITH_v2  
# ...
8670.9856 2642.9165    8.7500   37.7305  246.6115  169.9978    5.9894   -0.0069    2.5948    4.2023 -999.0000 -999.0000 
8671.4856 2643.0688    8.7500   37.7305  286.0312  186.3264    6.1712   -0.0069    2.5842    4.1654 -999.0000 -999.0000 
8671.9856 2643.2212    8.7500   37.7305  329.6505  218.7800    6.6963   -0.0069    2.6175    4.1963 -999.0000 -999.0000 
8672.4856 2643.3735    8.7500   37.7305  301.0212  202.6252    7.2165   -0.0069    2.6249    4.3194 -999.0000 -999.0000 
8672.9856 2643.5259    8.7500   37.7305  424.6663  281.2099    8.4182   -0.0069    2.6734    4.4685 -999.0000 -999.0000 
8673.4856 2643.6785    8.7500   37.7305  459.1959  275.8922    9.4248   -0.0069    2.7304    4.6171 -999.0000 -999.0000 
8673.9856 2643.8308    8.7500   37.7305  438.3265  251.2692   10.2533   -0.0069    2.7541    4.7393 -999.0000 -999.0000 
8674.4856 2643.9832    8.7500   37.7305  446.1072  240.4471   11.9059   -0.0069    2.7551    4.8063 -999.0000 -999.0000 
8674.9856 2644.1355    8.7500   37.7305  529.6560  250.6156   12.9812   -0.0069    2.7634    4.8188 -999.0000 -999.0000 
8675.4856 2644.2881    8.7500   37.7305  487.4728  251.9707   14.3118   -0.0069    2.7902    4.8147 -999.0000 -999.0000 
8675.9856 2644.4404    8.7500   37.7305  549.0422  272.3214   14.0637   -0.0069    2.8184    4.8076 -999.0000 -999.0000 
8676.4856 2644.5928    8.7500   37.7305  481.7854  266.1905   15.1419   -0.0069    2.8162    4.8071 -999.0000 -999.0000 
8676.9856 2644.7451    8.7500   37.7305  601.7414  320.0853   15.8210   -0.0069    2.8085    4.8099 -999.0000 -999.0000 
8677.4856 2644.8977    8.7500   37.7305  624.1765  299.3107   12.6091   -0.0069    2.7881    4.8191 -999.0000 -999.0000 
8677.9856 2645.0500    8.7500   37.7305  634.1201  316.5777   13.7477   -0.0069    2.7839    4.8404 -999.0000 -999.0000 
8678.4856 2645.2024    8.7500   37.7305  697.5942  304.9889   11.0101   -0.0069    2.7815    4.8536 -999.0000 -999.0000 
8678.9856 2645.3547    8.7500   37.7305 1134.8051  370.1644   10.7373   -0.0069    2.7889    4.8592 -999.0000 -999.0000 
8679.4856 2645.5071    8.7500   37.7305  507.9366  296.1154   15.1977   -0.0069    2.7918    4.8577 -999.0000 -999.0000 
8679.9856 2645.6597    8.7500   37.7305  176.1492  127.0848   11.1441   -0.0069    2.7822    4.8625 -999.0000 -999.0000 
8680.4856 2645.8120    8.7500   37.7305  107.0355   83.7688    8.6627   -0.0069    2.7943    4.8579 -999.0000 -999.0000 
8680.9856 2645.9644    8.7500   37.7305  397.9926  216.6175    9.2554   -0.0069    2.7985    4.8499 -999.0000 -999.0000 
8681.4856 2646.1167    8.7500   37.7305  722.5011  277.6481    8.9695   -0.0069    2.7954    4.8500 -999.0000 -999.0000 
8681.9856 2646.2693    8.7500   37.7305  747.9561  287.2924    8.9228   -0.0069    2.8015    4.8617 -999.0000 -999.0000 
8682.4856 2646.4216    8.7500   37.7305  745.9423  286.1013    8.9707   -0.0069    2.8070    4.8746 -999.0000 -999.0000 
8682.9856 2646.5740    8.7500   37.7305  744.7889  284.2977    8.9154   -0.0069    2.8192    4.8569 -999.0000 -999.0000 
8683.4856 2646.7263    8.7500   37.7305  743.0558  284.9536    8.8545   -0.0069    2.8124    4.7901 -999.0000 -999.0000 
8683.9856 2646.8789    8.7500   37.7305  745.0098  284.9889    8.9704   -0.0069    2.7960    4.6961 -999.0000 -999.0000 
8684.4856 2647.0313    8.7500   37.7305  759.2809  283.3480    8.9279   -0.0069    2.7814    4.6101 -999.0000 -999.0000 
8684.9856 2647.1836    8.7500   37.7305  745.7831  284.8745    8.9974   -0.0069    2.7714    4.5690 -999.0000 -999.0000 
8685.4856 2647.3359    8.7500   37.7305  742.8153  283.8709    8.6221   -0.0069    2.7681    4.5815 -999.0000 -999.0000 
8685.9856 2647.4883    8.7500   37.7305  781.0422  282.8593    8.9052   -0.0069    2.7506    4.6292 -999.0000 -999.0000 
8686.4856 2647.6409    8.7500   37.7305    2.0788    1.4039   10.9722   -0.0069    2.7397    4.6923 -999.0000 -999.0000 
8686.9856 2647.7932    8.7500   37.7305  279.1543  886.9871  287.7327   -0.0069    2.7445    4.7272 -999.0000 -999.0000 
8687.4856 2647.9456    8.7500   37.7305  279.1638  887.0174  287.7422   -0.0069    2.7556    4.7359 -999.0000 -999.0000 
8687.9856 2648.0979    8.7500   37.7305  279.1638  887.0174  287.7422   -0.0069    2.7460    4.7486 -999.0000 -999.0000 
8688.4856 2648.2505    8.7500   37.7305  279.1638  887.0174  287.7422   -0.0069    2.7464    4.7849 -999.0000 -999.0000 
8688.9856 2648.4028    8.7500   37.7305  279.1638  887.0174  287.7422   -0.0069    2.7630    4.8395 -999.0000 -999.0000 
8689.4856 2648.5552    8.7500   37.7305  279.1638  887.0174  287.7422   -0.0069    2.7677    4.8886 -999.0000 -999.0000 
8689.9856 2648.7075    8.7500   37.7305  279.1638  887.0174  287.7422   -0.0069    2.7538    4.9213 -999.0000 -999.0000 
8690.4856 2648.8601    8.7500   37.7305  279.1638  887.0174  287.7422   -0.0069    2.7310    4.9227 -999.0000 -999.0000 
8690.9856 2649.0125    8.7500   37.7305  279.1638  887.0174  287.7422   -0.0069    2.7154    4.8398 -999.0000 -999.0000 
8691.4856 2649.1648    8.7500   37.7305  279.1638  887.0174  287.7422   -0.0069    2.6455    4.6563 -999.0000 -999.0000 
8691.9856 2649.3171    8.7500   37.7305  279.1638  887.0174  287.7422   -0.0069    2.5298    4.4111 -999.0000 -999.0000 
8692.4856 2649.4695    8.7500   37.7305  279.1638  887.0174  287.7422   -0.0069    2.4437    4.1794 -999.0000 -999.0000 
8692.9856 2649.6221    8.7500   37.7305  279.1638  887.0174  287.7422   -0.0069    2.4341    4.0299 -999.0000 -999.0000 
8693.4856 2649.7744    8.7500   37.7305  279.1638  887.0174  287.7422   -0.0069    2.5219    3.9652 -999.0000 -999.0000 
8693.9856 2649.9268    8.7500   37.7305  279.1638  887.0174  287.7422   -0.0069    2.6265    4.0021 -999.0000 -999.0000 
8694.4856 2650.0791    8.7500   37.7305  279.1638  887.0174  287.7422   -0.0069    2.6796    4.1144 -999.0000 -999.0000 
8694.9856 2650.2317    8.7500   37.7305  279.1638  887.0174  287.7422   -0.0069    2.6761    4.2149 -999.0000 -999.0000 
8695.4856 2650.3840    8.7500   37.7305  279.1638  887.0174  287.7422   -0.0069    2.6405    4.2630 -999.0000 -999.0000 
8695.9856 2650.5364    8.7500   37.7305  279.1638  887.0174  287.7422   -0.0069    2.6342    4.2707 -999.0000 -999.0000 
8696.4856 2650.6887    8.7500   37.7305  279.1638  887.0174  287.7422   -0.0069    2.6361    4.3136 -999.0000 -999.0000 
8696.9856 2650.8413    8.7500   37.7305  279.1638  887.0174  287.7422   -0.0069    2.6561    4.3842 -999.0000 -999.0000 
8697.4856 2650.9937    8.7500   37.7305  279.1638  887.0174  287.7422   -0.0069    2.6717    4.4417 -999.0000 -999.0000 
8697.9856 2651.1460    8.7500   37.7305  279.1638  887.0174  287.7422   -0.0069    2.6902    4.4774 -999.0000 -999.0000 
8698.4856 2651.2983    8.7500   37.7305  279.1638  887.0174  287.7422   -0.0069    2.6964    4.5087 -999.0000 -999.0000 
8698.9856 2651.4507    8.7500   37.7305  279.1638  887.0174  287.7422   -0.0069    2.7026    4.5431 -999.0000 -999.0000 
8699.4856 2651.6033    8.7500   37.7305  279.1638  887.0174  287.7422   -0.0069    2.7084    4.5615 -999.0000 -999.0000 
8699.9856 2651.7556    8.7500   37.7305  279.1638  887.0174  287.7422   -0.0069    2.7108    4.5601 -999.0000 -999.0000 
8700.4856 2651.9080    8.7500   37.7305  279.1638  887.0174  287.7422   -0.0069    2.7192    4.5547 -999.0000 -999.0000 
8700.9856 2652.0603    8.7500   37.7305  279.1638  887.0174  287.7422   -0.0069    2.7293    4.5666 -999.0000 -999.0000 
8701.4856 2652.2129    8.7500   37.7305  279.1638  887.0174  287.7422   -0.0069    2.7323    4.5921 -999.0000 -999.0000 
8701.9856 2652.3652    8.7500   37.7305  279.1638  887.0174  287.7422   -0.0069    2.7305    4.6234 -999.0000 -999.0000 
8702.4856 2652.5176    8.7500   37.7305  279.1638  887.0174  287.7422   -0.0069    2.7267    4.6554 -999.0000 -999.0000 
8702.9856 2652.6699    8.7500   37.7305  279.1638  887.0174  287.7422   -0.0069    2.7269    4.6903 -999.0000 -999.0000 
8703.4856 2652.8225    8.7500   37.7305  279.1638  887.0174  287.7422   -0.0069    2.7308    4.7296 -999.0000 -999.0000 
8703.9856 2652.9749    8.7500   37.7305  279.1638  887.0174  287.7422   -0.0069    2.7395    4.7633 -999.0000 -999.0000 
