~VERSION INFORMATION
 VERS.                 2.0:   CWLS LOG ASCII STANDARD - VERSION 2.0
 WRAP.                  NO:   SINGLE LINE PER DEPTH STEP
 CREA.                 19/12/2017 14:19:34
#CREATED USING DSPetro VERSION 5000.10.1.3 BY H191660 ON 19/12/2017 14:19:34
~WELL INFORMATION
#MNEM.UNIT       DATA                          DESCRIPTION MNEMONIC
#---------      ---------------------------   --------------------------
 STRT    .FT        127.9856                  : START DEPTH
 STOP    .FT        8799.9855                 : STOP DEPTH
 STEP    .FT        0.5000                    : STEP VALUE
 NULL    .      -999.0000                     : NULL VALUE
 DATE    .      19/12/2017                    : LAS file Creation Date
 WELL  .      UB_13_14_4200343837  : Well Name
 COM1  .      OIL PRODUCER         : Well Comment
 COMP  .                           : Company
 FLD   .      FULLERTON (WOLFCAMP) : Field
 UWI   .      202                  : Unique Well Identifier (UWI)
 LOC   .                           : Location
 PDAT  .      3261                 : Permanent Datum
 EPDAT .      Ground Level         : Reference Elevation
 LGMEA .      42                   : Log Measured from
 DRMEA .      42                   : Drill Measured From
 APDAT .      KB                   : Elevation Above Permanent Datum
 KB    .      3303                 : KB Elevation
 DF    .      3302                 : DF Elevation
 GL    .      3261                 : GL Elevation
 RWS   .      0                    : Def_Rw
 WST   .      0                    : Def_Rwt
 DATS  .      02/03/2012           : Spud Date
 MDEC  .      0                    : Magnetic Declination
 SRVC  .      SCH                  : Contractor
~CURVE INFORMATION
#MNEM              UNIT       API CODE   Curve Type Comments
#----------  --------------- ----------  ---------- -----------
 DEPTH      .FT                        : Depth       
 DEPTH_(m)  .                          :             
 BitSize    .in                        : bitSize     
 GR_API     .API                       : GammaRay    Gamma Ray (API) - Measures the intensity of natural gamma-ray radiation emitted from formations containing radioactive elements, such as K, Th and U
 LLD_OHMM   .ohmm                      :             Laterlog Deep Resistivity - Measurement made several feet into the formation; generally considered a measurement of the undisturbed formation
 LLM_OHMM   .ohm.m                     :             Laterlog Medium Resistivity - Measurement made approximately two to three feet into the formation - units of ohmm
 LLS_OHMM   .ohmm                      :             Laterlog Shallow Resistivity - one to two feet into the formation; generally considered to measure the formation
 NPHI_v/v   .ratio                     :             Neutron Porosity - Measured with an neutron logging device calibrated to a given matrix (limestone, sandstone and dolomite)
 RHOB_G_CC  .g/cc                      :             Formation Density - Measures the density of formation, including any void space or other materials contained in the subject volume
 PEF_B_E    .b/e-                      : PEF         Photoelectric Factor - A log of photoelectric absorption properties. Often expressed in an approximation unit barns/electron (b/e-)
 LITH       .                          : LITH        Lithology Curve
 LITH_v2    .                          : LITH        Lithology Curve
~A  DEPTH DEPTH_(m)  BitSize    GR_API   LLD_OHMM  LLM_OHMM  LLS_OHMM  NPHI_v/v RHOB_G_C   PEF_B_E     LITH    LITH_v2  
# ...
6392.9856 1948.5820    8.7500   38.0000   14.9848   15.1185   13.9437    0.1396    2.7336    3.0366   12.0000   12.0000 
6393.4856 1948.7344    8.7500   40.2351   13.3573   13.1064   13.2396    0.1281    2.7408    3.0930   12.0000   12.0000 
6393.9856 1948.8868    8.7500   48.8038   37.6759   35.2094   28.4083    0.1100    2.7455    3.1695   12.0000   12.0000 
6394.4856 1949.0392    8.7500   57.4258   56.5013   51.4754   36.2538    0.0865    2.7526    3.2249   12.0000   12.0000 
6394.9856 1949.1917    8.7500   60.4594   26.3185   24.5837   25.0817    0.0746    2.7575    3.2349   12.0000   12.0000 
6395.4856 1949.3440    8.7500   55.6163   22.0210   20.6283   19.7969    0.0784    2.7598    3.1906   12.0000   12.0000 
6395.9856 1949.4963    8.7500   51.3054   13.9480   13.1941   14.6514    0.0959    2.7452    3.1826   12.0000   12.0000 
6396.4856 1949.6488    8.7500   48.4848   13.0669   12.3348   13.1627    0.1111    2.7394    3.2066   12.0000   12.0000 
6396.9856 1949.8011    8.7500   47.5799   16.2957   15.1949   14.5554    0.1045    2.7483    3.2806   12.0000   12.0000 
6397.4856 1949.9536    8.7500   46.1961   22.7831   21.0268   18.9182    0.0891    2.7755    3.3688   12.0000   12.0000 
6397.9856 1950.1060    8.7500   42.6303   56.7220   50.3292   32.7599    0.0772    2.7873    3.4488   12.0000   12.0000 
6398.4856 1950.2584    8.7500   43.4109   93.0177   79.2890   39.7900    0.0909    2.7722    3.4591   12.0000   12.0000 
6398.9856 1950.4108    8.7500   46.3912   28.3479   25.2969   19.4434    0.1315    2.7401    3.4074   12.0000   12.0000 
6399.4856 1950.5632    8.7500   51.5005    8.7683    8.1425    8.2514    0.1716    2.7105    3.3577   12.0000   12.0000 
6399.9856 1950.7156    8.7500   53.4361    8.3567    7.9002    8.2421    0.1830    2.6998    3.2997   12.0000   12.0000 
6400.4856 1950.8680    8.7500   52.5313   13.6951   12.9099   12.9045    0.1590    2.6991    3.1873   12.0000   12.0000 
6400.9856 1951.0204    8.7500   50.4773   15.5667   14.5692   13.6496    0.1335    2.6951    2.9990   12.0000   12.0000 
6401.4856 1951.1729    8.7500   47.6549    9.7386    9.1366    8.6493    0.1375    2.6646    2.8314   36.9994   12.0000 
6401.9856 1951.3252    8.7500   41.0023    8.7263    8.2017    7.6991    0.1489    2.6402    2.6717   37.0000   12.0000 
6402.4856 1951.4775    8.7500   36.6696    5.9903    5.7970    5.9509    0.1650    2.6282    2.5856   37.0000   12.0000 
6402.9856 1951.6300    8.7500   39.0644    5.6441    5.5488    5.5479    0.1791    2.6451    2.6127   37.0000   12.0000 
6403.4856 1951.7823    8.7500   49.7083    6.2648    6.1690    5.8390    0.1751    2.6757    2.7691   37.0000   12.0000 
6403.9856 1951.9348    8.7500   55.4033   12.1489   11.9492    9.8276    0.1330    2.7215    2.9037   12.0006   12.0000 
6404.4856 1952.0872    8.7500   51.5715   56.0750   52.2429   27.6334    0.0934    2.7559    2.9301   12.0000   12.0000 
6404.9856 1952.2396    8.7500   44.6528   35.9053   33.7830   18.0688    0.0891    2.7588    2.9015   36.9994   12.0000 
6405.4856 1952.3920    8.7500   42.5771    7.9190    7.7782    6.0928    0.1340    2.7265    2.8807   12.0006   12.0000 
6405.9856 1952.5444    8.7500   42.5771    7.5497    7.4026    5.7459    0.1569    2.6954    2.8913   12.0000   12.0000 
6406.4856 1952.6968    8.7500   43.7479    6.1359    5.9819    5.4725    0.1656    2.6772    2.9024   12.0000   12.0000 
6406.9856 1952.8492    8.7500   47.1008    6.4771    6.2858    5.6967    0.1557    2.6816    2.9179   12.0000   12.0000 
6407.4856 1953.0016    8.7500   60.6189    5.2682    5.1006    4.5182    0.1523    2.6936    2.9209   12.0000   12.0000 
6407.9856 1953.1541    8.7500   79.4591    8.3721    8.0620    5.9588    0.1466    2.6905    2.9759   12.0000   22.0000 
6408.4856 1953.3064    8.7500  106.8145   12.3435   11.9939    7.9220    0.1676    2.6736    3.0556   12.0000   22.0000 
6408.9856 1953.4587    8.7500  112.0306   16.0708   16.3921   10.5938    0.1698    2.6626    3.1133   12.0000   22.0000 
6409.4856 1953.6112    8.7500   97.1824   10.8183   11.1787    8.7475    0.1837    2.6557    3.1255   12.0000   22.0000 
6409.9856 1953.7635    8.7500   78.2891    6.8702    7.0329    6.5101    0.1767    2.6459    3.0569   12.0000   22.0000 
6410.4856 1953.9160    8.7500  103.5149    3.8821    3.9241    4.2985    0.1807    2.6033    2.9559   12.0000   22.0000 
6410.9856 1954.0684    8.7500  148.2202    7.7961    7.5938    6.9966    0.2074    2.5137    2.8807   36.9994   37.0000 
6411.4856 1954.2208    8.7500  186.0074   11.1509   10.6980    9.2396    0.2876    2.4299    2.8653   12.0006   37.0000 
6411.9856 1954.3732    8.7500  179.6219   14.7356   13.7297   11.4027    0.3523    2.4277    2.8804   12.0000   37.0000 
6412.4856 1954.5256    8.7500  147.6365   14.5744   13.5235   11.3320    0.3079    2.5322    2.8894   12.0000   22.0000 
6412.9856 1954.6780    8.7500  110.2754   15.7104   14.3749   11.4441    0.2030    2.6460    2.8946   12.0000   22.0000 
6413.4856 1954.8304    8.7500   80.8972   19.8407   18.0968   12.8920    0.1278    2.7032    2.9635   12.0000   22.0000 
6413.9856 1954.9828    8.7500   63.3871   16.3381   15.0412   11.6030    0.1152    2.7078    3.0097   12.0000   12.0000 
6414.4856 1955.1353    8.7500   51.5185   19.0886   17.4803   12.5755    0.1190    2.7102    3.0317   12.0000   12.0000 
6414.9856 1955.2876    8.7500   43.4820   12.0723   11.0631    8.7590    0.1267    2.7017    3.0125   12.0000   12.0000 
6415.4856 1955.4399    8.7500   50.6447    7.0444    6.4664    5.8188    0.1304    2.6880    2.9623   12.0000   12.0000 
6415.9856 1955.5924    8.7500   67.6223    8.4357    7.6681    6.7804    0.1389    2.6709    2.9034   12.0000   12.0000 
6416.4856 1955.7448    8.7500   91.4651   11.4066   10.1335    8.6101    0.1376    2.6628    2.8387   36.9994   22.0000 
6416.9856 1955.8972    8.7500  100.9625   12.1406   10.7665    8.8953    0.1394    2.6708    2.7909   12.0006   22.0000 
6417.4856 1956.0496    8.7500  102.5593   14.8974   13.2555    9.6778    0.1247    2.6914    2.7810   12.0000   22.0000 
6417.9856 1956.2020    8.7500   96.3326   14.1147   12.6406    9.2628    0.1186    2.7117    2.8202   12.0000   22.0000 
6418.4856 1956.3544    8.7500   87.9396   21.6460   19.1969   12.0332    0.1145    2.7259    2.8907   12.0000   22.0000 
6418.9856 1956.5068    8.7500   72.4523   28.4826   24.7848   14.1561    0.1183    2.7221    2.9641   12.0000   12.0000 
6419.4856 1956.6592    8.7500   55.5811   30.1089   25.7540   13.7265    0.1303    2.7018    3.0124   12.0000   12.0000 
6419.9856 1956.8116    8.7500   45.5576   14.1569   12.4186    8.6497    0.1735    2.6728    3.0076   12.0000   12.0000 
6420.4856 1956.9640    8.7500   42.8433    7.5577    6.7298    5.6830    0.2051    2.6456    2.9934   12.0000   12.0000 
6420.9856 1957.1165    8.7500   43.2690    5.8573    5.2802    4.8123    0.2176    2.6263    2.9732   12.0000   12.0000 
6421.4856 1957.2688    8.7500   68.0697    5.9807    5.4223    4.8965    0.2165    2.6061    2.9793   36.9994   12.0000 
6421.9856 1957.4211    8.7500   97.5542    6.5349    5.9638    5.2695    0.2171    2.5945    2.9857   37.0000   22.0000 
6422.4856 1957.5736    8.7500  112.9885   11.7767   10.6574    7.6501    0.2129    2.6017    3.0124   37.0000   22.0000 
6422.9856 1957.7260    8.7500   92.9782    8.9009    8.2720    7.2526    0.1920    2.6271    3.0531   37.0000   22.0000 
6423.4856 1957.8784    8.7500   60.5134    8.3711    7.9327    6.7599    0.1863    2.6537    3.0820   12.0006   12.0000 
6423.9856 1958.0308    8.7500   43.7942    4.2573    4.1333    3.8530    0.1789    2.6713    3.0466   12.0000   12.0000 
6424.4856 1958.1832    8.7500   46.3483    4.6196    4.5064    4.1488    0.1593    2.6808    2.9751   12.0000   12.0000 
6424.9856 1958.3356    8.7500   72.4262   10.3595    9.9764    8.0789    0.1362    2.6840    2.8976   12.0000   12.0000 
6425.4856 1958.4880    8.7500  102.4503    9.5746    9.2153    7.4990    0.1666    2.6634    2.8976   12.0000   12.0000 
6425.9856 1958.6404    8.7500  110.8696    7.4218    7.1527    5.7675    0.2312    2.6333    2.9532   12.0000   22.0000 
