~VERSION INFORMATION
 VERS.                 2.0:   CWLS LOG ASCII STANDARD - VERSION 2.0
 WRAP.                  NO:   SINGLE LINE PER DEPTH STEP
 CREA.                 19/12/2017 14:19:34
#CREATED USING DSPetro VERSION 5000.10.1.3 BY H191660 ON 19/12/2017 14:19:34
~WELL INFORMATION
#MNEM.UNIT       DATA                          DESCRIPTION MNEMONIC
#---------      ---------------------------   --------------------------
 STRT    .FT        127.9856                  : START DEPTH
 STOP    .FT        8799.9855                 : STOP DEPTH
 STEP    .FT        0.5000                    : STEP VALUE
 NULL    .      -999.0000                     : NULL VALUE
 DATE    .      19/12/2017                    : LAS file Creation Date
 WELL  .      UB_13_14_4200343837  : Well Name
 COM1  .      OIL PRODUCER         : Well Comment
 COMP  .                           : Company
 FLD   .      FULLERTON (WOLFCAMP) : Field
 UWI   .      202                  : Unique Well Identifier (UWI)
 LOC   .                           : Location
 PDAT  .      3261                 : Permanent Datum
 EPDAT .      Ground Level         : Reference Elevation
 LGMEA .      42                   : Log Measured from
 DRMEA .      42                   : Drill Measured From
 APDAT .      KB                   : Elevation Above Permanent Datum
 KB    .      3303                 : KB Elevation
 DF    .      3302                 : DF Elevation
 GL    .      3261                 : GL Elevation
 RWS   .      0                    : Def_Rw
 WST   .      0                    : Def_Rwt
 DATS  .      02/03/2012           : Spud Date
 MDEC  .      0                    : Magnetic Declination
 SRVC  .      SCH                  : Contractor
~CURVE INFORMATION
#MNEM              UNIT       API CODE   Curve Type Comments
#----------  --------------- ----------  ---------- -----------
 DEPTH      .FT                        : Depth       
 DEPTH_(m)  .                          :             
 BitSize    .in                        : bitSize     
 GR_API     .API                       : GammaRay    Gamma Ray (API) - Measures the intensity of natural gamma-ray radiation emitted from formations containing radioactive elements, such as K, Th and U
 LLD_OHMM   .ohmm                      :             Laterlog Deep Resistivity - Measurement made several feet into the formation; generally considered a measurement of the undisturbed formation
 LLM_OHMM   .ohm.m                     :             Laterlog Medium Resistivity - Measurement made approximately two to three feet into the formation - units of ohmm
 LLS_OHMM   .ohmm                      :             Laterlog Shallow Resistivity - one to two feet into the formation; generally considered to measure the formation
 NPHI_v/v   .ratio                     :             Neutron Porosity - Measured with an neutron logging device calibrated to a given matrix (limestone, sandstone and dolomite)
 RHOB_G_CC  .g/cc                      :             Formation Density - Measures the density of formation, including any void space or other materials contained in the subject volume
 PEF_B_E    .b/e-                      : PEF         Photoelectric Factor - A log of photoelectric absorption properties. Often expressed in an approximation unit barns/electron (b/e-)
 LITH       .                          : LITH        Lithology Curve
 LITH_v2    .                          : LITH        Lithology Curve
~A  DEPTH DEPTH_(m)  BitSize    GR_API   LLD_OHMM  LLM_OHMM  LLS_OHMM  NPHI_v/v RHOB_G_C   PEF_B_E     LITH    LITH_v2  
# ...
1251.4856  381.4528 -999.0000   43.2907    0.1143    0.1177    0.1408    0.5240    2.0462    5.7892 -999.0000    3.0000 
1251.9856  381.6052 -999.0000   56.8687    0.0486    0.0530    0.0706    0.5502    2.0151    5.9301 -999.0000    3.0000 
1252.4856  381.7576 -999.0000   63.5569    0.0239    0.0156    0.0220    0.5377    1.9922    5.9518 -999.0000    3.0000 
1252.9856  381.9100 -999.0000   63.5569    0.0239    0.0156    0.0220    0.5377    1.9922    5.9518 -999.0000    3.0000 
1253.4856  382.0624 -999.0000   61.8398    0.0677    0.0872    0.1034    0.7429    1.9719    5.9856 -999.0000    3.0000 
1253.9856  382.2148 -999.0000   61.8432    0.0678    0.0873    0.1035    0.7429    1.9719    5.9856 -999.0000    3.0000 
1254.4856  382.3672 -999.0000   55.6553 99999.5469 99999.5469 99999.5469    0.6274    1.9658    5.9243 -999.0000    3.0000 
1254.9856  382.5196 -999.0000   54.4666 100000.0000 100000.0000 100000.0000    0.5464    1.9591    5.8118 -999.0000    3.0000 
1255.4856  382.6720 -999.0000   54.4666 100000.0000 100000.0000 100000.0000    0.5464    1.9591    5.8118 -999.0000    3.0000 
1255.9856  382.8244 -999.0000   61.1736 100000.0000 100000.0000 100000.0000    0.5508    1.9317    5.5824 -999.0000    3.0000 
1256.4856  382.9768 -999.0000   61.1732 100000.0000 100000.0000 100000.0000    0.5509    1.9317    5.5825 -999.0000    3.0000 
1256.9856  383.1292 -999.0000   53.6251 100000.0000 100000.0000 100000.0000    0.4882    1.9213    5.4734 -999.0000    3.0000 
1257.4856  383.2816 -999.0000   45.0042 100000.0000 100000.0000 100000.0000    0.4422    1.9234    5.3744 -999.0000    3.0000 
1257.9856  383.4340 -999.0000   45.0042 100000.0000 100000.0000 100000.0000    0.4422    1.9234    5.3744 -999.0000    3.0000 
1258.4856  383.5864 -999.0000   39.2713 99859.8281 99859.8281 99859.8281    0.4883    1.9168    5.2290 -999.0000    3.0000 
1258.9856  383.7388 -999.0000   39.2667 100000.0000 100000.0000 100000.0000    0.4883    1.9168    5.2291 -999.0000    3.0000 
1259.4856  383.8912 -999.0000   45.3041 100000.0000 100000.0000 100000.0000    0.5301    1.8819    5.0405 -999.0000    3.0000 
1259.9856  384.0436 -999.0000   45.8989 100000.0000 100000.0000 100000.0000    0.4057    1.8674    4.9268 -999.0000    3.0000 
1260.4856  384.1960 -999.0000   45.8989 100000.0000 100000.0000 100000.0000    0.4057    1.8674    4.9268 -999.0000    3.0000 
1260.9856  384.3484 -999.0000   41.7986 100000.0000 100000.0000 100000.0000    0.4265    1.8308    4.6909 -999.0000    3.0000 
1261.4856  384.5008 -999.0000   41.8003 100000.0000 100000.0000 100000.0000    0.4264    1.8308    4.6911 -999.0000    3.0000 
1261.9856  384.6532 -999.0000   38.2191    0.5302    0.5483    0.5632    0.4505    1.7668    4.3289 -999.0000    3.0000 
1262.4856  384.8056 -999.0000   36.5843    0.0332    0.0274    0.0354    0.4122    1.7317    4.1129 -999.0000    3.0000 
1262.9856  384.9580 -999.0000   36.5843    0.0332    0.0274    0.0354    0.4122    1.7317    4.1129 -999.0000    3.0000 
1263.4856  385.1104 -999.0000   41.5097 99999.5469 99999.5469 99999.5469    0.3437    1.6525    3.6606 -999.0000    3.0000 
1263.9856  385.2628 -999.0000   41.5020 100000.0000 100000.0000 100000.0000    0.3437    1.6525    3.6608 -999.0000    3.0000 
1264.4856  385.4152 -999.0000   50.9031    0.5583    0.5739    0.6053    0.4795    1.5866    3.3622 -999.0000    3.0000 
1264.9856  385.5676 -999.0000   55.3610    0.0238    0.0195    0.0281    0.6056    1.5729    3.2528 -999.0000    3.0000 
1265.4856  385.7200 -999.0000   55.3610    0.0238    0.0195    0.0281    0.6056    1.5729    3.2528 -999.0000    3.0000 
1265.9856  385.8724 -999.0000   56.2480    0.1467    0.1665    0.2090    0.5614    1.5578    3.1029 -999.0000    3.0000 
1266.4856  386.0248 -999.0000   56.2550    0.1468    0.1666    0.2092    0.5615    1.5578    3.1030 -999.0000    3.0000 
1266.9856  386.1772 -999.0000   51.2522 99999.5469 99999.5469 99999.5469    0.5077    1.5435    2.9731 -999.0000    3.0000 
1267.4856  386.3296 -999.0000   47.0903 100000.0000 100000.0000 100000.0000    0.5693    1.5353    2.9094 -999.0000    3.0000 
1267.9856  386.4820 -999.0000   47.0903 100000.0000 100000.0000 100000.0000    0.5693    1.5353    2.9094 -999.0000    3.0000 
1268.4856  386.6344 -999.0000   52.9032 99859.8281 99859.8438 99859.8438    0.4629    1.5312    2.9085 -999.0000    3.0000 
1268.9856  386.7868 -999.0000   52.9019 100000.0000 100000.0000 100000.0000    0.4630    1.5312    2.9085 -999.0000    3.0000 
1269.4856  386.9392 -999.0000   51.1854  260.7983  260.7826  260.7983    0.4790    1.5385    2.9607 -999.0000    3.0000 
1269.9856  387.0916 -999.0000   49.9963 99999.5469 99999.5469 99999.5469    0.4511    1.5377    2.9755 -999.0000    3.0000 
1270.4856  387.2440 -999.0000   49.9963 100000.0000 100000.0000 100000.0000    0.4511    1.5377    2.9755 -999.0000    3.0000 
1270.9856  387.3964 -999.0000   50.2958    0.4704    0.4641    0.4697    0.4664    1.5511    3.0713 -999.0000    3.0000 
1271.4856  387.5488 -999.0000   50.2941    0.0141    0.0077    0.0133    0.4664    1.5511    3.0712 -999.0000    3.0000 
1271.9856  387.7012 -999.0000   52.9618  260.3269  260.3269  260.3426    0.4643    1.5822    3.2375 -999.0000    3.0000 
1272.4856  387.8536 -999.0000   47.3138 99999.5469 99999.5469 99999.5469    0.4834    1.5915    3.2940 -999.0000    3.0000 
1272.9856  388.0060 -999.0000   47.3138 100000.0000 100000.0000 100000.0000    0.4834    1.5915    3.2940 -999.0000    3.0000 
1273.4856  388.1584 -999.0000   44.1091    0.4934    0.4890    0.5033    0.5075    1.6061    3.3766 -999.0000    3.0000 
1273.9856  388.3108 -999.0000   44.1099    0.0359    0.0314    0.0457    0.5076    1.6061    3.3766 -999.0000    3.0000 
1274.4856  388.4632 -999.0000   40.7553    0.0246    0.0179    0.0187    0.5085    1.6027    3.3251 -999.0000    3.0000 
1274.9856  388.6156 -999.0000   40.1609    0.1019    0.1089    0.1281    0.5342    1.5971    3.3400 -999.0000    3.0000 
1275.4856  388.7680 -999.0000   40.1609    0.1019    0.1089    0.1281    0.5342    1.5971    3.3400 -999.0000    3.0000 
1275.9856  388.9204 -999.0000   39.0516 99879.3906 99879.3906 99879.3906    0.5467    1.6122    3.4640 -999.0000    3.0000 
1276.4856  389.0728 -999.0000   39.0435 100000.0000 100000.0000 100000.0000    0.5468    1.6122    3.4639 -999.0000    3.0000 
1276.9856  389.2252 -999.0000   45.7633    0.4891    0.4915    0.5068    0.4065    1.6268    3.5765 -999.0000    3.0000 
1277.4856  389.3776 -999.0000   51.1140    0.0214    0.0188    0.0281    0.4145    1.6278    3.5937 -999.0000    3.0000 
1277.9856  389.5300 -999.0000   51.1140    0.0214    0.0188    0.0281    0.4145    1.6278    3.5937 -999.0000    3.0000 
1278.4856  389.6824 -999.0000   55.7996    0.1313    0.1573    0.2034    0.4226    1.6348    3.5188 -999.0000    3.0000 
1278.9856  389.8348 -999.0000   55.8080    0.1313    0.1573    0.2034    0.4226    1.6348    3.5189 -999.0000    3.0000 
1279.4856  389.9872 -999.0000   44.7788    0.0484    0.0356    0.0464    0.4005    1.6463    3.4377 -999.0000    3.0000 
1279.9856  390.1396 -999.0000   44.0354    0.0983    0.1094    0.1311    0.3957    1.6469    3.4721 -999.0000    3.0000 
1280.4856  390.2920 -999.0000   44.0354    0.0983    0.1094    0.1311    0.3957    1.6469    3.4721 -999.0000    3.0000 
1280.9856  390.4444 -999.0000   50.3007    0.1326    0.1611    0.1996    0.4821    1.6489    3.5992 -999.0000    3.0000 
1281.4856  390.5968 -999.0000   50.2939    0.1327    0.1613    0.1998    0.4820    1.6489    3.5991 -999.0000    3.0000 
1281.9856  390.7492 -999.0000   52.9098  260.3191  260.3113  260.3191    0.6088    1.6675    3.6843 -999.0000    3.0000 
1282.4856  390.9016 -999.0000   55.8831 99999.5391 99999.5391 99999.5391    0.5608    1.6787    3.7539 -999.0000    3.0000 
1282.9856  391.0540 -999.0000   55.8831 100000.0000 100000.0000 100000.0000    0.5608    1.6787    3.7539 -999.0000    3.0000 
1283.4856  391.2064 -999.0000   55.4349    0.4753    0.4678    0.4749    0.5250    1.6991    3.8134 -999.0000    3.0000 
