~VERSION INFORMATION
 VERS.                 2.0:   CWLS LOG ASCII STANDARD - VERSION 2.0
 WRAP.                  NO:   SINGLE LINE PER DEPTH STEP
 CREA.                 19/12/2017 14:19:34
#CREATED USING DSPetro VERSION 5000.10.1.3 BY H191660 ON 19/12/2017 14:19:34
~WELL INFORMATION
#MNEM.UNIT       DATA                          DESCRIPTION MNEMONIC
#---------      ---------------------------   --------------------------
 STRT    .FT        127.9856                  : START DEPTH
 STOP    .FT        8799.9855                 : STOP DEPTH
 STEP    .FT        0.5000                    : STEP VALUE
 NULL    .      -999.0000                     : NULL VALUE
 DATE    .      19/12/2017                    : LAS file Creation Date
 WELL  .      UB_13_14_4200343837  : Well Name
 COM1  .      OIL PRODUCER         : Well Comment
 COMP  .                           : Company
 FLD   .      FULLERTON (WOLFCAMP) : Field
 UWI   .      202                  : Unique Well Identifier (UWI)
 LOC   .                           : Location
 PDAT  .      3261                 : Permanent Datum
 EPDAT .      Ground Level         : Reference Elevation
 LGMEA .      42                   : Log Measured from
 DRMEA .      42                   : Drill Measured From
 APDAT .      KB                   : Elevation Above Permanent Datum
 KB    .      3303                 : KB Elevation
 DF    .      3302                 : DF Elevation
 GL    .      3261                 : GL Elevation
 RWS   .      0                    : Def_Rw
 WST   .      0                    : Def_Rwt
 DATS  .      02/03/2012           : Spud Date
 MDEC  .      0                    : Magnetic Declination
 SRVC  .      SCH                  : Contractor
~CURVE INFORMATION
#MNEM              UNIT       API CODE   Curve Type Comments
#----------  --------------- ----------  ---------- -----------
 DEPTH      .FT                        : Depth       
 DEPTH_(m)  .                          :             
 BitSize    .in                        : bitSize     
 GR_API     .API                       : GammaRay    Gamma Ray (API) - Measures the intensity of natural gamma-ray radiation emitted from formations containing radioactive elements, such as K, Th and U
 LLD_OHMM   .ohmm                      :             Laterlog Deep Resistivity - Measurement made several feet into the formation; generally considered a measurement of the undisturbed formation
 LLM_OHMM   .ohm.m                     :             Laterlog Medium Resistivity - Measurement made approximately two to three feet into the formation - units of ohmm
 LLS_OHMM   .ohmm                      :             Laterlog Shallow Resistivity - one to two feet into the formation; generally considered to measure the formation
 NPHI_v/v   .ratio                     :             Neutron Porosity - Measured with an neutron logging device calibrated to a given matrix (limestone, sandstone and dolomite)
 RHOB_G_CC  .g/cc                      :             Formation Density - Measures the density of formation, including any void space or other materials contained in the subject volume
 PEF_B_E    .b/e-                      : PEF         Photoelectric Factor - A log of photoelectric absorption properties. Often expressed in an approximation unit barns/electron (b/e-)
 LITH       .                          : LITH        Lithology Curve
 LITH_v2    .                          : LITH        Lithology Curve
~A  DEPTH DEPTH_(m)  BitSize    GR_API   LLD_OHMM  LLM_OHMM  LLS_OHMM  NPHI_v/v RHOB_G_C   PEF_B_E     LITH    LITH_v2  
# ...
7531.9856 2295.7493    8.7500   28.6222   25.5913   11.1823    6.1516    0.1277    2.7135    3.0383   12.0000   12.0000 
7532.4856 2295.9016    8.7500   28.7671   39.7116   17.1924    8.5994    0.0887    2.7419    3.0185   12.0000   12.0000 
7532.9856 2296.0540    8.7500   29.1653   43.1527   18.6223    9.2027    0.0739    2.7159    2.9778   12.0000   12.0000 
7533.4856 2296.2063    8.7500   27.3026   27.0096   11.9186    7.5757    0.0958    2.6838    2.9523   12.0000   12.0000 
7533.9856 2296.3589    8.7500   25.2802   25.8891   11.4385    7.3001    0.1450    2.6355    2.9123   12.0000   12.0000 
7534.4856 2296.5112    8.7500   24.4285   21.6962    9.4313    7.5653    0.2005    2.5996    2.8835   12.0000   12.0000 
7534.9856 2296.6636    8.7500   22.7255   30.4227   13.2686   10.7534    0.2152    2.5839    2.8754   12.0000   12.0000 
7535.4856 2296.8159    8.7500   23.9101   28.2501   12.8502   10.4325    0.2139    2.6258    2.9178   12.0000   12.0000 
7535.9856 2296.9685    8.7500   25.3471   27.2871   15.3810   10.2374    0.1775    2.7058    2.9527   12.0000   12.0000 
7536.4856 2297.1208    8.7500   27.8485   32.3707   19.0376   11.8186    0.1679    2.7598    2.9462   12.0000   12.0000 
7536.9856 2297.2732    8.7500   27.8879   35.3555   22.4589   11.6912    0.1467    2.7596    2.9352   12.0000   12.0000 
7537.4856 2297.4255    8.7500   28.2605   14.4041   10.7306    5.7024    0.1435    2.7374    2.9334   12.0000   12.0000 
7537.9856 2297.5779    8.7500   27.4621   13.3485   10.3581    5.2891    0.1347    2.6732    2.9956   12.0000   12.0000 
7538.4856 2297.7305    8.7500   27.7283    9.2637    7.5693    3.8273    0.1423    2.5952    3.0793   12.0000   12.0000 
7538.9856 2297.8828    8.7500   26.9300    5.1759    4.3434    2.5076    0.2518    2.5042    3.1984   12.0000   12.0000 
7539.4856 2298.0352    8.7500   28.5799    1.5342    1.3195    1.1732    0.3744    2.4704    3.3231   12.0000   12.0000 
7539.9856 2298.1875    8.7500   27.5687    2.1168    1.8118    1.6552    0.4419    2.4819    3.3940   12.0000   12.0000 
7540.4856 2298.3401    8.7500   27.7816    3.7972    3.2873    2.4301    0.3804    2.5290    3.3599   12.0000   12.0000 
7540.9856 2298.4924    8.7500   24.9609    4.9909    4.4215    2.6462    0.2927    2.5934    3.2261   12.0000   12.0000 
7541.4856 2298.6448    8.7500   24.6414    4.5652    4.0755    2.2810    0.2085    2.6651    3.0650   12.0000   12.0000 
7541.9856 2298.7971    8.7500   24.0028   37.4667   30.5385    8.0117    0.1159    2.7401    2.9539   12.0000   12.0000 
7542.4856 2298.9497    8.7500   24.6414   52.5290   42.1649   12.2054    0.0658    2.7737    2.9107   12.0000   12.0000 
7542.9856 2299.1021    8.7500   24.6415   51.1747   40.5048   12.2738    0.0827    2.7533    2.8841   12.0000   12.0000 
7543.4856 2299.2544    8.7500   24.4817   39.6354   28.6062   10.3414    0.1167    2.7163    2.9237   12.0000   12.0000 
7543.9856 2299.4067    8.7500   25.6527   44.5024   27.3139    8.9827    0.1084    2.7065    2.9720   12.0000   12.0000 
7544.4856 2299.5591    8.7500   27.0364   45.2464   26.7158    8.3088    0.0903    2.7249    3.0295   12.0000   12.0000 
7544.9856 2299.7117    8.7500   28.2073   40.1155   23.9094    7.8233    0.0824    2.7421    3.0182   12.0000   12.0000 
7545.4856 2299.8640    8.7500   30.3892   41.4618   23.9812    8.5143    0.0842    2.7507    2.9953   12.0000   12.0000 
7545.9856 2300.0164    8.7500   30.8033   54.6154   29.4544    9.1666    0.0857    2.7488    2.9841   12.0000   12.0000 
7546.4856 2300.1687    8.7500   31.2290   54.5822   29.4591    9.2298    0.0859    2.7458    2.9963   12.0000   12.0000 
7546.9856 2300.3213    8.7500   31.0162   88.5377   46.4794   12.3850    0.0913    2.7498    2.9901   12.0000   12.0000 
7547.4856 2300.4736    8.7500   30.6554   78.2039   43.4182   13.9952    0.0920    2.7529    2.9858   12.0000   12.0000 
7547.9856 2300.6260    8.7500   30.2297   75.4528   42.2154   14.4053    0.0849    2.7596    2.9628   12.0000   12.0000 
7548.4856 2300.7783    8.7500   30.6021  104.0625   57.6758   16.5316    0.0707    2.7657    2.9794   12.0000   12.0000 
7548.9856 2300.9309    8.7500   33.0502  105.1002   61.1188   17.3306    0.0629    2.7883    3.0151   12.0000   12.0000 
7549.4856 2301.0833    8.7500   37.5208   95.0455   57.1905   16.7976    0.0669    2.7933    3.0492   12.0000   12.0000 
7549.9856 2301.2356    8.7500   38.2661   35.1548   24.5322   18.1578    0.0810    2.7866    3.0732   12.0000   12.0000 
7550.4856 2301.3879    8.7500   40.7674   12.1394    8.9372   11.5012    0.0871    2.7671    3.0791   12.0000   12.0000 
7550.9856 2301.5403    8.7500   42.2044    7.6981    6.0911    8.5672    0.0862    2.7727    3.0829   12.0000   12.0000 
7551.4856 2301.6929    8.7500   46.6751    9.0946    8.4687   11.0236    0.0717    2.7788    3.0814   12.0000   12.0000 
7551.9856 2301.8452    8.7500   47.4734   11.2191   10.5633   14.0713    0.0621    2.7739    3.0714   12.0000   12.0000 
7552.4856 2301.9976    8.7500   47.7928   17.2321   16.7099   20.4953    0.0618    2.7617    3.0601   12.0000   12.0000 
7552.9856 2302.1499    8.7500   46.5154   21.0139   21.1720   26.0498    0.0626    2.7614    3.0271   12.0000   12.0000 
7553.4856 2302.3025    8.7500   46.5153   20.7941   21.8426   30.5698    0.0616    2.7811    2.9552   12.0000   12.0000 
7553.9856 2302.4548    8.7500   43.0027   30.8697   33.8049   43.8844    0.0669    2.7903    2.9238   12.0000   12.0000 
7554.4856 2302.6072    8.7500   40.0755   20.8064   22.5051   23.8262    0.0749    2.7935    2.8932   12.0000   12.0000 
7554.9856 2302.7595    8.7500   35.7116   17.6034   18.8642   17.4984    0.0877    2.7845    2.9036   12.0000   12.0000 
7555.4856 2302.9121    8.7500   36.8291   16.6291   17.2698   15.5421    0.0964    2.7761    2.8907   12.0000   12.0000 
7555.9856 2303.0645    8.7500   37.8443   15.3373   15.6959   14.0568    0.0990    2.7650    2.9126   12.0000   12.0000 
7556.4856 2303.2168    8.7500   37.6313   15.3564   15.5999   12.2720    0.1019    2.7527    2.9651   12.0000   12.0000 
7556.9856 2303.3691    8.7500   38.2700    2.3555    2.4941    2.8445    0.0986    2.7468    3.0413   12.0000   12.0000 
7557.4856 2303.5215    8.7500   37.3081    2.9510    3.1163    3.4751    0.0942    2.7562    3.0788   12.0000   12.0000 
7557.9856 2303.6741    8.7500   37.6806   16.8510   17.3779   13.5918    0.0808    2.7770    3.0546   12.0000   12.0000 
7558.4856 2303.8264    8.7500   36.2437   15.2970   15.8667   15.0726    0.0643    2.7925    3.0235   12.0000   12.0000 
7558.9856 2303.9788    8.7500   34.5939   15.9873   16.5302   14.9073    0.0751    2.7899    3.0279   12.0000   12.0000 
7559.4856 2304.1311    8.7500   34.2214   15.7290   16.0461   15.0211    0.0813    2.7733    3.0416   12.0000   12.0000 
7559.9856 2304.2837    8.7500   32.9972   24.5983   24.4955   19.5505    0.0857    2.7418    3.0135   12.0000   12.0000 
7560.4856 2304.4360    8.7500   34.1148   22.7867   22.6461   18.2932    0.0827    2.7309    2.9864   12.0000   12.0000 
7560.9856 2304.5884    8.7500   34.4341   11.0745   10.7397   11.1189    0.1097    2.7295    2.9962   12.0000   12.0000 
7561.4856 2304.7407    8.7500   34.9664   11.3063   10.7620   11.2343    0.1242    2.7703    3.0479   12.0000   12.0000 
7561.9856 2304.8933    8.7500   33.1037   34.8087   31.1738   26.2273    0.1180    2.7988    3.0830   12.0000   12.0000 
7562.4856 2305.0457    8.7500   32.6778   51.9506   44.5952   31.3207    0.0851    2.8220    3.0917   12.0000   12.0000 
7562.9856 2305.1980    8.7500   31.4005   23.8275   20.8900   17.8987    0.0741    2.8087    3.0335   12.0000   12.0000 
7563.4856 2305.3503    8.7500   32.6778   20.7131   18.2119   13.9440    0.0753    2.7920    2.9669   12.0000   12.0000 
7563.9856 2305.5027    8.7500   33.0504   23.1827   20.1327   13.4023    0.0817    2.7739    2.9238   12.0000   12.0000 
7564.4856 2305.6553    8.7500   32.7745   34.6535   29.3213   15.1204    0.0808    2.7706    2.9392   12.0000   12.0000 
7564.9856 2305.8076    8.7500   32.0295   30.7394   26.0711   13.0806    0.0889    2.7592    2.9783   12.0000   12.0000 
