~VERSION INFORMATION
 VERS.                 2.0:   CWLS LOG ASCII STANDARD - VERSION 2.0
 WRAP.                  NO:   SINGLE LINE PER DEPTH STEP
 CREA.                 19/12/2017 14:19:34
#CREATED USING DSPetro VERSION 5000.10.1.3 BY H191660 ON 19/12/2017 14:19:34
~WELL INFORMATION
#MNEM.UNIT       DATA                          DESCRIPTION MNEMONIC
#---------      ---------------------------   --------------------------
 STRT    .FT        127.9856                  : START DEPTH
 STOP    .FT        8799.9855                 : STOP DEPTH
 STEP    .FT        0.5000                    : STEP VALUE
 NULL    .      -999.0000                     : NULL VALUE
 DATE    .      19/12/2017                    : LAS file Creation Date
 WELL  .      UB_13_14_4200343837  : Well Name
 COM1  .      OIL PRODUCER         : Well Comment
 COMP  .                           : Company
 FLD   .      FULLERTON (WOLFCAMP) : Field
 UWI   .      202                  : Unique Well Identifier (UWI)
 LOC   .                           : Location
 PDAT  .      3261                 : Permanent Datum
 EPDAT .      Ground Level         : Reference Elevation
 LGMEA .      42                   : Log Measured from
 DRMEA .      42                   : Drill Measured From
 APDAT .      KB                   : Elevation Above Permanent Datum
 KB    .      3303                 : KB Elevation
 DF    .      3302                 : DF Elevation
 GL    .      3261                 : GL Elevation
 RWS   .      0                    : Def_Rw
 WST   .      0                    : Def_Rwt
 DATS  .      02/03/2012           : Spud Date
 MDEC  .      0                    : Magnetic Declination
 SRVC  .      SCH                  : Contractor
~CURVE INFORMATION
#MNEM              UNIT       API CODE   Curve Type Comments
#----------  --------------- ----------  ---------- -----------
 DEPTH      .FT                        : Depth       
 DEPTH_(m)  .                          :             
 BitSize    .in                        : bitSize     
 GR_API     .API                       : GammaRay    Gamma Ray (API) - Measures the intensity of natural gamma-ray radiation emitted from formations containing radioactive elements, such as K, Th and U
 LLD_OHMM   .ohmm                      :             Laterlog Deep Resistivity - Measurement made several feet into the formation; generally considered a measurement of the undisturbed formation
 LLM_OHMM   .ohm.m                     :             Laterlog Medium Resistivity - Measurement made approximately two to three feet into the formation - units of ohmm
 LLS_OHMM   .ohmm                      :             Laterlog Shallow Resistivity - one to two feet into the formation; generally considered to measure the formation
 NPHI_v/v   .ratio                     :             Neutron Porosity - Measured with an neutron logging device calibrated to a given matrix (limestone, sandstone and dolomite)
 RHOB_G_CC  .g/cc                      :             Formation Density - Measures the density of formation, including any void space or other materials contained in the subject volume
 PEF_B_E    .b/e-                      : PEF         Photoelectric Factor - A log of photoelectric absorption properties. Often expressed in an approximation unit barns/electron (b/e-)
 LITH       .                          : LITH        Lithology Curve
 LITH_v2    .                          : LITH        Lithology Curve
~A  DEPTH DEPTH_(m)  BitSize    GR_API   LLD_OHMM  LLM_OHMM  LLS_OHMM  NPHI_v/v RHOB_G_C   PEF_B_E     LITH    LITH_v2  
# ...
5823.4856 1774.9984    8.7500   47.7732   14.1154   12.2115    8.3149    0.1877    2.6796    3.1662   12.0000   12.0000 
5823.9856 1775.1508    8.7500   43.1922   14.7570   12.5316    8.2006    0.1870    2.6738    3.1429   12.0000   12.0000 
5824.4856 1775.3032    8.7500   39.8254    7.7758    6.1946    5.2024    0.2191    2.6432    3.0922   12.0000   12.0000 
5824.9856 1775.4556    8.7500   37.3772    6.0266    4.7688    4.2536    0.2517    2.6025    3.0559   12.0000   12.0000 
5825.4856 1775.6080    8.7500   35.6661    6.4472    4.9078    4.8353    0.2529    2.5933    3.0780   12.0000   12.0000 
5825.9856 1775.7604    8.7500   34.6175    7.1729    5.4260    5.3924    0.2187    2.6241    3.1261   12.0000   12.0000 
5826.4856 1775.9128    8.7500   38.1380   12.5132    9.2530    7.5622    0.1898    2.6583    3.2069   12.0000   12.0000 
5826.9856 1776.0652    8.7500   41.1185   12.7403    9.4856    8.3195    0.1806    2.6817    3.2773   12.0000   12.0000 
5827.4856 1776.2177    8.7500   44.2150   13.9433   10.9382    9.3788    0.1732    2.6849    3.3261   12.0000   12.0000 
5827.9856 1776.3700    8.7500   47.8025   18.6492   14.7848   12.3502    0.1736    2.6903    3.3009   12.0000   12.0000 
5828.4856 1776.5223    8.7500   51.6108   11.9874    9.8265    8.2023    0.1775    2.6823    3.2195   12.0000   12.0000 
5828.9856 1776.6748    8.7500   50.1739   13.4905   11.0290    8.4799    0.1925    2.6617    3.1290   12.0000   12.0000 
5829.4856 1776.8271    8.7500   44.4340    7.7542    6.4043    4.9168    0.2025    2.6382    3.0496   12.0000   12.0000 
5829.9856 1776.9796    8.7500   36.9832    4.7659    4.0086    3.2198    0.2243    2.6050    3.0401   12.0000   12.0000 
5830.4856 1777.1320    8.7500   34.8819    4.2502    3.6286    2.9389    0.2452    2.5787    3.0420   12.0000   12.0000 
5830.9856 1777.2844    8.7500   33.1156    4.6705    4.0438    3.1237    0.2538    2.5616    3.0462   12.0000   12.0000 
5831.4856 1777.4368    8.7500   31.9566    5.2513    4.6620    3.4035    0.2538    2.5708    3.0013   12.0000   12.0000 
5831.9856 1777.5892    8.7500   30.8645    6.3426    5.7896    3.9238    0.2506    2.5893    2.9649   12.0000   12.0000 
5832.4856 1777.7416    8.7500   31.0300    8.5289    7.8706    4.6730    0.2419    2.6123    2.9593   12.0000   12.0000 
5832.9856 1777.8940    8.7500   35.2245    8.9724    8.4484    4.8993    0.2223    2.6267    3.0181   12.0000   12.0000 
5833.4856 1778.0464    8.7500   38.6839   11.9553   11.1497    6.0614    0.2175    2.6369    3.1060   12.0000   12.0000 
5833.9856 1778.1989    8.7500   39.9535   10.3651    9.6483    6.8124    0.2080    2.6398    3.2139   12.0000   12.0000 
5834.4856 1778.3512    8.7500   40.1190    8.6314    7.8687    6.2097    0.2042    2.6524    3.2690   12.0000   12.0000 
5834.9856 1778.5035    8.7500   40.0146   14.1936   12.0487    9.0991    0.1714    2.6699    3.2906   12.0000   12.0000 
5835.4856 1778.6560    8.7500   40.6217   20.6681   17.2356   12.1724    0.1549    2.6904    3.2738   12.0000   12.0000 
5835.9856 1778.8083    8.7500   40.9233   19.1814   16.8262   13.5419    0.1441    2.6962    3.2754   12.0000   12.0000 
5836.4856 1778.9608    8.7500   45.0074   18.8127   16.5358   14.0133    0.1548    2.6849    3.2837   12.0000   12.0000 
5836.9856 1779.1132    8.7500   52.2927   14.7687   13.2463   13.1250    0.1684    2.6724    3.2448   12.0000   12.0000 
5837.4856 1779.2656    8.7500   67.1414   13.2464   11.8633   12.0161    0.1695    2.6630    3.2135   12.0000   12.0000 
5837.9856 1779.4180    8.7500   77.6833   29.1147   24.9852   19.6442    0.1551    2.6811    3.2287   12.0000   22.0000 
5838.4856 1779.5704    8.7500   74.9792   36.0273   30.4462   26.3763    0.1199    2.7308    3.3609   12.0000   22.0000 
5838.9856 1779.7228    8.7500   57.5663   64.1106   57.4275   38.2523    0.0788    2.7937    3.6322   12.0000   22.0000 
5839.4856 1779.8752    8.7500   37.5098   63.8736   57.6307   38.9200    0.0311    2.8606    3.9068    1.0003   22.0000 
5839.9856 1780.0276    8.7500   28.5683  722.0347  431.8690   50.9399    0.0122    2.9067    4.1602    1.0000    1.0000 
5840.4856 1780.1801    8.7500   29.2304  747.2578  453.6446   51.5953    0.0192    2.9210    4.1800    1.0000    1.0000 
5840.9856 1780.3324    8.7500   32.8946   86.6152   81.3482   43.4627    0.0386    2.8883    4.0543    1.0000    1.0000 
5841.4856 1780.4847    8.7500   35.1319   94.2766   88.1302   43.6895    0.0537    2.8342    3.8091   36.9992   12.0000 
5841.9856 1780.6372    8.7500   32.3172  230.2943  198.1851   47.2938    0.0376    2.8090    3.6175   12.0006   12.0000 
5842.4856 1780.7896    8.7500   30.7166  237.8755  208.8619   49.5466    0.0226    2.8171    3.5325   12.0000   12.0000 
5842.9856 1780.9420    8.7500   32.6326  347.3417  286.8856   49.2512    0.0162    2.8392    3.5273   12.0000   12.0000 
5843.4856 1781.0944    8.7500   34.6746  665.1674  424.9643   52.7887    0.0139    2.8541    3.5347   12.0000   12.0000 
5843.9856 1781.2468    8.7500   40.8009  665.9959  430.3841   54.5650    0.0174    2.8493    3.5051   12.0000   12.0000 
5844.4856 1781.3992    8.7500   48.2518  351.9798  251.1174   50.8252    0.0391    2.8344    3.3937   12.0000   12.0000 
5844.9856 1781.5516    8.7500   57.8002   51.1828   45.4471   34.2710    0.0680    2.7951    3.2621   12.0000   12.0000 
5845.4856 1781.7040    8.7500   62.7124   42.5213   38.9576   28.6738    0.1045    2.7597    3.1256   12.0000   12.0000 
5845.9856 1781.8564    8.7500   64.9063   39.3082   38.1676   26.9415    0.1281    2.7307    3.0358   12.0000   12.0000 
5846.4856 1782.0088    8.7500   72.5779   26.4325   27.0545   20.3390    0.1425    2.7201    2.9896   12.0000   12.0000 
5846.9856 1782.1613    8.7500   85.6604   24.3058   26.0109   18.0476    0.1377    2.7237    2.9936   12.0000   12.0000 
5847.4856 1782.3136    8.7500   94.6017   37.3939   40.1404   24.1899    0.1046    2.7259    3.0077   12.0000   12.0000 
5847.9856 1782.4659    8.7500  100.5470  131.9761  128.9884   41.9768    0.0797    2.7208    3.0171   12.0000   12.0000 
5848.4856 1782.6184    8.7500  106.5610   60.2268   61.7762   34.6215    0.0798    2.7010    2.9560   12.0000   12.0000 
5848.9856 1782.7708    8.7500  114.5638   30.6307   31.7609   22.8599    0.1045    2.6762    2.8852   12.0000   12.0000 
5849.4856 1782.9232    8.7500  116.5114   28.3807   28.7295   21.3060    0.1451    2.6591    2.8533   12.0000   12.0000 
5849.9856 1783.0756    8.7500  107.3044   29.0964   28.8403   21.6390    0.1562    2.6717    2.8991   12.0000   12.0000 
5850.4856 1783.2280    8.7500   83.1304   41.0684   39.1904   27.5938    0.1266    2.7167    3.0221   12.0000   12.0000 
5850.9856 1783.3804    8.7500   60.7774   93.2301   82.0995   41.9832    0.0728    2.7674    3.2051   12.0000   12.0000 
5851.4856 1783.5328    8.7500   46.6931  250.0270  198.1823   51.3383    0.0301    2.8017    3.3551   12.0000   12.0000 
5851.9856 1783.6852    8.7500   49.2276  184.1509  150.8704   47.7930    0.0238    2.8158    3.4291   12.0000   12.0000 
5852.4856 1783.8376    8.7500   53.9741  340.5911  252.7422   53.5962    0.0268    2.8283    3.4082   12.0000   12.0000 
5852.9856 1783.9900    8.7500   58.3895  283.4811  217.5252   51.0960    0.0390    2.8235    3.3811   12.0000   12.0000 
5853.4856 1784.1425    8.7500   63.2859   56.1897   48.9706   36.5445    0.0677    2.7916    3.3598   12.0000   12.0000 
5853.9856 1784.2948    8.7500   63.2308   36.9636   30.8957   24.4849    0.0818    2.7611    3.3125   12.0000   12.0000 
5854.4856 1784.4471    8.7500   59.8642   58.9423   47.7562   31.8589    0.0699    2.7529    3.3343   12.0000   12.0000 
5854.9856 1784.5996    8.7500   58.7466  287.9489  212.9916   41.1586    0.0399    2.7709    3.4545   12.0000   12.0000 
5855.4856 1784.7520    8.7500   59.5744  153.4371  133.4329   38.1629    0.0251    2.7795    3.6956   36.9994   22.0000 
5855.9856 1784.9044    8.7500   55.6322   80.1632   73.6230   35.7031    0.0199    2.7855    3.9328   37.0000   22.0000 
5856.4856 1785.0568    8.7500   43.9650  148.8045  129.4591   37.1361    0.0127    2.8164    4.1133   37.0000   22.0000 
