~VERSION INFORMATION
 VERS.                 2.0:   CWLS LOG ASCII STANDARD - VERSION 2.0
 WRAP.                  NO:   SINGLE LINE PER DEPTH STEP
 CREA.                 19/12/2017 14:19:34
#CREATED USING DSPetro VERSION 5000.10.1.3 BY H191660 ON 19/12/2017 14:19:34
~WELL INFORMATION
#MNEM.UNIT       DATA                          DESCRIPTION MNEMONIC
#---------      ---------------------------   --------------------------
 STRT    .FT        127.9856                  : START DEPTH
 STOP    .FT        8799.9855                 : STOP DEPTH
 STEP    .FT        0.5000                    : STEP VALUE
 NULL    .      -999.0000                     : NULL VALUE
 DATE    .      19/12/2017                    : LAS file Creation Date
 WELL  .      UB_13_14_4200343837  : Well Name
 COM1  .      OIL PRODUCER         : Well Comment
 COMP  .                           : Company
 FLD   .      FULLERTON (WOLFCAMP) : Field
 UWI   .      202                  : Unique Well Identifier (UWI)
 LOC   .                           : Location
 PDAT  .      3261                 : Permanent Datum
 EPDAT .      Ground Level         : Reference Elevation
 LGMEA .      42                   : Log Measured from
 DRMEA .      42                   : Drill Measured From
 APDAT .      KB                   : Elevation Above Permanent Datum
 KB    .      3303                 : KB Elevation
 DF    .      3302                 : DF Elevation
 GL    .      3261                 : GL Elevation
 RWS   .      0                    : Def_Rw
 WST   .      0                    : Def_Rwt
 DATS  .      02/03/2012           : Spud Date
 MDEC  .      0                    : Magnetic Declination
 SRVC  .      SCH                  : Contractor
~CURVE INFORMATION
#MNEM              UNIT       API CODE   Curve Type Comments
#----------  --------------- ----------  ---------- -----------
 DEPTH      .FT                        : Depth       
 DEPTH_(m)  .                          :             
 BitSize    .in                        : bitSize     
 GR_API     .API                       : GammaRay    Gamma Ray (API) - Measures the intensity of natural gamma-ray radiation emitted from formations containing radioactive elements, such as K, Th and U
 LLD_OHMM   .ohmm                      :             Laterlog Deep Resistivity - Measurement made several feet into the formation; generally considered a measurement of the undisturbed formation
 LLM_OHMM   .ohm.m                     :             Laterlog Medium Resistivity - Measurement made approximately two to three feet into the formation - units of ohmm
 LLS_OHMM   .ohmm                      :             Laterlog Shallow Resistivity - one to two feet into the formation; generally considered to measure the formation
 NPHI_v/v   .ratio                     :             Neutron Porosity - Measured with an neutron logging device calibrated to a given matrix (limestone, sandstone and dolomite)
 RHOB_G_CC  .g/cc                      :             Formation Density - Measures the density of formation, including any void space or other materials contained in the subject volume
 PEF_B_E    .b/e-                      : PEF         Photoelectric Factor - A log of photoelectric absorption properties. Often expressed in an approximation unit barns/electron (b/e-)
 LITH       .                          : LITH        Lithology Curve
 LITH_v2    .                          : LITH        Lithology Curve
~A  DEPTH DEPTH_(m)  BitSize    GR_API   LLD_OHMM  LLM_OHMM  LLS_OHMM  NPHI_v/v RHOB_G_C   PEF_B_E     LITH    LITH_v2  
# ...
2377.9856  724.8100    8.7500  136.8656  571.2596   45.0647    3.6265    0.1505    2.5269    3.9912   22.0000   37.0000 
2378.4856  724.9624    8.7500   83.4377   97.7281   16.1860    2.1294    0.2399    1.8718    3.1281   16.0001   37.0000 
2378.9856  725.1148    8.7500   83.4770   97.5273   16.1778    2.1294    0.2397    1.8720    3.1283   16.0000   15.0000 
2379.4856  725.2672    8.7500   32.8576  275.5252   23.8168    2.0298    0.4340    1.6986    2.9805   16.0000   15.0000 
2379.9856  725.4196    8.7500   27.3797  235.3393   20.7804    1.7977    0.3565    1.8051    3.1849   16.0000   15.0000 
2380.4856  725.5720    8.7500   27.3796  235.3389   20.7804    1.7977    0.3565    1.8051    3.1849   16.0000   15.0000 
2380.9856  725.7244    8.7500   24.9006  833.3560   23.7756    1.3300    0.2509    1.9259    3.6652   16.0000   15.0000 
2381.4856  725.8768    8.7500   24.9020  832.8258   23.7767    1.3300    0.2509    1.9259    3.6650   16.0000   15.0000 
2381.9856  726.0292    8.7500   22.8628 1914.2882   24.8303    1.2196    0.3113    1.9656    4.0047   16.0000   15.0000 
2382.4856  726.1816    8.7500   20.9352 2195.9265   28.5791    1.1911    0.2989    1.9801    4.1584   16.0000   15.0000 
2382.9856  726.3340    8.7500   20.9352 2195.9290   28.5791    1.1911    0.2989    1.9801    4.1584   16.0000   15.0000 
2383.4856  726.4864    8.7500   21.2579 2947.4912   27.4377    1.1444    0.3036    2.0100    4.2938   16.0000   15.0000 
2383.9856  726.6388    8.7500   21.2571 2936.0630   27.4365    1.1444    0.3036    2.0100    4.2938   16.0000   15.0000 
2384.4856  726.7912    8.7500   22.5788 99999.1250   30.5289    1.2303    0.3132    2.0067    4.1629   16.0000   15.0000 
2384.9856  726.9436    8.7500   24.0536 100000.0000   26.9764    1.4061    0.3305    1.9219    3.9208   16.0000   15.0000 
2385.4856  727.0960    8.7500   24.0536 100000.0000   26.9764    1.4061    0.3305    1.9219    3.9208   16.0000   15.0000 
2385.9856  727.2484    8.7500   49.1830 99883.4766   33.0381    1.4945    0.4362    1.7941    3.4816   16.0000   15.0000 
2386.4856  727.4008    8.7500   49.1395 100000.0000   33.0312    1.4942    0.4363    1.7938    3.4814   16.0000   15.0000 
2386.9856  727.5532    8.7500  122.0315  658.1241   43.8594    2.7079    0.2698    2.4421    4.0386    1.0001   37.0000 
2387.4856  727.7056    8.7500  135.9821  180.4089   38.2201    2.7699    0.1566    2.6745    4.3170    1.0000   37.0000 
2387.9856  727.8580    8.7500  135.9822  180.4046   38.2200    2.7699    0.1566    2.6745    4.3170    1.0000   37.0000 
2388.4856  728.0104    8.7500   79.0536   53.9443   22.6415    2.6876    0.0441    2.4986    3.9128   21.9998   37.0000 
2388.9856  728.1628    8.7500   79.1019   54.0082   22.6595    2.6886    0.0441    2.4991    3.9134   22.0000   15.0000 
2389.4856  728.3152    8.7500   32.1851   18.6843   12.9055    1.7222    0.0611    1.9282    3.2229   16.0001   15.0000 
2389.9856  728.4676    8.7500   25.2538   51.3806   17.6159    1.7019    0.1111    1.7763    3.2041   16.0000   15.0000 
2390.4856  728.6200    8.7500   25.2537   51.3809   17.6159    1.7019    0.1111    1.7763    3.2041   16.0000   15.0000 
2390.9856  728.7724    8.7500   22.4797  192.5857   24.8934    1.4827    0.2019    1.8806    3.6404   16.0000   15.0000 
2391.4856  728.9248    8.7500   22.4796  192.4454   24.8944    1.4829    0.2019    1.8805    3.6401   16.0000   15.0000 
2391.9856  729.0772    8.7500   22.5470  532.6381   24.6237    1.2638    0.2002    1.9973    3.9630   16.0000   15.0000 
2392.4856  729.2296    8.7500   22.1124 1010.9327   25.1392    1.2808    0.1934    1.9806    3.9226   16.0000   15.0000 
2392.9856  729.3820    8.7500   22.1124 1010.9370   25.1392    1.2808    0.1934    1.9806    3.9226   16.0000   15.0000 
2393.4856  729.5344    8.7500   21.3822 1075.7594   24.4008    1.2930    0.2187    1.8644    3.6234   16.0000   15.0000 
2393.9856  729.6868    8.7500   21.3816 1074.1770   24.4024    1.2931    0.2187    1.8644    3.6235   16.0000   15.0000 
2394.4856  729.8392    8.7500   22.7990 55464.3477   22.8835    1.2970    0.1865    1.8489    3.5521   16.0000   15.0000 
2394.9856  729.9916    8.7500   23.1505 1225.5118   20.7009    1.3061    0.1519    1.8518    3.5654   16.0000   15.0000 
2395.4856  730.1440    8.7500   23.1505 1225.0210   20.7009    1.3061    0.1519    1.8518    3.5654   16.0000   15.0000 
2395.9856  730.2964    8.7500   23.4607  881.4097   22.3436    1.3567    0.1652    1.8337    3.5061   16.0000   15.0000 
2396.4856  730.4488    8.7500   23.4597  882.0685   22.3297    1.3566    0.1652    1.8337    3.5060   16.0000   15.0000 
2396.9856  730.6012    8.7500   23.4405  169.1013   28.7498    1.4346    0.1031    1.9167    3.7082   16.0000   15.0000 
2397.4856  730.7536    8.7500   23.1890  254.1651   31.5056    1.4529    0.0646    1.9382    3.9016   16.0000   15.0000 
2397.9856  730.9060    8.7500   23.1890  254.1659   31.5056    1.4529    0.0646    1.9382    3.9016   16.0000   15.0000 
2398.4856  731.0584    8.7500   22.5029  349.7914   33.2435    1.5940    0.1017    1.9177    3.9236   16.0000   15.0000 
2398.9856  731.2108    8.7500   22.5028  350.0809   33.2496    1.5940    0.1017    1.9177    3.9237   16.0000   15.0000 
2399.4856  731.3632    8.7500   22.8308   71.4143   21.7065    1.6218    0.1505    1.9137    3.7676   16.0000   15.0000 
2399.9856  731.5156    8.7500   24.2255   68.4985   19.8193    1.5182    0.1836    1.9000    3.7544   16.0000   15.0000 
2400.4856  731.6680    8.7500   24.2255   68.4985   19.8193    1.5182    0.1836    1.9000    3.7544   16.0000   15.0000 
2400.9856  731.8204    8.7500   26.1609   17.8587   20.0419    1.9900    0.1386    1.9415    3.8236   16.0000   15.0000 
2401.4856  731.9728    8.7500   26.1605   17.8343   20.0385    1.9900    0.1387    1.9415    3.8235   16.0000   15.0000 
2401.9856  732.1252    8.7500   26.1419   40.6192   20.2157    1.8979    0.0821    1.9951    3.9686   16.0000   15.0000 
2402.4856  732.2776    8.7500   25.4316   46.2605   22.2324    2.0057    0.0915    1.9797    3.9582   16.0000   15.0000 
2402.9856  732.4300    8.7500   25.4316   46.2605   22.2324    2.0057    0.0915    1.9797    3.9582   16.0000   15.0000 
2403.4856  732.5824    8.7500   24.8763   22.7564   19.3010    2.0687    0.0856    1.9546    3.9910   16.0000   15.0000 
2403.9856  732.7348    8.7500   24.8767   22.7481   19.3020    2.0689    0.0856    1.9546    3.9909   16.0000   15.0000 
2404.4856  732.8872    8.7500   23.8317   41.6739   17.5977    1.8058    0.0315    1.9707    4.0295   16.0000   16.0000 
2404.9856  733.0396    8.7500   23.8733   66.2947   20.4205    1.9119    0.0130    1.9449    3.9393   16.0000   16.0000 
2405.4856  733.1920    8.7500   23.8733   66.2949   20.4205    1.9119    0.0130    1.9449    3.9393   16.0000   16.0000 
2405.9856  733.3444    8.7500   23.8629  165.5972   17.7179    1.5494    0.0366    1.9017    3.7120   16.0000   16.0000 
2406.4856  733.4968    8.7500   23.8645  165.5569   17.7140    1.5494    0.0366    1.9017    3.7120   16.0000   16.0000 
2406.9856  733.6492    8.7500   21.4958  213.2523   18.1097    1.4656    0.0970    1.9529    3.8378   16.0000   16.0000 
2407.4856  733.8016    8.7500   21.1694  356.2532   18.1971    1.3666    0.1110    1.9566    3.9276   16.0000   15.0000 
2407.9856  733.9540    8.7500   21.1694  356.2545   18.1971    1.3666    0.1110    1.9566    3.9276   16.0000   15.0000 
2408.4856  734.1064    8.7500   22.8613  678.8959   17.7854    1.3018    0.1367    1.9222    3.8460   16.0000   15.0000 
2408.9856  734.2588    8.7500   22.8601  676.5508   17.7791    1.3017    0.1367    1.9223    3.8461   16.0000   15.0000 
2409.4856  734.4112    8.7500   24.8983 1681.0529   20.2506    1.2773    0.2273    1.7750    3.5706   16.0000   15.0000 
2409.9856  734.5636    8.7500   30.4707 7755.8276   20.7127    1.2861    0.2223    1.7220    3.3301   16.0000   15.0000 
2410.4856  734.7160    8.7500   30.4708 7755.8828   20.7127    1.2861    0.2223    1.7220    3.3301   16.0000   15.0000 
2410.9856  734.8684    8.7500   39.3282 1163.7411   23.0077    1.4066    0.0848    1.7236    2.9712   16.0000   16.0000 
