~VERSION INFORMATION
 VERS.                 2.0:   CWLS LOG ASCII STANDARD - VERSION 2.0
 WRAP.                  NO:   SINGLE LINE PER DEPTH STEP
 CREA.                 01/12/2017 17:02:35
#CREATED USING DSPetro VERSION 5000.10.1.3 BY H191660 ON 01/12/2017 17:02:35
~WELL INFORMATION
#MNEM.UNIT       DATA                          DESCRIPTION MNEMONIC
#---------      ---------------------------   --------------------------
 STRT    .FT        50.4921                   : START DEPTH
 STOP    .FT        8514.9921                 : STOP DEPTH
 STEP    .FT        0.5000                    : STEP VALUE
 NULL    .      -999.0000                     : NULL VALUE
 DATE    .      01/12/2017                    : LAS file Creation Date
 WELL .      UNIVERSITY_42_22_4210540532 : Well Name
 COMP .                                  : Company
 FLD  .      HOLT RANCH (CONSOLIDATED)�  : Field
 UWI  .      224                         : Unique Well Identifier (UWI)
 LOC  .                                  : Location
 RWS  .      -999                        : Def_Rw
 WST  .      -999                        : Def_Rwt
 SRVC .                                  : Contractor
~CURVE INFORMATION
#MNEM              UNIT       API CODE   Curve Type Comments
#----------  --------------- ----------  ---------- -----------
 DEPTH      .FT                        : Depth       
 DEPTH_(m)  .                          :             
 BitSize    .inch                      : BitSize     
 CAL_INCH   .inch                      :             Caliper Log - A representation of the measured diameter of a borehole along its depth
 GR_API     .API                       : GammaRay    Gamma Ray (API) - Measures the intensity of natural gamma-ray radiation emitted from formations containing radioactive elements, such as K, Th and U
 LLD_OHMM   .ohmm                      :             Laterlog Deep Resistivity - Measurement made several feet into the formation; generally considered a measurement of the undisturbed formation
 LLS_OHMM   .ohmm                      :             Laterlog Shallow Resistivity - one to two feet into the formation; generally considered to measure the formation
 RHOB_G_CC  .g/cc                      :             Bulk Density - Measures the density of bulk material, including any void space or other materials contained in the subject volume
 DRHO_G_CC  .g/cc                      :             Density Correction - Investigates the correction to the Bulk Density log; used as an indication of hole condition to validate the Bulk Density measure
 NPHI_v/v   .dec                       : Neutron     
 PEF_B_E    .b/e-                      : PEF         Photoelectric Factor - A log of photoelectric absorption properties. Often expressed in an approximation unit barns/electron (b/e-)
 LITH       .                          : LITH        Lithology Curve
 LITH_v2    .                          : LITH        Lithology Curve
~A  DEPTH DEPTH_(m)  BitSize   CAL_INCH   GR_API   LLD_OHMM  LLS_OHMM RHOB_G_C  DRHO_G_C   NPHI_v/v  PEF_B_E     LITH    LITH_v2  
# ...
7583.4921 2311.4485    7.8750    8.1187  129.7671   12.7003   11.1138    2.6515    0.0268    0.1486    3.4661   37.0000   37.0000 
7583.9921 2311.6008    7.8750    8.1422  139.5527   12.3318   10.9011    2.6778    0.0305    0.1561    3.2788   37.0000   37.0000 
7584.4921 2311.7532    7.8750    8.1891  138.2030   12.0033   10.6927    2.6795    0.0360    0.1578    3.2380   37.0000   37.0000 
7584.9921 2311.9055    7.8750    8.1734  121.5241   11.9800   10.8146    2.6630    0.0371    0.1530    3.3105   37.0000   37.0000 
7585.4921 2312.0581    7.8750    8.2047  113.2811   11.7972   10.7453    2.6614    0.0342    0.1511    3.3774   37.0000   37.0000 
7585.9921 2312.2104    7.8750    8.1891  117.1857   11.9118   10.6800    2.6873    0.0328    0.1668    3.6008   37.0000   37.0000 
7586.4921 2312.3628    7.8750    8.2203  120.6082   12.1521   10.9273    2.7160    0.0282    0.1626    3.8277   37.0000   37.0000 
7586.9921 2312.5151    7.8750    8.1734  118.3908   12.2017   10.7525    2.7121    0.0261    0.1584    3.7243   37.0000   37.0000 
7587.4921 2312.6675    7.8750    8.1734  109.0873   12.5456   11.0904    2.6822    0.0266    0.1555    3.4252   37.0000   37.0000 
7587.9921 2312.8201    7.8750    8.1734  115.0165   12.9665   10.9560    2.6506    0.0212    0.1530    3.2136   37.0000   37.0000 
7588.4921 2312.9724    7.8750    8.1969  130.8276   14.0099   11.7892    2.6356    0.0171    0.1606    3.1230   37.0000   37.0000 
7588.9921 2313.1248    7.8750    8.2047  120.6564   15.3890   13.1348    2.6388    0.0160    0.1598    3.2421   37.0000   37.0000 
7589.4921 2313.2771    7.8750    8.1891   94.8187   16.5243   14.4901    2.6552    0.0132    0.1396    3.6723   37.0000   37.0000 
7589.9921 2313.4297    7.8750    8.1344   89.5644   16.6814   15.5754    2.6743    0.0101    0.1247    3.9440   37.0000   37.0000 
7590.4921 2313.5820    7.8750    8.1422  102.7725   15.4516   14.8972    2.6653    0.0109    0.1149    3.6371   37.0000   37.0000 
7590.9921 2313.7344    7.8750    8.2203  118.3908   13.9910   13.7318    2.6323    0.0119    0.1381    3.2523   37.0000   37.0000 
7591.4921 2313.8867    7.8750    8.1969  125.7661   12.8906   12.6511    2.6207    0.0073    0.1577    3.1908   37.0000   37.0000 
7591.9921 2314.0393    7.8750    8.2281  126.3928   12.4398   11.9657    2.6358    0.0056    0.1737    3.2546   37.0000   37.0000 
7592.4921 2314.1917    7.8750    8.1969  128.6102   12.5528   12.0492    2.6437    0.0089    0.1738    3.2792   37.0000   37.0000 
7592.9921 2314.3440    7.8750    8.2203  122.0544   13.1844   12.2631    2.6480    0.0110    0.1753    3.2219   37.0000   37.0000 
7593.4921 2314.4963    7.8750    8.2047  115.5467   14.7267   13.6230    2.6497    0.0112    0.1546    3.1746   37.0000   37.0000 
7593.9921 2314.6487    7.8750    8.2516  111.6904   17.0459   15.7676    2.6321    0.0108    0.1542    3.1944   37.0000   37.0000 
7594.4921 2314.8013    7.8750    8.1969   97.3736   19.6234   18.3313    2.6198    0.0119    0.1345    3.2205   37.0000   37.0000 
7594.9921 2314.9536    7.8750    8.1891   90.2393   20.8854   20.0872    2.6336    0.0160    0.1068    3.3537   37.0000   37.0000 
7595.4921 2315.1060    7.8750    8.1812  102.8207   19.6679   19.4236    2.6516    0.0198    0.1096    3.6313   37.0000   37.0000 
7595.9921 2315.2583    7.8750    8.1656  119.6923   16.9350   16.8628    2.6553    0.0194    0.1295    3.7078   37.0000   37.0000 
7596.4921 2315.4109    7.8750    8.2359  132.2256   14.4254   14.0586    2.6583    0.0180    0.1598    3.4445   37.0000   37.0000 
7596.9921 2315.5632    7.8750    8.1891  135.3107   12.6646   11.9013    2.6662    0.0152    0.1715    3.2755   37.0000   37.0000 
7597.4921 2315.7156    7.8750    8.1812  133.4789   11.9847   11.1946    2.6778    0.0086    0.1554    3.4553   37.0000   37.0000 
7597.9921 2315.8679    7.8750    8.2281  125.9590   11.9408   11.4050    2.6750    0.0034    0.1559    3.6284   37.0000   37.0000 
7598.4921 2316.0205    7.8750    8.2359  119.5959   12.0305   11.6079    2.6466    0.0004    0.1523    3.5095   37.0000   37.0000 
7598.9921 2316.1729    7.8750    8.2203  118.1498   12.2664   11.8489    2.6348   -0.0020    0.1459    3.3339   37.0000   37.0000 
7599.4921 2316.3252    7.8750    8.1891  122.2954   12.6704   12.2109    2.6372   -0.0007    0.1452    3.2768   37.0000   37.0000 
7599.9921 2316.4775    7.8750    8.2281  127.2123   13.3598   12.7709    2.6296    0.0019    0.1456    3.2473   37.0000   37.0000 
7600.4921 2316.6299    7.8750    7.8281  122.8739   14.4314   13.6805    2.6304    0.0034    0.1454    3.3500   37.0000   37.0000 
7600.9921 2316.7825    7.8750    7.8359  112.8955   15.6355   14.7290    2.6403    0.0054    0.1498    3.5985   37.0000   37.0000 
7601.4921 2316.9348    7.8750    7.8438  107.9304   16.6041   15.2464    2.6393    0.0042    0.1499    3.6573   37.0000   37.0000 
7601.9921 2317.0872    7.8750    7.8125  108.6053   17.6216   15.6026    2.6306    0.0035    0.1509    3.5045   37.0000   37.0000 
7602.4921 2317.2395    7.8750    7.8125  114.3416   18.8897   16.0298    2.6324    0.0090    0.1493    3.4838   37.0000   37.0000 
7602.9921 2317.3921    7.8750    7.7500  108.7499   20.8131   16.8253    2.6343    0.0092    0.1352    3.6054   37.0000   37.0000 
7603.4921 2317.5444    7.8750    7.7813   99.3499   24.0193   18.7112    2.6364    0.0036    0.1209    3.6810   37.0000   37.0000 
7603.9921 2317.6968    7.8750    7.7656   98.9161   29.0709   21.8836    2.6576    0.0066    0.1147    3.7530   37.0000   37.0000 
7604.4921 2317.8491    7.8750    7.7344   95.0115   37.3778   27.3600    2.6630    0.0089    0.0967    3.8325   37.0000   37.0000 
7604.9921 2318.0017    7.8750    7.7266   76.8383   52.0669   38.6271    2.6494    0.0002    0.0841    3.9345   37.0000   18.0000 
7605.4921 2318.1541    7.8750    7.7656   50.3257   75.5950   62.0986    2.6663   -0.0051    0.0661    4.2544   18.0000   18.0000 
7605.9921 2318.3064    7.8750    7.7734   31.4295   91.8076   87.7846    2.7032   -0.0048    0.0456    4.7109   18.0000   18.0000 
7606.4921 2318.4587    7.8750    7.7891   27.3321   71.4155   87.6547    2.7282   -0.0004    0.0301    4.9248   18.0000   18.0000 
7606.9921 2318.6111    7.8750    7.7813   41.8899   44.3121   62.1322    2.7291    0.0084    0.0383    4.7952   18.0000   18.0000 
7607.4921 2318.7637    7.8750    7.7656   71.2948   29.2561   35.4889    2.7099    0.0106    0.0674    4.4579   18.0000   12.0000 
7607.9921 2318.9160    7.8750    7.7734   97.8074   22.0739   22.8537    2.6742    0.0026    0.0998    3.9848   37.0000   18.0000 
7608.4921 2319.0684    7.8750    7.7656  108.7499   18.4523   18.4650    2.6319   -0.0064    0.1169    3.5217   37.0000   37.0000 
7608.9921 2319.2207    7.8750    7.7734  107.0145   16.2881   16.6696    2.6076   -0.0109    0.1323    3.2476   37.0000   37.0000 
7609.4921 2319.3733    7.8750    7.7891  103.7366   14.8181   15.7016    2.6052   -0.0148    0.1313    3.1218   37.0000   37.0000 
7609.9921 2319.5256    7.8750    7.7344  107.5448   13.7010   14.7004    2.6101   -0.0161    0.1268    3.0695   37.0000   37.0000 
7610.4921 2319.6780    7.8750    7.7813  111.2083   13.1693   14.1490    2.6117   -0.0112    0.1462    3.1097   37.0000   37.0000 
7610.9921 2319.8303    7.8750    7.7656  115.0165   13.1744   14.3520    2.6094   -0.0073    0.1484    3.1587   37.0000   37.0000 
7611.4921 2319.9829    7.8750    7.7656  110.4370   13.4617   14.4756    2.6143   -0.0032    0.1418    3.0755   37.0000   37.0000 
7611.9921 2320.1353    7.8750    7.7578  109.5211   14.1375   15.1304    2.6242    0.0044    0.1451    2.9301   37.0000   37.0000 
7612.4921 2320.2876    7.8750    7.7344  120.6082   14.7374   15.4143    2.6294    0.0092    0.1576    2.9108   37.0000   37.0000 
7612.9921 2320.4399    7.8750    7.7422  121.6205   15.6546   15.4827    2.6455    0.0162    0.1616    3.0245   37.0000   37.0000 
7613.4921 2320.5923    7.8750    7.7656  117.6195   17.7545   16.5963    2.6611    0.0195    0.1612    3.1861   37.0000   37.0000 
7613.9921 2320.7449    7.8750    7.7344  100.4105   21.0605   19.9161    2.6623    0.0041    0.1384    3.5295   37.0000   37.0000 
