~VERSION INFORMATION
 VERS.                 2.0:   CWLS LOG ASCII STANDARD - VERSION 2.0
 WRAP.                  NO:   SINGLE LINE PER DEPTH STEP
 CREA.                 12/04/2017 16:08:09
#CREATED USING DSPetro VERSION 5000.10.1.3 BY H191660 ON 12/04/2017 16:08:09
~WELL INFORMATION
#MNEM.UNIT       DATA                          DESCRIPTION MNEMONIC
#---------      ---------------------------   --------------------------
 STRT    .FT        174.0157                  : START DEPTH
 STOP    .FT        9268.0157                 : STOP DEPTH
 STEP    .FT        0.5000                    : STEP VALUE
 NULL    .      -999.0000                     : NULL VALUE
 DATE    .      12/04/2017                    : LAS file Creation Date
 WELL .      UNIVERSITY_45_8_4210540952 : Well Name
 COMP .                                 : Company
 FLD  .      WILDCAT (7C)               : Field
 UWI  .      X495988                    : Unique Well Identifier (UWI)
 LOC  .                                 : Location
 RWS  .      -999                       : Def_Rw
 WST  .      -999                       : Def_Rwt
 SRVC .                                 : Contractor
~CURVE INFORMATION
#MNEM              UNIT       API CODE   Curve Type Comments
#----------  --------------- ----------  ---------- -----------
 DEPTH      .FT                        : Depth       
 DEPTH_(m)  .                          :             
 BitSize    .in                        : bitSize     
 CAL_INCH   .inch                      :             Caliper Log - A representation of the measured diameter of a borehole along its depth
 GR_API     .API                       : GammaRay    Gamma Ray (API) - Measures the intensity of natural gamma-ray radiation emitted from formations containing radioactive elements, such as K, Th and U
 LLD_OHMM   .ohmm                      :             Laterlog Deep Resistivity - Measurement made several feet into the formation; generally considered a measurement of the undisturbed formation
 LLS_OHMM   .ohmm                      :             Laterlog Shallow Resistivity - one to two feet into the formation; generally considered to measure the formation
 MSFL_OHMM  .ohmm                      :             Micro-Spherically Focused Log - Measurement involves only the first few inches of the formation immediately adjacent to the borehole
 RHOB_G_CC  .g/cc                      :             Bulk Density - Measures the density of bulk material, including any void space or other materials contained in the subject volume
 DRHO_G_CC  .g/cc                      :             Density Correction - Investigates the correction to the Bulk Density log; used as an indication of hole condition to validate the Bulk Density measure
 NPHI_v/v   .PC                        : Neutron     Neutron Porosity - Measured with an neutron logging device calibrated to a given matrix (limestone, sandstone and dolomite)
 PEF_B_E    .b/e-                      : PEF         Photoelectric Factor - A log of photoelectric absorption properties. Often expressed in an approximation unit barns/electron (b/e-)
 LITH       .                          : LITH        Lithology Curve
 LITH_v2    .                          : LITH        Lithology Curve
~A  DEPTH DEPTH_(m)  BitSize   CAL_INCH   GR_API   LLD_OHMM  LLS_OHMM MSFL_OHM  RHOB_G_C  DRHO_G_C   NPHI_v/v  PEF_B_E     LITH    LITH_v2  
# ...
6729.0157 2051.0039    7.8750    8.0366  117.0614   18.0560   13.9631    6.5084    2.5388    0.0113    0.1962    3.1186   37.0000   37.0000 
6729.5157 2051.1565    7.8750    8.0347  119.7432   16.9177   13.5159    7.8868    2.5276    0.0120    0.1979    3.1971   37.0000   37.0000 
6730.0157 2051.3088    7.8750    8.0352  118.5181   17.5709   12.9252    7.3245    2.5494    0.0160    0.2078    3.2614   37.0000   37.0000 
6730.5157 2051.4612    7.8750    8.0391  114.6708   17.1080   13.5543    8.4659    2.5648    0.0182    0.2056    3.2391   37.0000   37.0000 
6731.0157 2051.6135    7.8750    8.0390  110.6443   16.6431   13.3587    7.6472    2.5614    0.0162    0.1960    3.2452   37.0000   37.0000 
6731.5157 2051.7661    7.8750    8.0341  103.1888   16.1069   12.5914    7.4452    2.5549    0.0086    0.1770    3.4516   37.0000   37.0000 
6732.0157 2051.9185    7.8750    8.0355  100.3575   16.2323   13.6947    7.5616    2.5579    0.0053    0.1779    3.5587   37.0000   37.0000 
6732.5157 2052.0708    7.8750    8.0187   93.5893   14.6495   11.2105    7.6090    2.5596    0.0018    0.1678    3.5753   37.0000   37.0000 
6733.0157 2052.2231    7.8750    8.0255   92.0878   14.7652   11.5421    7.7543    2.5646    0.0009    0.1642    3.6015   37.0000   37.0000 
6733.5157 2052.3755    7.8750    8.0228   97.0407   15.5911   11.2879    7.3004    2.5959    0.0067    0.1751    3.9669   37.0000   22.0000 
6734.0157 2052.5281    7.8750    8.0225  102.2699   18.1127   12.6428    7.6458    2.5994    0.0138    0.1764    4.0104   37.0000   37.0000 
6734.5157 2052.6804    7.8750    8.0150  107.7308   22.2126   15.8450    9.4089    2.5864    0.0200    0.1954    3.6563   37.0000   37.0000 
6735.0157 2052.8328    7.8750    8.0090  108.6422   24.7879   18.2390   14.3563    2.5788    0.0212    0.2010    3.3554   37.0000   37.0000 
6735.5157 2052.9851    7.8750    7.9860  105.8707   24.7834   18.4538   11.4016    2.5640    0.0190    0.1830    3.2999   37.0000   37.0000 
6736.0157 2053.1377    7.8750    7.9866  100.2305   26.4157   20.2416    7.3259    2.5476    0.0204    0.1702    3.4407   37.0000   37.0000 
6736.5157 2053.2900    7.8750    7.9870   91.9907   26.6097   21.6690    6.4435    2.5573    0.0217    0.1800    3.7411   37.0000   37.0000 
6737.0157 2053.4424    7.8750    7.9856   89.0772   24.4523   21.2142    7.4775    2.5801    0.0200    0.1696    3.8568   37.0000   37.0000 
6737.5157 2053.5947    7.8750    7.9896   89.8989   23.7744   22.0802    7.3726    2.5885    0.0171    0.1611    3.6742   37.0000   37.0000 
6738.0157 2053.7473    7.8750    8.0025   91.9682   21.1805   19.5972    8.3294    2.5766    0.0130    0.1857    3.5230   37.0000   37.0000 
6738.5157 2053.8997    7.8750    8.0136  104.4737   18.3749   17.4373    9.2456    2.5481    0.0104    0.1879    3.3839   37.0000   37.0000 
6739.0157 2054.0520    7.8750    8.0300  112.3699   17.2236   15.0693    9.7780    2.5319    0.0107    0.1783    3.2625   37.0000   37.0000 
6739.5157 2054.2043    7.8750    8.0343  109.4415   16.5625   15.7098   10.8064    2.5470    0.0135    0.1972    3.3176   37.0000   37.0000 
6740.0157 2054.3567    7.8750    8.0396  112.5492   15.7814   14.7662    9.1534    2.5588    0.0143    0.2002    3.3775   37.0000   37.0000 
6740.5157 2054.5093    7.8750    8.0552  115.8661   15.8833   14.5900    8.0799    2.5597    0.0150    0.2075    3.4372   37.0000   37.0000 
6741.0157 2054.6616    7.8750    8.0401  113.2141   16.4989   14.3794    7.3840    2.5773    0.0188    0.2163    3.5715   37.0000   37.0000 
6741.5157 2054.8140    7.8750    8.0383  109.6358   17.0920   14.8896    8.1899    2.5948    0.0171    0.1852    3.6003   37.0000   37.0000 
6742.0157 2054.9663    7.8750    8.0320  106.2666   19.8155   15.8446    9.3670    2.6017    0.0106    0.1798    3.6408   37.0000   37.0000 
6742.5157 2055.1189    7.8750    8.0135   99.3266   27.0413   22.0788   14.7039    2.6030    0.0076    0.1815    3.7705   37.0000   37.0000 
6743.0157 2055.2712    7.8750    7.9466   85.3943   29.0899   25.4906   26.6766    2.5873    0.0061    0.1818    3.7650   37.0000   37.0000 
6743.5157 2055.4236    7.8750    7.9213   76.7286   28.9762   24.4051   26.6702    2.5790    0.0063    0.1722    3.7476   37.0000   37.0000 
6744.0157 2055.5759    7.8750    7.8842   59.3151   28.2334   24.9388   11.7403    2.5968    0.0104    0.1225    3.9741   37.0000   37.0000 
6744.5157 2055.7285    7.8750    7.8886   58.5979   22.5357   18.8776   10.4950    2.5970    0.0052    0.1151    4.0363   37.0000   22.0000 
6745.0157 2055.8809    7.8750    7.9000   70.8718   20.7953   17.3578    8.7709    2.5502    0.0014    0.1257    3.7204   37.0000   22.0000 
6745.5157 2056.0332    7.8750    7.9009   81.3827   20.6418   17.4397    8.2836    2.5251    0.0037    0.1306    3.4967   37.0000   37.0000 
6746.0157 2056.1855    7.8750    7.9127   99.4984   18.7160   17.2441    7.3530    2.5149    0.0105    0.1818    3.2590   37.0000   37.0000 
6746.5157 2056.3379    7.8750    7.9191  100.5069   16.8358   15.4730    6.3831    2.5221    0.0083    0.1788    3.3783   37.0000   37.0000 
6747.0157 2056.4905    7.8750    7.9311  102.1952   16.0197   14.6381    5.6440    2.5382    0.0102    0.1811    3.3820   37.0000   37.0000 
6747.5157 2056.6428    7.8750    7.9348  103.5026   15.0576   14.4143    5.7851    2.5442    0.0105    0.1888    3.3045   37.0000   37.0000 
6748.0157 2056.7952    7.8750    7.9307  108.9560   14.6836   13.6719    6.5952    2.5367    0.0083    0.1958    3.2127   37.0000   37.0000 
6748.5157 2056.9475    7.8750    7.9492  115.7540   15.8410   14.8398    6.5013    2.5406    0.0072    0.2116    3.1682   37.0000   37.0000 
6749.0157 2057.1001    7.8750    7.9557  118.8543   15.8750   13.8085    6.9869    2.5446    0.0056    0.2115    3.2243   37.0000   37.0000 
6749.5157 2057.2524    7.8750    7.9531  115.8512   17.3864   15.0298    7.2446    2.5511    0.0056    0.1878    3.2947   37.0000   37.0000 
6750.0157 2057.4048    7.8750    7.9580  107.9549   18.6576   16.5424    8.6074    2.5765    0.0091    0.1730    3.3354   37.0000   37.0000 
6750.5157 2057.5571    7.8750    7.9527  100.6563   19.6993   16.8824   10.0715    2.5908    0.0108    0.1594    3.4206   37.0000   37.0000 
6751.0157 2057.7097    7.8750    7.9356   97.7653   20.3040   19.1469   11.2764    2.5767    0.0114    0.1581    3.5434   37.0000   37.0000 
6751.5157 2057.8621    7.8750    7.9187   98.5347   18.7138   17.4987   11.1782    2.5679    0.0122    0.1670    3.6210   37.0000   37.0000 
6752.0157 2058.0144    7.8750    7.9247   97.5412   17.8434   16.7056    8.4017    2.5636    0.0076    0.1829    3.6400   37.0000   37.0000 
6752.5157 2058.1667    7.8750    7.9076   93.4922   17.6167   16.5945    9.4487    2.5476    0.0022    0.1821    3.6935   37.0000   37.0000 
6753.0157 2058.3191    7.8750    7.8963   88.8083   16.4931   17.5460    9.1655    2.5327   -0.0003    0.1656    3.8343   37.0000   22.0000 
6753.5157 2058.4717    7.8750    7.8946   83.5416   16.0689   15.6488    8.7584    2.5295   -0.0043    0.1644    3.8968   37.0000   22.0000 
6754.0157 2058.6240    7.8750    7.8994   83.6985   17.5922   15.7526    7.3005    2.5357   -0.0068    0.1724    3.7730   37.0000   37.0000 
6754.5157 2058.7764    7.8750    7.8911   89.7047   19.4256   17.0572    8.9301    2.5351   -0.0056    0.1727    3.6060   37.0000   37.0000 
6755.0157 2058.9287    7.8750    7.9001   99.2145   24.0528   22.2547   15.5519    2.5270   -0.0045    0.1852    3.4344   37.0000   37.0000 
6755.5157 2059.0813    7.8750    7.8994  103.4129   30.2879   30.4410   19.9606    2.5307   -0.0011    0.1859    3.2103   37.0000   37.0000 
6756.0157 2059.2336    7.8750    7.8961  101.6350   32.7398   31.7966   14.7888    2.5318    0.0016    0.1860    3.1471   37.0000   37.0000 
6756.5157 2059.3860    7.8750    7.8827   84.2513   34.4292   36.6027    6.6958    2.5531    0.0082    0.1656    3.4491   37.0000   37.0000 
6757.0157 2059.5383    7.8750    7.8777   69.9007   29.4790   30.8067    7.1234    2.5936    0.0076    0.1348    3.6951   37.0000   37.0000 
