~VERSION INFORMATION
 VERS.                 2.0:   CWLS LOG ASCII STANDARD - VERSION 2.0
 WRAP.                  NO:   SINGLE LINE PER DEPTH STEP
 CREA.                 12/04/2017 16:08:09
#CREATED USING DSPetro VERSION 5000.10.1.3 BY H191660 ON 12/04/2017 16:08:09
~WELL INFORMATION
#MNEM.UNIT       DATA                          DESCRIPTION MNEMONIC
#---------      ---------------------------   --------------------------
 STRT    .FT        174.0157                  : START DEPTH
 STOP    .FT        9268.0157                 : STOP DEPTH
 STEP    .FT        0.5000                    : STEP VALUE
 NULL    .      -999.0000                     : NULL VALUE
 DATE    .      12/04/2017                    : LAS file Creation Date
 WELL .      UNIVERSITY_45_8_4210540952 : Well Name
 COMP .                                 : Company
 FLD  .      WILDCAT (7C)               : Field
 UWI  .      X495988                    : Unique Well Identifier (UWI)
 LOC  .                                 : Location
 RWS  .      -999                       : Def_Rw
 WST  .      -999                       : Def_Rwt
 SRVC .                                 : Contractor
~CURVE INFORMATION
#MNEM              UNIT       API CODE   Curve Type Comments
#----------  --------------- ----------  ---------- -----------
 DEPTH      .FT                        : Depth       
 DEPTH_(m)  .                          :             
 BitSize    .in                        : bitSize     
 CAL_INCH   .inch                      :             Caliper Log - A representation of the measured diameter of a borehole along its depth
 GR_API     .API                       : GammaRay    Gamma Ray (API) - Measures the intensity of natural gamma-ray radiation emitted from formations containing radioactive elements, such as K, Th and U
 LLD_OHMM   .ohmm                      :             Laterlog Deep Resistivity - Measurement made several feet into the formation; generally considered a measurement of the undisturbed formation
 LLS_OHMM   .ohmm                      :             Laterlog Shallow Resistivity - one to two feet into the formation; generally considered to measure the formation
 MSFL_OHMM  .ohmm                      :             Micro-Spherically Focused Log - Measurement involves only the first few inches of the formation immediately adjacent to the borehole
 RHOB_G_CC  .g/cc                      :             Bulk Density - Measures the density of bulk material, including any void space or other materials contained in the subject volume
 DRHO_G_CC  .g/cc                      :             Density Correction - Investigates the correction to the Bulk Density log; used as an indication of hole condition to validate the Bulk Density measure
 NPHI_v/v   .PC                        : Neutron     Neutron Porosity - Measured with an neutron logging device calibrated to a given matrix (limestone, sandstone and dolomite)
 PEF_B_E    .b/e-                      : PEF         Photoelectric Factor - A log of photoelectric absorption properties. Often expressed in an approximation unit barns/electron (b/e-)
 LITH       .                          : LITH        Lithology Curve
 LITH_v2    .                          : LITH        Lithology Curve
~A  DEPTH DEPTH_(m)  BitSize   CAL_INCH   GR_API   LLD_OHMM  LLS_OHMM MSFL_OHM  RHOB_G_C  DRHO_G_C   NPHI_v/v  PEF_B_E     LITH    LITH_v2  
# ...
8239.5157 2511.4043    7.8750    8.0108  103.4054   13.0390   12.3303    7.9252    2.6412    0.0170    0.1405    3.0895   37.0000   37.0000 
8240.0157 2511.5569    7.8750    8.0162  107.0659   13.3767   12.7380    7.7428    2.6435    0.0135    0.1451    3.1307   37.0000   37.0000 
8240.5157 2511.7092    7.8750    8.0197  108.6571   14.0692   13.2909    7.7757    2.6525    0.0113    0.1478    3.3305   37.0000   37.0000 
8241.0157 2511.8616    7.8750    8.0167  111.1896   15.4803   14.6953    8.2962    2.6512    0.0091    0.1589    3.5492   37.0000   37.0000 
8241.5157 2512.0139    7.8750    8.0002  112.6165   16.2658   15.5789    9.6799    2.6332    0.0077    0.1671    3.4202   37.0000   37.0000 
8242.0157 2512.1665    7.8750    8.0075  111.0141   16.4539   16.3590    9.7467    2.6238    0.0103    0.1601    3.1318   37.0000   37.0000 
8242.5157 2512.3188    7.8750    8.0026  105.3478   16.3619   15.1392    9.0359    2.6245    0.0141    0.1511    3.0553   37.0000   37.0000 
8243.0157 2512.4712    7.8750    7.9810  107.6860   15.6035   14.0104    9.6349    2.6337    0.0173    0.1542    3.1441   37.0000   37.0000 
8243.5157 2512.6235    7.8750    7.9883  110.7713   15.3084   14.3924    9.6714    2.6445    0.0197    0.1592    3.2063   37.0000   37.0000 
8244.0157 2512.7759    7.8750    7.9887  110.0168   14.9098   13.2890    9.7783    2.6802    0.0239    0.1599    3.5765   37.0000   37.0000 
8244.5157 2512.9285    7.8750    7.9949  102.7555   15.0874   13.5931    9.3007    2.6943    0.0218    0.1590    3.7636   37.0000   37.0000 
8245.0157 2513.0808    7.8750    8.0002   97.1938   14.8746   13.6077    8.1959    2.6781    0.0189    0.1419    3.6240   37.0000   37.0000 
8245.5157 2513.2332    7.8750    7.9755   97.9894   14.6299   13.1399    8.1337    2.6609    0.0176    0.1430    3.4669   37.0000   37.0000 
8246.0157 2513.3855    7.8750    7.9638  108.6011   14.4644   13.1569    7.8671    2.6244    0.0126    0.1444    3.1945   37.0000   37.0000 
8246.5157 2513.5381    7.8750    7.9725  111.6453   13.8065   13.2265    7.8390    2.6275    0.0107    0.1498    3.1140   37.0000   37.0000 
8247.0157 2513.6904    7.8750    7.9995  113.7408   13.2428   12.1870    8.2192    2.6256    0.0073    0.1485    3.0597   37.0000   37.0000 
8247.5157 2513.8428    7.8750    8.0040  114.6932   13.9136   12.7003    9.2329    2.6227    0.0051    0.1589    3.0564   37.0000   37.0000 
8248.0157 2513.9951    7.8750    8.0080  113.2216   14.6488   13.3815   10.6349    2.6257    0.0042    0.1536    3.0894   37.0000   37.0000 
8248.5157 2514.1477    7.8750    8.0028  114.0433   14.7651   13.7853   10.6966    2.6306   -0.0002    0.1594    3.1849   37.0000   37.0000 
8249.0157 2514.3000    7.8750    8.0112  113.7706   14.2249   12.9858    9.2825    2.6401   -0.0027    0.1678    3.3884   37.0000   37.0000 
8249.5157 2514.4524    7.8750    8.0157  108.9410   13.3464   11.7437    8.3018    2.6474    0.0002    0.1647    3.5190   37.0000   37.0000 
8250.0157 2514.6047    7.8750    7.9972  106.9576   13.2112   10.9196    7.8080    2.6441    0.0054    0.1581    3.3648   37.0000   37.0000 
8250.5157 2514.7571    7.8750    7.9922  108.6422   15.3359   11.6897    9.3398    2.6398    0.0122    0.1557    3.1523   37.0000   37.0000 
8251.0157 2514.9097    7.8750    8.0071  108.7393   20.3983   15.8654   16.5176    2.6411    0.0160    0.1575    3.1892   37.0000   37.0000 
8251.5157 2515.0620    7.8750    8.0254  106.1994   20.6023   19.8048   55.9327    2.6502    0.0151    0.1516    3.3749   37.0000   37.0000 
8252.0157 2515.2144    7.8750    8.0068   97.5001   17.9519   19.6966   21.4787    2.6565    0.0121    0.1278    3.5434   37.0000   37.0000 
8252.5157 2515.3667    7.8750    8.0070   80.3181   14.2463   15.5274    9.6225    2.6694    0.0128    0.1018    3.7705   37.0000   37.0000 
8253.0157 2515.5193    7.8750    8.0027   69.6018   11.4734   12.3486    6.8859    2.6893    0.0161    0.0926    3.9926   37.0000   37.0000 
8253.5157 2515.6716    7.8750    8.0219   84.9647    9.6037   10.3053    7.1151    2.6867    0.0163    0.1175    3.9153   37.0000   37.0000 
8254.0157 2515.8240    7.8750    8.0148  108.3322    9.4408   10.0991    6.7168    2.6778    0.0173    0.1364    3.5645   37.0000   37.0000 
8254.5157 2515.9763    7.8750    8.0238  118.1632    9.6317   10.5355    7.0571    2.6746    0.0181    0.1544    3.2673   37.0000   37.0000 
8255.0157 2516.1289    7.8750    8.0276  125.2228   10.1428   11.5176    7.3925    2.6620    0.0150    0.1726    3.1554   37.0000   37.0000 
8255.5157 2516.2813    7.8750    8.0340  131.2701   10.7243   12.4265    8.4507    2.6504    0.0142    0.1732    3.1587   37.0000   37.0000 
8256.0157 2516.4336    7.8750    8.0252  132.4728   11.1167   12.4452    8.4851    2.6471    0.0155    0.1716    3.1755   37.0000   37.0000 
8256.5157 2516.5859    7.8750    8.0310  120.2811   11.9335   12.7208    8.9416    2.6464    0.0169    0.1698    3.1947   37.0000   37.0000 
8257.0157 2516.7383    7.8750    8.0161  107.8690   12.0524   12.8811    9.0598    2.6499    0.0175    0.1554    3.2291   37.0000   37.0000 
8257.5157 2516.8909    7.8750    8.0030  107.5030   11.9103   12.6607    9.2021    2.6555    0.0199    0.1538    3.3170   37.0000   37.0000 
8258.0157 2517.0432    7.8750    7.9998  112.1570   12.3301   12.3895    8.7885    2.6564    0.0207    0.1569    3.3224   37.0000   37.0000 
8258.5157 2517.1956    7.8750    8.0134  125.4245   17.2069   14.8329   10.8163    2.6499    0.0191    0.1665    3.1909   37.0000   37.0000 
8259.0157 2517.3479    7.8750    8.0030  124.5467   26.9421   23.5870   20.0135    2.6463    0.0200    0.1563    3.1564   37.0000   37.0000 
8259.5157 2517.5005    7.8750    7.9977  109.8898   31.3774   42.0183   43.8188    2.6373    0.0221    0.1389    3.1555   37.0000   37.0000 
8260.0157 2517.6528    7.8750    7.9681   79.6309   22.9552   26.9515   22.0842    2.6290    0.0225    0.1070    3.1181   37.0000   37.0000 
8260.5157 2517.8052    7.8750    7.9673   54.8926   16.6439   18.0962   10.9714    2.6389    0.0242    0.0716    3.0136   37.0000   37.0000 
8261.0157 2517.9575    7.8750    7.9616   58.3663   12.7355   13.2716    6.9566    2.6529    0.0262    0.0711    2.9131   37.0000   37.0000 
8261.5157 2518.1101    7.8750    7.9633   81.9504   10.7511   10.7512    6.8302    2.6595    0.0249    0.0856    3.0176   37.0000   37.0000 
8262.0157 2518.2625    7.8750    7.9926  106.4720   10.4342   10.0535    7.0800    2.6800    0.0237    0.1091    3.2888   37.0000   37.0000 
8262.5157 2518.4148    7.8750    8.0269  120.7966   10.9004   10.5551    7.8694    2.6992    0.0228    0.1629    3.4440   37.0000   37.0000 
8263.0157 2518.5671    7.8750    8.0213  122.8210   11.3914   11.0617    8.6067    2.6891    0.0218    0.1730    3.4139   37.0000   37.0000 
8263.5157 2518.7195    7.8750    8.0260  120.5202   12.3298   11.5111    8.8733    2.6706    0.0214    0.1692    3.3329   37.0000   37.0000 
8264.0157 2518.8721    7.8750    8.0175  126.7281   13.7256   12.3772    8.7007    2.6635    0.0193    0.1686    3.2440   37.0000   37.0000 
8264.5157 2519.0244    7.8750    8.0128  133.0368   18.4679   16.2021   13.5014    2.6613    0.0176    0.1729    3.1702   37.0000   37.0000 
8265.0157 2519.1768    7.8750    8.0171  129.1186   23.6661   21.3712   18.5085    2.6513    0.0145    0.1646    3.1486   37.0000   37.0000 
8265.5157 2519.3291    7.8750    7.9811  114.9510   32.5735   28.3534   15.6049    2.6239    0.0108    0.1357    3.0527   37.0000   37.0000 
8266.0157 2519.4817    7.8750    7.9548   85.2822   48.7782   46.7771   12.0709    2.5894    0.0157    0.1053    2.8000   37.0000   37.0000 
8266.5157 2519.6340    7.8750    7.9327   52.0576   51.1151   51.4557   15.1673    2.5597    0.0229    0.0607    2.6171   27.0000   27.0000 
8267.0157 2519.7864    7.8750    7.9327   36.2166   45.3425   42.1119   17.3610    2.5473    0.0212    0.0446    2.6857   27.0000   27.0000 
8267.5157 2519.9387    7.8750    7.9314   33.4674   38.3664   44.4329   17.6650    2.5591    0.0136    0.0497    2.8573   27.0000   27.0000 
