~VERSION INFORMATION
 VERS.                 2.0:   CWLS LOG ASCII STANDARD - VERSION 2.0
 WRAP.                  NO:   SINGLE LINE PER DEPTH STEP
 CREA.                 12/04/2017 16:08:09
#CREATED USING DSPetro VERSION 5000.10.1.3 BY H191660 ON 12/04/2017 16:08:09
~WELL INFORMATION
#MNEM.UNIT       DATA                          DESCRIPTION MNEMONIC
#---------      ---------------------------   --------------------------
 STRT    .FT        174.0157                  : START DEPTH
 STOP    .FT        9268.0157                 : STOP DEPTH
 STEP    .FT        0.5000                    : STEP VALUE
 NULL    .      -999.0000                     : NULL VALUE
 DATE    .      12/04/2017                    : LAS file Creation Date
 WELL .      UNIVERSITY_45_8_4210540952 : Well Name
 COMP .                                 : Company
 FLD  .      WILDCAT (7C)               : Field
 UWI  .      X495988                    : Unique Well Identifier (UWI)
 LOC  .                                 : Location
 RWS  .      -999                       : Def_Rw
 WST  .      -999                       : Def_Rwt
 SRVC .                                 : Contractor
~CURVE INFORMATION
#MNEM              UNIT       API CODE   Curve Type Comments
#----------  --------------- ----------  ---------- -----------
 DEPTH      .FT                        : Depth       
 DEPTH_(m)  .                          :             
 BitSize    .in                        : bitSize     
 CAL_INCH   .inch                      :             Caliper Log - A representation of the measured diameter of a borehole along its depth
 GR_API     .API                       : GammaRay    Gamma Ray (API) - Measures the intensity of natural gamma-ray radiation emitted from formations containing radioactive elements, such as K, Th and U
 LLD_OHMM   .ohmm                      :             Laterlog Deep Resistivity - Measurement made several feet into the formation; generally considered a measurement of the undisturbed formation
 LLS_OHMM   .ohmm                      :             Laterlog Shallow Resistivity - one to two feet into the formation; generally considered to measure the formation
 MSFL_OHMM  .ohmm                      :             Micro-Spherically Focused Log - Measurement involves only the first few inches of the formation immediately adjacent to the borehole
 RHOB_G_CC  .g/cc                      :             Bulk Density - Measures the density of bulk material, including any void space or other materials contained in the subject volume
 DRHO_G_CC  .g/cc                      :             Density Correction - Investigates the correction to the Bulk Density log; used as an indication of hole condition to validate the Bulk Density measure
 NPHI_v/v   .PC                        : Neutron     Neutron Porosity - Measured with an neutron logging device calibrated to a given matrix (limestone, sandstone and dolomite)
 PEF_B_E    .b/e-                      : PEF         Photoelectric Factor - A log of photoelectric absorption properties. Often expressed in an approximation unit barns/electron (b/e-)
 LITH       .                          : LITH        Lithology Curve
 LITH_v2    .                          : LITH        Lithology Curve
~A  DEPTH DEPTH_(m)  BitSize   CAL_INCH   GR_API   LLD_OHMM  LLS_OHMM MSFL_OHM  RHOB_G_C  DRHO_G_C   NPHI_v/v  PEF_B_E     LITH    LITH_v2  
# ...
1741.5157  530.8140 -999.0000 -999.0000   18.5789 -999.0000 -999.0000 -999.0000 -999.0000 -999.0000    0.2136 -999.0000   37.0000 -999.0000 
1742.0157  530.9664 -999.0000 -999.0000   20.0730 -999.0000 -999.0000 -999.0000 -999.0000 -999.0000    0.1967 -999.0000   37.0000 -999.0000 
1742.5157  531.1188 -999.0000 -999.0000   20.4092 -999.0000 -999.0000 -999.0000 -999.0000 -999.0000    0.2022 -999.0000   37.0000 -999.0000 
1743.0157  531.2712 -999.0000 -999.0000   22.6428 -999.0000 -999.0000 -999.0000 -999.0000 -999.0000    0.2199 -999.0000   37.0000 -999.0000 
1743.5157  531.4236 -999.0000 -999.0000   24.8989 -999.0000 -999.0000 -999.0000 -999.0000 -999.0000    0.2287 -999.0000   37.0000 -999.0000 
1744.0157  531.5760 -999.0000 -999.0000   28.7611 -999.0000 -999.0000 -999.0000 -999.0000 -999.0000    0.2363 -999.0000   37.0000 -999.0000 
1744.5157  531.7284 -999.0000 -999.0000   25.5787 -999.0000 -999.0000 -999.0000 -999.0000 -999.0000    0.2231 -999.0000   37.0000 -999.0000 
1745.0157  531.8808 -999.0000 -999.0000   23.3973 -999.0000 -999.0000 -999.0000 -999.0000 -999.0000    0.2274 -999.0000   37.0000 -999.0000 
1745.5157  532.0332 -999.0000 -999.0000   22.9790 -999.0000 -999.0000 -999.0000 -999.0000 -999.0000    0.2315 -999.0000   37.0000 -999.0000 
1746.0157  532.1856 -999.0000 -999.0000   22.7399 -999.0000 -999.0000 -999.0000 -999.0000 -999.0000    0.2345 -999.0000   37.0000 -999.0000 
1746.5157  532.3380 -999.0000 -999.0000   24.7495 -999.0000 -999.0000 -999.0000 -999.0000 -999.0000    0.2381 -999.0000   37.0000 -999.0000 
1747.0157  532.4904 -999.0000 -999.0000   26.6544 -999.0000 -999.0000 -999.0000 -999.0000 -999.0000    0.2451 -999.0000   37.0000 -999.0000 
1747.5157  532.6428 -999.0000 -999.0000   25.3098 -999.0000 -999.0000 -999.0000 -999.0000 -999.0000    0.2876 -999.0000   37.0000 -999.0000 
1748.0157  532.7952 -999.0000 -999.0000   23.8157    5.3521   27.4606    0.1000 -999.0000 -999.0000    0.3269 -999.0000   37.0000 -999.0000 
1748.5157  532.9476 -999.0000 -999.0000   23.5169    5.2696   27.4135    0.1000 -999.0000 -999.0000    0.3040 -999.0000   37.0000 -999.0000 
1749.0157  533.1000 -999.0000 -999.0000   28.4249    5.2506   27.4151    0.1000 -999.0000 -999.0000    0.2616 -999.0000   37.0000 -999.0000 
1749.5157  533.2524 -999.0000 -999.0000   42.9474    5.2419   27.0437    0.1000 -999.0000 -999.0000    0.2561 -999.0000   37.0000 -999.0000 
1750.0157  533.4048 -999.0000 -999.0000   60.5178    5.3601   27.2959    0.1000 -999.0000 -999.0000    0.2459 -999.0000   37.0000 -999.0000 
1750.5157  533.5572 -999.0000 -999.0000   66.5763    5.2438   27.2050    0.1000 -999.0000 -999.0000    0.2507 -999.0000   37.0000 -999.0000 
1751.0157  533.7096 -999.0000 -999.0000   59.8978    5.3180   27.2385    0.1000 -999.0000 -999.0000    0.2323 -999.0000   37.0000 -999.0000 
1751.5157  533.8620 -999.0000 -999.0000   53.6376    5.6180   27.4594    0.1000 -999.0000 -999.0000    0.2376 -999.0000   37.0000 -999.0000 
1752.0157  534.0144 -999.0000 -999.0000   46.5332    5.5942   27.7560    0.1000 -999.0000 -999.0000    0.2648 -999.0000   37.0000 -999.0000 
1752.5157  534.1668 -999.0000 -999.0000   36.6648    5.7211   27.4891    0.1000 -999.0000 -999.0000    0.2477 -999.0000   37.0000 -999.0000 
1753.0157  534.3192 -999.0000 -999.0000   27.9244    5.4666   27.3785    0.1000 -999.0000 -999.0000    0.2213 -999.0000   37.0000 -999.0000 
1753.5157  534.4716 -999.0000 -999.0000   22.6279    5.7742   27.5798    0.1000 -999.0000 -999.0000    0.2128 -999.0000   37.0000 -999.0000 
1754.0157  534.6240 -999.0000 -999.0000   17.3015    5.7508   27.4467    0.1000 -999.0000 -999.0000    0.2159 -999.0000   37.0000 -999.0000 
1754.5157  534.7764 -999.0000 -999.0000   14.6794    5.8700   27.6432    0.1000 -999.0000 -999.0000    0.2148 -999.0000   37.0000 -999.0000 
1755.0157  534.9288 -999.0000 -999.0000   17.0774    5.9033   27.7596    0.1000 -999.0000 -999.0000    0.2169 -999.0000   37.0000 -999.0000 
1755.5157  535.0812 -999.0000 -999.0000   20.7304    5.6741   27.9295    0.1000 -999.0000 -999.0000    0.2188 -999.0000   37.0000 -999.0000 
1756.0157  535.2336 -999.0000 -999.0000   21.4102    5.6183   28.0101    0.1000 -999.0000 -999.0000    0.2173 -999.0000   37.0000 -999.0000 
1756.5157  535.3860 -999.0000 -999.0000   20.6109    6.0483   28.2110    0.1000 -999.0000 -999.0000    0.2278 -999.0000   37.0000 -999.0000 
1757.0157  535.5384 -999.0000 -999.0000   20.6781    6.1175   28.7748    0.1000 -999.0000 -999.0000    0.2230 -999.0000   37.0000 -999.0000 
1757.5157  535.6908 -999.0000    7.9817   19.9385    6.1743   28.5932    0.1000 -999.0000 -999.0000    0.2673 -999.0000   37.0000 -999.0000 
1758.0157  535.8432 -999.0000    7.9765   18.9823    6.0825   28.7755    0.1000 -999.0000 -999.0000    0.2714 -999.0000   37.0000 -999.0000 
1758.5157  535.9956 -999.0000    7.9753   18.4295    6.1600   28.7916    0.1000 -999.0000 -999.0000    0.2827 -999.0000   37.0000 -999.0000 
1759.0157  536.1480 -999.0000    7.9818   18.2577    6.1940   28.5859    0.1000 -999.0000 -999.0000    0.3043 -999.0000   37.0000 -999.0000 
1759.5157  536.3004 -999.0000    7.9777   15.2695    6.2471   28.5403    0.1000 -999.0000 -999.0000    0.2973 -999.0000   37.0000 -999.0000 
1760.0157  536.4528 -999.0000    7.9731   15.4787    6.2884   28.3958    0.1000 -999.0000 -999.0000    0.2772 -999.0000   37.0000 -999.0000 
1760.5157  536.6052 -999.0000    7.9820   18.1008    6.3063   28.4797    0.1000 -999.0000 -999.0000    0.2744 -999.0000   37.0000 -999.0000 
1761.0157  536.7576 -999.0000    7.9670   16.5246    6.3232   28.4548    0.1000 -999.0000 -999.0000    0.2716 -999.0000   37.0000 -999.0000 
1761.5157  536.9100 -999.0000    7.9642   13.1106    6.4826   28.6249    0.1000 -999.0000 -999.0000    0.2621 -999.0000   37.0000 -999.0000 
1762.0157  537.0624 -999.0000    7.9120   13.0135    6.7035   28.4835    0.1000 -999.0000 -999.0000    0.2851 -999.0000   37.0000 -999.0000 
1762.5157  537.2148 -999.0000    7.9101   14.8736    6.8729   28.0462    0.1000 -999.0000 -999.0000    0.3020 -999.0000   37.0000 -999.0000 
1763.0157  537.3672 -999.0000    7.9673   16.1884    6.9525   28.0085    0.1000 -999.0000 -999.0000    0.3277 -999.0000   37.0000   37.0000 
1763.5157  537.5196 -999.0000    8.0024   19.1317    6.9466   28.1224    0.1000    1.9078   -0.8464    0.3712    7.5878   37.0000   11.0000 
1764.0157  537.6720 -999.0000    8.0144   27.0504    6.8521   27.9245    0.1000    1.8627   -0.6572    0.3280    7.3873   37.0000   11.0000 
1764.5157  537.8244 -999.0000    8.0042   31.2189    6.5575   28.0549    0.1000    1.8120   -0.6169    0.3071    7.1853   37.0000   11.0000 
1765.0157  537.9768 -999.0000    8.0085   28.2307    6.6211   27.9668    0.1000    1.8069   -0.6229    0.2836    7.0508   37.0000   11.0000 
1765.5157  538.1292 -999.0000    8.0106   25.9223    6.7082   28.2623    0.1000    1.8123   -0.6221    0.2979    7.0136   37.0000   11.0000 
1766.0157  538.2816 -999.0000    8.0043   28.7013    6.7039   28.3648    0.1000    1.8125   -0.6198    0.2954    7.1795   37.0000   11.0000 
1766.5157  538.4340 -999.0000    8.0089   33.2583    6.7198   29.0031    0.1000    1.8081   -0.6195    0.3075    7.4372   37.0000   11.0000 
1767.0157  538.5864 -999.0000    8.0109   40.4224    6.7854   29.2526    0.1000    1.8014   -0.6217    0.3339    7.6354   37.0000   11.0000 
1767.5157  538.7388 -999.0000    8.0140   52.7112    6.8329   29.0781    0.1000    1.7927   -0.6245    0.3646    7.7534   37.0000   11.0000 
1768.0157  538.8912 -999.0000    8.0090   57.0590    6.9271   29.1359    0.1000    1.7879   -0.6263    0.3645    7.9369   37.0000   11.0000 
1768.5157  539.0436 -999.0000    8.0145   54.0410    6.9649   29.1244    0.1000    1.7885   -0.6255    0.3434    8.1034   37.0000   11.0000 
1769.0157  539.1960 -999.0000    8.0167   33.8783    7.0696   28.9349    0.1000    1.7901   -0.6213    0.3016    8.4913   37.0000   11.0000 
1769.5157  539.3484 -999.0000    8.0110   24.6897    6.9289   29.1640    0.1000    1.7859   -0.6191    0.2706    8.4734   37.0000   11.0000 
