~VERSION INFORMATION
 VERS.                 2.0:   CWLS LOG ASCII STANDARD - VERSION 2.0
 WRAP.                  NO:   SINGLE LINE PER DEPTH STEP
 CREA.                 12/04/2017 16:08:09
#CREATED USING DSPetro VERSION 5000.10.1.3 BY H191660 ON 12/04/2017 16:08:09
~WELL INFORMATION
#MNEM.UNIT       DATA                          DESCRIPTION MNEMONIC
#---------      ---------------------------   --------------------------
 STRT    .FT        174.0157                  : START DEPTH
 STOP    .FT        9268.0157                 : STOP DEPTH
 STEP    .FT        0.5000                    : STEP VALUE
 NULL    .      -999.0000                     : NULL VALUE
 DATE    .      12/04/2017                    : LAS file Creation Date
 WELL .      UNIVERSITY_45_8_4210540952 : Well Name
 COMP .                                 : Company
 FLD  .      WILDCAT (7C)               : Field
 UWI  .      X495988                    : Unique Well Identifier (UWI)
 LOC  .                                 : Location
 RWS  .      -999                       : Def_Rw
 WST  .      -999                       : Def_Rwt
 SRVC .                                 : Contractor
~CURVE INFORMATION
#MNEM              UNIT       API CODE   Curve Type Comments
#----------  --------------- ----------  ---------- -----------
 DEPTH      .FT                        : Depth       
 DEPTH_(m)  .                          :             
 BitSize    .in                        : bitSize     
 CAL_INCH   .inch                      :             Caliper Log - A representation of the measured diameter of a borehole along its depth
 GR_API     .API                       : GammaRay    Gamma Ray (API) - Measures the intensity of natural gamma-ray radiation emitted from formations containing radioactive elements, such as K, Th and U
 LLD_OHMM   .ohmm                      :             Laterlog Deep Resistivity - Measurement made several feet into the formation; generally considered a measurement of the undisturbed formation
 LLS_OHMM   .ohmm                      :             Laterlog Shallow Resistivity - one to two feet into the formation; generally considered to measure the formation
 MSFL_OHMM  .ohmm                      :             Micro-Spherically Focused Log - Measurement involves only the first few inches of the formation immediately adjacent to the borehole
 RHOB_G_CC  .g/cc                      :             Bulk Density - Measures the density of bulk material, including any void space or other materials contained in the subject volume
 DRHO_G_CC  .g/cc                      :             Density Correction - Investigates the correction to the Bulk Density log; used as an indication of hole condition to validate the Bulk Density measure
 NPHI_v/v   .PC                        : Neutron     Neutron Porosity - Measured with an neutron logging device calibrated to a given matrix (limestone, sandstone and dolomite)
 PEF_B_E    .b/e-                      : PEF         Photoelectric Factor - A log of photoelectric absorption properties. Often expressed in an approximation unit barns/electron (b/e-)
 LITH       .                          : LITH        Lithology Curve
 LITH_v2    .                          : LITH        Lithology Curve
~A  DEPTH DEPTH_(m)  BitSize   CAL_INCH   GR_API   LLD_OHMM  LLS_OHMM MSFL_OHM  RHOB_G_C  DRHO_G_C   NPHI_v/v  PEF_B_E     LITH    LITH_v2  
# ...
7726.5157 2355.0420    7.8750    8.0949  113.8864   14.2252   10.9336    6.6958    2.6029    0.0058    0.1510    3.2829   37.0000   37.0000 
7727.0157 2355.1943    7.8750    8.1001  110.3156   14.1224   11.1258    5.9722    2.6050    0.0097    0.1525    3.4641   37.0000   37.0000 
7727.5157 2355.3467    7.8750    8.1049  108.7543   13.9712   11.8795    5.8369    2.6077    0.0100    0.1639    3.5844   37.0000   37.0000 
7728.0157 2355.4993    7.8750    8.1020  104.0479   14.4440   10.8586    5.5167    2.6083    0.0085    0.1603    3.4662   37.0000   37.0000 
7728.5157 2355.6516    7.8750    8.1209  101.3922   15.8654   12.2749    7.7445    2.5953    0.0037    0.1701    3.1986   37.0000   37.0000 
7729.0157 2355.8040    7.8750    8.1247  103.8088   17.9676   13.9970   11.1876    2.5779   -0.0004    0.1704    3.0656   37.0000   37.0000 
7729.5157 2355.9563    7.8750    8.1404   99.0689   20.3521   16.5710   14.9374    2.5862   -0.0003    0.1476    3.1938   37.0000   37.0000 
7730.0157 2356.1089    7.8750    8.1532   82.7087   17.9782   18.9480   12.7660    2.6293    0.0013    0.1178    3.5558   37.0000   37.0000 
7730.5157 2356.2612    7.8750    8.1468   74.2671   12.2552   11.0337    8.9295    2.6625    0.0044    0.1166    3.9424   37.0000   22.0000 
7731.0157 2356.4136    7.8750    8.1272   75.1001   10.6014    9.2755    7.1706    2.6661    0.0063    0.1137    4.0546   22.0000   22.0000 
7731.5157 2356.5659    7.8750    8.1245   89.9886    7.6985    6.4127    4.4021    2.6512    0.0077    0.1243    3.9945   22.0000   22.0000 
7732.0157 2356.7185    7.8750    8.1202  102.7294    7.0253    5.6037    4.4996    2.6293    0.0055    0.1542    3.7016   37.0000   37.0000 
7732.5157 2356.8708    7.8750    8.1275  107.7084    7.1186    5.8038    5.1546    2.6121    0.0065    0.1833    3.3836   37.0000   37.0000 
7733.0157 2357.0232    7.8750    8.1250  110.8534    7.3187    6.0915    5.5139    2.6097    0.0075    0.1848    3.2911   37.0000   37.0000 
7733.5157 2357.1755    7.8750    8.1382  120.8974    7.9724    6.9725    5.4789    2.6130    0.0116    0.1854    3.3142   37.0000   37.0000 
7734.0157 2357.3279    7.8750    8.1508  119.2838    8.5277    7.4392    4.5655    2.6113    0.0126    0.1858    3.3313   37.0000   37.0000 
7734.5157 2357.4805    7.8750    8.1596  116.2433    8.8147    7.8319    4.6012    2.6178    0.0135    0.1738    3.3491   37.0000   37.0000 
7735.0157 2357.6328    7.8750    8.1588  119.1942    8.9949    7.7557    4.7147    2.6268    0.0149    0.1742    3.4184   37.0000   37.0000 
7735.5157 2357.7852    7.8750    8.1684  120.7854    8.9393    8.1954    5.0948    2.6240    0.0152    0.1773    3.4054   37.0000   37.0000 
7736.0157 2357.9375    7.8750    8.1762  117.3303    8.8969    8.0112    4.8156    2.6222    0.0146    0.1768    3.3663   37.0000   37.0000 
7736.5157 2358.0901    7.8750    8.1757  112.0711    8.7614    7.6896    4.6469    2.6225    0.0128    0.1847    3.5250   37.0000   37.0000 
7737.0157 2358.2424    7.8750    8.1720  112.0935    8.7725    7.6065    4.4474    2.6123    0.0080    0.1905    3.7499   37.0000   37.0000 
7737.5157 2358.3948    7.8750    8.1741  118.3014    8.9878    7.3691    4.7233    2.5979    0.0030    0.1904    3.7123   37.0000   37.0000 
7738.0157 2358.5471    7.8750    8.1866  120.5463    9.6763    7.6523    5.2067    2.5870   -0.0008    0.1900    3.4733   37.0000   37.0000 
7738.5157 2358.6997    7.8750    8.1749  120.5538   10.3634    8.3262    5.7891    2.5825   -0.0039    0.1904    3.3764   37.0000   37.0000 
7739.0157 2358.8521    7.8750    8.1662  119.5266   11.5249    8.9697    6.0476    2.5853   -0.0046    0.1653    3.4645   37.0000   37.0000 
7739.5157 2359.0044    7.8750    8.1678  112.3550   13.8231    9.8305    6.5438    2.5898   -0.0032    0.1645    3.5005   37.0000   37.0000 
7740.0157 2359.1567    7.8750    8.1698  103.7902   16.4004   12.5897    9.8794    2.6040   -0.0004    0.1681    3.5056   37.0000   37.0000 
7740.5157 2359.3091    7.8750    8.1446  100.0587   15.9596   15.2648   15.7731    2.6444    0.0039    0.1535    3.7116   37.0000   37.0000 
7741.0157 2359.4617    7.8750    8.1117   93.4549   14.2608   13.9896   13.3199    2.6867    0.0039    0.1250    4.0515   37.0000   37.0000 
7741.5157 2359.6140    7.8750    8.1124   82.4771   14.1833   14.1072    8.2930    2.6944    0.0009    0.1074    4.2023   37.0000   37.0000 
7742.0157 2359.7664    7.8750    8.1147   77.4308   13.8660   13.6502    8.5918    2.6759    0.0029    0.1074    4.0156   22.0000   22.0000 
7742.5157 2359.9187    7.8750    8.1221   83.2316   11.6682   12.8362   11.3551    2.6539    0.0060    0.1142    3.6970   37.0000   37.0000 
7743.0157 2360.0713    7.8750    8.1239   90.3658   10.8299   12.1724    8.5529    2.6530    0.0079    0.1345    3.6329   37.0000   37.0000 
7743.5157 2360.2236    7.8750    8.1172   91.9757   10.6582   12.0670    6.9335    2.6625    0.0093    0.1386    3.7206   37.0000   37.0000 
7744.0157 2360.3760    7.8750    8.1222   95.1133    8.0016    9.3201    7.2776    2.6758    0.0162    0.1330    3.8116   37.0000   37.0000 
7744.5157 2360.5283    7.8750    8.1415  104.4139    7.4099    8.3378    7.0409    2.6391    0.0170    0.1464    3.6025   37.0000   37.0000 
7745.0157 2360.6809    7.8750    8.1475  108.8551    7.5720    9.4804    5.7512    2.6203    0.0169    0.1555    3.5646   37.0000   37.0000 
7745.5157 2360.8333    7.8750    8.1280  107.9587    7.5203    9.3985    5.7846    2.6264    0.0176    0.1485    3.5848   37.0000   37.0000 
7746.0157 2360.9856    7.8750    8.1211  103.7229    7.0377    8.5593    5.9355    2.6476    0.0195    0.1418    3.4163   37.0000   37.0000 
7746.5157 2361.1379    7.8750    8.1303  105.2693    7.5343    9.6618    5.1301    2.6424    0.0182    0.1495    3.3155   37.0000   37.0000 
7747.0157 2361.2903    7.8750    8.1492  107.0137    7.9007    9.7673    5.7951    2.6363    0.0179    0.1628    3.4371   37.0000   37.0000 
7747.5157 2361.4429    7.8750    8.1692  104.5297    7.9339   10.5926    7.1171    2.6290    0.0206    0.1831    3.6091   37.0000   37.0000 
7748.0157 2361.5952    7.8750    8.1658   99.4461    7.5038   10.2402    6.3090    2.6210    0.0199    0.1706    3.7062   37.0000   37.0000 
7748.5157 2361.7476    7.8750    8.1695   97.8325    7.2525    9.3481    5.2368    2.6229    0.0160    0.1617    3.7142   37.0000   37.0000 
7749.0157 2361.8999    7.8750    8.1802   99.5059    7.0336    9.1456    4.8742    2.6267    0.0158    0.1566    3.6238   37.0000   37.0000 
7749.5157 2362.0525    7.8750    8.1535  102.8676    7.1153    9.1507    5.4757    2.6248    0.0185    0.1627    3.4870   37.0000   37.0000 
7750.0157 2362.2048    7.8750    8.1322  105.9977    7.8315    9.9609    6.0569    2.6188    0.0155    0.1647    3.4984   37.0000   37.0000 
7750.5157 2362.3572    7.8750    8.1247  107.5142    9.4006   11.4969    6.8263    2.6094    0.0100    0.1720    3.5797   37.0000   37.0000 
7751.0157 2362.5095    7.8750    8.1298  105.0265    9.9828   12.3471   10.1044    2.6119    0.0089    0.1629    3.5526   37.0000   37.0000 
7751.5157 2362.6621    7.8750    8.1293   92.9655    9.4990   10.8296    9.0354    2.6352    0.0097    0.1402    3.6937   37.0000   37.0000 
7752.0157 2362.8145    7.8750    8.0950   77.8006    9.0279    9.6632    5.9912    2.6533    0.0130    0.1385    4.3530   37.0000   37.0000 
7752.5157 2362.9668    7.8750    8.0885   74.0056    7.9950    8.2352    5.5672    2.6532    0.0170    0.1314    5.0190   37.0000   22.0000 
7753.0157 2363.1191    7.8750    8.0913   86.1600    7.5295    8.0788    5.7338    2.6458    0.0166    0.1540    4.7470   37.0000   37.0000 
7753.5157 2363.2715    7.8750    8.1076  103.3195    7.7274    8.0169    5.5839    2.6382    0.0156    0.1738    3.9105   37.0000   37.0000 
7754.0157 2363.4241    7.8750    8.1139  110.4725    7.5190    8.2491    5.6288    2.6378    0.0158    0.1790    3.5548   37.0000   37.0000 
7754.5157 2363.5764    7.8750    8.1136  110.0877    7.1898    7.5521    5.5500    2.6440    0.0152    0.1689    3.5720   37.0000   37.0000 
