~VERSION INFORMATION
 VERS.                 2.0:   CWLS LOG ASCII STANDARD - VERSION 2.0
 WRAP.                  NO:   SINGLE LINE PER DEPTH STEP
 CREA.                 01/12/2017 17:02:35
#CREATED USING DSPetro VERSION 5000.10.1.3 BY H191660 ON 01/12/2017 17:02:35
~WELL INFORMATION
#MNEM.UNIT       DATA                          DESCRIPTION MNEMONIC
#---------      ---------------------------   --------------------------
 STRT    .FT        50.4921                   : START DEPTH
 STOP    .FT        8514.9921                 : STOP DEPTH
 STEP    .FT        0.5000                    : STEP VALUE
 NULL    .      -999.0000                     : NULL VALUE
 DATE    .      01/12/2017                    : LAS file Creation Date
 WELL .      UNIVERSITY_42_22_4210540532 : Well Name
 COMP .                                  : Company
 FLD  .      HOLT RANCH (CONSOLIDATED)�  : Field
 UWI  .      224                         : Unique Well Identifier (UWI)
 LOC  .                                  : Location
 RWS  .      -999                        : Def_Rw
 WST  .      -999                        : Def_Rwt
 SRVC .                                  : Contractor
~CURVE INFORMATION
#MNEM              UNIT       API CODE   Curve Type Comments
#----------  --------------- ----------  ---------- -----------
 DEPTH      .FT                        : Depth       
 DEPTH_(m)  .                          :             
 BitSize    .inch                      : BitSize     
 CAL_INCH   .inch                      :             Caliper Log - A representation of the measured diameter of a borehole along its depth
 GR_API     .API                       : GammaRay    Gamma Ray (API) - Measures the intensity of natural gamma-ray radiation emitted from formations containing radioactive elements, such as K, Th and U
 LLD_OHMM   .ohmm                      :             Laterlog Deep Resistivity - Measurement made several feet into the formation; generally considered a measurement of the undisturbed formation
 LLS_OHMM   .ohmm                      :             Laterlog Shallow Resistivity - one to two feet into the formation; generally considered to measure the formation
 RHOB_G_CC  .g/cc                      :             Bulk Density - Measures the density of bulk material, including any void space or other materials contained in the subject volume
 DRHO_G_CC  .g/cc                      :             Density Correction - Investigates the correction to the Bulk Density log; used as an indication of hole condition to validate the Bulk Density measure
 NPHI_v/v   .dec                       : Neutron     
 PEF_B_E    .b/e-                      : PEF         Photoelectric Factor - A log of photoelectric absorption properties. Often expressed in an approximation unit barns/electron (b/e-)
 LITH       .                          : LITH        Lithology Curve
 LITH_v2    .                          : LITH        Lithology Curve
~A  DEPTH DEPTH_(m)  BitSize   CAL_INCH   GR_API   LLD_OHMM  LLS_OHMM RHOB_G_C  DRHO_G_C   NPHI_v/v  PEF_B_E     LITH    LITH_v2  
# ...
5878.4921 1791.7644    7.8750    8.1734  167.1740   45.2353   35.9577    2.4510   -0.0162    0.1819    3.2771   37.0000   37.0000 
5878.9921 1791.9167    7.8750    8.1734  169.3432   45.7184   36.4860    2.4526   -0.0115    0.1880    3.2822   37.0000   37.0000 
5879.4921 1792.0692    7.8750    8.2203  171.2714   44.0970   35.7570    2.4486   -0.0123    0.1966    3.2409   37.0000   37.0000 
5879.9921 1792.2216    7.8750    8.1891  170.6447   39.9851   33.3342    2.4531   -0.0130    0.2114    3.1939   37.0000   37.0000 
5880.4921 1792.3740    7.8750    8.1891  166.4991   34.9938   29.5234    2.4739   -0.0132    0.2086    3.2368   37.0000   37.0000 
5880.9921 1792.5264    7.8750    8.2125  139.6009   30.7836   25.5507    2.5255   -0.0100    0.1860    3.3411   37.0000   37.0000 
5881.4921 1792.6788    7.8750    8.1734  116.5108   28.2776   22.7385    2.5569   -0.0046    0.1710    3.3622   37.0000   37.0000 
5881.9921 1792.8312    7.8750    8.2047  115.3057   27.5749   22.0175    2.5238   -0.0018    0.1611    3.1762   37.0000   37.0000 
5882.4921 1792.9836    7.8750    8.1734  119.5477   28.5150   22.8945    2.5120    0.0037    0.1712    3.0680   37.0000   37.0000 
5882.9921 1793.1360    7.8750    8.2125  136.2266   31.1352   25.3583    2.5369    0.0101    0.1706    3.2184   37.0000   37.0000 
5883.4921 1793.2885    7.8750    8.2437  143.7465   34.3736   28.6566    2.5246    0.0099    0.1752    3.3389   37.0000   37.0000 
5883.9921 1793.4408    7.8750    8.2203  136.5640   37.1431   31.1497    2.4961    0.0113    0.1864    3.2874   37.0000   37.0000 
5884.4921 1793.5931    7.8750    8.2359  129.3815   37.4971   31.9957    2.5059    0.0172    0.1781    3.2145   37.0000   37.0000 
5884.9921 1793.7456    7.8750    8.1812  133.1897   35.2752   29.9596    2.5226    0.0195    0.1722    3.2171   37.0000   37.0000 
5885.4921 1793.8979    7.8750    8.1656  136.0820   33.3941   27.0376    2.5184    0.0200    0.1836    3.2787   37.0000   37.0000 
5885.9921 1794.0504    7.8750    8.2281  120.8493   33.4916   25.7714    2.5190    0.0206    0.1844    3.3133   37.0000   37.0000 
5886.4921 1794.2028    7.8750    8.1969  109.0873   35.8887   27.2399    2.5213    0.0175    0.1737    3.2643   37.0000   37.0000 
5886.9921 1794.3552    7.8750    8.2203   99.4464   39.9534   30.9158    2.5240    0.0140    0.1684    3.2518   37.0000   37.0000 
5887.4921 1794.5076    7.8750    8.1891   93.9992   43.4834   34.3145    2.5283    0.0116    0.1645    3.3083   37.0000   37.0000 
5887.9921 1794.6600    7.8750    8.2047  101.5674   44.0723   35.7742    2.5190    0.0085    0.1724    3.2703   37.0000   37.0000 
5888.4921 1794.8124    7.8750    8.2125  112.9919   42.5124   34.7305    2.4995    0.0057    0.1917    3.1882   37.0000   37.0000 
5888.9921 1794.9648    7.8750    8.2359  117.9730   41.0345   34.1744    2.4737    0.0033    0.1907    3.1051   37.0000   37.0000 
5889.4921 1795.1172    7.8750    8.2047  126.5535   40.1935   34.7132    2.4580    0.0009    0.1930    3.0014   37.0000   37.0000 
5889.9921 1795.2697    7.8750    8.2359  141.6255   38.7900   34.2891    2.4645   -0.0001    0.1988    2.9940   37.0000   37.0000 
5890.4921 1795.4220    7.8750    8.2281  145.3373   37.8421   33.7174    2.4754    0.0017    0.1923    3.0343   37.0000   37.0000 
5890.9921 1795.5743    7.8750    8.2516  132.3220   37.0521   32.7609    2.4874    0.0037    0.1878    3.1163   37.0000   37.0000 
5891.4921 1795.7268    7.8750    8.2125  122.1026   37.5815   32.9854    2.5094    0.0047    0.1962    3.2984   37.0000   37.0000 
5891.9921 1795.8792    7.8750    8.2047  129.7671   39.2560   35.9604    2.5063    0.0054    0.2065    3.3613   37.0000   37.0000 
5892.4921 1796.0316    7.8750    8.2359  136.6122   38.0319   36.5706    2.4667    0.0031    0.2051    3.1886   37.0000   37.0000 
5892.9921 1796.1840    7.8750    8.2281  123.1631   34.2968   33.9209    2.4529    0.0001    0.2113    3.0698   37.0000   37.0000 
5893.4921 1796.3364    7.8750    8.1812  107.9786   29.4564   28.9478    2.4886    0.0003    0.2054    3.1362   37.0000   37.0000 
5893.9921 1796.4888    7.8750    8.2125  111.3529   25.6911   23.7638    2.5160   -0.0055    0.1934    3.1804   37.0000   37.0000 
5894.4921 1796.6412    7.8750    8.2281  118.1498   24.3070   21.9577    2.4904   -0.0141    0.1786    3.1349   37.0000   37.0000 
5894.9921 1796.7936    7.8750    8.2281  123.3559   24.1411   21.8679    2.4616   -0.0124    0.1851    3.1210   37.0000   37.0000 
5895.4921 1796.9460    7.8750    8.2203  122.6810   24.6112   22.3579    2.4826   -0.0085    0.1937    3.2307   37.0000   37.0000 
5895.9921 1797.0984    7.8750    8.2125  116.5590   25.0444   22.9954    2.5103   -0.0069    0.1904    3.4132   37.0000   37.0000 
5896.4921 1797.2509    7.8750    8.2203  117.6677   24.7587   22.5821    2.5210   -0.0025    0.1626    3.5335   37.0000   37.0000 
5896.9921 1797.4032    7.8750    8.1891  120.9457   24.8809   22.6997    2.5400    0.0056    0.1672    3.5727   37.0000   37.0000 
5897.4921 1797.5555    7.8750    8.2281  124.7056   25.8614   23.5605    2.5437    0.0141    0.1866    3.4764   37.0000   37.0000 
5897.9921 1797.7080    7.8750    8.2047  123.6451   28.1711   25.1901    2.5182    0.0151    0.2051    3.1796   37.0000   37.0000 
5898.4921 1797.8604    7.8750    8.2437  121.6205   32.2910   29.3083    2.5025    0.0146    0.2064    2.9499   37.0000   37.0000 
5898.9921 1798.0128    7.8750    8.2359  124.8020   35.8969   32.9525    2.4984    0.0164    0.2120    3.0145   37.0000   37.0000 
5899.4921 1798.1652    7.8750    8.2359  133.6235   36.9314   34.3930    2.4781    0.0127    0.2114    3.1531   37.0000   37.0000 
5899.9921 1798.3176    7.8750    8.2281  135.2625   35.4243   32.4012    2.4613    0.0106    0.2103    3.2162   37.0000   37.0000 
5900.4921 1798.4700    7.8750    8.1891  117.1857   34.2721   28.9413    2.4733    0.0136    0.2338    3.3605   37.0000   37.0000 
5900.9921 1798.6224    7.8750    8.1656   85.4188   37.1005   29.5907    2.5108    0.0123    0.2277    3.5812   37.0000   37.0000 
5901.4921 1798.7748    7.8750    8.1422   51.4344   47.3573   40.1302    2.5999    0.0121    0.1660    3.8146   37.0000   37.0000 
5901.9921 1798.9272    7.8750    8.1266   35.4787   66.9438   67.4405    2.7221    0.0162    0.0827    4.1401   12.0000   12.0000 
5902.4921 1799.0796    7.8750    8.0484   30.8510   85.6776   89.0207    2.7884    0.0179    0.0552    4.4200   12.0000   12.0000 
5902.9921 1799.2321    7.8750    8.0172   33.8397   80.1170   90.2522    2.7624    0.0161    0.0563    4.5562   12.0000   12.0000 
5903.4921 1799.3844    7.8750    8.0172   58.3759   57.8995   65.4840    2.6685    0.0095    0.0613    4.4604   18.0000   18.0000 
5903.9921 1799.5367    7.8750    8.0406   90.7213   42.9489   42.7530    2.5627    0.0008    0.0729    3.8329   18.0000   18.0000 
5904.4921 1799.6892    7.8750    8.0719  113.5703   36.1346   34.1788    2.5008   -0.0062    0.1087    3.1509   37.0000   37.0000 
5904.9921 1799.8416    7.8750    8.1422  124.8020   33.2793   30.5977    2.4841   -0.0117    0.1702    3.0596   37.0000   37.0000 
5905.4921 1799.9940    7.8750    8.1187  113.4257   33.2283   30.2475    2.4769   -0.0130    0.1964    3.2080   37.0000   37.0000 
5905.9921 1800.1464    7.8750    8.1578  106.9663   34.7597   31.4318    2.4749   -0.0065    0.1744    3.1729   37.0000   37.0000 
5906.4921 1800.2988    7.8750    8.1500  117.6195   38.4496   33.9768    2.4776    0.0014    0.1855    3.0047   37.0000   37.0000 
5906.9921 1800.4512    7.8750    8.1578  122.3918   46.9081   41.5135    2.4828    0.0055    0.1978    2.8814   37.0000   37.0000 
5907.4921 1800.6036    7.8750    8.1187  107.4483   63.3458   57.4093    2.4927    0.0079    0.2058    2.9587   37.0000   37.0000 
5907.9921 1800.7560    7.8750    8.1578   79.0558   89.5221   82.6697    2.4956    0.0004    0.1905    3.1990   37.0000   37.0000 
5908.4921 1800.9084    7.8750    8.0953   63.8713  113.4758  111.0576    2.5253   -0.0084    0.1541    3.5276   37.0000   37.0000 
5908.9921 1801.0608    7.8750    8.0641   59.5901  101.3413  110.0190    2.5802   -0.0053    0.1121    3.9221   37.0000   22.0000 
