~VERSION INFORMATION
 VERS.                 2.0:   CWLS LOG ASCII STANDARD - VERSION 2.0
 WRAP.                  NO:   SINGLE LINE PER DEPTH STEP
 CREA.                 01/12/2017 17:02:35
#CREATED USING DSPetro VERSION 5000.10.1.3 BY H191660 ON 01/12/2017 17:02:35
~WELL INFORMATION
#MNEM.UNIT       DATA                          DESCRIPTION MNEMONIC
#---------      ---------------------------   --------------------------
 STRT    .FT        50.4921                   : START DEPTH
 STOP    .FT        8514.9921                 : STOP DEPTH
 STEP    .FT        0.5000                    : STEP VALUE
 NULL    .      -999.0000                     : NULL VALUE
 DATE    .      01/12/2017                    : LAS file Creation Date
 WELL .      UNIVERSITY_42_22_4210540532 : Well Name
 COMP .                                  : Company
 FLD  .      HOLT RANCH (CONSOLIDATED)�  : Field
 UWI  .      224                         : Unique Well Identifier (UWI)
 LOC  .                                  : Location
 RWS  .      -999                        : Def_Rw
 WST  .      -999                        : Def_Rwt
 SRVC .                                  : Contractor
~CURVE INFORMATION
#MNEM              UNIT       API CODE   Curve Type Comments
#----------  --------------- ----------  ---------- -----------
 DEPTH      .FT                        : Depth       
 DEPTH_(m)  .                          :             
 BitSize    .inch                      : BitSize     
 CAL_INCH   .inch                      :             Caliper Log - A representation of the measured diameter of a borehole along its depth
 GR_API     .API                       : GammaRay    Gamma Ray (API) - Measures the intensity of natural gamma-ray radiation emitted from formations containing radioactive elements, such as K, Th and U
 LLD_OHMM   .ohmm                      :             Laterlog Deep Resistivity - Measurement made several feet into the formation; generally considered a measurement of the undisturbed formation
 LLS_OHMM   .ohmm                      :             Laterlog Shallow Resistivity - one to two feet into the formation; generally considered to measure the formation
 RHOB_G_CC  .g/cc                      :             Bulk Density - Measures the density of bulk material, including any void space or other materials contained in the subject volume
 DRHO_G_CC  .g/cc                      :             Density Correction - Investigates the correction to the Bulk Density log; used as an indication of hole condition to validate the Bulk Density measure
 NPHI_v/v   .dec                       : Neutron     
 PEF_B_E    .b/e-                      : PEF         Photoelectric Factor - A log of photoelectric absorption properties. Often expressed in an approximation unit barns/electron (b/e-)
 LITH       .                          : LITH        Lithology Curve
 LITH_v2    .                          : LITH        Lithology Curve
~A  DEPTH DEPTH_(m)  BitSize   CAL_INCH   GR_API   LLD_OHMM  LLS_OHMM RHOB_G_C  DRHO_G_C   NPHI_v/v  PEF_B_E     LITH    LITH_v2  
# ...
6312.4921 1924.0476    7.8750    8.3062   99.0607   29.8943   21.9596    2.4898   -0.0107    0.2009    3.1272   37.0000   37.0000 
6312.9921 1924.2000    7.8750    8.2906   96.5541   30.5941   21.8643    2.5066   -0.0082    0.1877    3.4520   37.0000   37.0000 
6313.4921 1924.3524    7.8750    8.2906   90.3357   32.2474   22.9293    2.5194   -0.0088    0.1767    3.7158   37.0000   37.0000 
6313.9921 1924.5048    7.8750    8.2672   76.1635   34.5986   25.5318    2.5463   -0.0074    0.1692    3.9685   37.0000   37.0000 
6314.4921 1924.6572    7.8750    8.2359   85.9008   35.0362   27.9285    2.5636    0.0001    0.1579    4.0845   37.0000   37.0000 
6314.9921 1924.8096    7.8750    8.2359   98.8679   32.6971   27.3128    2.5385    0.0047    0.1577    3.6663   37.0000   37.0000 
6315.4921 1924.9620    7.8750    8.2516   96.2166   29.7532   25.6305    2.5116    0.0083    0.1944    3.0788   37.0000   37.0000 
6315.9921 1925.1144    7.8750    8.2516  107.0627   27.4731   23.0478    2.5039    0.0094    0.1985    2.8267   37.0000   37.0000 
6316.4921 1925.2668    7.8750    8.2594  120.9457   27.2854   22.5087    2.4944    0.0099    0.1944    2.7997   37.0000   37.0000 
6316.9921 1925.4192    7.8750    8.2516  125.4769   29.0419   23.7173    2.4872    0.0156    0.1932    2.8256   37.0000   37.0000 
6317.4921 1925.5717    7.8750    8.2750  121.8134   32.1653   26.4616    2.4960    0.0139    0.1903    2.8573   37.0000   37.0000 
6317.9921 1925.7240    7.8750    8.2437  111.2565   36.0015   29.8413    2.5153    0.0111    0.1787    2.9188   37.0000   37.0000 
6318.4921 1925.8763    7.8750    8.2437   99.2053   41.3337   33.9228    2.5343    0.0106    0.1840    3.1031   37.0000   37.0000 
6318.9921 1926.0288    7.8750    8.2047   90.1428   47.0758   39.2529    2.5449    0.0045    0.1563    3.3031   37.0000   37.0000 
6319.4921 1926.1812    7.8750    8.1500   90.0946   52.0715   41.7197    2.5423    0.0010    0.1381    3.3714   37.0000   37.0000 
6319.9921 1926.3336    7.8750    8.1891   89.0823   57.4418   45.6310    2.5248   -0.0001    0.1427    3.4377   37.0000   37.0000 
6320.4921 1926.4860    7.8750    8.1187   90.4321   59.4806   45.4827    2.4978   -0.0026    0.1343    3.3870   37.0000   37.0000 
6320.9921 1926.6384    7.8750    8.1109   92.6977   64.5511   47.4014    2.4739   -0.0054    0.1309    3.1492   37.0000   37.0000 
6321.4921 1926.7908    7.8750    8.1422   87.3470   73.0595   52.7281    2.4788   -0.0053    0.1532    3.1332   37.0000   37.0000 
6321.9921 1926.9432    7.8750    8.1500   70.1861   85.5054   60.6872    2.5144   -0.0020    0.1598    3.3984   37.0000   37.0000 
6322.4921 1927.0956    7.8750    8.2125   55.0980  104.7680   75.7456    2.5411   -0.0023    0.1340    3.7142   37.0000   22.0000 
6322.9921 1927.2480    7.8750    8.1031   50.0365  118.9384   88.3165    2.5547   -0.0029    0.1075    4.0526   37.0000   22.0000 
6323.4921 1927.4004    7.8750    8.1500   58.5687  116.0370   91.2764    2.5693    0.0006    0.0960    4.2786   18.0000   22.0000 
6323.9921 1927.5529    7.8750    8.1109   69.3666   97.6577   81.1158    2.5701    0.0037    0.1034    4.1892   37.0000   22.0000 
6324.4921 1927.7052    7.8750    8.1812   71.3912   77.4219   65.2605    2.5666    0.0053    0.1121    4.0027   37.0000   22.0000 
6324.9921 1927.8575    7.8750    8.1422   77.7542   61.8546   52.0970    2.5730    0.0100    0.1271    3.9757   37.0000   22.0000 
6325.4921 1928.0100    7.8750    8.1344   88.4557   52.3744   43.9043    2.5663    0.0144    0.1394    3.8649   37.0000   37.0000 
6325.9921 1928.1624    7.8750    8.1500   97.4700   46.9099   39.3224    2.5390    0.0122    0.1447    3.5265   37.0000   37.0000 
6326.4921 1928.3148    7.8750    8.1969  110.7263   44.2079   36.5450    2.5142    0.0109    0.1699    3.1491   37.0000   37.0000 
6326.9921 1928.4672    7.8750    8.2359  114.8237   43.3947   36.3856    2.4940    0.0090    0.2008    2.9075   37.0000   37.0000 
6327.4921 1928.6196    7.8750    8.2203  109.0873   43.5342   37.1096    2.4700    0.0024    0.2006    2.8648   37.0000   37.0000 
6327.9921 1928.7720    7.8750    8.2125  105.8576   43.6058   37.7029    2.4682    0.0016    0.1822    2.8945   37.0000   37.0000 
6328.4921 1928.9244    7.8750    8.2594   95.7346   43.6462   37.7054    2.5033    0.0051    0.1737    2.9269   37.0000   37.0000 
6328.9921 1929.0768    7.8750    8.2437   79.5378   43.5306   37.2643    2.5308    0.0026    0.1772    3.0298   37.0000   37.0000 
6329.4921 1929.2292    7.8750    8.2516   75.1030   44.2462   36.9998    2.5456    0.0055    0.1529    3.2087   37.0000   37.0000 
6329.9921 1929.3816    7.8750    8.2203   83.2496   45.9481   38.3073    2.5509    0.0160    0.1556    3.3437   37.0000   37.0000 
6330.4921 1929.5341    7.8750    8.2359   88.1665   47.9112   39.7847    2.5188    0.0204    0.1673    3.3311   37.0000   37.0000 
6330.9921 1929.6864    7.8750    8.2672   87.3952   48.2389   40.7561    2.4928    0.0208    0.1656    3.3215   37.0000   37.0000 
6331.4921 1929.8387    7.8750    8.2047   91.2033   45.4701   39.2427    2.4864    0.0171    0.1740    3.3656   37.0000   37.0000 
6331.9921 1929.9912    7.8750    8.2047   94.9151   41.8659   35.4696    2.4740    0.0111    0.1741    3.3215   37.0000   37.0000 
6332.4921 1930.1436    7.8750    8.2203   89.0823   39.3638   32.9785    2.4808    0.0119    0.1692    3.2559   37.0000   37.0000 
6332.9921 1930.2960    7.8750    8.2125   88.5521   37.2720   31.1416    2.5029    0.0118    0.1590    3.2938   37.0000   37.0000 
6333.4921 1930.4484    7.8750    8.2281   88.2147   35.9255   30.4436    2.5139    0.0047    0.1541    3.4372   37.0000   37.0000 
6333.9921 1930.6008    7.8750    8.2125   85.8526   34.2661   29.4690    2.5287    0.0010    0.1574    3.5855   37.0000   37.0000 
6334.4921 1930.7532    7.8750    8.2203   94.4331   31.8388   26.8393    2.5431    0.0025    0.1679    3.5163   37.0000   37.0000 
6334.9921 1930.9056    7.8750    8.2281  108.6053   29.9412   24.9700    2.5348    0.0033    0.1963    3.2417   37.0000   37.0000 
6335.4921 1931.0580    7.8750    8.2281  118.8247   28.5854   23.8673    2.5128    0.0021    0.1957    3.0514   37.0000   37.0000 
6335.9921 1931.2104    7.8750    8.2516  128.3692   28.1371   23.2500    2.5032    0.0012    0.1870    3.0023   37.0000   37.0000 
6336.4921 1931.3628    7.8750    8.2594  118.7282   29.3970   24.1664    2.5251    0.0036    0.2109    3.0017   37.0000   37.0000 
6336.9921 1931.5153    7.8750    8.2672   94.1438   31.7472   25.6331    2.5608    0.0068    0.1746    3.1258   37.0000   37.0000 
6337.4921 1931.6676    7.8750    8.2672   91.8782   34.7964   28.3446    2.5839    0.0094    0.1686    3.3977   37.0000   37.0000 
6337.9921 1931.8199    7.8750    8.2125  101.7120   36.8520   31.0157    2.5816    0.0123    0.1610    3.5822   37.0000   37.0000 
6338.4921 1931.9724    7.8750    8.2437  103.3027   36.4354   31.0809    2.5542    0.0148    0.1712    3.5680   37.0000   37.0000 
6338.9921 1932.1248    7.8750    8.2125  102.0494   33.5398   28.7520    2.5258    0.0159    0.1862    3.4218   37.0000   37.0000 
6339.4921 1932.2772    7.8750    8.2047   98.0002   29.8713   24.5735    2.5167    0.0146    0.1817    3.2452   37.0000   37.0000 
6339.9921 1932.4296    7.8750    8.2359   92.2639   27.9658   21.8187    2.5324    0.0149    0.1512    3.2863   37.0000   37.0000 
6340.4921 1932.5820    7.8750    8.2203   95.9274   29.0079   21.5868    2.5452    0.0184    0.1597    3.3847   37.0000   37.0000 
6340.9921 1932.7344    7.8750    8.1969   90.9623   33.5497   25.1868    2.5257    0.0182    0.1634    3.2426   37.0000   37.0000 
6341.4921 1932.8868    7.8750    8.2281   68.6917   42.2863   33.3935    2.5067    0.0104    0.1569    3.2519   37.0000   37.0000 
6341.9921 1933.0392    7.8750    8.2125   65.0764   51.6674   42.8004    2.5228   -0.0022    0.1214    3.6449   37.0000   22.0000 
6342.4921 1933.1917    7.8750    8.2047   76.9347   53.9850   46.1956    2.5411   -0.0187    0.1175    3.9659   37.0000   22.0000 
6342.9921 1933.3440    7.8750    8.1969   88.7931   47.7378   42.3388    2.5228   -0.0307    0.1440    3.8455   37.0000   37.0000 
