~VERSION INFORMATION
 VERS.                 2.0:   CWLS LOG ASCII STANDARD - VERSION 2.0
 WRAP.                  NO:   SINGLE LINE PER DEPTH STEP
 CREA.                 12/04/2017 16:08:09
#CREATED USING DSPetro VERSION 5000.10.1.3 BY H191660 ON 12/04/2017 16:08:09
~WELL INFORMATION
#MNEM.UNIT       DATA                          DESCRIPTION MNEMONIC
#---------      ---------------------------   --------------------------
 STRT    .FT        174.0157                  : START DEPTH
 STOP    .FT        9268.0157                 : STOP DEPTH
 STEP    .FT        0.5000                    : STEP VALUE
 NULL    .      -999.0000                     : NULL VALUE
 DATE    .      12/04/2017                    : LAS file Creation Date
 WELL .      UNIVERSITY_45_8_4210540952 : Well Name
 COMP .                                 : Company
 FLD  .      WILDCAT (7C)               : Field
 UWI  .      X495988                    : Unique Well Identifier (UWI)
 LOC  .                                 : Location
 RWS  .      -999                       : Def_Rw
 WST  .      -999                       : Def_Rwt
 SRVC .                                 : Contractor
~CURVE INFORMATION
#MNEM              UNIT       API CODE   Curve Type Comments
#----------  --------------- ----------  ---------- -----------
 DEPTH      .FT                        : Depth       
 DEPTH_(m)  .                          :             
 BitSize    .in                        : bitSize     
 CAL_INCH   .inch                      :             Caliper Log - A representation of the measured diameter of a borehole along its depth
 GR_API     .API                       : GammaRay    Gamma Ray (API) - Measures the intensity of natural gamma-ray radiation emitted from formations containing radioactive elements, such as K, Th and U
 LLD_OHMM   .ohmm                      :             Laterlog Deep Resistivity - Measurement made several feet into the formation; generally considered a measurement of the undisturbed formation
 LLS_OHMM   .ohmm                      :             Laterlog Shallow Resistivity - one to two feet into the formation; generally considered to measure the formation
 MSFL_OHMM  .ohmm                      :             Micro-Spherically Focused Log - Measurement involves only the first few inches of the formation immediately adjacent to the borehole
 RHOB_G_CC  .g/cc                      :             Bulk Density - Measures the density of bulk material, including any void space or other materials contained in the subject volume
 DRHO_G_CC  .g/cc                      :             Density Correction - Investigates the correction to the Bulk Density log; used as an indication of hole condition to validate the Bulk Density measure
 NPHI_v/v   .PC                        : Neutron     Neutron Porosity - Measured with an neutron logging device calibrated to a given matrix (limestone, sandstone and dolomite)
 PEF_B_E    .b/e-                      : PEF         Photoelectric Factor - A log of photoelectric absorption properties. Often expressed in an approximation unit barns/electron (b/e-)
 LITH       .                          : LITH        Lithology Curve
 LITH_v2    .                          : LITH        Lithology Curve
~A  DEPTH DEPTH_(m)  BitSize   CAL_INCH   GR_API   LLD_OHMM  LLS_OHMM MSFL_OHM  RHOB_G_C  DRHO_G_C   NPHI_v/v  PEF_B_E     LITH    LITH_v2  
# ...
7242.0157 2207.3665    7.8750    7.7967   82.2119   20.0079   20.1016    5.8484    2.5683   -0.0088    0.1422    3.3505   37.0000   37.0000 
7242.5157 2207.5188    7.8750    7.7745   92.5211   20.0089   17.7039    6.0501    2.5467   -0.0084    0.1543    3.2485   37.0000   37.0000 
7243.0157 2207.6711    7.8750    7.7921  104.1525   22.2032   22.0939    9.4480    2.5335   -0.0049    0.1721    3.0817   37.0000   37.0000 
7243.5157 2207.8235    7.8750    7.7842  107.6486   22.0467   21.3804   11.8680    2.5318   -0.0024    0.1782    2.9839   37.0000   37.0000 
7244.0157 2207.9761    7.8750    7.7876  101.5304   20.6083   18.7847    8.8588    2.5651    0.0052    0.1606    3.0032   37.0000   37.0000 
7244.5157 2208.1284    7.8750    7.7972   87.4262   17.9016   15.6407    5.5130    2.5918    0.0063    0.1449    3.1768   37.0000   37.0000 
7245.0157 2208.2808    7.8750    7.8105   82.4136   15.8554   14.3251    5.3518    2.5907    0.0046    0.1370    3.1914   37.0000   37.0000 
7245.5157 2208.4331    7.8750    7.8172   87.3366   15.8728   13.5970    5.2198    2.5774    0.0033    0.1491    3.1437   37.0000   37.0000 
7246.0157 2208.5857    7.8750    7.8304  111.2344   17.4921   14.7012    6.2770    2.5487   -0.0012    0.1777    3.0550   37.0000   37.0000 
7246.5157 2208.7380    7.8750    7.8330  115.8063   18.4253   17.1412    8.9539    2.5532   -0.0006    0.1647    3.0615   37.0000   37.0000 
7247.0157 2208.8904    7.8750    7.8460  109.6208   18.2225   18.6549    8.7797    2.5657    0.0017    0.1642    3.0627   37.0000   37.0000 
7247.5157 2209.0427    7.8750    7.8254   99.0278   16.7604   17.4589    6.3248    2.5829    0.0038    0.1543    3.2568   37.0000   37.0000 
7248.0157 2209.1953    7.8750    7.8044   91.0120   14.4629   14.9394    5.0684    2.5896    0.0056    0.1552    3.6812   37.0000   37.0000 
7248.5157 2209.3477    7.8750    7.7944   90.4368   12.7751   12.7021    4.6359    2.5867    0.0074    0.1557    3.8401   37.0000   37.0000 
7249.0157 2209.5000    7.8750    7.8216   98.6319   12.2738   11.9188    4.7347    2.5755    0.0107    0.1624    3.4761   37.0000   37.0000 
7249.5157 2209.6523    7.8750    7.8387  108.5600   12.0727   11.0444    4.7350    2.5578    0.0135    0.1966    3.1037   37.0000   37.0000 
7250.0157 2209.8047    7.8750    7.8339  111.4212   12.6676   11.0223    4.8467    2.5486    0.0119    0.1883    3.0713   37.0000   37.0000 
7250.5157 2209.9573    7.8750    7.8354  110.4725   12.8119   10.9793    5.9584    2.5536    0.0114    0.1914    3.1674   37.0000   37.0000 
7251.0157 2210.1096    7.8750    7.8356  109.2398   12.3584   10.9857    6.5648    2.5565    0.0140    0.1890    3.1970   37.0000   37.0000 
7251.5157 2210.2620    7.8750    7.8503  109.2249   13.9079   11.1335    5.9126    2.5442    0.0161    0.1939    3.1531   37.0000   37.0000 
7252.0157 2210.4143    7.8750    7.8211  113.1543   13.9924   11.5963    8.3800    2.5397    0.0207    0.2090    3.1446   37.0000   37.0000 
7252.5157 2210.5669    7.8750    7.8272  119.9449   12.5083   10.7414    8.2802    2.5484    0.0255    0.1929    3.2318   37.0000   37.0000 
7253.0157 2210.7192    7.8750    7.8347  112.8032   12.6389   12.6528    5.5737    2.5679    0.0247    0.1726    3.3680   37.0000   37.0000 
7253.5157 2210.8716    7.8750    7.8155   92.0952   11.7008   12.1191    5.2266    2.6009    0.0191    0.1439    3.4764   37.0000   37.0000 
7254.0157 2211.0239    7.8750    7.8016   89.8242   10.4189   11.8924    5.6088    2.6041    0.0137    0.1368    3.4031   37.0000   37.0000 
7254.5157 2211.1765    7.8750    7.8153  105.5121   10.2064   11.1071    5.6715    2.5749    0.0119    0.1432    3.2223   37.0000   37.0000 
7255.0157 2211.3289    7.8750    7.8248  117.0464   10.1072   11.2066    5.2513    2.5579    0.0095    0.1810    3.1559   37.0000   37.0000 
7255.5157 2211.4812    7.8750    7.8264  122.2682    9.1183   10.0853    5.1108    2.5593    0.0067    0.2083    3.1679   37.0000   37.0000 
7256.0157 2211.6335    7.8750    7.8233  125.7793    8.9982    9.5268    4.9465    2.5630    0.0063    0.2049    3.1651   37.0000   37.0000 
7256.5157 2211.7859    7.8750    7.8406  128.7301    9.4994    9.7808    4.6250    2.5721    0.0077    0.1982    3.0908   37.0000   37.0000 
7257.0157 2211.9385    7.8750    7.8416  121.9097   11.0348    9.9923    5.7488    2.5738    0.0128    0.1846    3.0840   37.0000   37.0000 
7257.5157 2212.0908    7.8750    7.8411  119.4220   13.4266   13.3376    8.4741    2.5850    0.0115    0.1900    3.2797   37.0000   37.0000 
7258.0157 2212.2432    7.8750    7.8383  119.7246   13.6522   13.4087   11.8736    2.5982    0.0068    0.1935    3.4796   37.0000   37.0000 
7258.5157 2212.3955    7.8750    7.7692  105.2282   12.8994   11.6627   11.4975    2.6566   -0.0117    0.1900    4.3435   37.0000   37.0000 
7259.0157 2212.5481    7.8750    7.7668   85.2673   12.1277   11.0035    5.9697    2.6819   -0.0081    0.1565    4.6682   37.0000   22.0000 
7259.5157 2212.7004    7.8750    7.7796   71.1482   10.0948    8.9439    5.2056    2.6680    0.0029    0.1251    4.4764   37.0000   22.0000 
7260.0157 2212.8528    7.8750    7.8322   80.6954   10.3315    9.8824    5.9071    2.6084    0.0031    0.1248    3.9069   37.0000   22.0000 
7260.5157 2213.0051    7.8750    7.8386   99.3864   10.8011   10.3001    6.1670    2.5618    0.0003    0.1516    3.3961   37.0000   37.0000 
7261.0157 2213.1577    7.8750    7.8321  110.8161   10.9963   10.2563    6.1638    2.5683    0.0065    0.1754    3.2316   37.0000   37.0000 
7261.5157 2213.3101    7.8750    7.8394  116.3517   10.6497   10.6183    5.4056    2.5838    0.0132    0.1625    3.3612   37.0000   37.0000 
7262.0157 2213.4624    7.8750    7.8257  114.4094    9.8896    9.4872    4.7646    2.5874    0.0127    0.1600    3.5132   37.0000   37.0000 
7262.5157 2213.6147    7.8750    7.8585  109.4042    9.6861    9.6231    4.7504    2.5848    0.0101    0.1645    3.4573   37.0000   37.0000 
7263.0157 2213.7671    7.8750    7.8811  113.3486    9.5668    9.3220    4.6817    2.5748    0.0079    0.1823    3.2962   37.0000   37.0000 
7263.5157 2213.9197    7.8750    7.8886  122.9705    9.3318    9.1285    4.9017    2.5681    0.0062    0.2027    3.2177   37.0000   37.0000 
7264.0157 2214.0720    7.8750    7.8930  127.0941    9.1555    8.6759    4.7548    2.5717    0.0091    0.2076    3.2402   37.0000   37.0000 
7264.5157 2214.2244    7.8750    7.9041  125.4282    9.2889    8.1340    4.4426    2.5736    0.0126    0.1914    3.2804   37.0000   37.0000 
7265.0157 2214.3767    7.8750    7.9050  123.4560    9.6896    8.7949    5.7288    2.5667    0.0137    0.2055    3.3078   37.0000   37.0000 
7265.5157 2214.5293    7.8750    7.9034  123.5083    9.4849    8.4024    7.5351    2.5616    0.0139    0.2140    3.3488   37.0000   37.0000 
7266.0157 2214.6816    7.8750    7.8867  122.7837    8.8278    7.4500    7.6758    2.5764    0.0167    0.1983    3.3837   37.0000   37.0000 
7266.5157 2214.8340    7.8750    7.8676  114.0657    8.8416    7.4088    5.6207    2.6025    0.0191    0.1793    3.5456   37.0000   37.0000 
7267.0157 2214.9863    7.8750    7.8640  105.3104    8.9759    7.4361    5.8890    2.6147    0.0131    0.1735    3.7849   37.0000   37.0000 
7267.5157 2215.1389    7.8750    7.8677  102.1803   10.0620    8.4881    6.0253    2.6100    0.0074    0.1696    3.6871   37.0000   37.0000 
7268.0157 2215.2913    7.8750    7.8836  104.6530   12.0222   10.3998    6.1567    2.5973    0.0079    0.1770    3.3747   37.0000   37.0000 
7268.5157 2215.4436    7.8750    7.8897  106.9688   12.7807   11.1857    5.2272    2.5938    0.0091    0.1801    3.2943   37.0000   37.0000 
7269.0157 2215.5959    7.8750    7.8874  121.3270   12.1226   10.3589    4.8111    2.5909    0.0177    0.1948    3.3393   37.0000   37.0000 
7269.5157 2215.7483    7.8750    7.8996  130.8144   11.3701    9.4400    4.4538    2.5773    0.0191    0.2139    3.3495   37.0000   37.0000 
7270.0157 2215.9009    7.8750    7.8977  133.5187   11.0317    9.3644    4.4600    2.5673    0.0163    0.2203    3.2639   37.0000   37.0000 
