~VERSION INFORMATION
 VERS.                 2.0:   CWLS LOG ASCII STANDARD - VERSION 2.0
 WRAP.                  NO:   SINGLE LINE PER DEPTH STEP
 CREA.                 12/04/2017 16:08:09
#CREATED USING DSPetro VERSION 5000.10.1.3 BY H191660 ON 12/04/2017 16:08:09
~WELL INFORMATION
#MNEM.UNIT       DATA                          DESCRIPTION MNEMONIC
#---------      ---------------------------   --------------------------
 STRT    .FT        174.0157                  : START DEPTH
 STOP    .FT        9268.0157                 : STOP DEPTH
 STEP    .FT        0.5000                    : STEP VALUE
 NULL    .      -999.0000                     : NULL VALUE
 DATE    .      12/04/2017                    : LAS file Creation Date
 WELL .      UNIVERSITY_45_8_4210540952 : Well Name
 COMP .                                 : Company
 FLD  .      WILDCAT (7C)               : Field
 UWI  .      X495988                    : Unique Well Identifier (UWI)
 LOC  .                                 : Location
 RWS  .      -999                       : Def_Rw
 WST  .      -999                       : Def_Rwt
 SRVC .                                 : Contractor
~CURVE INFORMATION
#MNEM              UNIT       API CODE   Curve Type Comments
#----------  --------------- ----------  ---------- -----------
 DEPTH      .FT                        : Depth       
 DEPTH_(m)  .                          :             
 BitSize    .in                        : bitSize     
 CAL_INCH   .inch                      :             Caliper Log - A representation of the measured diameter of a borehole along its depth
 GR_API     .API                       : GammaRay    Gamma Ray (API) - Measures the intensity of natural gamma-ray radiation emitted from formations containing radioactive elements, such as K, Th and U
 LLD_OHMM   .ohmm                      :             Laterlog Deep Resistivity - Measurement made several feet into the formation; generally considered a measurement of the undisturbed formation
 LLS_OHMM   .ohmm                      :             Laterlog Shallow Resistivity - one to two feet into the formation; generally considered to measure the formation
 MSFL_OHMM  .ohmm                      :             Micro-Spherically Focused Log - Measurement involves only the first few inches of the formation immediately adjacent to the borehole
 RHOB_G_CC  .g/cc                      :             Bulk Density - Measures the density of bulk material, including any void space or other materials contained in the subject volume
 DRHO_G_CC  .g/cc                      :             Density Correction - Investigates the correction to the Bulk Density log; used as an indication of hole condition to validate the Bulk Density measure
 NPHI_v/v   .PC                        : Neutron     Neutron Porosity - Measured with an neutron logging device calibrated to a given matrix (limestone, sandstone and dolomite)
 PEF_B_E    .b/e-                      : PEF         Photoelectric Factor - A log of photoelectric absorption properties. Often expressed in an approximation unit barns/electron (b/e-)
 LITH       .                          : LITH        Lithology Curve
 LITH_v2    .                          : LITH        Lithology Curve
~A  DEPTH DEPTH_(m)  BitSize   CAL_INCH   GR_API   LLD_OHMM  LLS_OHMM MSFL_OHM  RHOB_G_C  DRHO_G_C   NPHI_v/v  PEF_B_E     LITH    LITH_v2  
# ...
4249.5157 1295.2524    7.8750    8.1062   76.2281    8.9452    7.5651    4.1442    2.4837   -0.0075    0.2006    2.9812   37.0000   22.0000 
4250.0157 1295.4048    7.8750    8.1132   82.4509   10.9637    8.8085    6.0414    2.4857    0.0008    0.1853    2.6733   18.0000   22.0000 
4250.5157 1295.5573    7.8750    8.1410   78.7531   15.7558   11.0043   12.0703    2.4951    0.0090    0.1688    2.6763   22.0000   22.0000 
4251.0157 1295.7096    7.8750    8.0397   69.8334   22.4971   18.9370   26.2874    2.4972    0.0118    0.1614    2.8090   22.0000   22.0000 
4251.5157 1295.8621    7.8750    8.0422   54.4294   20.0780   21.1651  118.5599    2.5463    0.0138    0.1473    3.1585   18.0000   22.0000 
4252.0157 1296.0144    7.8750    8.0215   38.0692   15.8135   16.2489   15.5870    2.6771    0.0173    0.1169    3.7677   12.0000   12.0000 
4252.5157 1296.1667    7.8750    8.0851   28.8433   11.8638   11.4705    6.7740    2.7941    0.0218    0.1029    4.3217   12.0000   12.0000 
4253.0157 1296.3192    7.8750    8.1073   36.5901    9.1421    8.5591    4.7291    2.7699    0.0260    0.1062    4.3042   12.0000   12.0000 
4253.5157 1296.4716    7.8750    8.1411   63.4089    7.8737    7.1550    4.7903    2.6191    0.0226    0.1592    3.7095   22.0000   12.0000 
4254.0157 1296.6240    7.8750    8.1886   91.7964    7.5671    6.9260    4.6478    2.4802    0.0158    0.2392    3.0990   37.0000   37.0000 
4254.5157 1296.7764    7.8750    8.2123  103.3009    7.2029    7.0267    4.3783    2.4217    0.0118    0.2679    2.8375   37.0000   37.0000 
4255.0157 1296.9288    7.8750    8.2463  105.5868    7.1311    6.8254    4.3040    2.4088    0.0080    0.2698    2.8038   37.0000   37.0000 
4255.5157 1297.0812    7.8750    8.2668  109.7478    7.0545    6.2951    4.2253    2.4256    0.0076    0.2604    2.8341   37.0000   37.0000 
4256.0157 1297.2336    7.8750    8.2831  111.2195    6.9891    7.0265    4.1800    2.4372    0.0080    0.2680    2.8615   37.0000   37.0000 
4256.5157 1297.3860    7.8750    8.3147  112.7659    7.0576    7.1326    3.9974    2.4485    0.0073    0.2519    2.8667   37.0000   37.0000 
4257.0157 1297.5385    7.8750    8.3397  111.2046    6.6921    6.9906    4.1920    2.4579    0.0083    0.2466    2.8110   37.0000   37.0000 
4257.5157 1297.6908    7.8750    8.3448  105.7063    6.5897    6.5548    4.0531    2.4724    0.0117    0.2351    2.7392   37.0000   37.0000 
4258.0157 1297.8431    7.8750    8.3528  103.5474    6.8382    6.5036    4.1155    2.4748    0.0130    0.2337    2.7260   37.0000   37.0000 
4258.5157 1297.9956    7.8750    8.3645  103.0767    7.0872    6.8103    5.5686    2.4731    0.0179    0.2454    2.8537   37.0000   37.0000 
4259.0157 1298.1479    7.8750    8.3709  102.1056    7.1563    7.2107    5.7213    2.4844    0.0183    0.2509    3.0576   37.0000   37.0000 
4259.5157 1298.3004    7.8750    8.3697   92.2895    6.9507    7.1971    4.1503    2.5010    0.0149    0.2530    3.2421   37.0000   37.0000 
4260.0157 1298.4528    7.8750    8.3638   88.3003    6.2343    6.0503    3.5266    2.4972    0.0113    0.2755    3.2079   37.0000   37.0000 
4260.5157 1298.6052    7.8750    8.3823   96.5924    6.0090    5.7804    3.2014    2.4706    0.0095    0.2419    2.9688   37.0000   37.0000 
4261.0157 1298.7576    7.8750    8.3960  104.7277    6.1208    6.0760    3.4837    2.4668    0.0092    0.2459    2.8079   37.0000   37.0000 
4261.5157 1298.9100    7.8750    8.4213  109.8524    6.3317    6.0933    3.9170    2.4919    0.0112    0.2314    2.8384   37.0000   37.0000 
4262.0157 1299.0624    7.8750    8.3905  106.8941    6.9953    6.4518    4.1728    2.4993    0.0114    0.2322    2.8784   37.0000   37.0000 
4262.5157 1299.2148    7.8750    8.3614  100.0139    7.5925    7.4519    4.6247    2.4796    0.0085    0.2386    2.7998   37.0000   37.0000 
4263.0157 1299.3672    7.8750    8.3509  101.8591    7.6102    7.4539    4.9973    2.4540    0.0047    0.2399    2.8289   37.0000   37.0000 
4263.5157 1299.5197    7.8750    8.3644  108.9634    7.4173    7.3211    4.7388    2.4343   -0.0003    0.2529    3.0654   37.0000   37.0000 
4264.0157 1299.6720    7.8750    8.3818  111.6677    7.1905    6.7355    4.0447    2.4384   -0.0021    0.2526    3.2267   37.0000   37.0000 
4264.5157 1299.8243    7.8750    8.3909  109.6283    6.3401    6.5107    3.9519    2.4705   -0.0010    0.2270    3.1810   37.0000   37.0000 
4265.0157 1299.9768    7.8750    8.3924  103.3756    5.8509    5.7898    3.7722    2.4953   -0.0017    0.2143    2.9850   37.0000   37.0000 
4265.5157 1300.1292    7.8750    8.4035   99.1921    6.4253    5.7957    3.6890    2.4868   -0.0009    0.2295    2.7669   37.0000   37.0000 
4266.0157 1300.2816    7.8750    8.4059  104.3841    6.9466    6.5377    5.3020    2.4702    0.0050    0.2311    2.7969   37.0000   37.0000 
4266.5157 1300.4340    7.8750    8.4053  107.6860    7.0360    6.8041    6.2861    2.4917    0.0114    0.2411    3.1426   37.0000   37.0000 
4267.0157 1300.5864    7.8750    8.4000  100.8207    7.4125    7.6929    5.4936    2.5539    0.0126    0.2401    3.6596   37.0000   37.0000 
4267.5157 1300.7388    7.8750    8.4216   90.7431    7.1305    7.3582    3.9265    2.5959    0.0121    0.2218    4.0252   37.0000   22.0000 
4268.0157 1300.8912    7.8750    8.4337   87.1349    6.1986    5.8307    3.8107    2.5587    0.0096    0.2081    3.7926   37.0000   37.0000 
4268.5157 1301.0436    7.8750    8.4699   90.4966    6.2310    5.9667    3.8390    2.5195    0.0073    0.2110    3.5036   37.0000   37.0000 
4269.0157 1301.1960    7.8750    8.4954   99.2295    6.5268    6.5040    4.3028    2.4702    0.0024    0.2354    2.8960   37.0000   37.0000 
4269.5157 1301.3484    7.8750    8.5138   99.6179    6.6942    6.7750    4.4713    2.4727    0.0002    0.2445    2.9162   37.0000   37.0000 
4270.0157 1301.5009    7.8750    8.5193  106.0948    6.7523    6.5813    4.3366    2.4507   -0.0023    0.2651    2.9611   37.0000   37.0000 
4270.5157 1301.6532    7.8750    8.5285  108.1193    6.6058    6.8273    4.1895    2.4369   -0.0016    0.2702    2.9639   37.0000   37.0000 
4271.0157 1301.8055    7.8750    8.5279  115.0966    6.5485    6.6649    3.9337    2.4301    0.0047    0.2618    3.0183   37.0000   37.0000 
4271.5157 1301.9580    7.8750    8.5265  114.5887    6.4703    6.1788    3.9366    2.4470    0.0076    0.2623    3.0309   37.0000   37.0000 
4272.0157 1302.1104    7.8750    8.5281  109.9869    6.4604    6.3780    3.9784    2.4735    0.0091    0.2438    2.9397   37.0000   37.0000 
4272.5157 1302.2628    7.8750    8.5450  111.6304    6.4589    6.9578    4.0441    2.4958    0.0128    0.2337    2.8875   37.0000   37.0000 
4273.0157 1302.4152    7.8750    8.5542  112.2280    6.2566    6.3447    4.0989    2.4921    0.0166    0.2445    2.9686   37.0000   37.0000 
4273.5157 1302.5676    7.8750    8.5612  109.8375    6.0980    6.2998    4.1214    2.4780    0.0170    0.2592    3.0657   37.0000   37.0000 
4274.0157 1302.7200    7.8750    8.5636  108.5899    5.9822    6.0453    4.2399    2.4734    0.0158    0.2441    3.0928   37.0000   37.0000 
4274.5157 1302.8724    7.8750    8.5747  111.3241    5.9763    5.9616    4.4682    2.4698    0.0128    0.2622    3.0831   37.0000   37.0000 
4275.0157 1303.0248    7.8750    8.5831  115.2087    6.8753    6.4659    5.2984    2.4574    0.0072    0.2731    3.0664   37.0000   37.0000 
4275.5157 1303.1772    7.8750    8.5877  115.2909    8.8540    8.7373   10.6766    2.4355    0.0073    0.2683    3.0817   37.0000   37.0000 
4276.0157 1303.3296    7.8750    8.5705  110.7937   10.0831   11.0094   34.1496    2.4217    0.0173    0.2618    3.1097   37.0000   37.0000 
4276.5157 1303.4821    7.8750    8.5575   98.9680   11.0191   12.4189   17.8201    2.4459    0.0245    0.2583    3.2265   37.0000   37.0000 
4277.0157 1303.6344    7.8750    8.4073   84.0795    9.8001   10.8888    8.2883    2.4883    0.0146    0.2644    3.5865   37.0000   37.0000 
4277.5157 1303.7867    7.8750    8.3960   77.3038    7.1844    7.6021    5.8236    2.4820   -0.0011    0.2498    3.7456   37.0000   37.0000 
