~VERSION INFORMATION
 VERS.                 2.0:   CWLS LOG ASCII STANDARD - VERSION 2.0
 WRAP.                  NO:   SINGLE LINE PER DEPTH STEP
 CREA.                 12/04/2017 16:08:09
#CREATED USING DSPetro VERSION 5000.10.1.3 BY H191660 ON 12/04/2017 16:08:09
~WELL INFORMATION
#MNEM.UNIT       DATA                          DESCRIPTION MNEMONIC
#---------      ---------------------------   --------------------------
 STRT    .FT        174.0157                  : START DEPTH
 STOP    .FT        9268.0157                 : STOP DEPTH
 STEP    .FT        0.5000                    : STEP VALUE
 NULL    .      -999.0000                     : NULL VALUE
 DATE    .      12/04/2017                    : LAS file Creation Date
 WELL .      UNIVERSITY_45_8_4210540952 : Well Name
 COMP .                                 : Company
 FLD  .      WILDCAT (7C)               : Field
 UWI  .      X495988                    : Unique Well Identifier (UWI)
 LOC  .                                 : Location
 RWS  .      -999                       : Def_Rw
 WST  .      -999                       : Def_Rwt
 SRVC .                                 : Contractor
~CURVE INFORMATION
#MNEM              UNIT       API CODE   Curve Type Comments
#----------  --------------- ----------  ---------- -----------
 DEPTH      .FT                        : Depth       
 DEPTH_(m)  .                          :             
 BitSize    .in                        : bitSize     
 CAL_INCH   .inch                      :             Caliper Log - A representation of the measured diameter of a borehole along its depth
 GR_API     .API                       : GammaRay    Gamma Ray (API) - Measures the intensity of natural gamma-ray radiation emitted from formations containing radioactive elements, such as K, Th and U
 LLD_OHMM   .ohmm                      :             Laterlog Deep Resistivity - Measurement made several feet into the formation; generally considered a measurement of the undisturbed formation
 LLS_OHMM   .ohmm                      :             Laterlog Shallow Resistivity - one to two feet into the formation; generally considered to measure the formation
 MSFL_OHMM  .ohmm                      :             Micro-Spherically Focused Log - Measurement involves only the first few inches of the formation immediately adjacent to the borehole
 RHOB_G_CC  .g/cc                      :             Bulk Density - Measures the density of bulk material, including any void space or other materials contained in the subject volume
 DRHO_G_CC  .g/cc                      :             Density Correction - Investigates the correction to the Bulk Density log; used as an indication of hole condition to validate the Bulk Density measure
 NPHI_v/v   .PC                        : Neutron     Neutron Porosity - Measured with an neutron logging device calibrated to a given matrix (limestone, sandstone and dolomite)
 PEF_B_E    .b/e-                      : PEF         Photoelectric Factor - A log of photoelectric absorption properties. Often expressed in an approximation unit barns/electron (b/e-)
 LITH       .                          : LITH        Lithology Curve
 LITH_v2    .                          : LITH        Lithology Curve
~A  DEPTH DEPTH_(m)  BitSize   CAL_INCH   GR_API   LLD_OHMM  LLS_OHMM MSFL_OHM  RHOB_G_C  DRHO_G_C   NPHI_v/v  PEF_B_E     LITH    LITH_v2  
# ...
9237.0157 2815.4424    7.8750    7.9452   29.8169    2.9313    2.5488    2.9891    2.6213    0.0432    0.1470    3.3597   37.0000   37.0000 
9237.5157 2815.5947    7.8750    7.8211   27.4383    3.1250    2.7933    3.5193    2.6242    0.0530    0.1420    3.3770   37.0000   37.0000 
9238.0157 2815.7473    7.8750    7.8492   26.0594    4.8560    4.5447    2.7261    2.6552    0.0653    0.1216    3.3333   37.0000   37.0000 
9238.5157 2815.8997    7.8750    7.9050   25.1388    7.0975    5.7715    4.0687    2.6823    0.0682    0.1143    3.2944   37.0000   37.0000 
9239.0157 2816.0520    7.8750    7.9799   24.8961    6.9063    5.9412    5.6588    2.6975    0.0569    0.1125    3.2882   37.0000   37.0000 
9239.5157 2816.2043    7.8750    8.0242   25.2086    7.1406    6.1915    4.6974    2.7118    0.0448    0.1060    3.2723   37.0000   37.0000 
9240.0157 2816.3567    7.8750    7.9107   25.0750    7.2852    6.3656    4.4496    2.7199    0.0436    0.0982    3.2564   37.0000   37.0000 
9240.5157 2816.5093    7.8750    7.9324   24.5717    7.2680    6.5552    4.5915    2.7070    0.0448    0.0941    3.2595   37.0000   37.0000 
9241.0157 2816.6616    7.8750    7.9852   24.7295    7.2689    6.4938    5.1964    2.6882    0.0458    0.0996    3.2448   37.0000   37.0000 
9241.5157 2816.8140    7.8750    7.9992   24.8922    7.2903    6.4072    4.5959    2.6817    0.0506    0.1027    3.2075   37.0000   37.0000 
9242.0157 2816.9663    7.8750    7.8780   24.3884    7.2700    6.3895    3.7647    2.6831    0.0513    0.1153    3.1611   37.0000   37.0000 
9242.5157 2817.1189    7.8750    7.8443   24.1726    7.2766    6.4088    3.3444    2.6790    0.0448    0.1193    3.1074   37.0000   37.0000 
9243.0157 2817.2712    7.8750    7.8565   24.4716    7.2838    6.3584    3.1093    2.6691    0.0386    0.1264    3.0884   37.0000   37.0000 
9243.5157 2817.4236    7.8750    7.8473   24.3760    7.2858    6.3687    2.8669    2.6647    0.0366    0.1304    3.1023   37.0000   37.0000 
9244.0157 2817.5759    7.8750    7.8774 -999.0000    7.2903    6.3199    3.1685    2.6584    0.0320    0.1314    3.2084   37.0000   37.0000 
9244.5157 2817.7285    7.8750    7.9036 -999.0000    7.2670    6.3657    3.9052    2.6716    0.0303    0.1300    3.2656   37.0000   37.0000 
9245.0157 2817.8809    7.8750    7.8445 -999.0000    7.2801    6.4123    4.3551    2.6866    0.0305    0.1289    3.2766 -999.0000 -999.0000 
9245.5157 2818.0332    7.8750    7.8274 -999.0000    7.2916    6.3342    3.8995    2.6918    0.0308    0.1293    3.2566 -999.0000 -999.0000 
9246.0157 2818.1855    7.8750    7.8248 -999.0000    7.2713    6.4735    3.1421    2.6875    0.0310    0.1468    3.1670 -999.0000 -999.0000 
9246.5157 2818.3379    7.8750    7.8624 -999.0000    7.2844    6.3021    3.3886    2.6856    0.0322    0.1522    3.1661 -999.0000 -999.0000 
9247.0157 2818.4905    7.8750    7.9071 -999.0000    7.2674    6.3039    3.9871    2.6726    0.0349    0.1550    3.2017 -999.0000 -999.0000 
9247.5157 2818.6428    7.8750    7.8332 -999.0000    7.2672    6.3680    5.1255    2.6571    0.0399    0.1498    3.1895 -999.0000 -999.0000 
9248.0157 2818.7952    7.8750    7.8209 -999.0000    7.2952    6.3846    6.5238    2.6748    0.0464    0.1418    3.1735 -999.0000 -999.0000 
9248.5157 2818.9475    7.8750    7.8304 -999.0000    7.2736    6.3016    6.0881    2.6929    0.0434    0.1332    3.1806 -999.0000 -999.0000 
9249.0157 2819.1001    7.8750    7.8083 -999.0000    7.2741    6.3025    6.3759    2.6917    0.0342    0.1218    3.1347 -999.0000 -999.0000 
9249.5157 2819.2524    7.8750    7.8374 -999.0000 -999.0000 -999.0000   10.7882    2.7098    0.0336    0.1265    3.0842 -999.0000 -999.0000 
9250.0157 2819.4048    7.8750    7.8144 -999.0000 -999.0000 -999.0000   11.3961    2.7408    0.0364    0.1285    3.1417 -999.0000 -999.0000 
9250.5157 2819.5571    7.8750    7.7975 -999.0000 -999.0000 -999.0000    6.6861    2.7656    0.0384    0.1327    3.2176 -999.0000 -999.0000 
9251.0157 2819.7097    7.8750    7.7864 -999.0000 -999.0000 -999.0000    5.8518    2.7736    0.0406    0.1313    3.2152 -999.0000 -999.0000 
9251.5157 2819.8621    7.8750    7.8116 -999.0000 -999.0000 -999.0000    6.3229    2.7576    0.0397    0.1305    3.2068 -999.0000 -999.0000 
9252.0157 2820.0144    7.8750    7.8154 -999.0000 -999.0000 -999.0000    6.9074    2.7385    0.0386    0.1297    3.2152 -999.0000 -999.0000 
9252.5157 2820.1667    7.8750    7.8045 -999.0000 -999.0000 -999.0000    5.7783    2.7332    0.0447    0.1285    3.2072 -999.0000 -999.0000 
9253.0157 2820.3191    7.8750    7.8872 -999.0000 -999.0000 -999.0000    4.1000    2.7123    0.0547    0.1292    3.2034 -999.0000 -999.0000 
9253.5157 2820.4717    7.8750    7.8758 -999.0000 -999.0000 -999.0000    1.8148    2.6459    0.0605    0.1293    3.2326 -999.0000 -999.0000 
9254.0157 2820.6240    7.8750    7.9742 -999.0000 -999.0000 -999.0000    1.6552    2.5883    0.0541 -999.0000    3.2812 -999.0000 -999.0000 
9254.5157 2820.7764    7.8750    8.0155 -999.0000 -999.0000 -999.0000    2.1590    2.6300    0.0430 -999.0000    3.2945 -999.0000 -999.0000 
9255.0157 2820.9287 -999.0000    7.9698 -999.0000 -999.0000 -999.0000    3.0319    2.7333    0.0419 -999.0000    3.2672 -999.0000 -999.0000 
9255.5157 2821.0813 -999.0000    8.0568 -999.0000 -999.0000 -999.0000    4.8838    2.7819    0.0423 -999.0000    3.2576 -999.0000 -999.0000 
9256.0157 2821.2336 -999.0000    8.0576 -999.0000 -999.0000 -999.0000    5.6133    2.7851    0.0448 -999.0000    3.2575 -999.0000 -999.0000 
9256.5157 2821.3860 -999.0000    7.8795 -999.0000 -999.0000 -999.0000    4.9129    2.7839    0.0652 -999.0000    3.2567 -999.0000 -999.0000 
9257.0157 2821.5383 -999.0000    7.8539 -999.0000 -999.0000 -999.0000    3.9553    2.7702    0.0716 -999.0000    3.2445 -999.0000 -999.0000 
9257.5157 2821.6909 -999.0000    7.8266 -999.0000 -999.0000 -999.0000    3.8939    2.7612    0.0672 -999.0000    3.2307 -999.0000 -999.0000 
9258.0157 2821.8433 -999.0000    7.8604 -999.0000 -999.0000 -999.0000    3.8771    2.7635    0.0618 -999.0000    3.2240 -999.0000 -999.0000 
9258.5157 2821.9956 -999.0000    7.9666 -999.0000 -999.0000 -999.0000    3.8515    2.7758    0.0484 -999.0000    3.2254 -999.0000 -999.0000 
9259.0157 2822.1479 -999.0000    7.9161 -999.0000 -999.0000 -999.0000    3.8481    2.7707    0.0478 -999.0000    3.2832 -999.0000 -999.0000 
9259.5157 2822.3003 -999.0000    7.9006 -999.0000 -999.0000 -999.0000    3.8520    2.7538    0.0491 -999.0000    3.3623 -999.0000 -999.0000 
9260.0157 2822.4529 -999.0000    7.8847 -999.0000 -999.0000 -999.0000    3.8592    2.7440    0.0539 -999.0000    3.3913 -999.0000 -999.0000 
9260.5157 2822.6052 -999.0000    7.8875 -999.0000 -999.0000 -999.0000    3.8685    2.7427    0.0573 -999.0000    3.3486 -999.0000 -999.0000 
9261.0157 2822.7576 -999.0000    7.8893 -999.0000 -999.0000 -999.0000    3.8802    2.7386    0.0554 -999.0000    3.3089 -999.0000 -999.0000 
9261.5157 2822.9099 -999.0000    7.8910 -999.0000 -999.0000 -999.0000    3.8956    2.7373    0.0539 -999.0000    3.3033 -999.0000 -999.0000 
9262.0157 2823.0625 -999.0000    7.8936 -999.0000 -999.0000 -999.0000    3.9120    2.7384    0.0522 -999.0000    3.2706 -999.0000 -999.0000 
9262.5157 2823.2148 -999.0000    7.8949 -999.0000 -999.0000 -999.0000    3.9258    2.7383    0.0496 -999.0000    3.2036 -999.0000 -999.0000 
9263.0157 2823.3672 -999.0000    7.8962 -999.0000 -999.0000 -999.0000    3.9358    2.7395    0.0476 -999.0000    3.1560 -999.0000 -999.0000 
9263.5157 2823.5195 -999.0000    7.8962 -999.0000 -999.0000 -999.0000    3.9387    2.7373    0.0457 -999.0000    3.1611 -999.0000 -999.0000 
9264.0157 2823.6721 -999.0000    7.8974 -999.0000 -999.0000 -999.0000    3.9272  -59.8921  -62.4116 -999.0000  -59.4563 -999.0000 -999.0000 
9264.5157 2823.8245 -999.0000    7.9005 -999.0000 -999.0000 -999.0000    3.9008 -373.0146 -374.6917 -999.0000 -372.7073 -999.0000 -999.0000 
9265.0157 2823.9768 -999.0000 -999.0000 -999.0000 -999.0000 -999.0000    3.8650 -999.0000 -999.0000 -999.0000 -999.0000 -999.0000 -999.0000 
