~VERSION INFORMATION
 VERS.                 2.0:   CWLS LOG ASCII STANDARD - VERSION 2.0
 WRAP.                  NO:   SINGLE LINE PER DEPTH STEP
 CREA.                 12/04/2017 16:08:09
#CREATED USING DSPetro VERSION 5000.10.1.3 BY H191660 ON 12/04/2017 16:08:09
~WELL INFORMATION
#MNEM.UNIT       DATA                          DESCRIPTION MNEMONIC
#---------      ---------------------------   --------------------------
 STRT    .FT        174.0157                  : START DEPTH
 STOP    .FT        9268.0157                 : STOP DEPTH
 STEP    .FT        0.5000                    : STEP VALUE
 NULL    .      -999.0000                     : NULL VALUE
 DATE    .      12/04/2017                    : LAS file Creation Date
 WELL .      UNIVERSITY_45_8_4210540952 : Well Name
 COMP .                                 : Company
 FLD  .      WILDCAT (7C)               : Field
 UWI  .      X495988                    : Unique Well Identifier (UWI)
 LOC  .                                 : Location
 RWS  .      -999                       : Def_Rw
 WST  .      -999                       : Def_Rwt
 SRVC .                                 : Contractor
~CURVE INFORMATION
#MNEM              UNIT       API CODE   Curve Type Comments
#----------  --------------- ----------  ---------- -----------
 DEPTH      .FT                        : Depth       
 DEPTH_(m)  .                          :             
 BitSize    .in                        : bitSize     
 CAL_INCH   .inch                      :             Caliper Log - A representation of the measured diameter of a borehole along its depth
 GR_API     .API                       : GammaRay    Gamma Ray (API) - Measures the intensity of natural gamma-ray radiation emitted from formations containing radioactive elements, such as K, Th and U
 LLD_OHMM   .ohmm                      :             Laterlog Deep Resistivity - Measurement made several feet into the formation; generally considered a measurement of the undisturbed formation
 LLS_OHMM   .ohmm                      :             Laterlog Shallow Resistivity - one to two feet into the formation; generally considered to measure the formation
 MSFL_OHMM  .ohmm                      :             Micro-Spherically Focused Log - Measurement involves only the first few inches of the formation immediately adjacent to the borehole
 RHOB_G_CC  .g/cc                      :             Bulk Density - Measures the density of bulk material, including any void space or other materials contained in the subject volume
 DRHO_G_CC  .g/cc                      :             Density Correction - Investigates the correction to the Bulk Density log; used as an indication of hole condition to validate the Bulk Density measure
 NPHI_v/v   .PC                        : Neutron     Neutron Porosity - Measured with an neutron logging device calibrated to a given matrix (limestone, sandstone and dolomite)
 PEF_B_E    .b/e-                      : PEF         Photoelectric Factor - A log of photoelectric absorption properties. Often expressed in an approximation unit barns/electron (b/e-)
 LITH       .                          : LITH        Lithology Curve
 LITH_v2    .                          : LITH        Lithology Curve
~A  DEPTH DEPTH_(m)  BitSize   CAL_INCH   GR_API   LLD_OHMM  LLS_OHMM MSFL_OHM  RHOB_G_C  DRHO_G_C   NPHI_v/v  PEF_B_E     LITH    LITH_v2  
# ...
8724.0157 2659.0801    7.8750    8.0132   96.7792   20.8259   20.6565   16.0354    2.6398    0.0121    0.1234    3.4605   37.0000   37.0000 
8724.5157 2659.2324    7.8750    8.0133   97.4441   19.3355   18.9219   18.3185    2.6352    0.0132    0.1253    3.4748   37.0000   37.0000 
8725.0157 2659.3848    7.8750    8.0207   95.3785   18.6453   18.3049   14.9218    2.6382    0.0108    0.1318    3.5228   37.0000   37.0000 
8725.5157 2659.5371    7.8750    8.0184   98.2284   17.9356   17.2096   12.3584    2.6429    0.0067    0.1286    3.5480   37.0000   37.0000 
8726.0157 2659.6897    7.8750    8.0278  105.0714   16.9109   15.5538   13.0051    2.6404    0.0054    0.1377    3.6194   37.0000   37.0000 
8726.5157 2659.8420    7.8750    8.0346  111.4511   17.7020   16.9545   15.9229    2.6379    0.0043    0.1420    3.7146   37.0000   37.0000 
8727.0157 2659.9944    7.8750    8.0370  114.2338   16.9945   17.8574   18.1401    2.6464    0.0027    0.1408    3.7112   37.0000   37.0000 
8727.5157 2660.1467    7.8750    8.0342  105.9641   15.3128   16.0087   14.0258    2.6648    0.0038    0.1394    3.7135   37.0000   37.0000 
8728.0157 2660.2993    7.8750    8.0422   97.3731   12.8564   13.8595   11.1916    2.6779    0.0065    0.1328    3.7500   37.0000   37.0000 
8728.5157 2660.4517    7.8750    8.0411   97.7802   11.0948   11.2580    9.7538    2.6762    0.0089    0.1512    3.7104   37.0000   37.0000 
8729.0157 2660.6040    7.8750    8.0429  106.0985   10.6430   10.8381    9.0054    2.6666    0.0098    0.1424    3.6093   37.0000   37.0000 
8729.5157 2660.7563    7.8750    8.0480  115.4888   10.4774   10.8304    8.8571    2.6629    0.0101    0.1481    3.5156   37.0000   37.0000 
8730.0157 2660.9087    7.8750    8.0475  117.1734   10.6181   10.7443    9.1852    2.6643    0.0117    0.1611    3.4974   37.0000   37.0000 
8730.5157 2661.0613    7.8750    8.0438  115.3506   11.4496   11.8549   11.2717    2.6611    0.0142    0.1570    3.5369   37.0000   37.0000 
8731.0157 2661.2136    7.8750    8.0494  114.4617   11.8323   12.1804   11.6916    2.6604    0.0160    0.1502    3.5586   37.0000   37.0000 
8731.5157 2661.3660    7.8750    8.0524  109.6507   12.0934   12.9068   11.7677    2.6680    0.0201    0.1642    3.6207   37.0000   37.0000 
8732.0157 2661.5183    7.8750    8.0537  108.6086   12.0434   12.8414   10.1541    2.6703    0.0196    0.1550    3.6537   37.0000   37.0000 
8732.5157 2661.6709    7.8750    8.0520  112.1869   11.2975   11.8045   10.1110    2.6731    0.0171    0.1562    3.6809   37.0000   37.0000 
8733.0157 2661.8232    7.8750    8.0551  113.8939   11.2443   11.7736   10.0575    2.6725    0.0153    0.1581    3.6842   37.0000   37.0000 
8733.5157 2661.9756    7.8750    8.0541  116.2620   11.4687   11.6935    9.9701    2.6584    0.0088    0.1550    3.6654   37.0000   37.0000 
8734.0157 2662.1279    7.8750    8.0557  113.6735   11.8674   12.2494   10.5514    2.6468    0.0044    0.1569    3.6629   37.0000   37.0000 
8734.5157 2662.2805    7.8750    8.0546  112.4484   13.1037   13.2092   11.8148    2.6382    0.0027    0.1561    3.6539   37.0000   37.0000 
8735.0157 2662.4329    7.8750    8.0475  113.9948   14.1809   14.3511   12.7320    2.6355    0.0016    0.1530    3.6384   37.0000   37.0000 
8735.5157 2662.5852    7.8750    8.0465  117.0203   16.1056   16.0253   13.9859    2.6428   -0.0006    0.1513    3.5993   37.0000   37.0000 
8736.0157 2662.7375    7.8750    8.0596  115.4814   17.3105   17.2869   15.1429    2.6559    0.0012    0.1534    3.5663   37.0000   37.0000 
8736.5157 2662.8899    7.8750    8.0565  112.8256   17.8267   18.1693   15.3896    2.6563    0.0042    0.1468    3.5764   37.0000   37.0000 
8737.0157 2663.0425    7.8750    8.0495  111.5594   17.4557   17.3373   15.0377    2.6448    0.0065    0.1369    3.6315   37.0000   37.0000 
8737.5157 2663.1948    7.8750    8.0519  106.3563   16.8189   16.9195   13.8941    2.6364    0.0098    0.1289    3.7004   37.0000   37.0000 
8738.0157 2663.3472    7.8750    8.0549  103.6893   16.3363   16.2056   13.6306    2.6376    0.0127    0.1346    3.6640   37.0000   37.0000 
8738.5157 2663.4995    7.8750    8.0519  103.8985   16.3946   16.0466   13.6646    2.6470    0.0146    0.1382    3.5404   37.0000   37.0000 
8739.0157 2663.6521    7.8750    8.0496  103.9620   16.3236   16.0802   15.2216    2.6546    0.0131    0.1398    3.4956   37.0000   37.0000 
8739.5157 2663.8044    7.8750    8.0513  109.3892   15.9511   15.1095   15.1126    2.6578    0.0104    0.1379    3.5348   37.0000   37.0000 
8740.0157 2663.9568    7.8750    8.0499  112.7061   15.8659   15.4172   13.3634    2.6604    0.0110    0.1450    3.5481   37.0000   37.0000 
8740.5157 2664.1091    7.8750    8.0576  108.1940   15.6391   14.9355   12.7217    2.6610    0.0126    0.1460    3.5424   37.0000   37.0000 
8741.0157 2664.2617    7.8750    8.0460  107.7570   15.6652   15.0379   14.1105    2.6630    0.0134    0.1332    3.5882   37.0000   37.0000 
8741.5157 2664.4141    7.8750    8.0418  109.5723   16.1535   15.8327   14.3403    2.6713    0.0140    0.1351    3.6100   37.0000   37.0000 
8742.0157 2664.5664    7.8750    8.0452  108.8925   16.5643   15.8748   14.2126    2.6723    0.0144    0.1369    3.5588   37.0000   37.0000 
8742.5157 2664.7188    7.8750    8.0509  107.6225   16.5470   16.1324   14.0148    2.6622    0.0138    0.1406    3.5520   37.0000   37.0000 
8743.0157 2664.8711    7.8750    8.0532  105.5158   16.5076   16.0978   13.9748    2.6594    0.0134    0.1474    3.6051   37.0000   37.0000 
8743.5157 2665.0237    7.8750    8.0530  104.7090   16.5018   15.8162   14.4403    2.6602    0.0135    0.1457    3.6233   37.0000   37.0000 
8744.0157 2665.1760    7.8750    8.0475  104.4999   16.2131   15.5203   17.0492    2.6595    0.0133    0.1465    3.5789   37.0000   37.0000 
8744.5157 2665.3284    7.8750    8.0562  103.1066   16.2708   15.6412   15.8804    2.6606    0.0128    0.1541    3.5310   37.0000   37.0000 
8745.0157 2665.4807    7.8750    8.0590  102.1915   16.3284   15.6126   13.7452    2.6635    0.0118    0.1553    3.5341   37.0000   37.0000 
8745.5157 2665.6333    7.8750    8.0524  103.4054   16.2069   15.4275   13.4135    2.6633    0.0099    0.1475    3.5545   37.0000   37.0000 
8746.0157 2665.7856    7.8750    8.0549  105.1162   15.9224   15.4154   12.8278    2.6504    0.0043    0.1447    3.5705   37.0000   37.0000 
8746.5157 2665.9380    7.8750    8.0612  104.6791   15.7462   14.8033   12.5653    2.6396    0.0045    0.1481    3.5619   37.0000   37.0000 
8747.0157 2666.0903    7.8750    8.0645  104.9107   15.3613   14.6097   12.5134    2.6484    0.0064    0.1439    3.5567   37.0000   37.0000 
8747.5157 2666.2429    7.8750    8.0660  102.2102   15.2524   14.2059   13.0843    2.6645    0.0110    0.1514    3.5499   37.0000   37.0000 
8748.0157 2666.3953    7.8750    8.0647  100.0064   15.4610   14.6057   13.8891    2.6667    0.0169    0.1570    3.5672   37.0000   37.0000 
8748.5157 2666.5476    7.8750    8.0668  102.9049   15.3802   14.4760   15.6245    2.6592    0.0214    0.1514    3.6426   37.0000   37.0000 
8749.0157 2666.7000    7.8750    8.0733  106.2965   15.7754   14.7476   17.8688    2.6663    0.0239    0.1547    3.7131   37.0000   37.0000 
8749.5157 2666.8523    7.8750    8.0744  105.9715   16.4357   15.2769   21.8062    2.6796    0.0223    0.1526    3.6848   37.0000   37.0000 
8750.0157 2667.0049    7.8750    8.0737  102.5501   17.1528   15.1029   25.6678    2.6798    0.0187    0.1449    3.6258   37.0000   37.0000 
8750.5157 2667.1572    7.8750    8.0759  100.1969   18.6791   17.1211   27.3535    2.6696    0.0159    0.1464    3.5940   37.0000   37.0000 
8751.0157 2667.3096    7.8750    8.0785   98.7887   20.5574   17.8320   28.7367    2.6519    0.0121    0.1419    3.5403   37.0000   37.0000 
8751.5157 2667.4619    7.8750    8.0789  101.5341   22.5491   20.1660   29.9860    2.6371    0.0094    0.1448    3.4618   37.0000   37.0000 
8752.0157 2667.6145    7.8750    8.0836  107.0286   25.4358   22.7918   25.0780    2.6347    0.0096    0.1322    3.3680   37.0000   37.0000 
