~VERSION INFORMATION
 VERS.                 2.0:   CWLS LOG ASCII STANDARD - VERSION 2.0
 WRAP.                  NO:   SINGLE LINE PER DEPTH STEP
 CREA.                 01/12/2017 17:02:35
#CREATED USING DSPetro VERSION 5000.10.1.3 BY H191660 ON 01/12/2017 17:02:35
~WELL INFORMATION
#MNEM.UNIT       DATA                          DESCRIPTION MNEMONIC
#---------      ---------------------------   --------------------------
 STRT    .FT        50.4921                   : START DEPTH
 STOP    .FT        8514.9921                 : STOP DEPTH
 STEP    .FT        0.5000                    : STEP VALUE
 NULL    .      -999.0000                     : NULL VALUE
 DATE    .      01/12/2017                    : LAS file Creation Date
 WELL .      UNIVERSITY_42_22_4210540532 : Well Name
 COMP .                                  : Company
 FLD  .      HOLT RANCH (CONSOLIDATED)�  : Field
 UWI  .      224                         : Unique Well Identifier (UWI)
 LOC  .                                  : Location
 RWS  .      -999                        : Def_Rw
 WST  .      -999                        : Def_Rwt
 SRVC .                                  : Contractor
~CURVE INFORMATION
#MNEM              UNIT       API CODE   Curve Type Comments
#----------  --------------- ----------  ---------- -----------
 DEPTH      .FT                        : Depth       
 DEPTH_(m)  .                          :             
 BitSize    .inch                      : BitSize     
 CAL_INCH   .inch                      :             Caliper Log - A representation of the measured diameter of a borehole along its depth
 GR_API     .API                       : GammaRay    Gamma Ray (API) - Measures the intensity of natural gamma-ray radiation emitted from formations containing radioactive elements, such as K, Th and U
 LLD_OHMM   .ohmm                      :             Laterlog Deep Resistivity - Measurement made several feet into the formation; generally considered a measurement of the undisturbed formation
 LLS_OHMM   .ohmm                      :             Laterlog Shallow Resistivity - one to two feet into the formation; generally considered to measure the formation
 RHOB_G_CC  .g/cc                      :             Bulk Density - Measures the density of bulk material, including any void space or other materials contained in the subject volume
 DRHO_G_CC  .g/cc                      :             Density Correction - Investigates the correction to the Bulk Density log; used as an indication of hole condition to validate the Bulk Density measure
 NPHI_v/v   .dec                       : Neutron     
 PEF_B_E    .b/e-                      : PEF         Photoelectric Factor - A log of photoelectric absorption properties. Often expressed in an approximation unit barns/electron (b/e-)
 LITH       .                          : LITH        Lithology Curve
 LITH_v2    .                          : LITH        Lithology Curve
~A  DEPTH DEPTH_(m)  BitSize   CAL_INCH   GR_API   LLD_OHMM  LLS_OHMM RHOB_G_C  DRHO_G_C   NPHI_v/v  PEF_B_E     LITH    LITH_v2  
# ...
3367.4921 1026.4116    7.8750    8.2047  109.4247    8.2111    7.6499    2.4387   -0.0113    0.2762    2.9312   37.0000   37.0000 
3367.9921 1026.5640    7.8750    8.1344  114.8237    9.0106    8.4251    2.4461   -0.0047    0.2708    2.8867   37.0000   37.0000 
3368.4921 1026.7164    7.8750    8.1578  106.1950    9.5695    8.9627    2.4489   -0.0017    0.2311    2.8152   37.0000   37.0000 
3368.9921 1026.8688    7.8750    8.1812   89.8536    9.8451    9.1468    2.4567   -0.0031    0.2027    2.6396   37.0000   37.0000 
3369.4921 1027.0212    7.8750    8.1734   84.7439   10.0585    9.2912    2.4815   -0.0023    0.1835    2.5833   37.0000   37.0000 
3369.9921 1027.1736    7.8750    8.1734   89.1787   10.1416    9.1953    2.4937   -0.0031    0.1775    2.6893   37.0000   37.0000 
3370.4921 1027.3260    7.8750    8.1578   96.2166   10.5068    9.4044    2.4910   -0.0059    0.1889    2.7343   37.0000   37.0000 
3370.9921 1027.4784    7.8750    8.1734  103.6884   11.2064    9.8146    2.4841   -0.0074    0.1853    2.6757   37.0000   37.0000 
3371.4921 1027.6309    7.8750    8.1500  102.6761   12.5203   11.0108    2.4613   -0.0138    0.1927    2.6918   37.0000   37.0000 
3371.9921 1027.7832    7.8750    8.1656   83.8762   13.6173   12.3175    2.4574   -0.0220    0.2004    2.8279   37.0000   37.0000 
3372.4921 1027.9355    7.8750    8.1656   59.4364   13.6318   12.4281    2.5284   -0.0206    0.1901    3.0735   37.0000   22.0000 
3372.9921 1028.0880    7.8750    8.0953   56.4477   12.5044   11.7996    2.5824   -0.0193    0.1476    3.2499   37.0000   22.0000 
3373.4921 1028.2404    7.8750    8.0797   73.0302   10.8746    9.8107    2.5188   -0.0187    0.1605    3.1708   37.0000   22.0000 
3373.9921 1028.3928    7.8750    8.0953   88.2629   10.0375    8.5467    2.4510   -0.0082    0.2065    3.0204   37.0000   22.0000 
3374.4921 1028.5452    7.8750    8.1500   83.0567   10.3989    8.6086    2.4532   -0.0056    0.2002    2.8881   37.0000   22.0000 
3374.9921 1028.6976    7.8750    8.1578   70.7645   12.0000   10.2042    2.4703   -0.0143    0.1787    2.7741   37.0000   22.0000 
3375.4921 1028.8500    7.8750    8.1500   65.4138   14.9841   13.2580    2.4785   -0.0148    0.1687    2.7567   37.0000   22.0000 
3375.9921 1029.0024    7.8750    8.1344   68.8846   18.1284   15.9785    2.4757   -0.0156    0.1554    2.7540   18.0000   22.0000 
3376.4921 1029.1548    7.8750    8.1266   72.8856   19.6378   17.4287    2.4685   -0.0209    0.1441    2.7489   18.0000   18.0000 
3376.9921 1029.3073    7.8750    8.1266   70.4753   18.7605   16.8680    2.4658   -0.0178    0.1436    2.7712   18.0000   18.0000 
3377.4921 1029.4596    7.8750    8.0953   71.4394   16.7765   15.0416    2.4672   -0.0126    0.1579    2.6816   18.0000   22.0000 
3377.9921 1029.6121    7.8750    8.0797   73.0784   14.9460   13.1751    2.4706   -0.0113    0.1468    2.5219   18.0000   18.0000 
3378.4921 1029.7644    7.8750    8.1344   76.5009   13.7098   11.6859    2.4824   -0.0068    0.1638    2.4816   37.0000   22.0000 
3378.9921 1029.9167    7.8750    8.1422   83.7316   13.2578   10.9777    2.4945   -0.0024    0.1641    2.4856   37.0000   22.0000 
3379.4921 1030.0692    7.8750    8.1578   82.4783   13.9784   11.2519    2.4883   -0.0057    0.1742    2.4929   37.0000   22.0000 
3379.9921 1030.2216    7.8750    8.1500   79.7306   15.7944   12.8750    2.4875   -0.0075    0.1750    2.7115   37.0000   22.0000 
3380.4921 1030.3740    7.8750    8.1500   62.0395   18.3494   15.2558    2.5307   -0.0143    0.1718    3.1733   37.0000   22.0000 
3380.9921 1030.5264    7.8750    8.1109   49.7473   20.7570   17.8710    2.5913   -0.0239    0.1633    3.5513   12.0000   12.0000 
3381.4921 1030.6788    7.8750    8.0641   64.9800   20.7197   18.4696    2.5851   -0.0098    0.1313    3.5123   37.0000   37.0000 
3381.9921 1030.8312    7.8750    8.0797   86.6721   18.4389   16.8489    2.5011    0.0019    0.1442    3.1111   18.0000   22.0000 
3382.4921 1030.9836    7.8750    8.0953   97.2771   15.6497   14.3514    2.4346   -0.0040    0.1831    2.7707   37.0000   37.0000 
3382.9921 1031.1360    7.8750    8.1109   98.1930   13.2364   11.8219    2.4310   -0.0010    0.2055    2.7312   37.0000   37.0000 
3383.4921 1031.2885    7.8750    8.1344   94.4813   11.7018   10.3916    2.4587    0.0072    0.1996    2.7770   37.0000   37.0000 
3383.9921 1031.4408    7.8750    8.1578   93.4208   10.7096    9.4369    2.4798    0.0064    0.2040    2.7170   37.0000   37.0000 
3384.4921 1031.5931    7.8750    8.1578   90.7213    9.9723    8.8453    2.4807   -0.0045    0.2051    2.6520   37.0000   37.0000 
3384.9921 1031.7456    7.8750    8.1734   83.2978    9.3608    8.3999    2.4856   -0.0137    0.2001    2.7184   37.0000   37.0000 
3385.4921 1031.8979    7.8750    8.1891   86.7203    8.8874    7.9952    2.5014   -0.0141    0.2099    2.8656   37.0000   37.0000 
3385.9921 1032.0504    7.8750    8.2203   97.3736    8.5663    7.8380    2.5033   -0.0129    0.2323    2.9216   37.0000   37.0000 
3386.4921 1032.2028    7.8750    8.2125  100.8443    8.4558    7.8134    2.4955   -0.0109    0.2069    2.8714   37.0000   37.0000 
3386.9921 1032.3552    7.8750    8.2516   91.0105    8.5279    7.8922    2.5137   -0.0051    0.2196    2.8996   37.0000   37.0000 
3387.4921 1032.5076    7.8750    8.2281   77.0312    8.5032    7.9739    2.5497   -0.0006    0.2123    3.1116   37.0000   12.0000 
3387.9921 1032.6600    7.8750    8.2047   72.5481    8.2265    7.8016    2.5684   -0.0034    0.2106    3.4254   37.0000   12.0000 
3388.4921 1032.8124    7.8750    8.1891   79.7306    7.6519    7.2990    2.5556   -0.0076    0.2009    3.5985   37.0000   12.0000 
3388.9921 1032.9648    7.8750    8.2125   88.6003    6.9661    6.6390    2.5223   -0.0079    0.2105    3.3972   37.0000   37.0000 
3389.4921 1033.1172    7.8750    8.1969   91.7818    6.4288    6.0249    2.4949   -0.0098    0.2231    3.0346   37.0000   37.0000 
3389.9921 1033.2697    7.8750    8.1969   86.9131    6.0755    5.7047    2.4756   -0.0127    0.2320    2.9206   37.0000   37.0000 
3390.4921 1033.4220    7.8750    8.2203   79.8270    5.8829    5.4826    2.4651   -0.0140    0.2348    3.0069   37.0000   37.0000 
3390.9921 1033.5743    7.8750    8.2359   79.1522    5.7961    5.3427    2.4693   -0.0120    0.2397    3.0238   37.0000   37.0000 
3391.4921 1033.7268    7.8750    8.2359   82.1891    5.7147    5.3523    2.4735   -0.0079    0.2309    2.9631   37.0000   37.0000 
3391.9921 1033.8792    7.8750    8.2516   83.4906    5.6432    5.2331    2.4650   -0.0055    0.2438    2.9211   37.0000   37.0000 
3392.4921 1034.0316    7.8750    8.2437   92.9869    5.6112    5.3195    2.4455   -0.0059    0.2544    2.8822   37.0000   37.0000 
3392.9921 1034.1840    7.8750    8.2672  101.0853    5.6194    5.3134    2.4361   -0.0113    0.2435    2.8346   37.0000   37.0000 
3393.4921 1034.3364    7.8750    8.2672   90.4803    5.6730    5.2978    2.4506   -0.0141    0.2570    2.8431   37.0000   37.0000 
3393.9921 1034.4888    7.8750    8.2516   84.6957    5.7475    5.2682    2.4645   -0.0152    0.2460    2.9257   37.0000   37.0000 
3394.4921 1034.6412    7.8750    8.2516   85.8044    5.8114    5.2432    2.4601   -0.0200    0.2454    2.9690   37.0000   37.0000 
3394.9921 1034.7936    7.8750    8.2672   82.8639    5.8638    5.3170    2.4572   -0.0169    0.2333    2.9591   37.0000   37.0000 
3395.4921 1034.9460    7.8750    8.2672   79.7788    5.9531    5.4144    2.4668   -0.0071    0.2263    2.9647   37.0000   37.0000 
3395.9921 1035.0984    7.8750    8.2437   83.0085    6.1333    5.5107    2.4831    0.0006    0.2491    2.9555   37.0000   37.0000 
3396.4921 1035.2509    7.8750    8.2516   89.7572    6.4956    5.7319    2.5053    0.0084    0.2347    2.9573   37.0000   37.0000 
3396.9921 1035.4032    7.8750    8.2359   87.5398    7.1009    6.1046    2.5155    0.0141    0.2186    2.9824   37.0000   37.0000 
3397.4921 1035.5555    7.8750    8.2281   83.0085    7.9851    6.7335    2.5126    0.0150    0.2169    2.9809   37.0000   37.0000 
3397.9921 1035.7080    7.8750    8.2203   84.6475    9.2282    7.7051    2.5145    0.0136    0.1981    2.9028   37.0000   37.0000 
