~VERSION INFORMATION
 VERS.                 2.0:   CWLS LOG ASCII STANDARD - VERSION 2.0
 WRAP.                  NO:   SINGLE LINE PER DEPTH STEP
 CREA.                 12/04/2017 16:08:09
#CREATED USING DSPetro VERSION 5000.10.1.3 BY H191660 ON 12/04/2017 16:08:09
~WELL INFORMATION
#MNEM.UNIT       DATA                          DESCRIPTION MNEMONIC
#---------      ---------------------------   --------------------------
 STRT    .FT        174.0157                  : START DEPTH
 STOP    .FT        9268.0157                 : STOP DEPTH
 STEP    .FT        0.5000                    : STEP VALUE
 NULL    .      -999.0000                     : NULL VALUE
 DATE    .      12/04/2017                    : LAS file Creation Date
 WELL .      UNIVERSITY_45_8_4210540952 : Well Name
 COMP .                                 : Company
 FLD  .      WILDCAT (7C)               : Field
 UWI  .      X495988                    : Unique Well Identifier (UWI)
 LOC  .                                 : Location
 RWS  .      -999                       : Def_Rw
 WST  .      -999                       : Def_Rwt
 SRVC .                                 : Contractor
~CURVE INFORMATION
#MNEM              UNIT       API CODE   Curve Type Comments
#----------  --------------- ----------  ---------- -----------
 DEPTH      .FT                        : Depth       
 DEPTH_(m)  .                          :             
 BitSize    .in                        : bitSize     
 CAL_INCH   .inch                      :             Caliper Log - A representation of the measured diameter of a borehole along its depth
 GR_API     .API                       : GammaRay    Gamma Ray (API) - Measures the intensity of natural gamma-ray radiation emitted from formations containing radioactive elements, such as K, Th and U
 LLD_OHMM   .ohmm                      :             Laterlog Deep Resistivity - Measurement made several feet into the formation; generally considered a measurement of the undisturbed formation
 LLS_OHMM   .ohmm                      :             Laterlog Shallow Resistivity - one to two feet into the formation; generally considered to measure the formation
 MSFL_OHMM  .ohmm                      :             Micro-Spherically Focused Log - Measurement involves only the first few inches of the formation immediately adjacent to the borehole
 RHOB_G_CC  .g/cc                      :             Bulk Density - Measures the density of bulk material, including any void space or other materials contained in the subject volume
 DRHO_G_CC  .g/cc                      :             Density Correction - Investigates the correction to the Bulk Density log; used as an indication of hole condition to validate the Bulk Density measure
 NPHI_v/v   .PC                        : Neutron     Neutron Porosity - Measured with an neutron logging device calibrated to a given matrix (limestone, sandstone and dolomite)
 PEF_B_E    .b/e-                      : PEF         Photoelectric Factor - A log of photoelectric absorption properties. Often expressed in an approximation unit barns/electron (b/e-)
 LITH       .                          : LITH        Lithology Curve
 LITH_v2    .                          : LITH        Lithology Curve
~A  DEPTH DEPTH_(m)  BitSize   CAL_INCH   GR_API   LLD_OHMM  LLS_OHMM MSFL_OHM  RHOB_G_C  DRHO_G_C   NPHI_v/v  PEF_B_E     LITH    LITH_v2  
# ...
4734.0157 1442.9280    7.8750    8.2830   96.7493    8.9441    8.6227    5.7161    2.5059   -0.0005    0.1643    2.9884   37.0000   37.0000 
4734.5157 1443.0804    7.8750    8.2841   95.5242    9.1753    8.7854    5.9873    2.5068    0.0012    0.1681    2.9801   37.0000   37.0000 
4735.0157 1443.2328    7.8750    8.2850  102.5463    8.8672    8.8073    5.6766    2.5040    0.0025    0.1770    3.0491   37.0000   37.0000 
4735.5157 1443.3853    7.8750    8.2840  109.0830    8.2450    7.9098    4.9521    2.5007    0.0048    0.1774    3.0979   37.0000   37.0000 
4736.0157 1443.5376    7.8750    8.2828  109.7404    7.9476    7.7501    4.3540    2.5035    0.0058    0.1869    3.1011   37.0000   37.0000 
4736.5157 1443.6899    7.8750    8.2818  110.8086    7.9026    7.4087    4.4394    2.5140    0.0030    0.1786    3.2014   37.0000   37.0000 
4737.0157 1443.8424    7.8750    8.2756  103.5549    7.9960    7.6314    5.0115    2.5290    0.0017    0.1691    3.3143   37.0000   37.0000 
4737.5157 1443.9948    7.8750    8.2667   88.8904    8.2275    7.9191    5.1354    2.5325    0.0022    0.1639    3.2170   37.0000   37.0000 
4738.0157 1444.1472    7.8750    8.2618   83.5341    8.4178    7.8212    5.0840    2.5256    0.0026    0.1623    3.0309   37.0000   37.0000 
4738.5157 1444.2996    7.8750    8.2597   89.3835    8.0290    7.7341    4.9729    2.5158    0.0043    0.1672    3.0093   37.0000   37.0000 
4739.0157 1444.4520    7.8750    8.2617   94.3513    7.7299    7.3870    4.7028    2.5068    0.0070    0.1793    3.0777   37.0000   37.0000 
4739.5157 1444.6044    7.8750    8.2619   96.4505    7.8179    7.7117    4.3608    2.5142    0.0075    0.1697    3.0407   37.0000   37.0000 
4740.0157 1444.7568    7.8750    8.2622   97.7952    7.8426    8.0093    4.7122    2.5242    0.0063    0.1698    2.9589   37.0000   37.0000 
4740.5157 1444.9092    7.8750    8.2574   98.2807    8.0416    7.8224    5.5824    2.5203    0.0059    0.1808    2.9590   37.0000   37.0000 
4741.0157 1445.0616    7.8750    8.2539   97.1079    7.9601    8.2029    6.0015    2.5142    0.0050    0.1928    2.9957   37.0000   37.0000 
4741.5157 1445.2140    7.8750    8.2435  101.3436    7.0719    6.9672    4.7518    2.5050    0.0060    0.1948    2.9764   37.0000   37.0000 
4742.0157 1445.3665    7.8750    8.2406  108.7617    6.4034    6.4826    3.6579    2.4882    0.0054    0.1857    2.9283   37.0000   37.0000 
4742.5157 1445.5188    7.8750    8.2283  109.1427    6.0862    5.7638    3.1847    2.4934    0.0037    0.1857    2.9580   37.0000   37.0000 
4743.0157 1445.6711    7.8750    8.2409  104.0927    6.1337    6.1323    3.4623    2.5232    0.0065    0.1763    3.0132   37.0000   37.0000 
4743.5157 1445.8236    7.8750    8.2444  101.4482    6.4124    6.2587    3.7794    2.5311    0.0078    0.1701    3.0055   37.0000   37.0000 
4744.0157 1445.9760    7.8750    8.2482   93.2233    6.9249    7.2999    5.2873    2.5330    0.0068    0.1529    2.8465   37.0000   37.0000 
4744.5157 1446.1284    7.8750    8.2491   87.7699    6.7314    6.8333    5.1736    2.5245    0.0055    0.1537    2.7797   37.0000   37.0000 
4745.0157 1446.2808    7.8750    8.2487   86.4327    6.5555    6.3144    4.7075    2.5220    0.0040    0.1572    2.8543   37.0000   37.0000 
4745.5157 1446.4332    7.8750    8.2516   86.8958    6.1942    6.6113    4.5485    2.5245    0.0033    0.1636    2.9375   37.0000   37.0000 
4746.0157 1446.5856    7.8750    8.2586   95.2627    5.6224    5.9846    5.2163    2.5211    0.0011    0.1772    3.1259   37.0000   37.0000 
4746.5157 1446.7380    7.8750    8.2556  104.2421    5.6346    5.9146    4.1823    2.5200    0.0007    0.1968    3.1246   37.0000   37.0000 
4747.0157 1446.8904    7.8750    8.2561  108.5451    5.2170    5.1442    3.0300    2.5248    0.0024    0.2028    3.1357   37.0000   37.0000 
4747.5157 1447.0428    7.8750    8.2014  105.0041    5.1536    4.8535    2.8396    2.5343    0.0044    0.1887    3.1485   37.0000   37.0000 
4748.0157 1447.1952    7.8750    8.1742   96.5401    5.2653    5.2851    2.9958    2.5387    0.0081    0.1676    3.0673   37.0000   37.0000 
4748.5157 1447.3477    7.8750    8.1547   88.4572    5.5145    5.1721    3.3973    2.5329    0.0111    0.1596    2.9701   37.0000   37.0000 
4749.0157 1447.5000    7.8750    8.1577   83.3250    6.7496    6.3097    3.9582    2.5373    0.0134    0.1544    2.9033   37.0000   37.0000 
4749.5157 1447.6523    7.8750    8.1584   83.7657    9.4136    8.4225    7.3697    2.5427    0.0155    0.1640    2.8907   37.0000   37.0000 
4750.0157 1447.8048    7.8750    8.1411   89.9288   14.1834   12.6373   18.6688    2.5387    0.0175    0.1578    3.0304   37.0000   37.0000 
4750.5157 1447.9572    7.8750    8.0634   90.7282   21.3551   23.8346   61.8584    2.5722    0.0258    0.1788    3.3464   37.0000   37.0000 
4751.0157 1448.1096    7.8750    7.9496   79.8587   20.0239   25.0856   18.6277    2.6653    0.0337    0.1605    3.7181   37.0000   37.0000 
4751.5157 1448.2620    7.8750    7.9702   60.8540   12.7536   15.9939    9.0760    2.7578    0.0280    0.1114    3.9238   22.0000   12.0000 
4752.0157 1448.4144    7.8750    7.9886   51.7027    7.3400    7.9346    5.3618    2.7801    0.0187    0.0937    3.9007   12.0000   12.0000 
4752.5157 1448.5668    7.8750    7.9874   62.5796    5.5824    5.7206    3.8370    2.7090    0.0207    0.1111    3.6973   22.0000   12.0000 
4753.0157 1448.7192    7.8750    7.9864   84.9685    4.6001    4.4391    3.2903    2.5944    0.0253    0.1495    3.3792   37.0000   37.0000 
4753.5157 1448.8716    7.8750    7.9914  104.5260    4.1269    4.1413    2.9716    2.5256    0.0214    0.1782    3.1025   37.0000   37.0000 
4754.0157 1449.0240    7.8750    8.0019  110.2708    4.3802    4.2851    2.9720    2.5189    0.0154    0.1944    2.9651   37.0000   37.0000 
4754.5157 1449.1764    7.8750    8.0019  107.4469    4.9160    4.8397    3.5051    2.5311    0.0142    0.2104    2.9399   37.0000   37.0000 
4755.0157 1449.3289    7.8750    8.0188  102.9423    5.3230    5.0075    4.2906    2.5423    0.0134    0.2069    2.9838   37.0000   37.0000 
4755.5157 1449.4812    7.8750    7.9723  101.3884    6.9962    6.8544    4.8988    2.5473    0.0117    0.2118    3.0411   37.0000   37.0000 
4756.0157 1449.6335    7.8750    8.0278  101.8367    8.0379    7.8410    5.7406    2.5476    0.0115    0.2168    3.0533   37.0000   37.0000 
4756.5157 1449.7860    7.8750    8.0572   97.5860    8.9594    9.1010    8.5234    2.5298    0.0081    0.2057    3.0310   37.0000   37.0000 
4757.0157 1449.9384    7.8750    8.0443   95.7333    8.9625    8.8790    7.4059    2.5180    0.0055    0.2128    3.0720   37.0000   37.0000 
4757.5157 1450.0908    7.8750    8.0268   97.9819    8.1012    7.8578    4.7763    2.5178    0.0032    0.2132    3.2899   37.0000   37.0000 
4758.0157 1450.2432    7.8750    8.0230   98.5945    7.4781    7.2770    4.1383    2.5178    0.0020    0.2125    3.4131   37.0000   37.0000 
4758.5157 1450.3956    7.8750    8.0250  104.1226    6.3513    5.9465    3.3456    2.5111    0.0034    0.1893    3.3025   37.0000   37.0000 
4759.0157 1450.5480    7.8750    8.0276  106.0425    5.9285    5.9410    3.1664    2.5174    0.0037    0.1878    3.0439   37.0000   37.0000 
4759.5157 1450.7004    7.8750    8.0431   99.3266    5.8822    5.5817    3.1161    2.5204    0.0010    0.1806    2.9119   37.0000   37.0000 
4760.0157 1450.8528    7.8750    8.0498   92.2297    5.9311    5.4066    3.2267    2.5239    0.0036    0.1785    2.8641   37.0000   37.0000 
4760.5157 1451.0052    7.8750    8.0539   89.2789    6.0463    5.8973    3.3635    2.5302    0.0093    0.1702    2.8630   37.0000   37.0000 
4761.0157 1451.1576    7.8750    8.0498   85.1403    6.1638    6.0167    3.6172    2.5280    0.0134    0.1473    2.8724   37.0000   37.0000 
4761.5157 1451.3101    7.8750    8.0508   82.5032    5.9988    5.5330    3.9368    2.5305    0.0169    0.1526    2.9147   37.0000   37.0000 
4762.0157 1451.4624    7.8750    8.0393   86.1488    5.7041    5.6105    3.9704    2.5418    0.0192    0.1495    3.0437   37.0000   37.0000 
