~VERSION INFORMATION
 VERS.                 2.0:   CWLS LOG ASCII STANDARD - VERSION 2.0
 WRAP.                  NO:   SINGLE LINE PER DEPTH STEP
 CREA.                 12/04/2017 16:08:09
#CREATED USING DSPetro VERSION 5000.10.1.3 BY H191660 ON 12/04/2017 16:08:09
~WELL INFORMATION
#MNEM.UNIT       DATA                          DESCRIPTION MNEMONIC
#---------      ---------------------------   --------------------------
 STRT    .FT        174.0157                  : START DEPTH
 STOP    .FT        9268.0157                 : STOP DEPTH
 STEP    .FT        0.5000                    : STEP VALUE
 NULL    .      -999.0000                     : NULL VALUE
 DATE    .      12/04/2017                    : LAS file Creation Date
 WELL .      UNIVERSITY_45_8_4210540952 : Well Name
 COMP .                                 : Company
 FLD  .      WILDCAT (7C)               : Field
 UWI  .      X495988                    : Unique Well Identifier (UWI)
 LOC  .                                 : Location
 RWS  .      -999                       : Def_Rw
 WST  .      -999                       : Def_Rwt
 SRVC .                                 : Contractor
~CURVE INFORMATION
#MNEM              UNIT       API CODE   Curve Type Comments
#----------  --------------- ----------  ---------- -----------
 DEPTH      .FT                        : Depth       
 DEPTH_(m)  .                          :             
 BitSize    .in                        : bitSize     
 CAL_INCH   .inch                      :             Caliper Log - A representation of the measured diameter of a borehole along its depth
 GR_API     .API                       : GammaRay    Gamma Ray (API) - Measures the intensity of natural gamma-ray radiation emitted from formations containing radioactive elements, such as K, Th and U
 LLD_OHMM   .ohmm                      :             Laterlog Deep Resistivity - Measurement made several feet into the formation; generally considered a measurement of the undisturbed formation
 LLS_OHMM   .ohmm                      :             Laterlog Shallow Resistivity - one to two feet into the formation; generally considered to measure the formation
 MSFL_OHMM  .ohmm                      :             Micro-Spherically Focused Log - Measurement involves only the first few inches of the formation immediately adjacent to the borehole
 RHOB_G_CC  .g/cc                      :             Bulk Density - Measures the density of bulk material, including any void space or other materials contained in the subject volume
 DRHO_G_CC  .g/cc                      :             Density Correction - Investigates the correction to the Bulk Density log; used as an indication of hole condition to validate the Bulk Density measure
 NPHI_v/v   .PC                        : Neutron     Neutron Porosity - Measured with an neutron logging device calibrated to a given matrix (limestone, sandstone and dolomite)
 PEF_B_E    .b/e-                      : PEF         Photoelectric Factor - A log of photoelectric absorption properties. Often expressed in an approximation unit barns/electron (b/e-)
 LITH       .                          : LITH        Lithology Curve
 LITH_v2    .                          : LITH        Lithology Curve
~A  DEPTH DEPTH_(m)  BitSize   CAL_INCH   GR_API   LLD_OHMM  LLS_OHMM MSFL_OHM  RHOB_G_C  DRHO_G_C   NPHI_v/v  PEF_B_E     LITH    LITH_v2  
# ...
2254.5157  687.1764    7.8750    9.7680  104.5932    4.2229    3.6027    3.3179    2.5783    0.0187    0.1795    3.4385   37.0000   37.0000 
2255.0157  687.3288    7.8750    9.7578  104.3467    4.3796    3.7346    3.2988    2.5812    0.0156    0.1851    3.4840   37.0000   37.0000 
2255.5157  687.4812    7.8750    9.7434   98.2210    4.5246    3.8322    3.5023    2.5796    0.0112    0.1847    3.3857   37.0000   37.0000 
2256.0157  687.6336    7.8750    9.7495   96.1218    4.6560    4.0542    3.7338    2.5753    0.0080    0.1724    3.3095   37.0000   37.0000 
2256.5157  687.7860    7.8750    9.7505   94.7174    5.0241    4.2732    4.0987    2.5760    0.0012    0.1571    3.1816   37.0000   37.0000 
2257.0157  687.9384    7.8750    9.7494   91.7665    4.9441    4.4534    4.0431    2.5812   -0.0030    0.1610    3.1406   37.0000   37.0000 
2257.5157  688.0908    7.8750    9.7516   92.9618    4.7131    4.0220    3.9317    2.5732   -0.0075    0.1717    3.0800   37.0000   37.0000 
2258.0157  688.2432    7.8750    9.7750   96.2712    4.6096    3.9171    3.5360    2.5677   -0.0086    0.1741    3.0654   37.0000   37.0000 
2258.5157  688.3956    7.8750    9.7712  104.8099    4.4665    3.7064    3.2854    2.5573   -0.0084    0.1653    3.1467   37.0000   37.0000 
2259.0157  688.5480    7.8750    9.7595  101.9412    4.6062    3.8414    3.4892    2.5598   -0.0072    0.1769    3.1481   37.0000   37.0000 
2259.5157  688.7004    7.8750    9.7680   98.9904    4.6607    3.7749    3.7512    2.5751   -0.0034    0.1752    3.1181   37.0000   37.0000 
2260.0157  688.8528    7.8750    9.7791   98.4600    4.8857    4.2616    3.7821    2.5847    0.0034    0.1727    3.1694   37.0000   37.0000 
2260.5157  689.0052    7.8750    9.8097   96.7120    5.0881    4.0775    3.7712    2.5907    0.0106    0.1697    3.2281   37.0000   37.0000 
2261.0157  689.1576    7.8750    9.8152   93.4773    4.8998    4.0956    3.7824    2.5987    0.0130    0.1603    3.2799   37.0000   37.0000 
2261.5157  689.3100    7.8750    9.8246   94.6053    4.7613    4.0213    3.6258    2.5902    0.0132    0.1705    3.3210   37.0000   37.0000 
2262.0157  689.4624    7.8750    9.8227   95.8080    4.8408    4.0860    3.5775    2.5766    0.0140    0.1670    3.3104   37.0000   37.0000 
2262.5157  689.6148    7.8750    9.8133   95.2179    4.8556    3.9942    3.8804    2.5751    0.0113    0.1544    3.2600   37.0000   37.0000 
2263.0157  689.7672    7.8750    9.8242   96.5327    5.0289    4.1928    4.0884    2.5777    0.0085    0.1618    3.1903   37.0000   37.0000 
2263.5157  689.9196    7.8750    9.8372   95.8080    5.1046    4.3399    4.2031    2.5839    0.0094    0.1616    3.2054   37.0000   37.0000 
2264.0157  690.0720    7.8750    9.8670   95.2552    5.2252    4.3449    4.1472    2.5878    0.0090    0.1511    3.3022   37.0000   37.0000 
2264.5157  690.2244    7.8750    9.8820   97.1303    5.1882    4.2403    4.1414    2.5877    0.0064    0.1529    3.2896   37.0000   37.0000 
2265.0157  690.3768    7.8750    9.8865   93.8433    5.1419    4.2034    4.0178    2.5906    0.0051    0.1486    3.2037   37.0000   37.0000 
2265.5157  690.5292    7.8750    9.8905   88.2480    5.2826    4.3657    4.0122    2.5864    0.0047    0.1446    3.2381   37.0000   37.0000 
2266.0157  690.6816    7.8750    9.8969   86.2011    5.1273    4.4030    3.9649    2.5762    0.0022    0.1523    3.3259   37.0000   37.0000 
2266.5157  690.8340    7.8750    9.9194   93.4623    4.8487    4.1684    3.6938    2.5692   -0.0002    0.1608    3.3635   37.0000   37.0000 
2267.0157  690.9864    7.8750    9.9305  100.3799    4.6410    3.9054    3.3670    2.5597   -0.0006    0.1680    3.4175   37.0000   37.0000 
2267.5157  691.1388    7.8750    9.9247   97.8773    4.3677    3.6498    3.2089    2.5503   -0.0013    0.1747    3.4705   37.0000   37.0000 
2268.0157  691.2912    7.8750    9.9287   96.2861    4.2521    3.5360    3.2181    2.5462   -0.0027    0.1827    3.4534   37.0000   37.0000 
2268.5157  691.4436    7.8750    9.9291   97.1751    4.2559    3.5401    3.2033    2.5437   -0.0035    0.1909    3.4253   37.0000   37.0000 
2269.0157  691.5960    7.8750    9.9383  102.7854    4.2717    3.6216    3.3254    2.5521   -0.0063    0.1959    3.3186   37.0000   37.0000 
2269.5157  691.7484    7.8750    9.9289  101.9263    4.3081    3.6960    3.2855    2.5574   -0.0072    0.1904    3.3124   37.0000   37.0000 
2270.0157  691.9008    7.8750    9.9234  104.3019    4.2170    3.7183    3.2283    2.5473   -0.0065    0.1872    3.3320   37.0000   37.0000 
2270.5157  692.0532    7.8750    9.9009  105.0340    4.1096    3.7750    3.1408    2.5418   -0.0056    0.1760    3.3427   37.0000   37.0000 
2271.0157  692.2056    7.8750    9.8739  104.6157    3.9870    3.3621    2.9502    2.5443   -0.0022    0.1896    3.4534   37.0000   37.0000 
2271.5157  692.3580    7.8750    9.9167  106.2666    3.9684    3.4878    2.9260    2.5451    0.0004    0.2062    3.4871   37.0000   37.0000 
2272.0157  692.5104    7.8750    9.9077  107.6412    3.9918    3.3872    3.0418    2.5397    0.0017    0.1904    3.3993   37.0000   37.0000 
2272.5157  692.6628    7.8750    9.9255  105.1087    4.0156    3.5891    3.0028    2.5397   -0.0014    0.1902    3.3264   37.0000   37.0000 
2273.0157  692.8152    7.8750    9.9173  101.9412    4.0110    3.4498    3.0034    2.5484   -0.0031    0.1949    3.3021   37.0000   37.0000 
2273.5157  692.9676    7.8750    9.9296  102.2326    4.1071    3.4967    3.1553    2.5596   -0.0011    0.1824    3.2402   37.0000   37.0000 
2274.0157  693.1200    7.8750    9.9298  100.6563    4.2032    3.4046    3.4008    2.5633   -0.0014    0.1846    3.1907   37.0000   37.0000 
2274.5157  693.2724    7.8750    9.9260   96.9361    4.4646    3.9450    3.8815    2.5639   -0.0026    0.1703    3.2161   37.0000   37.0000 
2275.0157  693.4248    7.8750    9.9328   91.9160    4.5612    4.1282    3.8483    2.5731   -0.0021    0.1697    3.2744   37.0000   37.0000 
2275.5157  693.5772    7.8750    9.9457   89.5927    4.4727    3.9545    3.4850    2.5763   -0.0014    0.1669    3.3508   37.0000   37.0000 
2276.0157  693.7296    7.8750    9.9714   96.9286    4.3858    3.7688    3.1054    2.5625   -0.0025    0.1865    3.4056   37.0000   37.0000 
2276.5157  693.8820    7.8750    9.9842  106.2367    4.2665    3.8666    3.2921    2.5512   -0.0047    0.1812    3.3862   37.0000   37.0000 
2277.0157  694.0344    7.8750   10.0192  104.6829    4.0349    3.5155    3.2770    2.5534   -0.0063    0.1875    3.3272   37.0000   37.0000 
2277.5157  694.1868    7.8750   10.0174  102.9722    4.0364    3.2988    3.3788    2.5569   -0.0086    0.1841    3.3291   37.0000   37.0000 
2278.0157  694.3392    7.8750   10.0116  101.8665    4.0344    3.4752    3.2157    2.5628   -0.0087    0.1930    3.3786   37.0000   37.0000 
2278.5157  694.4916    7.8750   10.0259   99.6254    3.8375    3.3083    2.8966    2.5697   -0.0059    0.2001    3.3844   37.0000   37.0000 
2279.0157  694.6440    7.8750   10.0276  102.2326    3.9219    3.3850    2.1582    2.5648   -0.0029    0.1923    3.3769   37.0000   37.0000 
2279.5157  694.7964    7.8750   10.0324  103.4279    4.0052    3.5235    2.1086    2.5626   -0.0015    0.1932    3.4130   37.0000   37.0000 
2280.0157  694.9488    7.8750   10.0393  103.6968    3.9052    3.4078    2.0997    2.5703    0.0009    0.1886    3.5002   37.0000   37.0000 
2280.5157  695.1012    7.8750   10.0772  107.2228    3.8964    3.4430    2.0828    2.5719    0.0045    0.1964    3.5370   37.0000   37.0000 
2281.0157  695.2536    7.8750   10.0772  108.2687    3.8774    3.4525    2.0841    2.5663    0.0030    0.2013    3.5112   37.0000   37.0000 
2281.5157  695.4060    7.8750   10.0751  103.1739    3.7067    3.3227    2.1394    2.5587    0.0006    0.1840    3.4392   37.0000   37.0000 
2282.0157  695.5584    7.8750   10.0582   97.8251    3.5498    3.1114    2.1928    2.5589    0.0009    0.1895    3.5342   37.0000   37.0000 
2282.5157  695.7108    7.8750   10.0497  101.6350    3.5032    3.0712    2.2068    2.5617    0.0003    0.2049    3.5813   37.0000   37.0000 
