~VERSION INFORMATION
 VERS.                 2.0:   CWLS LOG ASCII STANDARD - VERSION 2.0
 WRAP.                  NO:   SINGLE LINE PER DEPTH STEP
 CREA.                 01/12/2017 17:02:35
#CREATED USING DSPetro VERSION 5000.10.1.3 BY H191660 ON 01/12/2017 17:02:35
~WELL INFORMATION
#MNEM.UNIT       DATA                          DESCRIPTION MNEMONIC
#---------      ---------------------------   --------------------------
 STRT    .FT        50.4921                   : START DEPTH
 STOP    .FT        8514.9921                 : STOP DEPTH
 STEP    .FT        0.5000                    : STEP VALUE
 NULL    .      -999.0000                     : NULL VALUE
 DATE    .      01/12/2017                    : LAS file Creation Date
 WELL .      UNIVERSITY_42_22_4210540532 : Well Name
 COMP .                                  : Company
 FLD  .      HOLT RANCH (CONSOLIDATED)�  : Field
 UWI  .      224                         : Unique Well Identifier (UWI)
 LOC  .                                  : Location
 RWS  .      -999                        : Def_Rw
 WST  .      -999                        : Def_Rwt
 SRVC .                                  : Contractor
~CURVE INFORMATION
#MNEM              UNIT       API CODE   Curve Type Comments
#----------  --------------- ----------  ---------- -----------
 DEPTH      .FT                        : Depth       
 DEPTH_(m)  .                          :             
 BitSize    .inch                      : BitSize     
 CAL_INCH   .inch                      :             Caliper Log - A representation of the measured diameter of a borehole along its depth
 GR_API     .API                       : GammaRay    Gamma Ray (API) - Measures the intensity of natural gamma-ray radiation emitted from formations containing radioactive elements, such as K, Th and U
 LLD_OHMM   .ohmm                      :             Laterlog Deep Resistivity - Measurement made several feet into the formation; generally considered a measurement of the undisturbed formation
 LLS_OHMM   .ohmm                      :             Laterlog Shallow Resistivity - one to two feet into the formation; generally considered to measure the formation
 RHOB_G_CC  .g/cc                      :             Bulk Density - Measures the density of bulk material, including any void space or other materials contained in the subject volume
 DRHO_G_CC  .g/cc                      :             Density Correction - Investigates the correction to the Bulk Density log; used as an indication of hole condition to validate the Bulk Density measure
 NPHI_v/v   .dec                       : Neutron     
 PEF_B_E    .b/e-                      : PEF         Photoelectric Factor - A log of photoelectric absorption properties. Often expressed in an approximation unit barns/electron (b/e-)
 LITH       .                          : LITH        Lithology Curve
 LITH_v2    .                          : LITH        Lithology Curve
~A  DEPTH DEPTH_(m)  BitSize   CAL_INCH   GR_API   LLD_OHMM  LLS_OHMM RHOB_G_C  DRHO_G_C   NPHI_v/v  PEF_B_E     LITH    LITH_v2  
# ...
2096.4921  639.0108 -999.0000    7.9547   49.4098   32.3021   11.8085 -999.0000 -999.0000    0.3848 -999.0000 -999.0000 -999.0000 
2096.9921  639.1632 -999.0000    8.0094   48.9760   33.3641   11.8965 -999.0000 -999.0000    0.3682 -999.0000 -999.0000 -999.0000 
2097.4921  639.3156 -999.0000    8.0328   46.2765   34.4612   11.9871 -999.0000 -999.0000    0.3679 -999.0000 -999.0000 -999.0000 
2097.9921  639.4680 -999.0000    7.9781   50.2775   35.6593   12.0793 -999.0000 -999.0000    0.3586 -999.0000 -999.0000 -999.0000 
2098.4921  639.6204 -999.0000    7.9938   60.0149   36.9836   12.3066 -999.0000 -999.0000    0.3797 -999.0000 -999.0000 -999.0000 
2098.9921  639.7728 -999.0000    7.9703   56.1103   38.3567   12.4750 -999.0000 -999.0000    0.3631 -999.0000 -999.0000 -999.0000 
2099.4921  639.9252 -999.0000    7.9781   45.8909   39.8085   12.5934 -999.0000 -999.0000    0.3541 -999.0000 -999.0000 -999.0000 
2099.9921  640.0776 -999.0000    7.9781   47.3370   41.2525   12.7140 -999.0000 -999.0000    0.3595 -999.0000 -999.0000 -999.0000 
2100.4921  640.2300 -999.0000    7.9703   55.2908   42.8220   12.7974 -999.0000 -999.0000    0.3475 -999.0000 -999.0000 -999.0000 
2100.9921  640.3824 -999.0000    7.9938   60.6415   44.4280   13.1125 -999.0000 -999.0000    0.3481 -999.0000 -999.0000 -999.0000 
2101.4921  640.5348 -999.0000    7.9703   58.7616   46.5539   13.3704 -999.0000 -999.0000    0.3973 -999.0000 -999.0000 -999.0000 
2101.9921  640.6872 -999.0000    7.9781   56.0139   48.8093   13.5839 -999.0000 -999.0000    0.3854 -999.0000 -999.0000 -999.0000 
2102.4921  640.8396 -999.0000    7.9781   56.6888   51.2101   13.7690 -999.0000 -999.0000    0.3777 -999.0000 -999.0000 -999.0000 
2102.9921  640.9920 -999.0000    7.9938   57.9421   54.3692   13.9442 -999.0000 -999.0000    0.3820 -999.0000 -999.0000 -999.0000 
2103.4921  641.1444 -999.0000    7.9859   54.3749   58.6435   14.2392    1.7805   -0.8986    0.3447    5.5111 -999.0000 -999.0000 
2103.9921  641.2968 -999.0000    7.9781   51.2898   65.7748   14.7094    1.8118   -0.8381    0.3264    5.4005 -999.0000 -999.0000 
2104.4921  641.4492 -999.0000    7.9859   48.3493   76.7706   15.2941    1.8879   -0.8155    0.3481    5.0018 -999.0000 -999.0000 
2104.9921  641.6016 -999.0000    7.9703   46.9514   95.7274   16.0047    2.0201   -0.7326    0.3278    4.6670 -999.0000 -999.0000 
2105.4921  641.7540 -999.0000    8.0172   56.0621  128.7676   17.0673    2.2007   -0.4105    0.3449    4.2240 -999.0000 -999.0000 
2105.9921  641.9064 -999.0000    8.5953   69.3184  174.9835   17.7333    2.2092   -0.0633    0.3903    3.5630 -999.0000 -999.0000 
2106.4921  642.0588 -999.0000    9.4625   76.9830  132.1656   16.5525    2.1117    0.1306    0.3578    3.4228 -999.0000 -999.0000 
2106.9921  642.2112 -999.0000   10.1812   76.6455   46.3402   12.6220    2.1863    0.2627    0.3676    3.7203 -999.0000 -999.0000 
2107.4921  642.3636 -999.0000   10.6344   75.6814   20.5930    8.7391    2.3113    0.3421    0.3567    3.9424 -999.0000 -999.0000 
2107.9921  642.5160 -999.0000   10.5641   74.7655   14.2645    5.9531    2.3107    0.3616    0.4319    3.9931 -999.0000 -999.0000 
2108.4921  642.6684 -999.0000   10.5797   73.1266   13.5271    4.7736    2.2785    0.3800    0.3787    4.0419 -999.0000 -999.0000 
2108.9921  642.8208 -999.0000   10.4703   77.0794   15.9987    4.4598    2.2827    0.4034    0.3375    4.0756 -999.0000 -999.0000 
2109.4921  642.9732 -999.0000   10.5328   80.5983   21.7031    4.3279    2.2742    0.4051    0.3304    3.7642 -999.0000 -999.0000 
2109.9921  643.1256 -999.0000   10.5094   75.7296   28.4925    4.2044    2.2627    0.4033    0.3461    3.3444   37.0000   37.0000 
2110.4921  643.2780 -999.0000   10.5250   72.9338   32.3674    4.0608    2.2652    0.4069    0.3627    3.1949   37.0000   37.0000 
2110.9921  643.4304 -999.0000   10.4547   78.9594   36.0835    4.0795    2.2473    0.3911    0.3789    3.1098   37.0000   37.0000 
2111.4921  643.5828 -999.0000   10.4469   89.6126   40.7682    4.1947    2.2660    0.3272    0.3921    2.9538   37.0000   37.0000 
2111.9921  643.7352 -999.0000    9.6656   92.5049   45.5607    4.5303    2.3658    0.2064    0.3551    2.8577   37.0000   37.0000 
2112.4921  643.8876 -999.0000    9.1578   88.4557   47.8145    4.8196    2.4462    0.0825    0.3176    2.8211   37.0000   37.0000 
2112.9921  644.0400    7.8750    8.8453   85.4188   47.5422    5.1259    2.4732    0.0301    0.2880    2.8340   37.0000   37.0000 
2113.4921  644.1924    7.8750    8.7516   89.1305   45.1434    5.1213    2.4866    0.0339    0.2502    2.9091   37.0000   37.0000 
2113.9921  644.3448    7.8750    8.6656   91.9746   41.2782    4.9933    2.4986    0.0406    0.2573    2.9669   37.0000   37.0000 
2114.4921  644.4972    7.8750    8.6344   91.2998   37.5223    4.8242    2.5147    0.0448    0.2513    2.9970   37.0000   37.0000 
2114.9921  644.6496    7.8750    8.6578   94.8187   34.0661    4.6714    2.5240    0.0458    0.2440    3.0323   37.0000   37.0000 
2115.4921  644.8020    7.8750    8.6344  104.4114   30.6743    4.5433    2.5187    0.0399    0.2412    3.0567   37.0000   37.0000 
2115.9921  644.9544    7.8750    8.6109  115.8842   27.5285    4.3750    2.5093    0.0342    0.2513    3.0471   37.0000   37.0000 
2116.4921  645.1068    7.8750    8.6187  114.0042   24.7399    4.2822    2.5105    0.0296    0.2640    2.9849   37.0000   37.0000 
2116.9921  645.2592    7.8750    8.6578  104.2668   22.3674    4.3309    2.5156    0.0301    0.2461    2.9351   37.0000   37.0000 
2117.4921  645.4116    7.8750    8.6422   99.9284   20.1343    4.4599    2.5111    0.0320    0.2537    3.0093   37.0000   37.0000 
2117.9921  645.5640    7.8750    8.6656   94.4331   17.8843    4.4728    2.5055    0.0274    0.2371    3.1892   37.0000   37.0000 
2118.4921  645.7164    7.8750    8.6500   94.6259   15.4239    4.6194    2.5082    0.0217    0.2259    3.2156   37.0000   37.0000 
2118.9921  645.8688    7.8750    8.6187   99.6392   12.9219    4.5980    2.5141    0.0181    0.2232    3.0373   37.0000   37.0000 
2119.4921  646.0212    7.8750    8.6344  107.2073   10.7656    4.5830    2.5142    0.0183    0.2303    2.9978   37.0000   37.0000 
2119.9921  646.1736    7.8750    8.6734  112.7027    9.2342    4.4943    2.5069    0.0189    0.2653    3.1212   37.0000   37.0000 
2120.4921  646.3260    7.8750    8.6578  108.0268    7.9714    4.4731    2.5057    0.0159    0.2645    3.1917   37.0000   37.0000 
2120.9921  646.4784    7.8750    8.6734  104.2668    6.8586    4.4243    2.5076    0.0132    0.2761    3.1947   37.0000   37.0000 
2121.4921  646.6308    7.8750    8.6734  108.5571    6.1000    4.3201    2.4942    0.0100    0.2585    3.1455   37.0000   37.0000 
2121.9921  646.7832    7.8750    8.7281  109.3765    5.7569    4.2712    2.4765    0.0060    0.2575    3.0897   37.0000   37.0000 
2122.4921  646.9356    7.8750    8.6969  105.9540    5.7397    4.2284    2.4747    0.0065    0.2530    3.0481   37.0000   37.0000 
2122.9921  647.0880    7.8750    8.7125  108.6535    5.8578    4.3901    2.4857    0.0116    0.2356    2.9793   37.0000   37.0000 
2123.4921  647.2404    7.8750    8.6734  104.7489    5.9760    4.3992    2.4902    0.0102    0.2381    2.9400   37.0000   37.0000 
2123.9921  647.3928    7.8750    8.7203   99.2053    5.9643    4.3759    2.4820    0.0029    0.2332    2.9950   37.0000   37.0000 
2124.4921  647.5452    7.8750    8.6656  104.2186    5.8467    4.2033    2.4777    0.0015    0.2310    3.0912   37.0000   37.0000 
2124.9921  647.6976    7.8750    8.6812  112.3652    5.7448    4.0953    2.4820    0.0062    0.2488    3.1074   37.0000   37.0000 
2125.4921  647.8500    7.8750    8.7437  118.2944    5.6911    4.0393    2.4851    0.0110    0.2571    3.0400   37.0000   37.0000 
2125.9921  648.0024    7.8750    8.7516  117.5231    5.6976    4.0395    2.4921    0.0152    0.2350    3.0002   37.0000   37.0000 
2126.4921  648.1548    7.8750    8.7359  112.3170    5.7738    4.0968    2.5063    0.0181    0.2638    3.0329   37.0000   37.0000 
2126.9921  648.3072    7.8750    8.7359  103.3027    5.8430    4.2335    2.5143    0.0173    0.2768    3.1121   37.0000   37.0000 
