~VERSION INFORMATION
 VERS.                 2.0:   CWLS LOG ASCII STANDARD - VERSION 2.0
 WRAP.                  NO:   SINGLE LINE PER DEPTH STEP
 CREA.                 01/12/2017 17:02:35
#CREATED USING DSPetro VERSION 5000.10.1.3 BY H191660 ON 01/12/2017 17:02:35
~WELL INFORMATION
#MNEM.UNIT       DATA                          DESCRIPTION MNEMONIC
#---------      ---------------------------   --------------------------
 STRT    .FT        50.4921                   : START DEPTH
 STOP    .FT        8514.9921                 : STOP DEPTH
 STEP    .FT        0.5000                    : STEP VALUE
 NULL    .      -999.0000                     : NULL VALUE
 DATE    .      01/12/2017                    : LAS file Creation Date
 WELL .      UNIVERSITY_42_22_4210540532 : Well Name
 COMP .                                  : Company
 FLD  .      HOLT RANCH (CONSOLIDATED)�  : Field
 UWI  .      224                         : Unique Well Identifier (UWI)
 LOC  .                                  : Location
 RWS  .      -999                        : Def_Rw
 WST  .      -999                        : Def_Rwt
 SRVC .                                  : Contractor
~CURVE INFORMATION
#MNEM              UNIT       API CODE   Curve Type Comments
#----------  --------------- ----------  ---------- -----------
 DEPTH      .FT                        : Depth       
 DEPTH_(m)  .                          :             
 BitSize    .inch                      : BitSize     
 CAL_INCH   .inch                      :             Caliper Log - A representation of the measured diameter of a borehole along its depth
 GR_API     .API                       : GammaRay    Gamma Ray (API) - Measures the intensity of natural gamma-ray radiation emitted from formations containing radioactive elements, such as K, Th and U
 LLD_OHMM   .ohmm                      :             Laterlog Deep Resistivity - Measurement made several feet into the formation; generally considered a measurement of the undisturbed formation
 LLS_OHMM   .ohmm                      :             Laterlog Shallow Resistivity - one to two feet into the formation; generally considered to measure the formation
 RHOB_G_CC  .g/cc                      :             Bulk Density - Measures the density of bulk material, including any void space or other materials contained in the subject volume
 DRHO_G_CC  .g/cc                      :             Density Correction - Investigates the correction to the Bulk Density log; used as an indication of hole condition to validate the Bulk Density measure
 NPHI_v/v   .dec                       : Neutron     
 PEF_B_E    .b/e-                      : PEF         Photoelectric Factor - A log of photoelectric absorption properties. Often expressed in an approximation unit barns/electron (b/e-)
 LITH       .                          : LITH        Lithology Curve
 LITH_v2    .                          : LITH        Lithology Curve
~A  DEPTH DEPTH_(m)  BitSize   CAL_INCH   GR_API   LLD_OHMM  LLS_OHMM RHOB_G_C  DRHO_G_C   NPHI_v/v  PEF_B_E     LITH    LITH_v2  
# ...
5475.4921 1668.9301    7.8750    8.1656  155.3638   30.9396   30.2706    2.4815   -0.0182    0.2029    3.2770   37.0000   37.0000 
5475.9921 1669.0824    7.8750    8.1422   96.0238   26.9750   26.2352    2.5963   -0.0107    0.1713    3.7450   37.0000   37.0000 
5476.4921 1669.2347    7.8750    8.0875   68.9810   23.8670   23.7997    2.6660   -0.0094    0.1512    3.9862   37.0000   22.0000 
5476.9921 1669.3872    7.8750    8.0797   74.8619   21.0432   20.4250    2.6327   -0.0086    0.1402    3.6327   12.0000   22.0000 
5477.4921 1669.5396    7.8750    8.0953   89.2752   19.9657   18.7487    2.5487   -0.0045    0.1634    3.0965   37.0000   37.0000 
5477.9921 1669.6920    7.8750    8.1969  101.8084   20.5569   19.1764    2.5064   -0.0051    0.1782    2.9626   37.0000   37.0000 
5478.4921 1669.8444    7.8750    8.1812  104.9899   22.0901   20.5773    2.5260   -0.0063    0.1682    3.2324   37.0000   37.0000 
5478.9921 1669.9968    7.8750    8.1344  107.1109   25.1862   23.3645    2.5540   -0.0078    0.1700    3.4946   37.0000   37.0000 
5479.4921 1670.1492    7.8750    8.1344  122.3918   29.3187   27.2164    2.5437   -0.0128    0.1714    3.4901   37.0000   37.0000 
5479.9921 1670.3016    7.8750    8.1266  144.4696   32.0875   29.8195    2.4970   -0.0184    0.1730    3.4236   37.0000   37.0000 
5480.4921 1670.4540    7.8750    8.1031  158.4007   32.7032   30.3076    2.4562   -0.0228    0.1888    3.4557   37.0000   37.0000 
5480.9921 1670.6064    7.8750    8.1031  153.0500   31.5202   29.3818    2.4576   -0.0211    0.1976    3.3320   37.0000   37.0000 
5481.4921 1670.7588    7.8750    8.1187  124.7538   29.5602   26.7760    2.4852   -0.0162    0.2049    3.1133   37.0000   37.0000 
5481.9921 1670.9113    7.8750    8.1812  100.6515   29.1363   25.6799    2.5031   -0.0139    0.1881    3.1526   37.0000   37.0000 
5482.4921 1671.0636    7.8750    8.2047   96.0238   30.5433   26.8463    2.5148   -0.0110    0.1694    3.4544   37.0000   37.0000 
5482.9921 1671.2159    7.8750    8.1500   94.6259   33.0701   29.4643    2.5333   -0.0084    0.1598    3.7811   37.0000   37.0000 
5483.4921 1671.3684    7.8750    8.1500   93.2762   35.2226   31.3065    2.5406   -0.0106    0.1636    3.8688   37.0000   37.0000 
5483.9921 1671.5208    7.8750    8.1266  111.7386   35.7837   32.4051    2.5140   -0.0141    0.1682    3.6844   37.0000   37.0000 
5484.4921 1671.6732    7.8750    8.1344  149.2901   32.6881   30.4631    2.4684   -0.0135    0.1880    3.4083   37.0000   37.0000 
5484.9921 1671.8256    7.8750    8.1422  161.4376   28.1430   26.5650    2.4439   -0.0094    0.2054    3.1956   37.0000   37.0000 
5485.4921 1671.9780    7.8750    8.1500  138.6368   24.1628   22.7203    2.4642   -0.0027    0.1892    3.1561   37.0000   37.0000 
5485.9921 1672.1304    7.8750    8.1500  113.1365   21.6934   19.4071    2.5125    0.0047    0.1611    3.1931   37.0000   37.0000 
5486.4921 1672.2828    7.8750    8.1656   99.4464   22.0081   19.1244    2.5403    0.0115    0.1710    3.1532   37.0000   37.0000 
5486.9921 1672.4352    7.8750    8.1500   94.6741   25.0140   22.3053    2.5297    0.0161    0.1944    3.1758   37.0000   37.0000 
5487.4921 1672.5876    7.8750    8.2047   94.5777   30.3175   27.5264    2.5116    0.0156    0.1797    3.3661   37.0000   37.0000 
5487.9921 1672.7400    7.8750    8.1656  103.7848   37.0086   33.9384    2.5062    0.0112    0.1831    3.4481   37.0000   37.0000 
5488.4921 1672.8925    7.8750    8.1422  114.5826   41.8446   38.0993    2.5067    0.0089    0.1769    3.3147   37.0000   37.0000 
5488.9921 1673.0448    7.8750    8.1266  115.2093   44.2359   39.7938    2.5067    0.0075    0.1792    3.2354   37.0000   37.0000 
5489.4921 1673.1971    7.8750    8.1422  105.4237   44.6241   40.2228    2.5037    0.0019    0.1852    3.2714   37.0000   37.0000 
5489.9921 1673.3496    7.8750    8.1187   95.2525   42.8670   37.9821    2.5048   -0.0025    0.1666    3.3666   37.0000   37.0000 
5490.4921 1673.5020    7.8750    8.1344   92.1674   41.5863   36.2822    2.5124   -0.0048    0.1705    3.5876   37.0000   37.0000 
5490.9921 1673.6544    7.8750    8.1187  104.8453   38.7197   33.6907    2.5140   -0.0070    0.1598    3.7062   37.0000   37.0000 
5491.4921 1673.8068    7.8750    8.1266  128.4656   36.6002   30.9949    2.4924   -0.0065    0.1696    3.5063   37.0000   37.0000 
5491.9921 1673.9592    7.8750    8.1812  135.3107   35.6423   30.6804    2.4586   -0.0043    0.2045    3.2758   37.0000   37.0000 
5492.4921 1674.1116    7.8750    8.1500  125.2841   34.4962   29.5506    2.4486   -0.0075    0.2086    3.1690   37.0000   37.0000 
5492.9921 1674.2640    7.8750    8.1891  113.9078   33.9710   28.9594    2.4578   -0.0117    0.1968    3.0382   37.0000   37.0000 
5493.4921 1674.4164    7.8750    8.2437  105.4719   33.3475   28.7661    2.4676   -0.0078    0.1951    3.0044   37.0000   37.0000 
5493.9921 1674.5688    7.8750    8.2359  101.6638   31.8581   27.5956    2.4796   -0.0051    0.2032    3.2192   37.0000   37.0000 
5494.4921 1674.7212    7.8750    8.1891  105.8094   30.8771   26.7513    2.4750   -0.0056    0.2002    3.4073   37.0000   37.0000 
5494.9921 1674.8737    7.8750    8.1969  104.6043   30.4610   26.3895    2.4606   -0.0044    0.1972    3.3334   37.0000   37.0000 
5495.4921 1675.0260    7.8750    8.1969  102.8207   30.5426   26.1709    2.4667   -0.0034    0.1970    3.1693   37.0000   37.0000 
5495.9921 1675.1783    7.8750    8.2437  113.0883   31.5175   27.1966    2.4737   -0.0058    0.1939    3.0871   37.0000   37.0000 
5496.4921 1675.3308    7.8750    8.2594  123.6933   32.2547   28.3950    2.4639   -0.0097    0.2168    3.1115   37.0000   37.0000 
5496.9921 1675.4832    7.8750    8.2516  120.6082   31.8970   28.6291    2.4630   -0.0102    0.2120    3.2338   37.0000   37.0000 
5497.4921 1675.6356    7.8750    8.2594  112.7509   30.1447   27.2916    2.4791   -0.0098    0.1994    3.3798   37.0000   37.0000 
5497.9921 1675.7880    7.8750    8.2516  111.7386   28.0560   25.2865    2.4903   -0.0093    0.2171    3.4113   37.0000   37.0000 
5498.4921 1675.9404    7.8750    8.2437  117.2339   26.1156   23.6620    2.4872   -0.0067    0.2074    3.2640   37.0000   37.0000 
5498.9921 1676.0928    7.8750    8.2281  119.5477   24.7297   22.2875    2.4809   -0.0060    0.1871    3.1543   37.0000   37.0000 
5499.4921 1676.2452    7.8750    8.2359  107.2555   24.0036   21.5065    2.4945   -0.0085    0.1948    3.3015   37.0000   37.0000 
5499.9921 1676.3976    7.8750    8.2203   98.7233   23.7065   20.8492    2.5297   -0.0109    0.1900    3.6491   37.0000   37.0000 
5500.4921 1676.5500    7.8750    8.2516  106.6289   24.1211   21.0672    2.5480   -0.0158    0.1848    3.9820   37.0000   37.0000 
5500.9921 1676.7024    7.8750    8.2594  116.4144   24.8874   21.6653    2.5308   -0.0210    0.1864    3.9764   37.0000   37.0000 
5501.4921 1676.8549    7.8750    8.2359  119.3067   25.9853   22.7768    2.4906   -0.0229    0.2035    3.5971   37.0000   37.0000 
5501.9921 1677.0072    7.8750    8.2437  122.7292   26.4686   23.4924    2.4587   -0.0267    0.2007    3.2292   37.0000   37.0000 
5502.4921 1677.1595    7.8750    8.2437  124.4646   26.7989   23.5670    2.4755   -0.0279    0.2032    3.1175   37.0000   37.0000 
5502.9921 1677.3120    7.8750    8.2594  116.8483   27.1702   24.1773    2.5072   -0.0223    0.1877    3.1483   37.0000   37.0000 
5503.4921 1677.4644    7.8750    8.2594  115.6431   27.3546   24.0486    2.5163   -0.0183    0.1766    3.2142   37.0000   37.0000 
5503.9921 1677.6168    7.8750    8.2203  129.9117   27.7739   24.7745    2.5071   -0.0184    0.1815    3.3194   37.0000   37.0000 
5504.4921 1677.7692    7.8750    8.1891  144.2285   28.1690   24.9364    2.4770   -0.0164    0.2039    3.4809   37.0000   37.0000 
5504.9921 1677.9216    7.8750    8.2125  138.6368   28.4637   25.1533    2.4611   -0.0128    0.2132    3.7037   37.0000   37.0000 
5505.4921 1678.0740    7.8750    8.2047  127.0195   28.7094   25.6423    2.4642   -0.0124    0.2113    3.7084   37.0000   37.0000 
5505.9921 1678.2264    7.8750    8.2281  131.5989   28.6714   25.7211    2.4577   -0.0137    0.2217    3.4274   37.0000   37.0000 
