~VERSION INFORMATION
 VERS.                 2.0:   CWLS LOG ASCII STANDARD - VERSION 2.0
 WRAP.                  NO:   SINGLE LINE PER DEPTH STEP
 CREA.                 12/04/2017 16:08:09
#CREATED USING DSPetro VERSION 5000.10.1.3 BY H191660 ON 12/04/2017 16:08:09
~WELL INFORMATION
#MNEM.UNIT       DATA                          DESCRIPTION MNEMONIC
#---------      ---------------------------   --------------------------
 STRT    .FT        174.0157                  : START DEPTH
 STOP    .FT        9268.0157                 : STOP DEPTH
 STEP    .FT        0.5000                    : STEP VALUE
 NULL    .      -999.0000                     : NULL VALUE
 DATE    .      12/04/2017                    : LAS file Creation Date
 WELL .      UNIVERSITY_45_8_4210540952 : Well Name
 COMP .                                 : Company
 FLD  .      WILDCAT (7C)               : Field
 UWI  .      X495988                    : Unique Well Identifier (UWI)
 LOC  .                                 : Location
 RWS  .      -999                       : Def_Rw
 WST  .      -999                       : Def_Rwt
 SRVC .                                 : Contractor
~CURVE INFORMATION
#MNEM              UNIT       API CODE   Curve Type Comments
#----------  --------------- ----------  ---------- -----------
 DEPTH      .FT                        : Depth       
 DEPTH_(m)  .                          :             
 BitSize    .in                        : bitSize     
 CAL_INCH   .inch                      :             Caliper Log - A representation of the measured diameter of a borehole along its depth
 GR_API     .API                       : GammaRay    Gamma Ray (API) - Measures the intensity of natural gamma-ray radiation emitted from formations containing radioactive elements, such as K, Th and U
 LLD_OHMM   .ohmm                      :             Laterlog Deep Resistivity - Measurement made several feet into the formation; generally considered a measurement of the undisturbed formation
 LLS_OHMM   .ohmm                      :             Laterlog Shallow Resistivity - one to two feet into the formation; generally considered to measure the formation
 MSFL_OHMM  .ohmm                      :             Micro-Spherically Focused Log - Measurement involves only the first few inches of the formation immediately adjacent to the borehole
 RHOB_G_CC  .g/cc                      :             Bulk Density - Measures the density of bulk material, including any void space or other materials contained in the subject volume
 DRHO_G_CC  .g/cc                      :             Density Correction - Investigates the correction to the Bulk Density log; used as an indication of hole condition to validate the Bulk Density measure
 NPHI_v/v   .PC                        : Neutron     Neutron Porosity - Measured with an neutron logging device calibrated to a given matrix (limestone, sandstone and dolomite)
 PEF_B_E    .b/e-                      : PEF         Photoelectric Factor - A log of photoelectric absorption properties. Often expressed in an approximation unit barns/electron (b/e-)
 LITH       .                          : LITH        Lithology Curve
 LITH_v2    .                          : LITH        Lithology Curve
~A  DEPTH DEPTH_(m)  BitSize   CAL_INCH   GR_API   LLD_OHMM  LLS_OHMM MSFL_OHM  RHOB_G_C  DRHO_G_C   NPHI_v/v  PEF_B_E     LITH    LITH_v2  
# ...
2739.0157  834.8520    7.8750    8.4987   80.7327    5.2365    4.1052    3.2586    2.5404    0.0316    0.2363    3.4885   37.0000   37.0000 
2739.5157  835.0044    7.8750    8.4239   77.0274    5.8354    4.7719    3.1920    2.5726    0.0223    0.1988    3.5574   12.0000   12.0000 
2740.0157  835.1568    7.8750    8.3938   65.6649    6.5317    5.4053    3.5839    2.5902    0.0084    0.2017    3.7865   12.0000   12.0000 
2740.5157  835.3092    7.8750    8.3806   58.5680    7.0935    5.7024    3.4977    2.5834   -0.0035    0.1803    3.9320   12.0000   12.0000 
2741.0157  835.4616    7.8750    8.3520   63.3864    6.4568    5.2521    3.2624    2.5581   -0.0100    0.1907    3.8722   37.0000   37.0000 
2741.5157  835.6140    7.8750    8.3397   71.5367    6.0778    4.8697    3.0468    2.5365   -0.0115    0.2165    3.8170   37.0000   37.0000 
2742.0157  835.7664    7.8750    8.3167   72.5601    5.8621    4.7689    2.9358    2.5212   -0.0118    0.2230    3.8130   37.0000   37.0000 
2742.5157  835.9188    7.8750    8.3034   71.1482    5.6384    4.7512    2.9520    2.5106   -0.0121    0.2205    3.7467   37.0000   37.0000 
2743.0157  836.0712    7.8750    8.2976   71.4993    6.0765    4.5233    3.1537    2.5128   -0.0109    0.2204    3.7104   37.0000   37.0000 
2743.5157  836.2236    7.8750    8.2901   71.2976    6.5657    4.9711    3.9198    2.5195   -0.0088    0.2112    3.7347   37.0000   37.0000 
2744.0157  836.3760    7.8750    8.2793   67.9509    6.9590    5.5631    6.7826    2.5502   -0.0003    0.2031    3.9250   37.0000   37.0000 
2744.5157  836.5284    7.8750    8.2752   62.2435    6.5408    5.3813    5.4616    2.5824    0.0052    0.1708    4.0269   12.0000   12.0000 
2745.0157  836.6808    7.8750    8.3266   61.2947    5.8445    5.0019    3.0984    2.5994    0.0132    0.1625    3.8670   12.0000   12.0000 
2745.5157  836.8332    7.8750    8.3277   64.4398    5.3077    4.3802    2.7428    2.5900    0.0160    0.1780    3.6962   12.0000   12.0000 
2746.0157  836.9856    7.8750    8.2453   80.1650    4.4088    3.6397    2.6080    2.5224    0.0116    0.2364    3.2854   37.0000   37.0000 
2746.5157  837.1380    7.8750    8.2897   86.4924    4.3732    3.4994    2.5278    2.5031    0.0052    0.2627    3.2272   37.0000   37.0000 
2747.0157  837.2904    7.8750    8.3183   87.7848    4.4983    3.7186    2.7309    2.5035    0.0002    0.2610    3.3483   37.0000   37.0000 
2747.5157  837.4428    7.8750    8.2746   86.6867    4.6887    3.8392    2.7564    2.5086   -0.0057    0.2433    3.4773   37.0000   37.0000 
2748.0157  837.5952    7.8750    8.2571   84.8415    4.8603    4.0940    2.6944    2.5167   -0.0109    0.2367    3.4406   37.0000   37.0000 
2748.5157  837.7476    7.8750    8.2341   82.1372    4.9553    4.1992    2.6522    2.5240   -0.0138    0.2457    3.3644   37.0000   37.0000 
2749.0157  837.9000    7.8750    8.2068   78.8876    4.9436    4.3546    2.6287    2.5265   -0.0110    0.2368    3.3670   37.0000   37.0000 
2749.5157  838.0524    7.8750    8.1841   78.7606    4.8563    4.3787    2.6978    2.5218   -0.0026    0.2357    3.4331   37.0000   37.0000 
2750.0157  838.2048    7.8750    8.1778   79.3582    4.7205    4.1830    2.7333    2.5229    0.0060    0.2418    3.4918   37.0000   37.0000 
2750.5157  838.3572    7.8750    8.1666   79.4030    4.5493    3.8978    2.7781    2.5393    0.0138    0.2511    3.4962   37.0000   37.0000 
2751.0157  838.5096    7.8750    8.1768   82.3389    4.3923    3.8357    2.7888    2.5468    0.0189    0.2507    3.5138   37.0000   37.0000 
2751.5157  838.6620    7.8750    8.1285   84.9759    4.2307    3.5750    2.5734    2.5400    0.0187    0.2469    3.5443   37.0000   37.0000 
2752.0157  838.8144    7.8750    8.1170   84.5277    4.3408    3.7010    2.3454    2.5367    0.0169    0.2419    3.5010   37.0000   37.0000 
2752.5157  838.9668    7.8750    8.0762   84.6248    4.4961    3.6203    2.4707    2.5319    0.0150    0.2468    3.3990   37.0000   37.0000 
2753.0157  839.1192    7.8750    8.0364   84.7593    4.6140    3.9260    2.5904    2.5236    0.0128    0.2285    3.3294   37.0000   37.0000 
2753.5157  839.2716    7.8750    8.0189   81.9131    4.7335    4.0849    2.5104    2.5237    0.0124    0.2237    3.3732   37.0000   37.0000 
2754.0157  839.4240    7.8750    7.9892   80.6879    4.8271    4.0195    2.4933    2.5276    0.0124    0.2288    3.4792   37.0000   37.0000 
2754.5157  839.5764    7.8750    7.9828   84.1243    4.7403    4.0194    2.7163    2.5293    0.0126    0.2442    3.4970   37.0000   37.0000 
2755.0157  839.7288    7.8750    7.9512   86.6344    4.8515    4.0490    2.7098    2.5326    0.0137    0.2326    3.5605   37.0000   37.0000 
2755.5157  839.8812    7.8750    7.9375   81.4723    4.6881    4.1600    2.4389    2.5397    0.0132    0.2297    3.7457   37.0000   37.0000 
2756.0157  840.0336    7.8750    7.9385   77.0050    4.5150    4.1263    2.3699    2.5458    0.0119    0.2268    3.8171   37.0000   37.0000 
2756.5157  840.1860    7.8750    7.9288   74.7265    3.9745    3.3969    2.0405    2.5743    0.0141    0.2508    3.8704   37.0000   37.0000 
2757.0157  840.3384    7.8750    7.9261   82.9813    3.6793    3.1421    1.9657    2.5559    0.0160    0.2692    3.8459   37.0000   37.0000 
2757.5157  840.4908    7.8750    7.9272   88.8680    3.4917    2.9441    1.9633    2.5267    0.0123    0.2717    3.7690   37.0000   37.0000 
2758.0157  840.6432    7.8750    7.9254   89.6001    3.5350    3.0726    1.9993    2.5180    0.0091    0.2779    3.7271   37.0000   37.0000 
2758.5157  840.7956    7.8750    7.9167   92.4538    3.6896    3.1240    2.1193    2.5073    0.0051    0.2653    3.5403   37.0000   37.0000 
2759.0157  840.9480    7.8750    7.9051   93.4100    3.7752    3.3156    2.1537    2.5165    0.0060    0.2577    3.3970   37.0000   37.0000 
2759.5157  841.1004    7.8750    7.8998   93.1112    3.8916    3.2806    2.1531    2.5243    0.0056    0.2499    3.4135   37.0000   37.0000 
2760.0157  841.2528    7.8750    7.9128   91.4976    3.9058    3.4150    2.1767    2.5240    0.0067    0.2659    3.5737   37.0000   37.0000 
2760.5157  841.4052    7.8750    7.9130   90.2874    3.9205    3.3451    2.2050    2.5241    0.0082    0.2516    3.6551   37.0000   37.0000 
2761.0157  841.5576    7.8750    7.9047   88.2330    3.9995    3.5091    2.2156    2.5340    0.0100    0.2464    3.6030   37.0000   37.0000 
2761.5157  841.7100    7.8750    7.8877   87.6503    4.0832    3.4681    2.2633    2.5476    0.0136    0.2590    3.5234   37.0000   37.0000 
2762.0157  841.8624    7.8750    7.8830   88.5841    4.1516    3.5679    2.3539    2.5495    0.0153    0.2607    3.4634   37.0000   37.0000 
2762.5157  842.0148    7.8750    7.8738   85.5736    4.2250    3.6434    2.3680    2.5479    0.0147    0.2698    3.4404   37.0000   37.0000 
2763.0157  842.1672    7.8750    7.8746   80.8299    4.1599    3.5217    2.3022    2.5493    0.0153    0.2631    3.5088   37.0000   37.0000 
2763.5157  842.3196    7.8750    7.8814   83.7583    4.1041    3.5106    2.2266    2.5478    0.0151    0.2659    3.6827   37.0000   37.0000 
2764.0157  842.4720    7.8750    7.9094   89.8840    4.0772    3.4211    2.2508    2.5502    0.0131    0.2688    3.8088   37.0000   37.0000 
2764.5157  842.6244    7.8750    7.9025   90.3248    4.0541    3.4701    2.3104    2.5570    0.0124    0.2671    3.7263   37.0000   37.0000 
2765.0157  842.7768    7.8750    7.8909   90.8327    4.1407    3.5545    2.3471    2.5555    0.0130    0.2624    3.5570   37.0000   37.0000 
2765.5157  842.9292    7.8750    7.8825   90.5638    4.1793    3.6177    2.3559    2.5487    0.0133    0.2480    3.5099   37.0000   37.0000 
2766.0157  843.0816    7.8750    7.8916   89.7271    4.1989    3.5906    2.3627    2.5427    0.0127    0.2528    3.5359   37.0000   37.0000 
2766.5157  843.2340    7.8750    7.8847   92.1998    4.1855    3.5752    2.3548    2.5378    0.0120    0.2548    3.4949   37.0000   37.0000 
2767.0157  843.3864    7.8750    7.8744   91.1839    4.1532    3.5864    2.3410    2.5382    0.0110    0.2562    3.4571   37.0000   37.0000 
