~VERSION INFORMATION
 VERS.                 2.0:   CWLS LOG ASCII STANDARD - VERSION 2.0
 WRAP.                  NO:   SINGLE LINE PER DEPTH STEP
 CREA.                 01/12/2017 17:02:35
#CREATED USING DSPetro VERSION 5000.10.1.3 BY H191660 ON 01/12/2017 17:02:35
~WELL INFORMATION
#MNEM.UNIT       DATA                          DESCRIPTION MNEMONIC
#---------      ---------------------------   --------------------------
 STRT    .FT        50.4921                   : START DEPTH
 STOP    .FT        8514.9921                 : STOP DEPTH
 STEP    .FT        0.5000                    : STEP VALUE
 NULL    .      -999.0000                     : NULL VALUE
 DATE    .      01/12/2017                    : LAS file Creation Date
 WELL .      UNIVERSITY_42_22_4210540532 : Well Name
 COMP .                                  : Company
 FLD  .      HOLT RANCH (CONSOLIDATED)�  : Field
 UWI  .      224                         : Unique Well Identifier (UWI)
 LOC  .                                  : Location
 RWS  .      -999                        : Def_Rw
 WST  .      -999                        : Def_Rwt
 SRVC .                                  : Contractor
~CURVE INFORMATION
#MNEM              UNIT       API CODE   Curve Type Comments
#----------  --------------- ----------  ---------- -----------
 DEPTH      .FT                        : Depth       
 DEPTH_(m)  .                          :             
 BitSize    .inch                      : BitSize     
 CAL_INCH   .inch                      :             Caliper Log - A representation of the measured diameter of a borehole along its depth
 GR_API     .API                       : GammaRay    Gamma Ray (API) - Measures the intensity of natural gamma-ray radiation emitted from formations containing radioactive elements, such as K, Th and U
 LLD_OHMM   .ohmm                      :             Laterlog Deep Resistivity - Measurement made several feet into the formation; generally considered a measurement of the undisturbed formation
 LLS_OHMM   .ohmm                      :             Laterlog Shallow Resistivity - one to two feet into the formation; generally considered to measure the formation
 RHOB_G_CC  .g/cc                      :             Bulk Density - Measures the density of bulk material, including any void space or other materials contained in the subject volume
 DRHO_G_CC  .g/cc                      :             Density Correction - Investigates the correction to the Bulk Density log; used as an indication of hole condition to validate the Bulk Density measure
 NPHI_v/v   .dec                       : Neutron     
 PEF_B_E    .b/e-                      : PEF         Photoelectric Factor - A log of photoelectric absorption properties. Often expressed in an approximation unit barns/electron (b/e-)
 LITH       .                          : LITH        Lithology Curve
 LITH_v2    .                          : LITH        Lithology Curve
~A  DEPTH DEPTH_(m)  BitSize   CAL_INCH   GR_API   LLD_OHMM  LLS_OHMM RHOB_G_C  DRHO_G_C   NPHI_v/v  PEF_B_E     LITH    LITH_v2  
# ...
2933.4921  894.1284    7.8750    9.0484   87.9736    3.9087    3.4578    2.4912   -0.0089    0.2568    2.7568   37.0000   37.0000 
2933.9921  894.2808    7.8750    9.0406   94.4813    3.8745    3.5320    2.4912   -0.0049    0.2265    2.7001   37.0000   37.0000 
2934.4921  894.4332    7.8750    9.0328   97.2771    3.8108    3.5060    2.4919   -0.0016    0.2362    2.6676   37.0000   37.0000 
2934.9921  894.5856    7.8750    9.0172   94.6259    3.7389    3.4278    2.4936   -0.0002    0.2632    2.6635   37.0000   37.0000 
2935.4921  894.7380    7.8750    8.9937   93.5172    3.6722    3.3062    2.4881    0.0035    0.2787    2.6894   37.0000   37.0000 
2935.9921  894.8904    7.8750    9.0328   96.6023    3.6294    3.2647    2.4821    0.0056    0.2635    2.7119   37.0000   37.0000 
2936.4921  895.0428    7.8750    8.9859   93.8546    3.5919    3.1861    2.4727    0.0021    0.2524    2.6948   37.0000   37.0000 
2936.9921  895.1952    7.8750    9.0094   83.7798    3.5347    3.1483    2.4634    0.0012    0.2440    2.6395   37.0000   37.0000 
2937.4921  895.3476    7.8750    8.9547   82.3337    3.4498    3.0274    2.4582    0.0067    0.2470    2.6260   37.0000   37.0000 
2937.9921  895.5000    7.8750    8.9156   87.8290    3.3530    2.9520    2.4560    0.0121    0.2684    2.7013   37.0000   37.0000 
2938.4921  895.6524    7.8750    8.8766   88.4075    3.3392    2.9492    2.4623    0.0178    0.2480    2.7651   37.0000   37.0000 
2938.9921  895.8048    7.8750    8.8219   85.7562    3.5159    3.1229    2.4661    0.0252    0.2590    2.7380   37.0000   37.0000 
2939.4921  895.9572    7.8750    8.7828   84.6475    3.8580    3.4074    2.4641    0.0269    0.2593    2.7411   37.0000   37.0000 
2939.9921  896.1096    7.8750    8.7125   87.2024    4.3432    3.7710    2.4716    0.0229    0.2551    2.9163   37.0000   37.0000 
2940.4921  896.2620    7.8750    8.6656   91.6854    4.6959    4.2247    2.4895    0.0172    0.2642    3.1327   37.0000   37.0000 
2940.9921  896.4144    7.8750    8.5484   89.9982    4.8351    4.3595    2.4925    0.0106    0.2385    3.2231   37.0000   37.0000 
2941.4921  896.5668    7.8750    8.5484   93.0351    4.7661    4.3605    2.4794    0.0079    0.2219    3.2193   37.0000   37.0000 
2941.9921  896.7192    7.8750    8.5406   91.6372    4.6156    4.1411    2.4810    0.0025    0.2287    3.1792   37.0000   37.0000 
2942.4921  896.8716    7.8750    8.5250   76.8865    4.6880    4.1435    2.5037   -0.0055    0.2517    3.2049   37.0000   37.0000 
2942.9921  897.0240    7.8750    8.5016   65.9923    5.1140    4.4459    2.5277   -0.0094    0.2184    3.2534   37.0000   22.0000 
2943.4921  897.1764    7.8750    8.4469   52.9770    5.8686    5.0591    2.5560   -0.0118    0.2272    3.3053   37.0000   22.0000 
2943.9921  897.3288    7.8750    8.4547   50.4221    6.9875    6.1213    2.5908   -0.0128    0.2180    3.4451   37.0000   22.0000 
2944.4921  897.4812    7.8750    8.3531   67.8723    7.8877    6.9003    2.5857   -0.0177    0.1853    3.3731   37.0000   22.0000 
2944.9921  897.6336    7.8750    8.4000   82.3819    8.6467    7.4644    2.5383   -0.0153    0.1856    3.0143   37.0000   22.0000 
2945.4921  897.7860    7.8750    8.3219   76.4045    9.3807    7.8686    2.5020   -0.0058    0.1673    2.7542   22.0000   22.0000 
2945.9921  897.9384    7.8750    8.3062   65.8477   10.8858    9.1200    2.4983   -0.0074    0.1700    2.6955   22.0000   22.0000 
2946.4921  898.0908    7.8750    8.2672   65.2210   13.6866   11.5660    2.5133   -0.0107    0.1566    2.7272   22.0000   22.0000 
2946.9921  898.2432    7.8750    8.2516   57.5082   17.4612   14.4142    2.5320   -0.0101    0.1443    2.9123   22.0000   18.0000 
2947.4921  898.3956    7.8750    8.2359   45.0714   21.4729   17.2351    2.5582   -0.0154    0.1306    3.2877   22.0000   18.0000 
2947.9921  898.5480    7.8750    8.1500   40.3956   25.2381   20.0487    2.5801   -0.0231    0.1144    3.5890   18.0000   18.0000 
2948.4921  898.7004    7.8750    8.1812   38.5638   29.4213   23.9411    2.5846   -0.0224    0.0980    3.6566   18.0000   18.0000 
2948.9921  898.8528    7.8750    8.1266   36.7802   31.7330   27.1541    2.5880   -0.0105    0.0900    3.7178   18.0000   18.0000 
2949.4921  899.0052    7.8750    8.1344   40.8776   30.0389   27.1962    2.5728    0.0000    0.0756    3.8933   18.0000   18.0000 
2949.9921  899.1576    7.8750    8.1422   60.7380   25.6693   24.3394    2.5336    0.0028    0.0785    3.9815   18.0000   18.0000 
2950.4921  899.3100    7.8750    8.0719   80.5983   20.6583   19.3203    2.5162    0.0103    0.0979    3.7949   18.0000   18.0000 
2950.9921  899.4624    7.8750    8.1031   78.4291   17.0403   15.7290    2.5258    0.0227    0.1282    3.3980   22.0000   18.0000 
2951.4921  899.6148    7.8750    8.1266   75.2476   14.3474   13.2280    2.5369    0.0261    0.1571    3.0636   22.0000   22.0000 
2951.9921  899.7672    7.8750    8.1500   79.9234   12.6746   11.4031    2.5392    0.0223    0.1736    3.0410   22.0000   22.0000 
2952.4921  899.9196    7.8750    8.1891   79.6824   12.0687   10.7243    2.5365    0.0170    0.1822    3.2718   37.0000   22.0000 
2952.9921  900.0720    7.8750    8.1891   74.0907   11.9871   10.5889    2.5274    0.0083    0.1696    3.4531   22.0000   22.0000 
2953.4921  900.2244    7.8750    8.2047   70.3789   12.5481   10.9012    2.5112   -0.0001    0.1745    3.4515   22.0000   22.0000 
2953.9921  900.3768    7.8750    8.1500   70.5717   14.0778   12.5166    2.5106   -0.0058    0.1834    3.3454   37.0000   22.0000 
2954.4921  900.5292    7.8750    8.1812   63.5338   16.3016   14.7528    2.5275   -0.0113    0.1740    3.2909   22.0000   22.0000 
2954.9921  900.6816    7.8750    8.1734   54.5196   18.8574   17.3106    2.5394   -0.0133    0.1517    3.4629   22.0000   18.0000 
2955.4921  900.8340    7.8750    8.1891   53.0252   20.8783   19.2342    2.5437   -0.0104    0.1341    3.7365   22.0000   18.0000 
2955.9921  900.9864    7.8750    8.1422   52.4467   21.5535   20.0723    2.5440   -0.0084    0.1305    3.8230   22.0000   18.0000 
2956.4921  901.1388    7.8750    8.1344   52.6878   20.8033   19.7348    2.5481   -0.0084    0.1274    3.7611   22.0000   18.0000 
2956.9921  901.2912    7.8750    8.1578   54.0857   18.3024   18.0832    2.5539   -0.0090    0.1247    3.6917   22.0000   18.0000 
2957.4921  901.4436    7.8750    8.1109   60.0149   14.7267   15.0448    2.5443   -0.0038    0.1341    3.5227   22.0000   18.0000 
2957.9921  901.5960    7.8750    8.1422   73.7532   11.5439   11.7274    2.5320    0.0099    0.1476    3.1986   22.0000   18.0000 
2958.4921  901.7484    7.8750    8.1656   82.7675    9.3580    9.0677    2.5248    0.0152    0.1577    2.8941   22.0000   18.0000 
2958.9921  901.9008    7.8750    8.1656   85.2260    8.2071    7.6157    2.5068    0.0089    0.1994    2.7703   37.0000   37.0000 
2959.4921  902.0532    7.8750    8.1578   82.7675    7.9263    7.2353    2.4891    0.0051    0.2047    2.7816   37.0000   37.0000 
2959.9921  902.2056    7.8750    8.1969   72.4035    8.3380    7.7108    2.4897    0.0012    0.1916    2.7693   37.0000   37.0000 
2960.4921  902.3580    7.8750    8.1109   62.7144    9.1218    8.6465    2.5037   -0.0033    0.1797    2.6961   37.0000   22.0000 
2960.9921  902.5104    7.8750    8.1422   62.4733    9.9050    9.5214    2.5107   -0.0014    0.1747    2.6704   22.0000   22.0000 
2961.4921  902.6628    7.8750    8.0953   72.4999   10.3031    9.9991    2.5095    0.0022    0.1609    2.7203   22.0000   22.0000 
2961.9921  902.8152    7.8750    8.1109   81.2732   10.2956    9.8780    2.5197    0.0049    0.1695    2.7795   22.0000   22.0000 
2962.4921  902.9676    7.8750    8.1266   81.0804    9.9669    9.5765    2.5288    0.0069    0.1808    2.7954   37.0000   22.0000 
2962.9921  903.1200    7.8750    8.1031   81.4178    9.3616    8.9700    2.5178    0.0047    0.1842    2.7541   37.0000   22.0000 
2963.4921  903.2724    7.8750    8.1109   85.5152    8.9822    8.3935    2.4949   -0.0008    0.1696    2.7136   22.0000   22.0000 
2963.9921  903.4248    7.8750    8.1422   84.2619    8.8361    8.0984    2.4732   -0.0077    0.1979    2.7652   37.0000   37.0000 
