~VERSION INFORMATION
 VERS.                 2.0:   CWLS LOG ASCII STANDARD - VERSION 2.0
 WRAP.                  NO:   SINGLE LINE PER DEPTH STEP
 CREA.                 12/04/2017 16:08:09
#CREATED USING DSPetro VERSION 5000.10.1.3 BY H191660 ON 12/04/2017 16:08:09
~WELL INFORMATION
#MNEM.UNIT       DATA                          DESCRIPTION MNEMONIC
#---------      ---------------------------   --------------------------
 STRT    .FT        174.0157                  : START DEPTH
 STOP    .FT        9268.0157                 : STOP DEPTH
 STEP    .FT        0.5000                    : STEP VALUE
 NULL    .      -999.0000                     : NULL VALUE
 DATE    .      12/04/2017                    : LAS file Creation Date
 WELL .      UNIVERSITY_45_8_4210540952 : Well Name
 COMP .                                 : Company
 FLD  .      WILDCAT (7C)               : Field
 UWI  .      X495988                    : Unique Well Identifier (UWI)
 LOC  .                                 : Location
 RWS  .      -999                       : Def_Rw
 WST  .      -999                       : Def_Rwt
 SRVC .                                 : Contractor
~CURVE INFORMATION
#MNEM              UNIT       API CODE   Curve Type Comments
#----------  --------------- ----------  ---------- -----------
 DEPTH      .FT                        : Depth       
 DEPTH_(m)  .                          :             
 BitSize    .in                        : bitSize     
 CAL_INCH   .inch                      :             Caliper Log - A representation of the measured diameter of a borehole along its depth
 GR_API     .API                       : GammaRay    Gamma Ray (API) - Measures the intensity of natural gamma-ray radiation emitted from formations containing radioactive elements, such as K, Th and U
 LLD_OHMM   .ohmm                      :             Laterlog Deep Resistivity - Measurement made several feet into the formation; generally considered a measurement of the undisturbed formation
 LLS_OHMM   .ohmm                      :             Laterlog Shallow Resistivity - one to two feet into the formation; generally considered to measure the formation
 MSFL_OHMM  .ohmm                      :             Micro-Spherically Focused Log - Measurement involves only the first few inches of the formation immediately adjacent to the borehole
 RHOB_G_CC  .g/cc                      :             Bulk Density - Measures the density of bulk material, including any void space or other materials contained in the subject volume
 DRHO_G_CC  .g/cc                      :             Density Correction - Investigates the correction to the Bulk Density log; used as an indication of hole condition to validate the Bulk Density measure
 NPHI_v/v   .PC                        : Neutron     Neutron Porosity - Measured with an neutron logging device calibrated to a given matrix (limestone, sandstone and dolomite)
 PEF_B_E    .b/e-                      : PEF         Photoelectric Factor - A log of photoelectric absorption properties. Often expressed in an approximation unit barns/electron (b/e-)
 LITH       .                          : LITH        Lithology Curve
 LITH_v2    .                          : LITH        Lithology Curve
~A  DEPTH DEPTH_(m)  BitSize   CAL_INCH   GR_API   LLD_OHMM  LLS_OHMM MSFL_OHM  RHOB_G_C  DRHO_G_C   NPHI_v/v  PEF_B_E     LITH    LITH_v2  
# ...
3252.0157  991.2144    7.8750    9.0631   88.1135    3.0526    2.8428    2.6220    2.5164    0.0012    0.2580    3.5209   37.0000   37.0000 
3252.5157  991.3668    7.8750    9.0958   86.4103    2.8928    2.6506    2.5850    2.5107    0.0010    0.2713    3.4596   37.0000   37.0000 
3253.0157  991.5192    7.8750    9.0316   89.7944    2.8820    2.4991    2.5213    2.4978   -0.0022    0.2603    3.3642   37.0000   37.0000 
3253.5157  991.6716    7.8750    9.0485   96.0097    2.9105    2.6435    2.5806    2.4867   -0.0045    0.2589    3.2269   37.0000   37.0000 
3254.0157  991.8240    7.8750    9.0613   99.9317    2.9092    2.5353    2.7449    2.4794   -0.0007    0.2604    3.1633   37.0000   37.0000 
3254.5157  991.9764    7.8750    9.1054   98.6244    2.9860    2.6552    2.8291    2.4740    0.0039    0.2673    3.1320   37.0000   37.0000 
3255.0157  992.1288    7.8750    9.0987   93.8433    3.0861    2.6849    2.8417    2.4819    0.0077    0.2663    3.0857   37.0000   37.0000 
3255.5157  992.2812    7.8750    9.0868   92.3791    3.0646    2.7320    2.8835    2.5021    0.0123    0.2595    3.1290   37.0000   37.0000 
3256.0157  992.4336    7.8750    9.0817   91.8188    3.1001    2.8530    2.8827    2.5108    0.0141    0.2537    3.1988   37.0000   37.0000 
3256.5157  992.5860    7.8750    9.1005   90.7057    3.1625    2.9466    2.9450    2.5138    0.0176    0.2658    3.4485   37.0000   37.0000 
3257.0157  992.7384    7.8750    9.0889   94.8593    3.2413    2.8865    3.0090    2.5139    0.0178    0.2450    3.4802   37.0000   37.0000 
3257.5157  992.8908    7.8750    9.0990   94.6651    3.3497    3.0191    3.1120    2.5219    0.0144    0.2669    3.3963   37.0000   37.0000 
3258.0157  993.0432    7.8750    9.0978   91.9309    3.4255    3.1358    3.1554    2.5244    0.0123    0.2634    3.3345   37.0000   37.0000 
3258.5157  993.1956    7.8750    9.1031   82.9365    3.5837    3.2199    3.2408    2.5135    0.0063    0.2691    3.2566   37.0000   37.0000 
3259.0157  993.3480    7.8750    9.1187   82.5630    3.6078    3.2018    3.2523    2.5085    0.0029    0.2470    3.3237   37.0000   37.0000 
3259.5157  993.5004    7.8750    9.0862   84.1766    3.5629    3.3390    3.2506    2.5073    0.0016    0.2543    3.3548   37.0000   37.0000 
3260.0157  993.6528    7.8750    9.0791   87.2096    3.4223    3.1380    3.1440    2.5121    0.0002    0.2681    3.3146   37.0000   37.0000 
3260.5157  993.8052    7.8750    9.0624   89.3312    3.3413    3.0772    3.0178    2.5252    0.0012    0.2640    3.2433   37.0000   37.0000 
3261.0157  993.9576    7.8750    9.0524   90.2799    3.3125    2.8869    3.0044    2.5271    0.0040    0.2671    3.2192   37.0000   37.0000 
3261.5157  994.1100    7.8750    9.0749   91.2735    3.2611    3.0055    3.0706    2.5148    0.0043    0.2601    3.2872   37.0000   37.0000 
3262.0157  994.2624    7.8750    9.0813   89.2266    3.2590    2.9182    3.0432    2.5061    0.0039    0.2687    3.3415   37.0000   37.0000 
3262.5157  994.4148    7.8750    9.0477   87.3515    3.2278    2.9491    2.9600    2.5061    0.0048    0.2624    3.3106   37.0000   37.0000 
3263.0157  994.5672    7.8750    9.0518   89.6076    3.1429    2.8000    2.9208    2.5044    0.0054    0.2806    3.3303   37.0000   37.0000 
3263.5157  994.7196    7.8750    9.0479   87.7998    3.1181    2.8716    2.9343    2.5042    0.0060    0.2674    3.4767   37.0000   37.0000 
3264.0157  994.8720    7.8750    9.0358   86.4401    3.1394    2.9052    2.9723    2.5131    0.0069    0.2474    3.5780   37.0000   37.0000 
3264.5157  995.0244    7.8750    9.0589   86.4252    3.1377    2.9487    2.9723    2.5158    0.0057    0.2706    3.5018   37.0000   37.0000 
3265.0157  995.1768    7.8750    9.0338   84.8489    3.1250    2.9138    2.9541    2.5047    0.0035    0.2592    3.3442   37.0000   37.0000 
3265.5157  995.3292    7.8750    9.0535   85.5810    3.1416    2.9649    2.8870    2.4946    0.0013    0.2665    3.2564   37.0000   37.0000 
3266.0157  995.4816    7.8750    9.0475   87.6728    3.0203    2.8882    2.8235    2.4909   -0.0007    0.2686    3.2892   37.0000   37.0000 
3266.5157  995.6340    7.8750    9.0658   87.0975    2.8524    2.6012    2.7031    2.4887    0.0032    0.2719    3.3653   37.0000   37.0000 
3267.0157  995.7864    7.8750    9.0728   83.9450    2.9066    2.7088    2.5979    2.4951    0.0104    0.2830    3.3697   37.0000   37.0000 
3267.5157  995.9388    7.8750    9.0759   87.2320    2.9704    2.7352    2.7720    2.4979    0.0123    0.2648    3.2917   37.0000   37.0000 
3268.0157  996.0912    7.8750    9.0812   94.8892    3.1606    2.8956    3.1689    2.4858    0.0107    0.2831    3.2084   37.0000   37.0000 
3268.5157  996.2436    7.8750    9.1055   96.8464    3.3214    3.2179    3.4009    2.4826    0.0107    0.2837    3.1888   37.0000   37.0000 
3269.0157  996.3960    7.8750    9.0213   97.3320    3.6485    3.2951    3.5496    2.4880    0.0073    0.2911    3.3044   37.0000   37.0000 
3269.5157  996.5484    7.8750    9.0078   98.1015    4.1032    3.7064    4.1430    2.4906    0.0030    0.2710    3.3333   37.0000   37.0000 
3270.0157  996.7008    7.8750    9.0016   97.8624    4.3630    3.9524    5.3554    2.4841   -0.0011    0.2748    3.2385   37.0000   37.0000 
3270.5157  996.8532    7.8750    9.0037   98.0417    4.3762    4.0503    5.8208    2.4805   -0.0029    0.2687    3.1823   37.0000   37.0000 
3271.0157  997.0056    7.8750    9.0045  103.8836    4.2894    4.2113    4.5165    2.4784   -0.0029    0.2595    3.1943   37.0000   37.0000 
3271.5157  997.1580    7.8750    8.9483  100.9626    3.7610    3.5100    3.3827    2.4748    0.0020    0.2485    3.3182   37.0000   37.0000 
3272.0157  997.3104    7.8750    8.9409   97.6532    3.3642    3.2760    2.9894    2.4663    0.0064    0.2611    3.4197   37.0000   37.0000 
3272.5157  997.4628    7.8750    8.9130  101.9188    3.0875    2.8857    2.8009    2.4579    0.0095    0.2736    3.4336   37.0000   37.0000 
3273.0157  997.6152    7.8750    8.9153  102.9199    3.1025    2.8960    2.6708    2.4587    0.0127    0.3021    3.4011   37.0000   37.0000 
3273.5157  997.7676    7.8750    8.8928   99.4237    3.1716    3.0016    2.7662    2.4698    0.0144    0.3098    3.3586   37.0000   37.0000 
3274.0157  997.9200    7.8750    8.9037   98.9605    3.0572    2.9484    2.9241    2.4728    0.0124    0.2756    3.3006   37.0000   37.0000 
3274.5157  998.0724    7.8750    8.9196  100.6115    3.0196    2.9703    2.7818    2.4671    0.0095    0.2841    3.2269   37.0000   37.0000 
3275.0157  998.2248    7.8750    8.9108  101.8665    2.9196    2.8436    2.5278    2.4682    0.0075    0.2891    3.1693   37.0000   37.0000 
3275.5157  998.3772    7.8750    8.9107  104.3542    2.6996    2.5816    2.4698    2.4694    0.0057    0.2766    3.1782   37.0000   37.0000 
3276.0157  998.5296    7.8750    8.9102  102.8825    2.5808    2.4173    2.6862    2.4700    0.0079    0.2735    3.2365   37.0000   37.0000 
3276.5157  998.6820    7.8750    8.9152  100.4322    2.5610    2.4300    2.5418    2.4797    0.0124    0.2960    3.2954   37.0000   37.0000 
3277.0157  998.8344    7.8750    8.9088  101.9562    2.4956    2.4737    2.3610    2.4825    0.0144    0.2955    3.3052   37.0000   37.0000 
3277.5157  998.9868    7.8750    8.9429  100.6787    2.6208    2.3718    2.2890    2.4815    0.0155    0.3061    3.2718   37.0000   37.0000 
3278.0157  999.1392    7.8750    8.9330   92.8498    3.0001    2.6840    2.6368    2.4949    0.0160    0.2839    3.2902   37.0000   37.0000 
3278.5157  999.2916    7.8750    8.9157   89.9139    3.5936    3.2839    3.3712    2.5045    0.0149    0.2744    3.3210   37.0000   37.0000 
3279.0157  999.4440    7.8750    8.9279   95.8454    4.0631    3.8799    3.8980    2.4983    0.0102    0.2673    3.2412   37.0000   37.0000 
3279.5157  999.5964    7.8750    8.8543   98.4899    4.5956    4.1224    3.3520    2.4938    0.0055    0.2769    3.1425   37.0000   37.0000 
3280.0157  999.7488    7.8750    8.8453   96.6148    4.7655    4.2440    2.6834    2.4882    0.0068    0.2430    3.1744   37.0000   37.0000 
