~VERSION INFORMATION
 VERS.                 2.0:   CWLS LOG ASCII STANDARD - VERSION 2.0
 WRAP.                  NO:   SINGLE LINE PER DEPTH STEP
 CREA.                 12/04/2017 16:08:09
#CREATED USING DSPetro VERSION 5000.10.1.3 BY H191660 ON 12/04/2017 16:08:09
~WELL INFORMATION
#MNEM.UNIT       DATA                          DESCRIPTION MNEMONIC
#---------      ---------------------------   --------------------------
 STRT    .FT        174.0157                  : START DEPTH
 STOP    .FT        9268.0157                 : STOP DEPTH
 STEP    .FT        0.5000                    : STEP VALUE
 NULL    .      -999.0000                     : NULL VALUE
 DATE    .      12/04/2017                    : LAS file Creation Date
 WELL .      UNIVERSITY_45_8_4210540952 : Well Name
 COMP .                                 : Company
 FLD  .      WILDCAT (7C)               : Field
 UWI  .      X495988                    : Unique Well Identifier (UWI)
 LOC  .                                 : Location
 RWS  .      -999                       : Def_Rw
 WST  .      -999                       : Def_Rwt
 SRVC .                                 : Contractor
~CURVE INFORMATION
#MNEM              UNIT       API CODE   Curve Type Comments
#----------  --------------- ----------  ---------- -----------
 DEPTH      .FT                        : Depth       
 DEPTH_(m)  .                          :             
 BitSize    .in                        : bitSize     
 CAL_INCH   .inch                      :             Caliper Log - A representation of the measured diameter of a borehole along its depth
 GR_API     .API                       : GammaRay    Gamma Ray (API) - Measures the intensity of natural gamma-ray radiation emitted from formations containing radioactive elements, such as K, Th and U
 LLD_OHMM   .ohmm                      :             Laterlog Deep Resistivity - Measurement made several feet into the formation; generally considered a measurement of the undisturbed formation
 LLS_OHMM   .ohmm                      :             Laterlog Shallow Resistivity - one to two feet into the formation; generally considered to measure the formation
 MSFL_OHMM  .ohmm                      :             Micro-Spherically Focused Log - Measurement involves only the first few inches of the formation immediately adjacent to the borehole
 RHOB_G_CC  .g/cc                      :             Bulk Density - Measures the density of bulk material, including any void space or other materials contained in the subject volume
 DRHO_G_CC  .g/cc                      :             Density Correction - Investigates the correction to the Bulk Density log; used as an indication of hole condition to validate the Bulk Density measure
 NPHI_v/v   .PC                        : Neutron     Neutron Porosity - Measured with an neutron logging device calibrated to a given matrix (limestone, sandstone and dolomite)
 PEF_B_E    .b/e-                      : PEF         Photoelectric Factor - A log of photoelectric absorption properties. Often expressed in an approximation unit barns/electron (b/e-)
 LITH       .                          : LITH        Lithology Curve
 LITH_v2    .                          : LITH        Lithology Curve
~A  DEPTH DEPTH_(m)  BitSize   CAL_INCH   GR_API   LLD_OHMM  LLS_OHMM MSFL_OHM  RHOB_G_C  DRHO_G_C   NPHI_v/v  PEF_B_E     LITH    LITH_v2  
# ...
5247.0157 1599.2904    7.8750    7.7515   95.4270   14.1130   13.4080    8.7500    2.4856   -0.0084    0.1748    3.1679   37.0000   37.0000 
5247.5157 1599.4427    7.8750    7.7659  102.7929   14.6277   13.8385    8.1913    2.4823    0.0057    0.1851    3.0335   37.0000   37.0000 
5248.0157 1599.5952    7.8750    7.7693  102.2550   15.4040   14.9339   10.2239    2.5113    0.0099    0.1655    2.9909   37.0000   37.0000 
5248.5157 1599.7476    7.8750    7.7792   97.2125   15.9064   16.0565   11.4235    2.5199    0.0053    0.1575    2.9410   37.0000   37.0000 
5249.0157 1599.9000    7.8750    7.7873  101.4183   15.5614   15.5957   10.4286    2.5093    0.0008    0.1760    2.9386   37.0000   37.0000 
5249.5157 1600.0524    7.8750    7.7903  106.6476   13.3882   14.3377    8.0462    2.5082    0.0005    0.1869    2.9218   37.0000   37.0000 
5250.0157 1600.2048    7.8750    7.8040  109.2324   10.4745   11.5329    6.3681    2.4972   -0.0003    0.2069    2.9387   37.0000   37.0000 
5250.5157 1600.3572    7.8750    7.8154  110.9057    8.5087    8.8932    4.9481    2.4920    0.0017    0.2037    3.0332   37.0000   37.0000 
5251.0157 1600.5096    7.8750    7.8251  103.9508    7.3207    7.3157    4.0352    2.5186    0.0065    0.1877    3.0519   37.0000   37.0000 
5251.5157 1600.6620    7.8750    7.8280   94.1123    7.5075    7.2404    4.0800    2.5472    0.0092    0.1648    3.0123   37.0000   37.0000 
5252.0157 1600.8145    7.8750    7.8399   89.7943    7.5603    7.5446    6.3679    2.5623    0.0108    0.1694    3.0853   37.0000   37.0000 
5252.5157 1600.9668    7.8750    7.8403   88.7261    7.7952    7.5418    6.6460    2.5753    0.0130    0.1696    3.1874   37.0000   37.0000 
5253.0157 1601.1191    7.8750    7.8312   87.6653    8.8556    8.2749    5.2374    2.5897    0.0155    0.1596    3.2361   37.0000   37.0000 
5253.5157 1601.2716    7.8750    7.8336   82.1521    9.5846    8.8705    5.9464    2.6164    0.0194    0.1511    3.3719   37.0000   37.0000 
5254.0157 1601.4240    7.8750    7.8219   80.6954    9.7993    9.4575    7.1121    2.6409    0.0218    0.1500    3.4950   37.0000   37.0000 
5254.5157 1601.5764    7.8750    7.8251   88.3600   10.1933   10.6267    6.8049    2.6182    0.0200    0.1528    3.3923   37.0000   37.0000 
5255.0157 1601.7288    7.8750    7.8296  100.7460    9.3267    8.8962    5.5305    2.5609    0.0163    0.1704    3.2081   37.0000   37.0000 
5255.5157 1601.8812    7.8750    7.8284  109.9719    8.2757    8.1730    4.7956    2.5252    0.0109    0.1842    3.1137   37.0000   37.0000 
5256.0157 1602.0336    7.8750    7.8254  110.6592    7.8275    7.1727    4.4535    2.5225    0.0085    0.1814    3.0807   37.0000   37.0000 
5256.5157 1602.1860    7.8750    7.8278   96.9211    7.2125    6.8203    3.9464    2.5559    0.0086    0.1738    2.9365   37.0000   37.0000 
5257.0157 1602.3384    7.8750    7.8243   93.7163    7.1811    6.5627    4.1648    2.5757    0.0061    0.1683    2.8807   37.0000   37.0000 
5257.5157 1602.4908    7.8750    7.8251   93.3876    7.6333    6.7727    4.5672    2.5788    0.0050    0.1424    2.8925   37.0000   37.0000 
5258.0157 1602.6432    7.8750    7.8253   91.7217    8.3265    7.3261    4.8832    2.5740    0.0052    0.1447    2.9265   37.0000   37.0000 
5258.5157 1602.7957    7.8750    7.8285   94.0824   10.0782    9.4021    7.4530    2.5659    0.0030    0.1653    3.0527   37.0000   37.0000 
5259.0157 1602.9480    7.8750    7.8415   97.9745   11.0359   10.1338    8.1469    2.5670    0.0029    0.1774    3.1022   37.0000   37.0000 
5259.5157 1603.1003    7.8750    7.8472  102.1355   11.0844   10.3178    7.0373    2.5615    0.0084    0.1913    3.1582   37.0000   37.0000 
5260.0157 1603.2528    7.8750    7.8447  106.1097    9.7155    8.7084    6.0403    2.5437    0.0114    0.1952    3.1852   37.0000   37.0000 
5260.5157 1603.4052    7.8750    7.8420  108.9410    8.8708    8.1428    5.0264    2.5259    0.0092    0.2110    3.0980   37.0000   37.0000 
5261.0157 1603.5576    7.8750    7.8439  109.7030    8.9733    8.0288    4.8861    2.5243    0.0061    0.1833    2.9816   37.0000   37.0000 
5261.5157 1603.7100    7.8750    7.8485  106.3114    9.2549    7.9158    6.1235    2.5341    0.0028    0.1657    3.0095   37.0000   37.0000 
5262.0157 1603.8624    7.8750    7.8624  102.0159   10.0266    9.2166    6.9431    2.5516    0.0006    0.1847    3.1455   37.0000   37.0000 
5262.5157 1604.0148    7.8750    7.8700   99.5432   10.8509    9.8514    6.6509    2.5643    0.0002    0.1877    3.1913   37.0000   37.0000 
5263.0157 1604.1672    7.8750    7.8722   98.1687   10.6250    9.9660    6.5433    2.5505    0.0001    0.1937    3.1836   37.0000   37.0000 
5263.5157 1604.3196    7.8750    7.8793  104.8846    9.8639    8.9698    6.4600    2.5225    0.0002    0.1915    3.2303   37.0000   37.0000 
5264.0157 1604.4720    7.8750    7.8887  112.7958    9.3578    8.1564    5.6210    2.5130    0.0012    0.1933    3.2436   37.0000   37.0000 
5264.5157 1604.6244    7.8750    7.8811  110.5322    9.1622    8.0322    5.0565    2.5259    0.0035    0.1880    3.1871   37.0000   37.0000 
5265.0157 1604.7769    7.8750    7.8795  110.1288    8.9828    8.2155    5.5608    2.5391    0.0041    0.1758    3.1299   37.0000   37.0000 
5265.5157 1604.9292    7.8750    7.8854  109.1353    9.0829    8.1426    6.0865    2.5483    0.0024    0.1726    3.0969   37.0000   37.0000 
5266.0157 1605.0815    7.8750    7.8939   98.8634    9.3004    8.1836    5.9473    2.5556   -0.0004    0.1701    3.0995   37.0000   37.0000 
5266.5157 1605.2340    7.8750    7.9004   95.0535    9.0902    8.1064    5.4341    2.5478   -0.0046    0.1881    3.1841   37.0000   37.0000 
5267.0157 1605.3864    7.8750    7.8984  101.8217    8.3402    7.3022    5.0816    2.5248   -0.0087    0.1855    3.2907   37.0000   37.0000 
5267.5157 1605.5388    7.8750    7.8992  105.8483    7.8944    7.0415    4.5163    2.5147   -0.0105    0.2017    3.2743   37.0000   37.0000 
5268.0157 1605.6912    7.8750    7.9132  104.0255    7.4753    6.7627    4.2022    2.5319   -0.0091    0.1926    3.1579   37.0000   37.0000 
5268.5157 1605.8436    7.8750    7.9173  102.5837    7.1668    6.4384    4.1235    2.5440   -0.0076    0.1828    3.1051   37.0000   37.0000 
5269.0157 1605.9960    7.8750    7.9153   99.1324    6.6566    5.8100    3.7142    2.5611   -0.0032    0.1806    3.0434   37.0000   37.0000 
5269.5157 1606.1484    7.8750    7.9203   97.6009    6.5578    5.7836    3.3182    2.5681    0.0007    0.1676    3.1007   37.0000   37.0000 
5270.0157 1606.3008    7.8750    7.9265   95.5391    6.4281    5.8208    3.2711    2.5725    0.0056    0.1578    3.2088   37.0000   37.0000 
5270.5157 1606.4532    7.8750    7.9189   93.3876    6.3140    5.6175    3.3504    2.5782    0.0090    0.1561    3.2309   37.0000   37.0000 
5271.0157 1606.6056    7.8750    7.9208   82.9141    6.4535    5.6878    3.4429    2.5806    0.0175    0.1478    3.1287   37.0000   37.0000 
5271.5157 1606.7581    7.8750    7.9224   80.8672    6.7113    5.9602    3.4425    2.5750    0.0183    0.1398    3.0972   37.0000   37.0000 
5272.0157 1606.9104    7.8750    7.9130   82.2717    6.8963    6.0699    3.6623    2.5616    0.0158    0.1405    3.1529   37.0000   37.0000 
5272.5157 1607.0627    7.8750    7.9064   81.9803    7.1907    6.4387    3.8909    2.5545    0.0132    0.1475    3.1901   37.0000   37.0000 
5273.0157 1607.2152    7.8750    7.8939   79.8587    7.6399    6.5061    4.1617    2.5559    0.0100    0.1455    3.1564   37.0000   37.0000 
5273.5157 1607.3676    7.8750    7.9035   77.2515    7.9224    6.8214    4.6177    2.5541    0.0067    0.1335    3.0805   37.0000   37.0000 
5274.0157 1607.5200    7.8750    7.8971   80.5086    8.2073    7.5712    5.1420    2.5607    0.0066    0.1421    3.0521   37.0000   37.0000 
5274.5157 1607.6724    7.8750    7.8931   88.5916    8.5942    7.6999    5.1829    2.5677    0.0074    0.1431    3.1008   37.0000   37.0000 
5275.0157 1607.8248    7.8750    7.8985   94.8742    8.8627    8.3166    5.9048    2.5618    0.0080    0.1555    3.1287   37.0000   37.0000 
