~VERSION INFORMATION
 VERS.                 2.0:   CWLS LOG ASCII STANDARD - VERSION 2.0
 WRAP.                  NO:   SINGLE LINE PER DEPTH STEP
 CREA.                 01/12/2017 17:02:35
#CREATED USING DSPetro VERSION 5000.10.1.3 BY H191660 ON 01/12/2017 17:02:35
~WELL INFORMATION
#MNEM.UNIT       DATA                          DESCRIPTION MNEMONIC
#---------      ---------------------------   --------------------------
 STRT    .FT        50.4921                   : START DEPTH
 STOP    .FT        8514.9921                 : STOP DEPTH
 STEP    .FT        0.5000                    : STEP VALUE
 NULL    .      -999.0000                     : NULL VALUE
 DATE    .      01/12/2017                    : LAS file Creation Date
 WELL .      UNIVERSITY_42_22_4210540532 : Well Name
 COMP .                                  : Company
 FLD  .      HOLT RANCH (CONSOLIDATED)�  : Field
 UWI  .      224                         : Unique Well Identifier (UWI)
 LOC  .                                  : Location
 RWS  .      -999                        : Def_Rw
 WST  .      -999                        : Def_Rwt
 SRVC .                                  : Contractor
~CURVE INFORMATION
#MNEM              UNIT       API CODE   Curve Type Comments
#----------  --------------- ----------  ---------- -----------
 DEPTH      .FT                        : Depth       
 DEPTH_(m)  .                          :             
 BitSize    .inch                      : BitSize     
 CAL_INCH   .inch                      :             Caliper Log - A representation of the measured diameter of a borehole along its depth
 GR_API     .API                       : GammaRay    Gamma Ray (API) - Measures the intensity of natural gamma-ray radiation emitted from formations containing radioactive elements, such as K, Th and U
 LLD_OHMM   .ohmm                      :             Laterlog Deep Resistivity - Measurement made several feet into the formation; generally considered a measurement of the undisturbed formation
 LLS_OHMM   .ohmm                      :             Laterlog Shallow Resistivity - one to two feet into the formation; generally considered to measure the formation
 RHOB_G_CC  .g/cc                      :             Bulk Density - Measures the density of bulk material, including any void space or other materials contained in the subject volume
 DRHO_G_CC  .g/cc                      :             Density Correction - Investigates the correction to the Bulk Density log; used as an indication of hole condition to validate the Bulk Density measure
 NPHI_v/v   .dec                       : Neutron     
 PEF_B_E    .b/e-                      : PEF         Photoelectric Factor - A log of photoelectric absorption properties. Often expressed in an approximation unit barns/electron (b/e-)
 LITH       .                          : LITH        Lithology Curve
 LITH_v2    .                          : LITH        Lithology Curve
~A  DEPTH DEPTH_(m)  BitSize   CAL_INCH   GR_API   LLD_OHMM  LLS_OHMM RHOB_G_C  DRHO_G_C   NPHI_v/v  PEF_B_E     LITH    LITH_v2  
# ...
7986.4921 2434.2827    7.8750    8.0703  119.3549   14.0533   11.9194    2.6682    0.0045    0.1575    3.3933   37.0000   37.0000 
7986.9921 2434.4353    7.8750    8.0547  119.3549   13.3439   11.1801    2.6622    0.0025    0.1582    3.3476   37.0000   37.0000 
7987.4921 2434.5876    7.8750    8.0469  121.1867   12.9715   10.6413    2.6614   -0.0003    0.1654    3.3221   37.0000   37.0000 
7987.9921 2434.7400    7.8750    8.0469  116.9447   13.1082   10.6325    2.6520   -0.0024    0.1652    3.3232   37.0000   37.0000 
7988.4921 2434.8923    7.8750    8.0313  109.7140   13.6717   10.9312    2.6324   -0.0040    0.1552    3.3746   37.0000   37.0000 
7988.9921 2435.0449    7.8750    8.0547  112.9919   14.3920   11.5844    2.6348   -0.0028    0.1567    3.4533   37.0000   37.0000 
7989.4921 2435.1973    7.8750    8.0234  119.9816   15.0040   12.1695    2.6456   -0.0037    0.1564    3.4518   37.0000   37.0000 
7989.9921 2435.3496    7.8750    8.0547  120.2708   15.5097   12.6098    2.6460   -0.0091    0.1412    3.3993   37.0000   37.0000 
7990.4921 2435.5020    7.8750    7.9844  113.0401   15.9914   13.0196    2.6481   -0.0128    0.1387    3.3586   37.0000   37.0000 
7990.9921 2435.6543    7.8750    8.0156  108.9427   16.6769   13.5541    2.6511   -0.0154    0.1457    3.3344   37.0000   37.0000 
7991.4921 2435.8069    7.8750    8.0313  112.4134   17.3878   14.3737    2.6604   -0.0154    0.1429    3.3241   37.0000   37.0000 
7991.9921 2435.9592    7.8750    7.9844  107.1591   17.6536   14.8203    2.6781   -0.0101    0.1502    3.3431   37.0000   37.0000 
7992.4921 2436.1116    7.8750    7.9844   98.6751   15.9341   14.7484    2.6805   -0.0042    0.1376    3.3983   37.0000   37.0000 
7992.9921 2436.2639    7.8750    7.9844   99.6874   12.7255   12.4149    2.6809   -0.0011    0.1319    3.4570   37.0000   37.0000 
7993.4921 2436.4165    7.8750    8.0000  104.5079   10.3270   10.0035    2.6922   -0.0014    0.1504    3.4781   37.0000   37.0000 
7993.9921 2436.5688    7.8750    8.0000  111.0155    8.7960    7.8481    2.6912   -0.0048    0.1408    3.5563   37.0000   37.0000 
7994.4921 2436.7212    7.8750    7.9922  111.3529    8.5379    6.8640    2.6952   -0.0105    0.1312    3.8435   37.0000   37.0000 
7994.9921 2436.8735    7.8750    7.9688  112.0278    8.7597    7.0148    2.7109   -0.0209    0.1291    4.0996   37.0000   37.0000 
7995.4921 2437.0259    7.8750    7.9844  117.2821    9.7132    8.1243    2.7010   -0.0271    0.1251    3.9167   37.0000   37.0000 
7995.9921 2437.1785    7.8750    7.9844  113.8596   11.5270   10.3026    2.6787   -0.0165    0.1334    3.5104   37.0000   37.0000 
7996.4921 2437.3308    7.8750    7.9688  107.0145   13.3222   11.9290    2.6649   -0.0082    0.1446    3.3699   37.0000   37.0000 
7996.9921 2437.4832    7.8750    7.9766  111.0155   14.7268   13.3003    2.6541   -0.0103    0.1470    3.4611   37.0000   37.0000 
7997.4921 2437.6355    7.8750    7.9375  117.7642   14.5481   12.7021    2.6481   -0.0096    0.1566    3.5736   37.0000   37.0000 
7997.9921 2437.7881    7.8750    7.9844  122.2472   14.8097   12.6720    2.6410   -0.0102    0.1578    3.6323   37.0000   37.0000 
7998.4921 2437.9404    7.8750    7.9766  125.1395   15.5952   13.2652    2.6321   -0.0128    0.1522    3.5280   37.0000   37.0000 
7998.9921 2438.0928    7.8750    7.9531  123.5487   16.6409   13.9853    2.6273   -0.0136    0.1588    3.2771   37.0000   37.0000 
7999.4921 2438.2451    7.8750    8.0000  124.7538   17.6962   14.8111    2.6287   -0.0129    0.1549    3.1173   37.0000   37.0000 
7999.9921 2438.3977    7.8750    7.9766  116.5590   18.6647   15.5993    2.6240   -0.0107    0.1499    3.1879   37.0000   37.0000 
8000.4921 2438.5500    7.8750    7.9766  106.0022   19.7217   16.2819    2.6163   -0.0086    0.1477    3.3453   37.0000   37.0000 
8000.9921 2438.7024    7.8750    7.9844  108.5571   21.1342   17.1478    2.6223   -0.0081    0.1479    3.3761   37.0000   37.0000 
8001.4921 2438.8547    7.8750    7.9688  116.8965   23.0401   18.7078    2.6205   -0.0084    0.1659    3.2686   37.0000   37.0000 
8001.9921 2439.0071    7.8750    8.0000  136.2266   24.3740   20.3738    2.5939   -0.0069    0.1702    3.2594   37.0000   37.0000 
8002.4921 2439.1597    7.8750    7.9844  160.2325   24.5728   21.0628    2.5557   -0.0067    0.1790    3.4166   37.0000   37.0000 
8002.9921 2439.3120    7.8750    7.9688  174.0191   23.0825   20.3666    2.5475   -0.0035    0.1841    3.4697   37.0000   37.0000 
8003.4921 2439.4644    7.8750    7.9844  157.8705   21.2444   18.4531    2.5824    0.0030    0.1535    3.3388   37.0000   37.0000 
8003.9921 2439.6167    7.8750    8.0000  124.7538   20.2884   17.5198    2.6141    0.0018    0.1369    3.2553   37.0000   37.0000 
8004.4921 2439.7693    7.8750    7.9766  112.2688   19.9993   17.4543    2.6287   -0.0031    0.1281    3.3197   37.0000   37.0000 
8004.9921 2439.9216    7.8750    7.9688  108.5088   20.1051   17.8095    2.6371   -0.0053    0.1305    3.4058   37.0000   37.0000 
8005.4921 2440.0740    7.8750    7.9766  103.5438   19.8599   17.8746    2.6265   -0.0079    0.1295    3.3912   37.0000   37.0000 
8005.9921 2440.2263    7.8750    7.9922  109.2319   19.1747   17.2422    2.6070   -0.0096    0.1472    3.3172   37.0000   37.0000 
8006.4921 2440.3789    7.8750    7.9609  113.2329   18.4294   16.5668    2.6139   -0.0067    0.1583    3.2884   37.0000   37.0000 
8006.9921 2440.5313    7.8750    8.0156  122.1508   17.8551   15.9961    2.6292   -0.0033    0.1527    3.3398   37.0000   37.0000 
8007.4921 2440.6836    7.8750    7.9922  137.0943   17.6016   15.8162    2.6221   -0.0014    0.1536    3.4361   37.0000   37.0000 
8007.9921 2440.8359    7.8750    7.9922  136.1302   17.4982   15.5331    2.6161    0.0024    0.1534    3.5802   37.0000   37.0000 
8008.4921 2440.9883    7.8750    7.9688  116.5108   17.9498   15.6398    2.6188    0.0046    0.1507    3.8635   37.0000   37.0000 
8008.9921 2441.1409    7.8750    8.0078  110.7745   18.5262   16.3326    2.6321    0.0049    0.1354    4.0941   37.0000   37.0000 
8009.4921 2441.2932    7.8750    8.0156  115.7396   18.8888   16.8306    2.6578    0.0062    0.1319    4.1277   37.0000   37.0000 
8009.9921 2441.4456    7.8750    8.0234  101.6156   18.7423   16.9842    2.6746    0.0031    0.1300    4.3462   37.0000   37.0000 
8010.4921 2441.5979    7.8750    8.0156   92.3603   17.9374   16.3927    2.6912   -0.0014    0.1297    4.5514   37.0000   37.0000 
8010.9921 2441.7505    7.8750    8.0313  102.6279   16.9447   15.1243    2.6923   -0.0020    0.1378    4.1837   37.0000   37.0000 
8011.4921 2441.9028    7.8750    7.9922  111.9314   16.4629   14.5101    2.6646   -0.0008    0.1480    3.6590   37.0000   37.0000 
8011.9921 2442.0552    7.8750    8.0078  113.1365   16.4320   14.2158    2.6503    0.0011    0.1587    3.4556   37.0000   37.0000 
8012.4921 2442.2075    7.8750    8.0078  117.5231   17.0272   14.8240    2.6618    0.0005    0.1568    3.4872   37.0000   37.0000 
8012.9921 2442.3601    7.8750    7.9922  120.1744   17.6707   15.4634    2.6664   -0.0036    0.1524    3.6130   37.0000   37.0000 
8013.4921 2442.5125    7.8750    8.0078  115.7878   17.7016   15.7600    2.6623   -0.0082    0.1468    3.6504   37.0000   37.0000 
8013.9921 2442.6648    7.8750    8.0313  118.2944   17.0254   15.4712    2.6603   -0.0114    0.1482    3.5794   37.0000   37.0000 
8014.4921 2442.8171    7.8750    8.0625  115.8360   15.7900   14.6488    2.6436   -0.0138    0.1452    3.5386   37.0000   37.0000 
8014.9921 2442.9695    7.8750    8.0234  105.6166   14.4310   13.6267    2.6301   -0.0125    0.1512    3.5670   37.0000   37.0000 
8015.4921 2443.1221    7.8750    8.0156  111.6422   13.1590   12.3490    2.6454   -0.0074    0.1509    3.6215   37.0000   37.0000 
8015.9921 2443.2744    7.8750    8.0234  131.8399   12.2160   11.2927    2.6598   -0.0041    0.1606    3.6019   37.0000   37.0000 
8016.4921 2443.4268    7.8750    8.0703  136.2748   11.7600   10.7871    2.6570    0.0007    0.1721    3.5406   37.0000   37.0000 
8016.9921 2443.5791    7.8750    8.0234  128.8030   11.5579   10.5953    2.6482    0.0051    0.1681    3.5017   37.0000   37.0000 
