~VERSION INFORMATION
 VERS.                 2.0:   CWLS LOG ASCII STANDARD - VERSION 2.0
 WRAP.                  NO:   SINGLE LINE PER DEPTH STEP
 CREA.                 01/12/2017 17:02:35
#CREATED USING DSPetro VERSION 5000.10.1.3 BY H191660 ON 01/12/2017 17:02:35
~WELL INFORMATION
#MNEM.UNIT       DATA                          DESCRIPTION MNEMONIC
#---------      ---------------------------   --------------------------
 STRT    .FT        50.4921                   : START DEPTH
 STOP    .FT        8514.9921                 : STOP DEPTH
 STEP    .FT        0.5000                    : STEP VALUE
 NULL    .      -999.0000                     : NULL VALUE
 DATE    .      01/12/2017                    : LAS file Creation Date
 WELL .      UNIVERSITY_42_22_4210540532 : Well Name
 COMP .                                  : Company
 FLD  .      HOLT RANCH (CONSOLIDATED)�  : Field
 UWI  .      224                         : Unique Well Identifier (UWI)
 LOC  .                                  : Location
 RWS  .      -999                        : Def_Rw
 WST  .      -999                        : Def_Rwt
 SRVC .                                  : Contractor
~CURVE INFORMATION
#MNEM              UNIT       API CODE   Curve Type Comments
#----------  --------------- ----------  ---------- -----------
 DEPTH      .FT                        : Depth       
 DEPTH_(m)  .                          :             
 BitSize    .inch                      : BitSize     
 CAL_INCH   .inch                      :             Caliper Log - A representation of the measured diameter of a borehole along its depth
 GR_API     .API                       : GammaRay    Gamma Ray (API) - Measures the intensity of natural gamma-ray radiation emitted from formations containing radioactive elements, such as K, Th and U
 LLD_OHMM   .ohmm                      :             Laterlog Deep Resistivity - Measurement made several feet into the formation; generally considered a measurement of the undisturbed formation
 LLS_OHMM   .ohmm                      :             Laterlog Shallow Resistivity - one to two feet into the formation; generally considered to measure the formation
 RHOB_G_CC  .g/cc                      :             Bulk Density - Measures the density of bulk material, including any void space or other materials contained in the subject volume
 DRHO_G_CC  .g/cc                      :             Density Correction - Investigates the correction to the Bulk Density log; used as an indication of hole condition to validate the Bulk Density measure
 NPHI_v/v   .dec                       : Neutron     
 PEF_B_E    .b/e-                      : PEF         Photoelectric Factor - A log of photoelectric absorption properties. Often expressed in an approximation unit barns/electron (b/e-)
 LITH       .                          : LITH        Lithology Curve
 LITH_v2    .                          : LITH        Lithology Curve
~A  DEPTH DEPTH_(m)  BitSize   CAL_INCH   GR_API   LLD_OHMM  LLS_OHMM RHOB_G_C  DRHO_G_C   NPHI_v/v  PEF_B_E     LITH    LITH_v2  
# ...
4204.4921 1281.5292    7.8750    8.2750   93.7582    6.7458    5.8828    2.5133   -0.0123    0.1558    2.7950   37.0000   37.0000 
4204.9921 1281.6816    7.8750    8.2672   75.9707    6.8118    5.9823    2.5243   -0.0115    0.1499    2.8032   37.0000   37.0000 
4205.4921 1281.8340    7.8750    8.2516   77.9470    6.7814    6.0309    2.5155   -0.0103    0.1689    2.9242   37.0000   37.0000 
4205.9921 1281.9865    7.8750    8.2516   94.5295    6.4420    5.8243    2.5120   -0.0037    0.1674    3.0928   37.0000   37.0000 
4206.4921 1282.1388    7.8750    8.2281   95.2043    5.8460    5.4118    2.5286    0.0039    0.1838    3.1496   37.0000   37.0000 
4206.9921 1282.2913    7.8750    8.2359   90.7695    5.2224    4.7892    2.5498    0.0115    0.1900    3.1613   37.0000   37.0000 
4207.4921 1282.4436    7.8750    8.3297   97.2289    4.7003    4.2994    2.5614    0.0196    0.1888    3.1988   37.0000   37.0000 
4207.9921 1282.5959    7.8750    8.3062   98.9643    4.4352    3.9736    2.5692    0.0237    0.2195    3.1647   37.0000   37.0000 
4208.4921 1282.7484    7.8750    8.2750   99.1571    4.3820    3.9918    2.5783    0.0211    0.2213    3.0974   37.0000   37.0000 
4208.9921 1282.9008    7.8750    8.3219  105.5684    4.4014    4.0925    2.5814    0.0142    0.1992    3.0806   37.0000   37.0000 
4209.4921 1283.0532    7.8750    8.2984  104.8453    4.5203    4.1282    2.5669    0.0059    0.1864    3.0736   37.0000   37.0000 
4209.9921 1283.2056    7.8750    8.2828   95.3490    4.7417    4.2532    2.5392   -0.0022    0.1953    3.0209   37.0000   37.0000 
4210.4921 1283.3580    7.8750    8.2906   90.4321    5.1020    4.4205    2.5156   -0.0088    0.1960    2.9129   37.0000   37.0000 
4210.9921 1283.5104    7.8750    8.2594   96.0238    5.6231    4.9200    2.5081   -0.0128    0.1832    2.8669   37.0000   37.0000 
4211.4921 1283.6628    7.8750    8.2359   94.3367    6.1061    5.4615    2.5133   -0.0136    0.1838    2.9339   37.0000   37.0000 
4211.9921 1283.8152    7.8750    8.2359   82.0927    6.4146    5.7506    2.5146   -0.0115    0.1738    3.0035   37.0000   37.0000 
4212.4921 1283.9677    7.8750    8.2516   78.5737    6.6348    5.8714    2.5087   -0.0082    0.1535    3.0595   37.0000   37.0000 
4212.9921 1284.1200    7.8750    8.2281   80.1645    6.8711    5.9294    2.5121   -0.0058    0.1479    3.1131   37.0000   37.0000 
4213.4921 1284.2725    7.8750    8.2281   76.0189    7.2936    6.2899    2.5348   -0.0042    0.1488    3.1429   37.0000   37.0000 
4213.9921 1284.4248    7.8750    8.1969   71.5840    7.8996    6.8079    2.5635   -0.0041    0.1414    3.1830   37.0000   37.0000 
4214.4921 1284.5771    7.8750    8.1969   77.2240    8.3197    7.3126    2.5673   -0.0071    0.1270    3.1763   37.0000   37.0000 
4214.9921 1284.7296    7.8750    8.2047   86.1419    8.4074    7.4095    2.5553   -0.0096    0.1300    3.0702   37.0000   37.0000 
4215.4921 1284.8820    7.8750    8.1734   86.8649    8.0274    7.2500    2.5483   -0.0105    0.1491    3.0227   37.0000   37.0000 
4215.9921 1285.0344    7.8750    8.1500   87.8290    7.3755    6.7040    2.5333   -0.0131    0.1729    3.0469   37.0000   37.0000 
4216.4921 1285.1868    7.8750    8.1109  100.0248    6.7230    6.0903    2.5188   -0.0118    0.1729    3.0479   37.0000   37.0000 
4216.9921 1285.3392    7.8750    8.1109  113.6668    6.3141    5.6140    2.5082   -0.0062    0.1823    3.0890   37.0000   37.0000 
4217.4921 1285.4916    7.8750    8.1422  117.0893    6.2613    5.4774    2.4971   -0.0021    0.1807    3.1269   37.0000   37.0000 
4217.9921 1285.6440    7.8750    8.1969  103.8812    6.4955    5.6587    2.5049   -0.0094    0.1997    3.0940   37.0000   37.0000 
4218.4921 1285.7964    7.8750    8.1578   77.7542    6.8673    6.0435    2.5273   -0.0258    0.1815    3.0930   37.0000   37.0000 
4218.9921 1285.9489    7.8750    8.1500   59.7257    7.0484    6.3710    2.5383   -0.0269    0.1654    3.1350   37.0000   37.0000 
4219.4921 1286.1012    7.8750    8.1500   63.4856    6.8011    6.2088    2.5278   -0.0183    0.1322    3.0551   37.0000   37.0000 
4219.9921 1286.2535    7.8750    8.1891   75.9707    6.2962    5.9473    2.5091   -0.0211    0.1368    2.8761   37.0000   37.0000 
4220.4921 1286.4060    7.8750    8.1656   85.9490    5.6938    5.5263    2.4972   -0.0258    0.1454    2.8109   37.0000   37.0000 
4220.9921 1286.5583    7.8750    8.1734   93.8546    5.1997    5.0623    2.4957   -0.0205    0.1650    2.8959   37.0000   37.0000 
4221.4921 1286.7108    7.8750    8.2125   94.7705    4.8932    4.7693    2.4966   -0.0128    0.1873    2.9630   37.0000   37.0000 
4221.9921 1286.8632    7.8750    8.2281   92.4085    4.7539    4.6019    2.5084   -0.0080    0.1903    2.9202   37.0000   37.0000 
4222.4921 1287.0156    7.8750    8.2516   92.8423    4.8179    4.5770    2.5220   -0.0053    0.1898    2.8803   37.0000   37.0000 
4222.9921 1287.1680    7.8750    8.2125   92.0710    5.0768    4.7988    2.5196   -0.0069    0.1955    2.8883   37.0000   37.0000 
4223.4921 1287.3204    7.8750    8.1969   87.3470    5.5266    5.1981    2.5260   -0.0089    0.1672    2.8421   37.0000   37.0000 
4223.9921 1287.4728    7.8750    8.2281   85.7080    6.1512    5.6467    2.5295   -0.0107    0.1642    2.7673   37.0000   37.0000 
4224.4921 1287.6252    7.8750    8.1578   89.6608    7.0663    6.2536    2.5182   -0.0114    0.1601    2.7734   37.0000   37.0000 
4224.9921 1287.7776    7.8750    8.1812   90.8177    8.6303    7.3420    2.5153   -0.0091    0.1667    2.8971   37.0000   37.0000 
4225.4921 1287.9301    7.8750    8.1656   74.7655   11.6937   10.3234    2.5540   -0.0075    0.1569    3.1710   37.0000   37.0000 
4225.9921 1288.0824    7.8750    8.1266   55.4354   15.5795   15.1574    2.6441   -0.0039    0.1415    3.5633   37.0000   37.0000 
4226.4921 1288.2347    7.8750    8.0484   48.3011   17.3917   16.7795    2.7303    0.0020    0.1196    3.8573   37.0000   12.0000 
4226.9921 1288.3872    7.8750    8.0562   50.6632   15.7110   16.3635    2.7629    0.0065    0.1051    3.9011   12.0000   12.0000 
4227.4921 1288.5396    7.8750    8.0641   70.5235   12.0868   12.0401    2.7022    0.0063    0.1068    3.7239   12.0000   12.0000 
4227.9921 1288.6920    7.8750    8.1187   98.4341    9.5622    8.9091    2.5927    0.0014    0.1378    3.3966   37.0000   37.0000 
4228.4921 1288.8444    7.8750    8.1500  103.3991    8.0136    7.4495    2.5345   -0.0009    0.1650    3.1181   37.0000   37.0000 
4228.9921 1288.9968    7.8750    8.1734   96.2648    6.8009    6.4474    2.5212    0.0011    0.1951    3.0347   37.0000   37.0000 
4229.4921 1289.1492    7.8750    8.2125   93.0833    5.9098    5.7103    2.5229    0.0035    0.1815    3.0403   37.0000   37.0000 
4229.9921 1289.3016    7.8750    8.2437   89.3234    5.1837    5.1335    2.5423    0.0062    0.1756    2.9916   37.0000   37.0000 
4230.4921 1289.4540    7.8750    8.2984   96.7469    4.5513    4.4276    2.5528    0.0085    0.2022    2.9084   37.0000   37.0000 
4230.9921 1289.6064    7.8750    8.3766  105.9540    4.1309    3.9991    2.5322    0.0104    0.2070    2.9366   37.0000   37.0000 
4231.4921 1289.7588    7.8750    8.3141  106.0986    3.9138    3.7860    2.5183    0.0123    0.2065    3.0981   37.0000   37.0000 
4231.9921 1289.9113    7.8750    8.3531  102.9171    3.8005    3.7816    2.5348    0.0135    0.2131    3.2017   37.0000   37.0000 
4232.4921 1290.0636    7.8750    8.3766   98.6751    3.7464    3.7454    2.5522    0.0147    0.2123    3.1791   37.0000   37.0000 
4232.9921 1290.2159    7.8750    8.3375   88.0700    3.7051    3.7339    2.5473    0.0157    0.2060    3.1517   37.0000   37.0000 
4233.4921 1290.3684    7.8750    8.3687   82.3819    3.6736    3.6493    2.5378    0.0175    0.2177    3.1534   37.0000   37.0000 
4233.9921 1290.5208    7.8750    8.3766   88.1182    3.6980    3.6004    2.5409    0.0198    0.2279    3.1858   37.0000   37.0000 
4234.4921 1290.6732    7.8750    8.3531   91.3480    3.9236    3.6738    2.5385    0.0194    0.2266    3.2767   37.0000   37.0000 
4234.9921 1290.8256    7.8750    8.3375   87.2506    4.3925    4.0911    2.5340    0.0189    0.2334    3.3324   37.0000   37.0000 
