~VERSION INFORMATION
 VERS.                 2.0:   CWLS LOG ASCII STANDARD - VERSION 2.0
 WRAP.                  NO:   SINGLE LINE PER DEPTH STEP
 CREA.                 01/12/2017 17:02:35
#CREATED USING DSPetro VERSION 5000.10.1.3 BY H191660 ON 01/12/2017 17:02:35
~WELL INFORMATION
#MNEM.UNIT       DATA                          DESCRIPTION MNEMONIC
#---------      ---------------------------   --------------------------
 STRT    .FT        50.4921                   : START DEPTH
 STOP    .FT        8514.9921                 : STOP DEPTH
 STEP    .FT        0.5000                    : STEP VALUE
 NULL    .      -999.0000                     : NULL VALUE
 DATE    .      01/12/2017                    : LAS file Creation Date
 WELL .      UNIVERSITY_42_22_4210540532 : Well Name
 COMP .                                  : Company
 FLD  .      HOLT RANCH (CONSOLIDATED)�  : Field
 UWI  .      224                         : Unique Well Identifier (UWI)
 LOC  .                                  : Location
 RWS  .      -999                        : Def_Rw
 WST  .      -999                        : Def_Rwt
 SRVC .                                  : Contractor
~CURVE INFORMATION
#MNEM              UNIT       API CODE   Curve Type Comments
#----------  --------------- ----------  ---------- -----------
 DEPTH      .FT                        : Depth       
 DEPTH_(m)  .                          :             
 BitSize    .inch                      : BitSize     
 CAL_INCH   .inch                      :             Caliper Log - A representation of the measured diameter of a borehole along its depth
 GR_API     .API                       : GammaRay    Gamma Ray (API) - Measures the intensity of natural gamma-ray radiation emitted from formations containing radioactive elements, such as K, Th and U
 LLD_OHMM   .ohmm                      :             Laterlog Deep Resistivity - Measurement made several feet into the formation; generally considered a measurement of the undisturbed formation
 LLS_OHMM   .ohmm                      :             Laterlog Shallow Resistivity - one to two feet into the formation; generally considered to measure the formation
 RHOB_G_CC  .g/cc                      :             Bulk Density - Measures the density of bulk material, including any void space or other materials contained in the subject volume
 DRHO_G_CC  .g/cc                      :             Density Correction - Investigates the correction to the Bulk Density log; used as an indication of hole condition to validate the Bulk Density measure
 NPHI_v/v   .dec                       : Neutron     
 PEF_B_E    .b/e-                      : PEF         Photoelectric Factor - A log of photoelectric absorption properties. Often expressed in an approximation unit barns/electron (b/e-)
 LITH       .                          : LITH        Lithology Curve
 LITH_v2    .                          : LITH        Lithology Curve
~A  DEPTH DEPTH_(m)  BitSize   CAL_INCH   GR_API   LLD_OHMM  LLS_OHMM RHOB_G_C  DRHO_G_C   NPHI_v/v  PEF_B_E     LITH    LITH_v2  
# ...
7149.4921 2179.1653    7.8750    8.2516  110.7263    6.9316    5.7748    2.5947    0.0218    0.1611    3.1765   37.0000   37.0000 
7149.9921 2179.3176    7.8750    8.2203  112.6062    6.9625    5.7818    2.5952    0.0230    0.1625    3.1373   37.0000   37.0000 
7150.4921 2179.4700    7.8750    8.2516  105.6648    6.9944    5.8404    2.6078    0.0230    0.1547    3.1601   37.0000   37.0000 
7150.9921 2179.6223    7.8750    8.2672  106.5807    6.9337    5.8217    2.6205    0.0291    0.1568    3.2247   37.0000   37.0000 
7151.4921 2179.7749    7.8750    8.2125  106.8699    6.7690    5.6528    2.6175    0.0333    0.1681    3.2710   37.0000   37.0000 
7151.9921 2179.9272    7.8750    8.2828  106.7735    6.6443    5.5515    2.6052    0.0299    0.1625    3.2848   37.0000   37.0000 
7152.4921 2180.0796    7.8750    8.2672  107.5930    6.5483    5.5161    2.5992    0.0280    0.1477    3.2283   37.0000   37.0000 
7152.9921 2180.2319    7.8750    8.2047  107.2555    6.4973    5.5300    2.5937    0.0278    0.1451    3.0973   37.0000   37.0000 
7153.4921 2180.3845    7.8750    8.2281  108.5571    6.3788    5.4132    2.6044    0.0241    0.1461    3.0355   37.0000   37.0000 
7153.9921 2180.5369    7.8750    8.2828  114.2934    6.2083    5.2946    2.6408    0.0203    0.1733    3.2026   37.0000   37.0000 
7154.4921 2180.6892    7.8750    8.3219  118.1498    6.1309    5.2963    2.6580    0.0171    0.1836    3.4612   37.0000   37.0000 
7154.9921 2180.8416    7.8750    8.3141  112.2206    6.1017    5.3131    2.6420    0.0190    0.1833    3.5028   37.0000   37.0000 
7155.4921 2180.9939    7.8750    8.2672  109.0391    6.1198    5.4311    2.6211    0.0265    0.1645    3.4147   37.0000   37.0000 
7155.9921 2181.1465    7.8750    8.2750  113.5703    6.0397    5.3214    2.6083    0.0312    0.1752    3.3633   37.0000   37.0000 
7156.4921 2181.2988    7.8750    8.2516  113.5703    5.9032    5.1042    2.6153    0.0340    0.1799    3.2947   37.0000   37.0000 
7156.9921 2181.4512    7.8750    8.2594  112.9437    5.7584    4.9582    2.6274    0.0350    0.1732    3.2159   37.0000   37.0000 
7157.4921 2181.6035    7.8750    8.2437  113.9560    5.6573    4.8292    2.6148    0.0327    0.1741    3.1547   37.0000   37.0000 
7157.9921 2181.7561    7.8750    8.2359  117.1857    5.6751    4.7544    2.6052    0.0305    0.1940    3.1781   37.0000   37.0000 
7158.4921 2181.9084    7.8750    8.2594  112.3170    5.9388    4.9315    2.6174    0.0300    0.1832    3.3509   37.0000   37.0000 
7158.9921 2182.0608    7.8750    8.2750  109.3765    6.2260    5.1942    2.6294    0.0274    0.1614    3.4716   37.0000   37.0000 
7159.4921 2182.2131    7.8750    8.2437  111.6422    6.3406    5.4487    2.6378    0.0249    0.1487    3.3389   37.0000   37.0000 
7159.9921 2182.3655    7.8750    8.1812  114.9201    6.2625    5.4412    2.6250    0.0223    0.1528    3.1778   37.0000   37.0000 
7160.4921 2182.5181    7.8750    8.1969  129.7671    6.1066    5.3275    2.5995    0.0157    0.1707    3.1848   37.0000   37.0000 
7160.9921 2182.6704    7.8750    8.2672  132.7558    6.0596    5.2770    2.5959    0.0099    0.1688    3.2139   37.0000   37.0000 
7161.4921 2182.8228    7.8750    8.2203  114.9201    6.1049    5.3542    2.5970    0.0072    0.1654    3.1711   37.0000   37.0000 
7161.9921 2182.9751    7.8750    8.2125  115.3057    6.0821    5.4137    2.5954    0.0071    0.1789    3.1395   37.0000   37.0000 
7162.4921 2183.1277    7.8750    8.2203  129.3333    6.1105    5.4295    2.5973    0.0128    0.1826    3.1755   37.0000   37.0000 
7162.9921 2183.2800    7.8750    8.2203  131.2133    6.3779    5.5613    2.6011    0.0221    0.1726    3.2079   37.0000   37.0000 
7163.4921 2183.4324    7.8750    8.1656  120.8493    6.8990    5.9540    2.6152    0.0268    0.1682    3.2665   37.0000   37.0000 
7163.9921 2183.5847    7.8750    8.2359  108.5088    7.3369    6.4065    2.6343    0.0298    0.1412    3.3478   37.0000   37.0000 
7164.4921 2183.7373    7.8750    8.1734  102.2904    7.3782    6.5201    2.6448    0.0357    0.1269    3.2644   37.0000   37.0000 
7164.9921 2183.8896    7.8750    8.1266   99.3982    7.0145    6.2815    2.6452    0.0360    0.1237    3.1569   37.0000   37.0000 
7165.4921 2184.0420    7.8750    8.1734  104.8935    6.5719    5.8150    2.6429    0.0303    0.1242    3.2354   37.0000   37.0000 
7165.9921 2184.1943    7.8750    8.1656  115.4021    6.3360    5.5704    2.6329    0.0238    0.1348    3.3017   37.0000   37.0000 
7166.4921 2184.3467    7.8750    8.2203  127.2605    6.1826    5.4146    2.6159    0.0164    0.1565    3.2834   37.0000   37.0000 
7166.9921 2184.4993    7.8750    8.2437  126.1036    6.0588    5.2893    2.5982    0.0099    0.1747    3.2801   37.0000   37.0000 
7167.4921 2184.6516    7.8750    8.2125  116.8483    6.0048    5.2140    2.5840    0.0049    0.1576    3.2190   37.0000   37.0000 
7167.9921 2184.8040    7.8750    8.2281  117.1375    5.9778    5.2122    2.5815    0.0009    0.1632    3.1487   37.0000   37.0000 
7168.4921 2184.9563    7.8750    8.2125  119.4995    5.9887    5.1305    2.5804    0.0008    0.1788    3.1838   37.0000   37.0000 
7168.9921 2185.1089    7.8750    8.2594  116.4626    6.0055    5.2423    2.5800    0.0022    0.1720    3.2167   37.0000   37.0000 
7169.4921 2185.2612    7.8750    8.2672  113.4739    6.0213    5.2974    2.5841   -0.0008    0.1734    3.2445   37.0000   37.0000 
7169.9921 2185.4136    7.8750    8.2828  120.2226    6.0502    5.4466    2.5903   -0.0049    0.1715    3.3383   37.0000   37.0000 
7170.4921 2185.5659    7.8750    8.2594  121.9580    6.0767    5.5544    2.6006   -0.0056    0.1921    3.3360   37.0000   37.0000 
7170.9921 2185.7185    7.8750    8.2359  125.2841    6.0461    5.4485    2.6107   -0.0064    0.1822    3.1924   37.0000   37.0000 
7171.4921 2185.8708    7.8750    8.2594  134.6840    6.0497    5.3123    2.6106   -0.0066    0.1853    3.0587   37.0000   37.0000 
7171.9921 2186.0232    7.8750    8.2437  131.5989    6.0833    5.1854    2.5974   -0.0042    0.1868    2.9961   37.0000   37.0000 
7172.4921 2186.1755    7.8750    8.2203  122.3436    6.4880    5.3259    2.5893   -0.0057    0.1726    3.0368   37.0000   37.0000 
7172.9921 2186.3279    7.8750    8.1812  128.9476    6.9922    5.7313    2.5888   -0.0097    0.1673    3.1323   37.0000   37.0000 
7173.4921 2186.4805    7.8750    8.1578  130.7794    7.5506    6.2152    2.5881   -0.0063    0.1677    3.1715   37.0000   37.0000 
7173.9921 2186.6328    7.8750    8.1344  110.7745    7.9943    6.9134    2.5963    0.0143    0.1534    3.1980   37.0000   37.0000 
7174.4921 2186.7852    7.8750    8.1422  111.9314    8.0586    7.1326    2.6097    0.0482    0.1332    3.2573   37.0000   37.0000 
7174.9921 2186.9375    7.8750    8.0875  129.7189    7.8608    7.0887    2.6109    0.0742    0.1366    3.2875   37.0000   37.0000 
7175.4921 2187.0901    7.8750    8.0953  130.6348    7.5653    6.8557    2.6130    0.0801    0.1972    3.2908   37.0000   37.0000 
7175.9921 2187.2424    7.8750    8.1969  133.4307    7.3148    6.6173    2.6333    0.0631    0.1985    3.3247   37.0000   37.0000 
7176.4921 2187.3948    7.8750    8.2984  145.4819    7.4703    6.7201    2.6406    0.0310    0.1909    3.3959   37.0000   37.0000 
7176.9921 2187.5471    7.8750    8.3141  146.3978    8.0133    7.2949    2.6369    0.0136    0.1888    3.4225   37.0000   37.0000 
7177.4921 2187.6997    7.8750    8.2594  132.3220    8.4552    7.7057    2.6470    0.0187    0.1879    3.5295   37.0000   37.0000 
7177.9921 2187.8521    7.8750    8.2750  114.4380    8.7928    7.9766    2.6608    0.0283    0.1810    3.7305   37.0000   37.0000 
7178.4921 2188.0044    7.8750    8.2437  108.5571    8.7231    8.1554    2.6735    0.0360    0.1588    3.6000   37.0000   37.0000 
7178.9921 2188.1567    7.8750    8.2047  115.4021    8.3585    7.5949    2.6645    0.0389    0.1544    3.2508   37.0000   37.0000 
7179.4921 2188.3091    7.8750    8.1891  116.7037    8.1050    7.3494    2.6342    0.0407    0.1723    3.1043   37.0000   37.0000 
7179.9921 2188.4617    7.8750    8.1578  111.7868    7.9405    7.0188    2.6055    0.0409    0.1734    3.1230   37.0000   37.0000 
