~VERSION INFORMATION
 VERS.                 2.0:   CWLS LOG ASCII STANDARD - VERSION 2.0
 WRAP.                  NO:   SINGLE LINE PER DEPTH STEP
 CREA.                 01/12/2017 17:02:35
#CREATED USING DSPetro VERSION 5000.10.1.3 BY H191660 ON 01/12/2017 17:02:35
~WELL INFORMATION
#MNEM.UNIT       DATA                          DESCRIPTION MNEMONIC
#---------      ---------------------------   --------------------------
 STRT    .FT        50.4921                   : START DEPTH
 STOP    .FT        8514.9921                 : STOP DEPTH
 STEP    .FT        0.5000                    : STEP VALUE
 NULL    .      -999.0000                     : NULL VALUE
 DATE    .      01/12/2017                    : LAS file Creation Date
 WELL .      UNIVERSITY_42_22_4210540532 : Well Name
 COMP .                                  : Company
 FLD  .      HOLT RANCH (CONSOLIDATED)�  : Field
 UWI  .      224                         : Unique Well Identifier (UWI)
 LOC  .                                  : Location
 RWS  .      -999                        : Def_Rw
 WST  .      -999                        : Def_Rwt
 SRVC .                                  : Contractor
~CURVE INFORMATION
#MNEM              UNIT       API CODE   Curve Type Comments
#----------  --------------- ----------  ---------- -----------
 DEPTH      .FT                        : Depth       
 DEPTH_(m)  .                          :             
 BitSize    .inch                      : BitSize     
 CAL_INCH   .inch                      :             Caliper Log - A representation of the measured diameter of a borehole along its depth
 GR_API     .API                       : GammaRay    Gamma Ray (API) - Measures the intensity of natural gamma-ray radiation emitted from formations containing radioactive elements, such as K, Th and U
 LLD_OHMM   .ohmm                      :             Laterlog Deep Resistivity - Measurement made several feet into the formation; generally considered a measurement of the undisturbed formation
 LLS_OHMM   .ohmm                      :             Laterlog Shallow Resistivity - one to two feet into the formation; generally considered to measure the formation
 RHOB_G_CC  .g/cc                      :             Bulk Density - Measures the density of bulk material, including any void space or other materials contained in the subject volume
 DRHO_G_CC  .g/cc                      :             Density Correction - Investigates the correction to the Bulk Density log; used as an indication of hole condition to validate the Bulk Density measure
 NPHI_v/v   .dec                       : Neutron     
 PEF_B_E    .b/e-                      : PEF         Photoelectric Factor - A log of photoelectric absorption properties. Often expressed in an approximation unit barns/electron (b/e-)
 LITH       .                          : LITH        Lithology Curve
 LITH_v2    .                          : LITH        Lithology Curve
~A  DEPTH DEPTH_(m)  BitSize   CAL_INCH   GR_API   LLD_OHMM  LLS_OHMM RHOB_G_C  DRHO_G_C   NPHI_v/v  PEF_B_E     LITH    LITH_v2  
# ...
8420.4921 2566.5659    7.8750    7.5156   13.0382    8.7152    3.9161    2.7477    0.0225    0.0518    3.2169   12.0000   12.0000 
8420.9921 2566.7185    7.8750    7.4375   12.7857    8.7425    3.6481    2.7603    0.0201    0.0572    3.1250   12.0000   12.0000 
8421.4921 2566.8708    7.8750    7.4844   11.9180   10.2983    4.7951    2.7986    0.0263    0.0634    3.0428   12.0000   12.0000 
8421.9921 2567.0232    7.8750    7.4375   11.2248   12.4513    6.3252    2.8080    0.0278    0.0555    3.0537   12.0000   12.0000 
8422.4921 2567.1755    7.8750    7.4453   11.1927   13.7341    6.9898    2.7690    0.0171    0.0472    3.0875   12.0000   12.0000 
8422.9921 2567.3279    7.8750    7.4375   10.5664   13.8931    6.8302    2.7185    0.0109    0.0483    3.0954   12.0000   12.0000 
8423.4921 2567.4805    7.8750    7.4531   11.7055   13.2686    5.8864    2.7148    0.0114    0.0521    3.0966   12.0000   12.0000 
8423.9921 2567.6328    7.8750    7.4297   13.8422   12.4484    5.6632    2.7600    0.0099    0.0566    3.0784   12.0000   12.0000 
8424.4921 2567.7852    7.8750    7.4688   13.3998   10.7137    5.0712    2.7757    0.0021    0.0566    3.0151   12.0000   12.0000 
8424.9921 2567.9375    7.8750    7.4844   11.1290    8.3410    4.2233    2.7300   -0.0096    0.0620    2.9488   12.0000   12.0000 
8425.4921 2568.0901    7.8750    7.4609   12.2386    6.4497    2.9874    2.6369   -0.0146    0.0826    2.8432   12.0000   12.0000 
8425.9921 2568.2424    7.8750    7.4297   15.5516    5.6548    2.2668    2.5302   -0.0129    0.0967    2.7132   18.0000   18.0000 
8426.4921 2568.3948    7.8750    7.4922   15.7044    5.8297    2.3429    2.5030   -0.0098    0.1383    2.7678   37.0000   12.0000 
8426.9921 2568.5471    7.8750    7.4375   15.6855    6.6604    2.9938    2.5857   -0.0020    0.1716    2.9564   12.0000   12.0000 
8427.4921 2568.6997    7.8750    7.4141   16.2109    6.9115    3.3592    2.6794    0.0071    0.1537    3.0471   12.0000   12.0000 
8427.9921 2568.8521    7.8750    7.3047   16.2141    6.3111    3.0971    2.7082    0.0068    0.0990    3.0872   12.0000   12.0000 
8428.4921 2569.0044    7.8750    7.3672   16.1781    5.1754    2.8018    2.6800    0.0018    0.0970    3.1144   12.0000   12.0000 
8428.9921 2569.1567    7.8750    7.4531   14.4871    4.0439    2.0161    2.6039    0.0049    0.1311    2.9856 -999.0000 -999.0000 
8429.4921 2569.3091    7.8750    7.5625   13.5745    3.5174    1.7275    2.4550    0.0209    0.1590    2.7734 -999.0000 -999.0000 
8429.9921 2569.4617    7.8750    7.5000   13.9504    3.2827    1.5365    2.2352    0.0569    0.1857    2.6478 -999.0000 -999.0000 
8430.4921 2569.6140    7.8750    7.5469 -999.0000    3.2127    1.4000    2.1044    0.0844    0.2251    2.6046 -999.0000 -999.0000 
8430.9921 2569.7664    7.8750    7.5625 -999.0000    3.2726    1.3906    2.1808    0.0587    0.2558    2.6374 -999.0000 -999.0000 
8431.4921 2569.9187    7.8750    7.5078 -999.0000    3.3934    1.4597    2.2914    0.0116    0.3027    2.6647 -999.0000 -999.0000 
8431.9921 2570.0713    7.8750    7.5703 -999.0000    3.6227    1.5071    2.2996   -0.0102    0.2733    2.6277 -999.0000 -999.0000 
8432.4921 2570.2236    7.8750    7.5313 -999.0000    4.1387    1.6341    2.2913   -0.0099    0.2574    2.6426 -999.0000 -999.0000 
8432.9921 2570.3760    7.8750    7.4219 -999.0000    5.2055    1.9306    2.3675    0.0011    0.2351    2.7346 -999.0000 -999.0000 
8433.4921 2570.5283    7.8750    7.4219 -999.0000    6.8989    2.4655    2.5099    0.0196    0.1748    2.8080 -999.0000 -999.0000 
8433.9921 2570.6809    7.8750    7.4141 -999.0000    9.5083    3.2841    2.5911    0.0287    0.1478    2.8529 -999.0000 -999.0000 
8434.4921 2570.8333    7.8750    7.4297 -999.0000   12.6608    4.2439    2.6328    0.0262    0.1248    2.9197 -999.0000 -999.0000 
8434.9921 2570.9856    7.8750    7.4141 -999.0000   15.7820    5.2932    2.7140    0.0300    0.1154    2.9767 -999.0000 -999.0000 
8435.4921 2571.1379    7.8750    7.4141 -999.0000   18.5566    6.0419    2.7492    0.0291    0.0894    3.0114 -999.0000 -999.0000 
8435.9921 2571.2903    7.8750    7.3672 -999.0000   19.5089    6.2112    2.7317    0.0226    0.0773    3.0447 -999.0000 -999.0000 
8436.4921 2571.4429    7.8750    7.3281 -999.0000   18.9819    5.9676    2.7477    0.0245    0.0739    3.0781 -999.0000 -999.0000 
8436.9921 2571.5952    7.8750    7.3828 -999.0000   18.5011    5.8638    2.7821    0.0251    0.0725    3.1438 -999.0000 -999.0000 
8437.4921 2571.7476    7.8750    7.4063 -999.0000   18.1457    5.9274    2.7832    0.0167    0.0739    3.1912 -999.0000 -999.0000 
8437.9921 2571.8999    7.8750    7.4141 -999.0000   19.0819    6.3279    2.7649    0.0126    0.0744    3.1434 -999.0000 -999.0000 
8438.4921 2572.0525    7.8750    7.3438 -999.0000   19.3399    7.2581    2.7414    0.0269    0.0738    3.0534 -999.0000 -999.0000 
8438.9921 2572.2048    7.8750    7.4219 -999.0000   17.1277    7.1798    2.7096    0.0609    0.0754    2.9669 -999.0000 -999.0000 
8439.4921 2572.3572    7.8750    7.1953 -999.0000   13.8306    6.5618    2.6934    0.0859 -999.0000    2.8445 -999.0000 -999.0000 
8439.9921 2572.5095    7.8750    7.1172 -999.0000   10.5767    5.0977    2.7074    0.0724 -999.0000    2.7721 -999.0000 -999.0000 
8440.4921 2572.6621    7.8750    6.9844 -999.0000    8.9176    3.6630    2.7178    0.0455 -999.0000    2.8163 -999.0000 -999.0000 
8440.9921 2572.8145    7.8750    6.7188 -999.0000    9.3093    3.4292    2.6877    0.0278 -999.0000    2.8604 -999.0000 -999.0000 
8441.4921 2572.9668    7.8750    6.7188 -999.0000   12.4017    5.1128    2.6807    0.0209 -999.0000    2.9558 -999.0000 -999.0000 
8441.9921 2573.1191    7.8750    6.4922 -999.0000   18.7495    8.8103    2.7329    0.0303 -999.0000    3.0992 -999.0000 -999.0000 
8442.4921 2573.2715    7.8750    6.2422 -999.0000   29.1092   12.5961    2.7709    0.0418 -999.0000    3.1199 -999.0000 -999.0000 
8442.9921 2573.4241    7.8750    6.0313 -999.0000   37.2166   15.9347    2.7776    0.0440 -999.0000    3.0775 -999.0000 -999.0000 
8443.4921 2573.5764    7.8750    5.8750 -999.0000   35.4255   15.9232    2.7793    0.0396 -999.0000    3.0647 -999.0000 -999.0000 
8443.9921 2573.7288    7.8750    5.7500 -999.0000   32.1432   14.4796    2.7818    0.0291 -999.0000    3.0434 -999.0000 -999.0000 
8444.4921 2573.8811    7.8750    5.8203 -999.0000   29.9609   13.2313    2.7821    0.0163 -999.0000    3.0087 -999.0000 -999.0000 
8444.9921 2574.0337    7.8750    5.7188 -999.0000   29.8899   11.9147    2.7637    0.0135 -999.0000    2.9595 -999.0000 -999.0000 
8445.4921 2574.1860    7.8750    4.9844 -999.0000   32.5244   13.6586    2.7403    0.0202 -999.0000    2.8683 -999.0000 -999.0000 
8445.9921 2574.3384    7.8750    4.5000 -999.0000   33.6023   14.4360    2.7387    0.0176 -999.0000    2.7808 -999.0000 -999.0000 
8446.4921 2574.4907    7.8750    4.5000 -999.0000   33.3139   14.7561    2.7612    0.0052 -999.0000    2.7559 -999.0000 -999.0000 
8446.9921 2574.6433    7.8750    4.5000 -999.0000   31.4825   14.4758    2.7676   -0.0001 -999.0000    2.7701 -999.0000 -999.0000 
8447.4921 2574.7957    7.8750    4.5000 -999.0000   30.7588   12.7505    2.6588    0.0197 -999.0000    2.7818 -999.0000 -999.0000 
8447.9921 2574.9480    7.8750    4.5000 -999.0000   35.1142   16.2744    2.5240    0.1155 -999.0000    2.8339 -999.0000 -999.0000 
8448.4921 2575.1003    7.8750    4.5000 -999.0000   42.6276   20.7923    2.5549    0.2769 -999.0000    2.9394 -999.0000 -999.0000 
8448.9921 2575.2527    7.8750    4.5000 -999.0000   51.6795   26.2160    2.6551    0.3885 -999.0000    2.9879 -999.0000 -999.0000 
8449.4921 2575.4053    7.8750    4.5000 -999.0000   55.0351   27.8632    2.7174    0.4439 -999.0000    2.9684 -999.0000 -999.0000 
8449.9921 2575.5576    7.8750    4.5000 -999.0000   52.6748   26.8569    2.7753    0.5063 -999.0000    2.9135 -999.0000 -999.0000 
8450.4921 2575.7100    7.8750    4.5000 -999.0000   53.4160   26.2898    2.8028    0.5490 -999.0000    2.7833 -999.0000 -999.0000 
8450.9921 2575.8623    7.8750    4.5000 -999.0000   57.5728   30.0047    2.7812    0.5576 -999.0000    2.6201 -999.0000 -999.0000 
