~VERSION INFORMATION
 VERS.                 2.0:   CWLS LOG ASCII STANDARD - VERSION 2.0
 WRAP.                  NO:   SINGLE LINE PER DEPTH STEP
 CREA.                 01/12/2017 17:02:35
#CREATED USING DSPetro VERSION 5000.10.1.3 BY H191660 ON 01/12/2017 17:02:35
~WELL INFORMATION
#MNEM.UNIT       DATA                          DESCRIPTION MNEMONIC
#---------      ---------------------------   --------------------------
 STRT    .FT        50.4921                   : START DEPTH
 STOP    .FT        8514.9921                 : STOP DEPTH
 STEP    .FT        0.5000                    : STEP VALUE
 NULL    .      -999.0000                     : NULL VALUE
 DATE    .      01/12/2017                    : LAS file Creation Date
 WELL .      UNIVERSITY_42_22_4210540532 : Well Name
 COMP .                                  : Company
 FLD  .      HOLT RANCH (CONSOLIDATED)�  : Field
 UWI  .      224                         : Unique Well Identifier (UWI)
 LOC  .                                  : Location
 RWS  .      -999                        : Def_Rw
 WST  .      -999                        : Def_Rwt
 SRVC .                                  : Contractor
~CURVE INFORMATION
#MNEM              UNIT       API CODE   Curve Type Comments
#----------  --------------- ----------  ---------- -----------
 DEPTH      .FT                        : Depth       
 DEPTH_(m)  .                          :             
 BitSize    .inch                      : BitSize     
 CAL_INCH   .inch                      :             Caliper Log - A representation of the measured diameter of a borehole along its depth
 GR_API     .API                       : GammaRay    Gamma Ray (API) - Measures the intensity of natural gamma-ray radiation emitted from formations containing radioactive elements, such as K, Th and U
 LLD_OHMM   .ohmm                      :             Laterlog Deep Resistivity - Measurement made several feet into the formation; generally considered a measurement of the undisturbed formation
 LLS_OHMM   .ohmm                      :             Laterlog Shallow Resistivity - one to two feet into the formation; generally considered to measure the formation
 RHOB_G_CC  .g/cc                      :             Bulk Density - Measures the density of bulk material, including any void space or other materials contained in the subject volume
 DRHO_G_CC  .g/cc                      :             Density Correction - Investigates the correction to the Bulk Density log; used as an indication of hole condition to validate the Bulk Density measure
 NPHI_v/v   .dec                       : Neutron     
 PEF_B_E    .b/e-                      : PEF         Photoelectric Factor - A log of photoelectric absorption properties. Often expressed in an approximation unit barns/electron (b/e-)
 LITH       .                          : LITH        Lithology Curve
 LITH_v2    .                          : LITH        Lithology Curve
~A  DEPTH DEPTH_(m)  BitSize   CAL_INCH   GR_API   LLD_OHMM  LLS_OHMM RHOB_G_C  DRHO_G_C   NPHI_v/v  PEF_B_E     LITH    LITH_v2  
# ...
5041.4921 1536.6469    7.8750    8.1500  107.2555    9.2155    8.0776    2.5398    0.0017    0.1812    3.1532   37.0000   37.0000 
5041.9921 1536.7992    7.8750    8.1969  115.1129    8.7237    7.5509    2.5375    0.0094    0.1922    3.1584   37.0000   37.0000 
5042.4921 1536.9517    7.8750    8.1812  119.8370    8.2078    6.8868    2.5334    0.0117    0.2228    3.1465   37.0000   37.0000 
5042.9921 1537.1040    7.8750    8.2125  117.6195    7.9517    6.5049    2.5156    0.0057    0.2146    3.2061   37.0000   37.0000 
5043.4921 1537.2563    7.8750    8.2203  109.1355    8.2272    6.5871    2.5082    0.0006    0.2047    3.2464   37.0000   37.0000 
5043.9921 1537.4088    7.8750    8.2281  102.0494    8.9438    7.2399    2.5068   -0.0027    0.1914    3.1746   37.0000   37.0000 
5044.4921 1537.5612    7.8750    8.2125  100.2658    9.5194    7.6985    2.5134   -0.0055    0.1801    3.0456   37.0000   37.0000 
5044.9921 1537.7136    7.8750    8.1734   96.9879    9.6152    7.8853    2.5361   -0.0041    0.1725    2.9603   37.0000   37.0000 
5045.4921 1537.8660    7.8750    8.1266   93.7100    9.1040    7.5241    2.5418   -0.0006    0.1627    3.0458   37.0000   37.0000 
5045.9921 1538.0184    7.8750    8.1031  107.4483    8.4584    6.8557    2.5369    0.0026    0.1719    3.2444   37.0000   37.0000 
5046.4921 1538.1708    7.8750    8.1656  115.2093    8.3071    6.4559    2.5444    0.0047    0.1836    3.2870   37.0000   37.0000 
5046.9921 1538.3232    7.8750    8.1734   98.7233    8.8433    6.6051    2.5393   -0.0025    0.1908    3.1120   37.0000   37.0000 
5047.4921 1538.4756    7.8750    8.1500   82.6711   10.1297    7.6624    2.5227   -0.0109    0.1789    3.0398   37.0000   37.0000 
5047.9921 1538.6281    7.8750    8.1187   83.3942   11.8253    9.3131    2.5161   -0.0109    0.1667    3.1765   37.0000   37.0000 
5048.4921 1538.7804    7.8750    8.1031   92.0228   12.3603   10.2399    2.5172   -0.0086    0.1638    3.2704   37.0000   37.0000 
5048.9921 1538.9327    7.8750    8.0719  100.6515   11.1946    9.6917    2.5178   -0.0041    0.1729    3.2218   37.0000   37.0000 
5049.4921 1539.0852    7.8750    8.1109  108.8463    9.3713    8.2191    2.5239    0.0006    0.1684    3.2036   37.0000   37.0000 
5049.9921 1539.2375    7.8750    8.1031  111.9314    7.9226    6.5246    2.5405    0.0046    0.1727    3.2970   37.0000   37.0000 
5050.4921 1539.3900    7.8750    8.1187  105.4237    7.4056    5.8919    2.5482    0.0062    0.1828    3.3476   37.0000   37.0000 
5050.9921 1539.5424    7.8750    8.1578   99.4464    7.6270    5.9240    2.5413    0.0004    0.1803    3.4045   37.0000   37.0000 
5051.4921 1539.6948    7.8750    8.1734   91.8300    8.4520    6.5733    2.5454   -0.0032    0.1659    3.5450   37.0000   37.0000 
5051.9921 1539.8472    7.8750    8.1344   88.2629    9.4363    7.5309    2.5487   -0.0033    0.1665    3.5115   37.0000   37.0000 
5052.4921 1539.9996    7.8750    8.1109  101.1817    9.9608    8.1396    2.5258   -0.0059    0.1762    3.3105   37.0000   37.0000 
5052.9921 1540.1520    7.8750    8.1266  113.8596    9.7705    8.1863    2.5126   -0.0028    0.1976    3.2431   37.0000   37.0000 
5053.4921 1540.3044    7.8750    8.1500  107.4483    9.1522    7.6699    2.5360    0.0036    0.1829    3.3293   37.0000   37.0000 
5053.9921 1540.4568    7.8750    8.1500  105.4237    8.7713    7.2494    2.5559    0.0055    0.1836    3.3268   37.0000   37.0000 
5054.4921 1540.6093    7.8750    8.1734  115.2575    8.7184    7.0829    2.5468    0.0087    0.1832    3.1618   37.0000   37.0000 
5054.9921 1540.7616    7.8750    8.1891  116.1252    8.8034    7.4003    2.5341    0.0157    0.1934    3.0866   37.0000   37.0000 
5055.4921 1540.9139    7.8750    8.2203  112.0278    8.7546    7.4300    2.5309    0.0192    0.2048    3.1483   37.0000   37.0000 
5055.9921 1541.0664    7.8750    8.2047  109.2319    8.5470    7.3724    2.5295    0.0148    0.2207    3.1965   37.0000   37.0000 
5056.4921 1541.2188    7.8750    8.1812  110.1960    8.2616    7.1288    2.5365    0.0099    0.2001    3.2598   37.0000   37.0000 
5056.9921 1541.3712    7.8750    8.1656  116.6072    8.0477    6.9246    2.5449    0.0080    0.2086    3.3117   37.0000   37.0000 
5057.4921 1541.5236    7.8750    8.1969  120.1744    7.9042    6.9500    2.5320    0.0035    0.2056    3.2901   37.0000   37.0000 
5057.9921 1541.6760    7.8750    8.1891  122.7292    7.7097    6.7810    2.5084   -0.0026    0.1875    3.2344   37.0000   37.0000 
5058.4921 1541.8284    7.8750    8.1969  116.3662    7.5499    6.4954    2.4982   -0.0095    0.2168    3.1455   37.0000   37.0000 
5058.9921 1541.9808    7.8750    8.1891  105.4237    7.8369    6.3750    2.4929   -0.0135    0.2076    3.0880   37.0000   37.0000 
5059.4921 1542.1332    7.8750    8.1734   98.2412    9.0114    7.1705    2.4890   -0.0106    0.2064    3.1622   37.0000   37.0000 
5059.9921 1542.2856    7.8750    8.1500   78.2845   11.2728    9.4476    2.5507   -0.0037    0.1900    3.3832   37.0000   37.0000 
5060.4921 1542.4380    7.8750    8.1344   60.3041   13.7210   11.9941    2.6658    0.0035    0.1587    3.7725   37.0000   22.0000 
5060.9921 1542.5905    7.8750    8.0797   66.0887   14.0848   12.9369    2.6660    0.0013    0.1301    3.9580   37.0000   22.0000 
5061.4921 1542.7428    7.8750    8.0406   86.6721   11.7195   11.4908    2.5623   -0.0004    0.1301    3.5837   37.0000   37.0000 
5061.9921 1542.8951    7.8750    8.0797  102.1458    9.2846    8.7553    2.5168    0.0104    0.1521    3.1405   37.0000   37.0000 
5062.4921 1543.0476    7.8750    8.1031  104.8453    7.9074    6.9646    2.5266    0.0136    0.1889    3.0450   37.0000   37.0000 
5062.9921 1543.2000    7.8750    8.1734  103.6884    7.3924    6.4367    2.5220    0.0087    0.2052    3.1154   37.0000   37.0000 
5063.4921 1543.3524    7.8750    8.2125  107.6894    7.3639    6.6237    2.4989    0.0063    0.2273    3.1988   37.0000   37.0000 
5063.9921 1543.5048    7.8750    8.1656  109.0873    7.1803    6.6721    2.5013    0.0017    0.2258    3.2855   37.0000   37.0000 
5064.4921 1543.6572    7.8750    8.1812  108.0750    6.8652    6.2392    2.5351   -0.0028    0.2052    3.3525   37.0000   37.0000 
5064.9921 1543.8096    7.8750    8.2125  108.9909    6.7979    6.0812    2.5454   -0.0097    0.1997    3.3311   37.0000   37.0000 
5065.4921 1543.9620    7.8750    8.2281  115.2575    7.0624    6.3216    2.5282   -0.0141    0.2217    3.2187   37.0000   37.0000 
5065.9921 1544.1144    7.8750    8.2203  114.0042    7.6751    6.9084    2.5122   -0.0088    0.2187    3.1373   37.0000   37.0000 
5066.4921 1544.2668    7.8750    8.1812  110.9673    8.2974    7.5504    2.5063   -0.0067    0.1983    3.0902   37.0000   37.0000 
5066.9921 1544.4192    7.8750    8.1734  120.9939    8.3904    7.5141    2.5214   -0.0093    0.2049    3.0175   37.0000   37.0000 
5067.4921 1544.5717    7.8750    8.1500  124.5128    8.3688    7.1930    2.5385   -0.0074    0.2092    3.0538   37.0000   37.0000 
5067.9921 1544.7240    7.8750    8.1891  115.3539    8.5777    7.1209    2.5309   -0.0073    0.1985    3.1963   37.0000   37.0000 
5068.4921 1544.8763    7.8750    8.1969  102.6279    9.1465    7.4958    2.5110   -0.0135    0.2024    3.2707   37.0000   37.0000 
5068.9921 1545.0288    7.8750    8.2281   99.9284    9.9858    8.2620    2.5016   -0.0135    0.1923    3.2612   37.0000   37.0000 
5069.4921 1545.1812    7.8750    8.2125   97.3253   10.3379    8.5196    2.5077   -0.0090    0.1957    3.2372   37.0000   37.0000 
5069.9921 1545.3336    7.8750    8.1656   94.7223   10.3160    8.4031    2.5229   -0.0112    0.1821    3.2872   37.0000   37.0000 
5070.4921 1545.4860    7.8750    8.1734   98.6269   10.1859    8.1832    2.5227   -0.0129    0.1695    3.3436   37.0000   37.0000 
5070.9921 1545.6384    7.8750    8.1500  100.6033   10.0031    8.0091    2.5081   -0.0118    0.1738    3.2885   37.0000   37.0000 
5071.4921 1545.7908    7.8750    8.1656  108.3160    9.7454    8.0164    2.5061   -0.0106    0.1719    3.2106   37.0000   37.0000 
5071.9921 1545.9432    7.8750    8.1422  116.2216    9.1672    7.6025    2.5154   -0.0081    0.1858    3.1671   37.0000   37.0000 
