~VERSION INFORMATION
 VERS.                 2.0:   CWLS LOG ASCII STANDARD - VERSION 2.0
 WRAP.                  NO:   SINGLE LINE PER DEPTH STEP
 CREA.                 12/04/2017 16:08:09
#CREATED USING DSPetro VERSION 5000.10.1.3 BY H191660 ON 12/04/2017 16:08:09
~WELL INFORMATION
#MNEM.UNIT       DATA                          DESCRIPTION MNEMONIC
#---------      ---------------------------   --------------------------
 STRT    .FT        174.0157                  : START DEPTH
 STOP    .FT        9268.0157                 : STOP DEPTH
 STEP    .FT        0.5000                    : STEP VALUE
 NULL    .      -999.0000                     : NULL VALUE
 DATE    .      12/04/2017                    : LAS file Creation Date
 WELL .      UNIVERSITY_45_8_4210540952 : Well Name
 COMP .                                 : Company
 FLD  .      WILDCAT (7C)               : Field
 UWI  .      X495988                    : Unique Well Identifier (UWI)
 LOC  .                                 : Location
 RWS  .      -999                       : Def_Rw
 WST  .      -999                       : Def_Rwt
 SRVC .                                 : Contractor
~CURVE INFORMATION
#MNEM              UNIT       API CODE   Curve Type Comments
#----------  --------------- ----------  ---------- -----------
 DEPTH      .FT                        : Depth       
 DEPTH_(m)  .                          :             
 BitSize    .in                        : bitSize     
 CAL_INCH   .inch                      :             Caliper Log - A representation of the measured diameter of a borehole along its depth
 GR_API     .API                       : GammaRay    Gamma Ray (API) - Measures the intensity of natural gamma-ray radiation emitted from formations containing radioactive elements, such as K, Th and U
 LLD_OHMM   .ohmm                      :             Laterlog Deep Resistivity - Measurement made several feet into the formation; generally considered a measurement of the undisturbed formation
 LLS_OHMM   .ohmm                      :             Laterlog Shallow Resistivity - one to two feet into the formation; generally considered to measure the formation
 MSFL_OHMM  .ohmm                      :             Micro-Spherically Focused Log - Measurement involves only the first few inches of the formation immediately adjacent to the borehole
 RHOB_G_CC  .g/cc                      :             Bulk Density - Measures the density of bulk material, including any void space or other materials contained in the subject volume
 DRHO_G_CC  .g/cc                      :             Density Correction - Investigates the correction to the Bulk Density log; used as an indication of hole condition to validate the Bulk Density measure
 NPHI_v/v   .PC                        : Neutron     Neutron Porosity - Measured with an neutron logging device calibrated to a given matrix (limestone, sandstone and dolomite)
 PEF_B_E    .b/e-                      : PEF         Photoelectric Factor - A log of photoelectric absorption properties. Often expressed in an approximation unit barns/electron (b/e-)
 LITH       .                          : LITH        Lithology Curve
 LITH_v2    .                          : LITH        Lithology Curve
~A  DEPTH DEPTH_(m)  BitSize   CAL_INCH   GR_API   LLD_OHMM  LLS_OHMM MSFL_OHM  RHOB_G_C  DRHO_G_C   NPHI_v/v  PEF_B_E     LITH    LITH_v2  
# ...
5731.5157 1746.9659    7.8750    7.7901  134.6841   15.2636   14.4615    8.1316    2.5196    0.0046    0.1999    3.2768   37.0000   37.0000 
5732.0157 1747.1184    7.8750    7.7939  131.7482   14.8591   14.2361    8.2982    2.5065    0.0008    0.2033    3.1045   37.0000   37.0000 
5732.5157 1747.2708    7.8750    7.7976  120.8638   14.2560   13.9480   10.1639    2.5141   -0.0027    0.1847    2.8842   37.0000   37.0000 
5733.0157 1747.4232    7.8750    7.8051  117.4424   14.3098   14.0192   11.3427    2.5189   -0.0047    0.1871    2.8182   37.0000   37.0000 
5733.5157 1747.5756    7.8750    7.7976  117.4872   12.2881   12.5890    8.5051    2.5132   -0.0099    0.2025    2.9545   37.0000   37.0000 
5734.0157 1747.7280    7.8750    7.7963  124.9875   11.5205   10.7814    6.0013    2.5095   -0.0086    0.2167    3.1482   37.0000   37.0000 
5734.5157 1747.8804    7.8750    7.7989  127.7067   11.2180   10.8883    6.7624    2.5163   -0.0063    0.2295    3.1667   37.0000   37.0000 
5735.0157 1748.0328    7.8750    7.7943  120.7966   12.1279   10.9608    8.0363    2.5342   -0.0041    0.1991    3.0519   37.0000   37.0000 
5735.5157 1748.1852    7.8750    7.7968  115.0294   13.9088   12.6801   11.0083    2.5520   -0.0017    0.2016    2.9845   37.0000   37.0000 
5736.0157 1748.3376    7.8750    7.7938  117.0987   15.0892   16.6803   11.2740    2.5468    0.0005    0.2061    3.0272   37.0000   37.0000 
5736.5157 1748.4900    7.8750    7.7885  121.0954   13.9572   14.7606    9.1247    2.5354    0.0025    0.2022    3.1508   37.0000   37.0000 
5737.0157 1748.6425    7.8750    7.7775  121.9395   14.2945   14.6356    6.9415    2.5338    0.0030    0.2058    3.2883   37.0000   37.0000 
5737.5157 1748.7948    7.8750    7.7820  122.4027   14.2064   14.7941    8.5781    2.5314    0.0036    0.2078    3.3428   37.0000   37.0000 
5738.0157 1748.9471    7.8750    7.7877  121.4988   14.0028   15.4591   12.2804    2.5300    0.0053    0.1788    3.3019   37.0000   37.0000 
5738.5157 1749.0996    7.8750    7.7949  118.4359   13.2647   14.8075   10.0296    2.5335    0.0044    0.1710    3.2224   37.0000   37.0000 
5739.0157 1749.2520    7.8750    7.8002  118.9962   11.3292   11.6050    6.7218    2.5255    0.0039    0.1862    3.1853   37.0000   37.0000 
5739.5157 1749.4044    7.8750    7.8018  125.1518   10.3188   10.1206    5.3769    2.5052    0.0046    0.1966    3.2367   37.0000   37.0000 
5740.0157 1749.5568    7.8750    7.8008  128.2969   10.6640    9.7138    6.0860    2.5046    0.0050    0.1892    3.2668   37.0000   37.0000 
5740.5157 1749.7092    7.8750    7.8094  122.4998   13.4719   12.3573   10.0613    2.5275    0.0071    0.1982    3.1697   37.0000   37.0000 
5741.0157 1749.8616    7.8750    7.7743  114.8426   14.8684   15.8334   14.6650    2.5392    0.0094    0.1929    3.0853   37.0000   37.0000 
5741.5157 1750.0140    7.8750    7.7452  103.9209   14.5785   14.9836   12.5359    2.5558    0.0118    0.1694    3.1890   37.0000   37.0000 
5742.0157 1750.1664    7.8750    7.7496   88.4945   13.6268   14.4946    7.0333    2.6054    0.0134    0.1448    3.4375   37.0000   37.0000 
5742.5157 1750.3188    7.8750    7.7541   80.4937   11.9040   11.9521    6.1745    2.6280    0.0098    0.1271    3.6175   37.0000   37.0000 
5743.0157 1750.4712    7.8750    7.7624   91.1316   12.4107   12.6184    7.7320    2.5910    0.0056    0.1437    3.4895   37.0000   37.0000 
5743.5157 1750.6237    7.8750    7.7673   99.5134   13.8726   13.6887    7.5698    2.5658    0.0045    0.1627    3.3241   37.0000   37.0000 
5744.0157 1750.7760    7.8750    7.7434  111.2718   21.6760   21.2957   11.5473    2.5230   -0.0016    0.1958    3.0057   37.0000   37.0000 
5744.5157 1750.9283    7.8750    7.7423  110.4874   34.7013   32.8508   21.4493    2.5129    0.0026    0.2068    3.0552   37.0000   37.0000 
5745.0157 1751.0808    7.8750    7.7404  104.0330   69.0769   69.3183   48.8829    2.5195    0.0125    0.1830    3.1260   37.0000   37.0000 
5745.5157 1751.2332    7.8750    7.7313   99.3565   98.9923   95.3377  101.8261    2.5385    0.0173    0.1685    3.2082   37.0000   37.0000 
5746.0157 1751.3856    7.8750    7.7167   75.9442  185.4990  327.7144  332.8906    2.6654    0.0117    0.1359    3.9743   22.0000   12.0000 
5746.5157 1751.5380    7.8750    7.7165   56.1476   84.2104  138.3573   86.3917    2.7557    0.0003    0.1145    4.5482   22.0000   12.0000 
5747.0157 1751.6904    7.8750    7.7217   40.1684   43.8535   45.9441   25.6120    2.7911   -0.0045    0.0931    4.6515   12.0000   12.0000 
5747.5157 1751.8428    7.8750    7.7176   33.2359   27.2812   26.8546   15.2043    2.7887   -0.0093    0.0839    4.5270   12.0000   12.0000 
5748.0157 1751.9952    7.8750    7.7366   44.3593   20.8689   19.2298   10.6405    2.7347   -0.0214    0.0902    4.3965   12.0000   12.0000 
5748.5157 1752.1476    7.8750    7.7500   70.0799   15.6585   13.5196    9.9626    2.6330   -0.0292    0.1137    3.9449   22.0000   37.0000 
5749.0157 1752.3000    7.8750    7.7553   89.3685   14.0825   12.7663    9.0066    2.5420   -0.0246    0.1687    3.2441   37.0000   37.0000 
5749.5157 1752.4524    7.8750    7.7525  100.8730   12.7203   12.0990    7.6316    2.4971   -0.0130    0.2000    2.8462   37.0000   37.0000 
5750.0157 1752.6049    7.8750    7.7570  109.8972   12.7445   12.3908    6.6012    2.4933   -0.0021    0.2138    2.8797   37.0000   37.0000 
5750.5157 1752.7572    7.8750    7.7552  111.8395   13.4542   12.3387    7.3257    2.5086    0.0034    0.2040    3.0696   37.0000   37.0000 
5751.0157 1752.9095    7.8750    7.7516  108.0446   14.1297   14.2675   10.0763    2.5182    0.0037    0.1963    3.1276   37.0000   37.0000 
5751.5157 1753.0620    7.8750    7.7430  107.1033   14.5750   14.7427   10.2808    2.5132    0.0030    0.1897    3.0434   37.0000   37.0000 
5752.0157 1753.2144    7.8750    7.7305  108.4181   13.6751   13.3539    9.5546    2.5228    0.0064    0.1850    3.0607   37.0000   37.0000 
5752.5157 1753.3668    7.8750    7.7477  112.6389   12.0305   12.4199    7.6645    2.5458    0.0109    0.1829    3.2030   37.0000   37.0000 
5753.0157 1753.5192    7.8750    7.7538  123.1199    9.5388    9.5011    6.4303    2.5448    0.0136    0.1841    3.3267   37.0000   37.0000 
5753.5157 1753.6716    7.8750    7.7576  126.9074    8.5768    8.7930    5.4634    2.5373    0.0168    0.1922    3.3239   37.0000   37.0000 
5754.0157 1753.8240    7.8750    7.7839  116.0603    8.4289    8.1187    4.3856    2.5495    0.0180    0.1924    3.1701   37.0000   37.0000 
5754.5157 1753.9764    7.8750    7.7676  104.9444    9.3831    8.5499    5.4087    2.5750    0.0186    0.1769    3.0648   37.0000   37.0000 
5755.0157 1754.1288    7.8750    7.7667  104.8921   11.0334   10.6431    8.6482    2.5916    0.0207    0.1709    3.0669   37.0000   37.0000 
5755.5157 1754.2813    7.8750    7.7723  104.2048   13.0105   13.4485   11.1225    2.5822    0.0194    0.1737    3.0508   37.0000   37.0000 
5756.0157 1754.4336    7.8750    7.7720  101.4258   13.8151   14.6839   10.6364    2.5740    0.0181    0.1784    3.0731   37.0000   37.0000 
5756.5157 1754.5861    7.8750    7.7641   99.7076   12.1982   12.1784    7.6436    2.5552    0.0188    0.1620    3.2458   37.0000   37.0000 
5757.0157 1754.7384    7.8750    7.7693  103.9358   11.5410   11.3646    6.8420    2.5505    0.0186    0.1699    3.2580   37.0000   37.0000 
5757.5157 1754.8907    7.8750    7.7717  110.8908   11.1504   10.9464    7.8705    2.5514    0.0169    0.1930    3.1936   37.0000   37.0000 
5758.0157 1755.0432    7.8750    7.7714  117.4797   10.8380   10.4660    8.1553    2.5516    0.0151    0.2027    3.1861   37.0000   37.0000 
5758.5157 1755.1956    7.8750    7.7686  126.9671   12.7223   11.9080    8.0660    2.5499    0.0072    0.2024    3.2871   37.0000   37.0000 
5759.0157 1755.3480    7.8750    7.7653  113.6549   12.5522   12.8274    9.0798    2.5544    0.0047    0.1884    3.2828   37.0000   37.0000 
5759.5157 1755.5004    7.8750    7.7620  107.2228   11.5830   12.3206    9.7603    2.5576    0.0069    0.1817    3.2217   37.0000   37.0000 
