~VERSION INFORMATION
 VERS.                 2.0:   CWLS LOG ASCII STANDARD - VERSION 2.0
 WRAP.                  NO:   SINGLE LINE PER DEPTH STEP
 CREA.                 01/12/2017 17:02:35
#CREATED USING DSPetro VERSION 5000.10.1.3 BY H191660 ON 01/12/2017 17:02:35
~WELL INFORMATION
#MNEM.UNIT       DATA                          DESCRIPTION MNEMONIC
#---------      ---------------------------   --------------------------
 STRT    .FT        50.4921                   : START DEPTH
 STOP    .FT        8514.9921                 : STOP DEPTH
 STEP    .FT        0.5000                    : STEP VALUE
 NULL    .      -999.0000                     : NULL VALUE
 DATE    .      01/12/2017                    : LAS file Creation Date
 WELL .      UNIVERSITY_42_22_4210540532 : Well Name
 COMP .                                  : Company
 FLD  .      HOLT RANCH (CONSOLIDATED)�  : Field
 UWI  .      224                         : Unique Well Identifier (UWI)
 LOC  .                                  : Location
 RWS  .      -999                        : Def_Rw
 WST  .      -999                        : Def_Rwt
 SRVC .                                  : Contractor
~CURVE INFORMATION
#MNEM              UNIT       API CODE   Curve Type Comments
#----------  --------------- ----------  ---------- -----------
 DEPTH      .FT                        : Depth       
 DEPTH_(m)  .                          :             
 BitSize    .inch                      : BitSize     
 CAL_INCH   .inch                      :             Caliper Log - A representation of the measured diameter of a borehole along its depth
 GR_API     .API                       : GammaRay    Gamma Ray (API) - Measures the intensity of natural gamma-ray radiation emitted from formations containing radioactive elements, such as K, Th and U
 LLD_OHMM   .ohmm                      :             Laterlog Deep Resistivity - Measurement made several feet into the formation; generally considered a measurement of the undisturbed formation
 LLS_OHMM   .ohmm                      :             Laterlog Shallow Resistivity - one to two feet into the formation; generally considered to measure the formation
 RHOB_G_CC  .g/cc                      :             Bulk Density - Measures the density of bulk material, including any void space or other materials contained in the subject volume
 DRHO_G_CC  .g/cc                      :             Density Correction - Investigates the correction to the Bulk Density log; used as an indication of hole condition to validate the Bulk Density measure
 NPHI_v/v   .dec                       : Neutron     
 PEF_B_E    .b/e-                      : PEF         Photoelectric Factor - A log of photoelectric absorption properties. Often expressed in an approximation unit barns/electron (b/e-)
 LITH       .                          : LITH        Lithology Curve
 LITH_v2    .                          : LITH        Lithology Curve
~A  DEPTH DEPTH_(m)  BitSize   CAL_INCH   GR_API   LLD_OHMM  LLS_OHMM RHOB_G_C  DRHO_G_C   NPHI_v/v  PEF_B_E     LITH    LITH_v2  
# ...
3770.4921 1149.2460    7.8750    8.5094  108.7017    5.1300    4.8635    2.4186   -0.0142    0.2747    2.7380   37.0000   37.0000 
3770.9921 1149.3984    7.8750    8.5250  108.4606    4.8343    4.6472    2.4223   -0.0212    0.2466    2.8642   37.0000   37.0000 
3771.4921 1149.5508    7.8750    8.5484  108.5088    4.5162    4.3404    2.4192   -0.0169    0.2602    2.9675   37.0000   37.0000 
3771.9921 1149.7032    7.8750    8.6187   99.4946    4.2308    4.0037    2.4245   -0.0131    0.2524    3.0718   37.0000   37.0000 
3772.4921 1149.8556    7.8750    8.5875   96.3613    4.0573    3.7303    2.4410   -0.0114    0.2814    3.1901   37.0000   37.0000 
3772.9921 1150.0081    7.8750    8.5641  108.9909    4.0574    3.6579    2.4505   -0.0085    0.2853    3.1650   37.0000   37.0000 
3773.4921 1150.1604    7.8750    8.5875  116.9447    4.1914    3.7298    2.4405   -0.0068    0.2795    2.9577   37.0000   37.0000 
3773.9921 1150.3127    7.8750    8.5875  116.1252    4.4020    3.9116    2.4283   -0.0072    0.2984    2.8509   37.0000   37.0000 
3774.4921 1150.4652    7.8750    8.5797  121.4759    4.5937    4.1287    2.4305   -0.0071    0.3133    2.9325   37.0000   37.0000 
3774.9921 1150.6176    7.8750    8.6031  125.0431    4.6921    4.1935    2.4292   -0.0066    0.2838    2.9443   37.0000   37.0000 
3775.4921 1150.7700    7.8750    8.6109  121.2349    4.6833    4.1710    2.4155   -0.0063    0.2648    2.9191   37.0000   37.0000 
3775.9921 1150.9224    7.8750    8.5875  121.1867    4.5938    4.0868    2.4146   -0.0050    0.2714    3.0202   37.0000   37.0000 
3776.4921 1151.0748    7.8750    8.6109  118.5354    4.5748    3.9591    2.4223   -0.0027    0.2955    3.0752   37.0000   37.0000 
3776.9921 1151.2272    7.8750    8.6344  110.2442    4.8271    4.0499    2.4259    0.0030    0.2841    2.9668   37.0000   37.0000 
3777.4921 1151.3796    7.8750    8.5719  103.9776    5.3975    4.5307    2.4452    0.0114    0.2770    2.8748   37.0000   37.0000 
3777.9921 1151.5320    7.8750    8.5406   82.4783    6.2875    5.3680    2.4938    0.0211    0.2755    3.0185   37.0000   37.0000 
3778.4921 1151.6844    7.8750    8.4391   63.8713    7.0164    6.2239    2.5348    0.0338    0.2341    3.3720   37.0000   37.0000 
3778.9921 1151.8368    7.8750    8.4156   68.9328    7.0011    6.3133    2.5199    0.0482    0.2154    3.4985   37.0000   37.0000 
3779.4921 1151.9893    7.8750    8.4234   83.4906    6.4105    5.9239    2.4764    0.0556    0.2336    3.2112   37.0000   37.0000 
3779.9921 1152.1416    7.8750    8.4937   98.9161    5.6359    5.1531    2.4447    0.0441    0.2751    2.9917   37.0000   37.0000 
3780.4921 1152.2939    7.8750    8.5641  110.9673    5.0766    4.5676    2.4251    0.0229    0.3104    3.0609   37.0000   37.0000 
3780.9921 1152.4464    7.8750    8.6109  108.4606    4.8046    4.3326    2.4122    0.0079    0.2990    3.1127   37.0000   37.0000 
3781.4921 1152.5988    7.8750    8.6187   97.1807    4.5979    4.1515    2.4123    0.0005    0.2852    3.0787   37.0000   37.0000 
3781.9921 1152.7512    7.8750    8.6422   94.5777    4.4270    4.0352    2.4297   -0.0022    0.3048    3.0927   37.0000   37.0000 
3782.4921 1152.9036    7.8750    8.6656   98.7233    4.2871    3.8772    2.4404   -0.0051    0.3024    3.0485   37.0000   37.0000 
3782.9921 1153.0560    7.8750    8.6812  101.5192    4.1881    3.7860    2.4433   -0.0079    0.2684    2.9294   37.0000   37.0000 
3783.4921 1153.2084    7.8750    8.6969  102.5315    4.2194    3.6983    2.4541   -0.0075    0.2800    2.9289   37.0000   37.0000 
3783.9921 1153.3608    7.8750    8.7125  106.8699    4.3534    3.8113    2.4611   -0.0058    0.2760    3.0046   37.0000   37.0000 
3784.4921 1153.5132    7.8750    8.7359  112.3652    4.5356    4.0300    2.4612   -0.0048    0.2797    3.0664   37.0000   37.0000 
3784.9921 1153.6656    7.8750    8.7125  107.1591    4.6694    4.1451    2.4772   -0.0010    0.2542    3.2369   37.0000   37.0000 
3785.4921 1153.8180    7.8750    8.6891  101.6638    4.6038    4.1175    2.4996    0.0045    0.2646    3.4455   37.0000   37.0000 
3785.9921 1153.9705    7.8750    8.6422  103.3509    4.3554    3.9111    2.4924    0.0076    0.2684    3.4070   37.0000   37.0000 
3786.4921 1154.1228    7.8750    8.6969  101.1335    4.0356    3.6341    2.4720    0.0103    0.2727    3.1990   37.0000   37.0000 
3786.9921 1154.2751    7.8750    8.7047   93.1797    3.8143    3.4177    2.4659    0.0138    0.2789    3.0814   37.0000   37.0000 
3787.4921 1154.4276    7.8750    8.7125   91.7818    3.8213    3.3682    2.4585    0.0143    0.2812    3.0950   37.0000   37.0000 
3787.9921 1154.5800    7.8750    8.7203   96.9397    4.1286    3.6710    2.4482    0.0114    0.2928    3.1878   37.0000   37.0000 
3788.4921 1154.7324    7.8750    8.6734  111.1601    4.6548    4.1740    2.4518    0.0109    0.3157    3.2401   37.0000   37.0000 
3788.9921 1154.8848    7.8750    8.6734  120.5118    5.1869    4.8121    2.4611    0.0121    0.2839    3.2742   37.0000   37.0000 
3789.4921 1155.0372    7.8750    8.6500  109.9068    5.3896    5.1173    2.4706    0.0116    0.2701    3.3165   37.0000   37.0000 
3789.9921 1155.1896    7.8750    8.6109  108.7981    5.0867    4.9792    2.4750    0.0101    0.2554    3.2059   37.0000   37.0000 
3790.4921 1155.3420    7.8750    8.6031  120.5118    4.5179    4.4384    2.4571    0.0117    0.2417    3.0373   37.0000   37.0000 
3790.9921 1155.4944    7.8750    8.6187  118.4872    4.0433    3.8550    2.4345    0.0128    0.2587    2.9765   37.0000   37.0000 
3791.4921 1155.6469    7.8750    8.6578  111.4011    3.8807    3.6100    2.4210    0.0065    0.3055    2.9499   37.0000   37.0000 
3791.9921 1155.7992    7.8750    8.6812  118.5354    4.0671    3.7496    2.4032    0.0022    0.3060    2.9272   37.0000   37.0000 
3792.4921 1155.9517    7.8750    8.6500  131.1651    4.5178    4.2030    2.4100    0.0050    0.3005    2.9305   37.0000   37.0000 
3792.9921 1156.1040    7.8750    8.6578  128.4656    4.9839    4.7914    2.4530    0.0061    0.2733    2.9693   37.0000   37.0000 
3793.4921 1156.2563    7.8750    8.5250  114.1006    5.1729    4.9521    2.4825    0.0048    0.2611    3.0384   37.0000   37.0000 
3793.9921 1156.4088    7.8750    8.5953  112.6062    5.1735    4.8102    2.4724    0.0068    0.2520    3.0951   37.0000   37.0000 
3794.4921 1156.5612    7.8750    8.5719  113.1365    5.2243    4.7262    2.4486    0.0131    0.2658    3.1162   37.0000   37.0000 
3794.9921 1156.7136    7.8750    8.5562   97.5182    5.3481    4.7209    2.4395    0.0188    0.2782    3.1018   37.0000   37.0000 
3795.4921 1156.8660    7.8750    8.5328   74.3799    5.6281    4.9840    2.4757    0.0193    0.2591    3.2387   37.0000   37.0000 
3795.9921 1157.0184    7.8750    8.5250   62.8108    5.8444    5.2861    2.5462    0.0201    0.2319    3.5651   37.0000   37.0000 
3796.4921 1157.1708    7.8750    8.4469   82.0444    5.7829    5.2144    2.5504    0.0331    0.2081    3.5894   37.0000   22.0000 
3796.9921 1157.3232    7.8750    8.4937  105.6648    5.6197    5.1899    2.5027    0.0491    0.2323    3.2318   37.0000   37.0000 
3797.4921 1157.4756    7.8750    8.5250  110.7263    5.3455    4.9611    2.4800    0.0411    0.2815    2.9839   37.0000   37.0000 
3797.9921 1157.6281    7.8750    8.5641  114.1970    5.0011    4.8193    2.4508    0.0224    0.2845    2.9363   37.0000   37.0000 
3798.4921 1157.7804    7.8750    8.5875  107.1109    4.6855    4.6808    2.4220    0.0209    0.2747    2.9526   37.0000   37.0000 
3798.9921 1157.9327    7.8750    8.6187   94.4813    4.3805    4.3309    2.4270    0.0235    0.2982    2.9987   37.0000   37.0000 
3799.4921 1158.0852    7.8750    8.6422   92.8905    4.2194    4.0998    2.4488    0.0188    0.2915    2.9955   37.0000   37.0000 
3799.9921 1158.2375    7.8750    8.6656  101.7120    4.2733    4.0639    2.4595    0.0137    0.2845    2.9304   37.0000   37.0000 
3800.4921 1158.3900    7.8750    8.7125  121.7169    4.4925    4.1857    2.4551    0.0105    0.2873    2.8991   37.0000   37.0000 
3800.9921 1158.5424    7.8750    8.6656  122.3918    4.7325    4.4580    2.4556    0.0078    0.2925    3.0206   37.0000   37.0000 
