~VERSION INFORMATION
 VERS.                 2.0:   CWLS LOG ASCII STANDARD - VERSION 2.0
 WRAP.                  NO:   SINGLE LINE PER DEPTH STEP
 CREA.                 01/12/2017 17:02:35
#CREATED USING DSPetro VERSION 5000.10.1.3 BY H191660 ON 01/12/2017 17:02:35
~WELL INFORMATION
#MNEM.UNIT       DATA                          DESCRIPTION MNEMONIC
#---------      ---------------------------   --------------------------
 STRT    .FT        50.4921                   : START DEPTH
 STOP    .FT        8514.9921                 : STOP DEPTH
 STEP    .FT        0.5000                    : STEP VALUE
 NULL    .      -999.0000                     : NULL VALUE
 DATE    .      01/12/2017                    : LAS file Creation Date
 WELL .      UNIVERSITY_42_22_4210540532 : Well Name
 COMP .                                  : Company
 FLD  .      HOLT RANCH (CONSOLIDATED)�  : Field
 UWI  .      224                         : Unique Well Identifier (UWI)
 LOC  .                                  : Location
 RWS  .      -999                        : Def_Rw
 WST  .      -999                        : Def_Rwt
 SRVC .                                  : Contractor
~CURVE INFORMATION
#MNEM              UNIT       API CODE   Curve Type Comments
#----------  --------------- ----------  ---------- -----------
 DEPTH      .FT                        : Depth       
 DEPTH_(m)  .                          :             
 BitSize    .inch                      : BitSize     
 CAL_INCH   .inch                      :             Caliper Log - A representation of the measured diameter of a borehole along its depth
 GR_API     .API                       : GammaRay    Gamma Ray (API) - Measures the intensity of natural gamma-ray radiation emitted from formations containing radioactive elements, such as K, Th and U
 LLD_OHMM   .ohmm                      :             Laterlog Deep Resistivity - Measurement made several feet into the formation; generally considered a measurement of the undisturbed formation
 LLS_OHMM   .ohmm                      :             Laterlog Shallow Resistivity - one to two feet into the formation; generally considered to measure the formation
 RHOB_G_CC  .g/cc                      :             Bulk Density - Measures the density of bulk material, including any void space or other materials contained in the subject volume
 DRHO_G_CC  .g/cc                      :             Density Correction - Investigates the correction to the Bulk Density log; used as an indication of hole condition to validate the Bulk Density measure
 NPHI_v/v   .dec                       : Neutron     
 PEF_B_E    .b/e-                      : PEF         Photoelectric Factor - A log of photoelectric absorption properties. Often expressed in an approximation unit barns/electron (b/e-)
 LITH       .                          : LITH        Lithology Curve
 LITH_v2    .                          : LITH        Lithology Curve
~A  DEPTH DEPTH_(m)  BitSize   CAL_INCH   GR_API   LLD_OHMM  LLS_OHMM RHOB_G_C  DRHO_G_C   NPHI_v/v  PEF_B_E     LITH    LITH_v2  
# ...
6746.4921 2056.3308    7.8750    8.1187   99.4946    9.1555    8.4670    2.5554   -0.0004    0.1300    3.0487   37.0000   37.0000 
6746.9921 2056.4832    7.8750    8.1422  107.9786    9.9185    9.1957    2.5693    0.0021    0.1288    3.0660   37.0000   37.0000 
6747.4921 2056.6355    7.8750    8.0875  115.4503   10.5305    9.6331    2.5880    0.0096    0.1426    3.2214   37.0000   37.0000 
6747.9921 2056.7881    7.8750    8.1109  108.7499   10.8950   10.2491    2.6104    0.0115    0.1446    3.4097   37.0000   37.0000 
6748.4921 2056.9404    7.8750    8.1031  116.0770   10.2745    9.8529    2.6199    0.0136    0.1196    3.3704   37.0000   37.0000 
6748.9921 2057.0928    7.8750    8.0719  119.8852    9.5314    9.1673    2.5887    0.0160    0.1268    3.2054   37.0000   37.0000 
6749.4921 2057.2451    7.8750    8.1187  108.3642    8.9101    8.3675    2.5517    0.0118    0.1511    3.0929   37.0000   37.0000 
6749.9921 2057.3977    7.8750    8.1422  102.9171    8.4634    7.7748    2.5553    0.0083    0.1342    2.9684   37.0000   37.0000 
6750.4921 2057.5500    7.8750    8.1812  110.5816    8.2528    7.5474    2.5723    0.0061    0.1394    2.9904   37.0000   37.0000 
6750.9921 2057.7024    7.8750    8.1344  110.9673    8.0712    7.2379    2.5656    0.0032    0.1448    3.1578   37.0000   37.0000 
6751.4921 2057.8547    7.8750    8.1734  115.3539    7.7402    6.8294    2.5544    0.0066    0.1528    3.1798   37.0000   37.0000 
6751.9921 2058.0071    7.8750    8.1812  123.9826    7.4930    6.4648    2.5545    0.0105    0.1566    3.1299   37.0000   37.0000 
6752.4921 2058.1597    7.8750    8.2047  116.7037    7.6609    6.6250    2.5428    0.0021    0.1787    3.1007   37.0000   37.0000 
6752.9921 2058.3120    7.8750    8.1812  105.1827    8.0203    7.1621    2.5348   -0.0077    0.1575    3.0201   37.0000   37.0000 
6753.4921 2058.4644    7.8750    8.2125   93.7100    8.3779    7.6396    2.5438   -0.0049    0.1473    2.9721   37.0000   37.0000 
6753.9921 2058.6167    7.8750    8.1734   96.0238    8.4664    7.8388    2.5395   -0.0022    0.1459    2.9766   37.0000   37.0000 
6754.4921 2058.7693    7.8750    8.1344  112.2688    8.1496    7.4570    2.5275   -0.0038    0.1536    2.9986   37.0000   37.0000 
6754.9921 2058.9216    7.8750    8.1969  120.9457    7.7075    6.8905    2.5297   -0.0027    0.1626    3.0313   37.0000   37.0000 
6755.4921 2059.0740    7.8750    8.2125  119.9334    7.4950    6.5569    2.5359   -0.0047    0.1750    2.9979   37.0000   37.0000 
6755.9921 2059.2263    7.8750    8.1500  114.5826    7.4364    6.5024    2.5414   -0.0067    0.1746    2.9224   37.0000   37.0000 
6756.4921 2059.3789    7.8750    8.2125  102.5797    7.5368    6.5025    2.5514   -0.0047    0.1640    2.9219   37.0000   37.0000 
6756.9921 2059.5313    7.8750    8.2047   95.9756    7.6462    6.5578    2.5615   -0.0038    0.1491    2.9223   37.0000   37.0000 
6757.4921 2059.6836    7.8750    8.1812   98.0966    7.5938    6.4401    2.5684   -0.0012    0.1508    2.8555   37.0000   37.0000 
6757.9921 2059.8359    7.8750    8.1891   98.7233    7.4210    6.2449    2.5618   -0.0009    0.1599    2.8233   37.0000   37.0000 
6758.4921 2059.9883    7.8750    8.2281  105.3273    7.2618    6.1636    2.5373   -0.0044    0.1703    2.8835   37.0000   37.0000 
6758.9921 2060.1409    7.8750    8.1969  119.4513    7.1435    6.1146    2.5219   -0.0020    0.1759    3.0188   37.0000   37.0000 
6759.4921 2060.2932    7.8750    8.2359  125.6697    7.0331    6.0964    2.5370    0.0016    0.1844    3.0639   37.0000   37.0000 
6759.9921 2060.4456    7.8750    8.1578  119.0175    6.8786    5.9640    2.5515    0.0073    0.1876    2.9712   37.0000   37.0000 
6760.4921 2060.5979    7.8750    8.1734  114.9683    6.6634    5.8682    2.5457    0.0163    0.1680    2.9506   37.0000   37.0000 
6760.9921 2060.7505    7.8750    8.2203  120.9457    6.4665    5.6148    2.5448    0.0134    0.1724    3.0087   37.0000   37.0000 
6761.4921 2060.9028    7.8750    8.1891  138.0583    6.3522    5.5388    2.5538    0.0071    0.1891    3.0295   37.0000   37.0000 
6761.9921 2061.0552    7.8750    8.2281  151.0254    6.3225    5.5623    2.5622    0.0117    0.1917    3.0517   37.0000   37.0000 
6762.4921 2061.2075    7.8750    8.2359  150.6398    6.4616    5.6353    2.5629    0.0146    0.1671    3.0516   37.0000   37.0000 
6762.9921 2061.3601    7.8750    8.1812  131.2615    6.7118    5.8121    2.5676    0.0134    0.1586    2.9156   37.0000   37.0000 
6763.4921 2061.5125    7.8750    8.1656  110.0514    6.9273    6.0790    2.5897    0.0169    0.1487    2.7541   37.0000   37.0000 
6763.9921 2061.6648    7.8750    8.1578  113.9560    7.0459    6.3014    2.5958    0.0217    0.1400    2.7500   37.0000   37.0000 
6764.4921 2061.8171    7.8750    8.1734  121.5723    6.9304    6.2500    2.5805    0.0229    0.1435    2.8256   37.0000   37.0000 
6764.9921 2061.9695    7.8750    8.1500  117.9570    6.8199    6.1106    2.5763    0.0193    0.1465    2.8427   37.0000   37.0000 
6765.4921 2062.1221    7.8750    8.1656  108.8945    6.7625    5.8753    2.5767    0.0140    0.1538    2.8191   37.0000   37.0000 
6765.9921 2062.2744    7.8750    8.1812  104.0258    6.8039    5.9265    2.5592    0.0098    0.1532    2.8191   37.0000   37.0000 
6766.4921 2062.4268    7.8750    8.2047   98.8197    6.9612    6.0405    2.5374    0.0077    0.1458    2.8472   37.0000   37.0000 
6766.9921 2062.5791    7.8750    8.1500   95.4936    7.0055    6.1447    2.5412    0.0085    0.1494    2.8500   37.0000   37.0000 
6767.4921 2062.7317    7.8750    8.1656  102.1458    7.4413    6.1478    2.5586    0.0105    0.1385    2.8123   37.0000   37.0000 
6767.9921 2062.8840    7.8750    8.1656  108.3160    8.9453    7.0066    2.5679    0.0162    0.1412    2.8767   37.0000   37.0000 
6768.4921 2063.0364    7.8750    8.1812   98.3859   13.1264   12.1060    2.5813    0.0207    0.1447    3.0914   37.0000   37.0000 
6768.9921 2063.1887    7.8750    8.1656   68.4025   24.3969   35.5676    2.6118    0.0183    0.1113    3.3306   37.0000   37.0000 
6769.4921 2063.3413    7.8750    8.1344   40.1063   54.5902   95.6618    2.6610    0.0181    0.0465    3.7334   18.0000   18.0000 
6769.9921 2063.4937    7.8750    8.1187   26.1752  117.9255  244.1711    2.7161    0.0162    0.0189    4.3966   18.0000   18.0000 
6770.4921 2063.6460    7.8750    8.1031   22.7526   79.7750  227.2548    2.7370    0.0066    0.0164    4.8810   18.0000   18.0000 
6770.9921 2063.7983    7.8750    8.1109   33.8879   36.2710   98.4245    2.6984   -0.0017    0.0279    4.7555   18.0000   18.0000 
6771.4921 2063.9507    7.8750    8.1109   64.5461   19.0986   36.6938    2.6306    0.0000    0.0421    4.1142   18.0000   18.0000 
6771.9921 2064.1033    7.8750    8.1656   89.9500   12.3740   13.3650    2.5893    0.0082    0.0659    3.5243   18.0000   18.0000 
6772.4921 2064.2556    7.8750    8.2359   95.4936   10.5007    9.0361    2.5873    0.0093    0.1064    3.3862   37.0000   37.0000 
6772.9921 2064.4080    7.8750    8.2594   92.8423   10.5001    8.6151    2.5967    0.0094    0.1375    3.3844   37.0000   37.0000 
6773.4921 2064.5603    7.8750    8.2437   79.5860   12.2061    9.9020    2.6010    0.0125    0.1372    3.2919   37.0000   37.0000 
6773.9921 2064.7129    7.8750    8.2203   61.7021   15.1936   12.8588    2.6155    0.0118    0.1028    3.5424   37.0000   37.0000 
6774.4921 2064.8652    7.8750    8.2437   49.6991   20.2269   18.3615    2.6650    0.0174    0.0600    4.2398   18.0000   12.0000 
6774.9921 2065.0176    7.8750    8.2125   39.9135   29.0129   26.5683    2.7250    0.0267    0.0560    4.7009   18.0000   12.0000 
6775.4921 2065.1699    7.8750    8.1812   27.7177   40.6919   36.7202    2.7579    0.0185    0.0521    4.6119   18.0000   12.0000 
6775.9921 2065.3225    7.8750    8.1422   24.1506   44.8099   40.2290    2.7556    0.0013    0.0539    4.3768   18.0000   12.0000 
6776.4921 2065.4749    7.8750    8.1656   33.1166   37.2459   35.0656    2.7325   -0.0013    0.0457    4.2587   18.0000   12.0000 
6776.9921 2065.6272    7.8750    8.1031   40.4438   28.8048   25.6931    2.6994    0.0027    0.0461    4.2207   18.0000   18.0000 
