~VERSION INFORMATION
 VERS.                 2.0:   CWLS LOG ASCII STANDARD - VERSION 2.0
 WRAP.                  NO:   SINGLE LINE PER DEPTH STEP
 CREA.                 12/04/2017 16:08:09
#CREATED USING DSPetro VERSION 5000.10.1.3 BY H191660 ON 12/04/2017 16:08:09
~WELL INFORMATION
#MNEM.UNIT       DATA                          DESCRIPTION MNEMONIC
#---------      ---------------------------   --------------------------
 STRT    .FT        174.0157                  : START DEPTH
 STOP    .FT        9268.0157                 : STOP DEPTH
 STEP    .FT        0.5000                    : STEP VALUE
 NULL    .      -999.0000                     : NULL VALUE
 DATE    .      12/04/2017                    : LAS file Creation Date
 WELL .      UNIVERSITY_45_8_4210540952 : Well Name
 COMP .                                 : Company
 FLD  .      WILDCAT (7C)               : Field
 UWI  .      X495988                    : Unique Well Identifier (UWI)
 LOC  .                                 : Location
 RWS  .      -999                       : Def_Rw
 WST  .      -999                       : Def_Rwt
 SRVC .                                 : Contractor
~CURVE INFORMATION
#MNEM              UNIT       API CODE   Curve Type Comments
#----------  --------------- ----------  ---------- -----------
 DEPTH      .FT                        : Depth       
 DEPTH_(m)  .                          :             
 BitSize    .in                        : bitSize     
 CAL_INCH   .inch                      :             Caliper Log - A representation of the measured diameter of a borehole along its depth
 GR_API     .API                       : GammaRay    Gamma Ray (API) - Measures the intensity of natural gamma-ray radiation emitted from formations containing radioactive elements, such as K, Th and U
 LLD_OHMM   .ohmm                      :             Laterlog Deep Resistivity - Measurement made several feet into the formation; generally considered a measurement of the undisturbed formation
 LLS_OHMM   .ohmm                      :             Laterlog Shallow Resistivity - one to two feet into the formation; generally considered to measure the formation
 MSFL_OHMM  .ohmm                      :             Micro-Spherically Focused Log - Measurement involves only the first few inches of the formation immediately adjacent to the borehole
 RHOB_G_CC  .g/cc                      :             Bulk Density - Measures the density of bulk material, including any void space or other materials contained in the subject volume
 DRHO_G_CC  .g/cc                      :             Density Correction - Investigates the correction to the Bulk Density log; used as an indication of hole condition to validate the Bulk Density measure
 NPHI_v/v   .PC                        : Neutron     Neutron Porosity - Measured with an neutron logging device calibrated to a given matrix (limestone, sandstone and dolomite)
 PEF_B_E    .b/e-                      : PEF         Photoelectric Factor - A log of photoelectric absorption properties. Often expressed in an approximation unit barns/electron (b/e-)
 LITH       .                          : LITH        Lithology Curve
 LITH_v2    .                          : LITH        Lithology Curve
~A  DEPTH DEPTH_(m)  BitSize   CAL_INCH   GR_API   LLD_OHMM  LLS_OHMM MSFL_OHM  RHOB_G_C  DRHO_G_C   NPHI_v/v  PEF_B_E     LITH    LITH_v2  
# ...
3736.5157 1138.8900    7.8750    8.9099   96.5999    3.8742    3.4777    5.6841    2.4340   -0.0009    0.2671    2.9937   37.0000   37.0000 
3737.0157 1139.0424    7.8750    8.8694   91.0569    4.3853    4.0786    3.1110    2.4423    0.0073    0.2431    3.0476   37.0000   37.0000 
3737.5157 1139.1948    7.8750    8.6368   84.0720    4.6350    4.1297    2.8028    2.4489    0.0154    0.2277    3.1295   37.0000   37.0000 
3738.0157 1139.3472    7.8750    8.6423   86.4103    5.0330    4.4273    3.2561    2.4755    0.0173    0.2313    3.1959   37.0000   37.0000 
3738.5157 1139.4996    7.8750    8.6365   96.7643    5.4517    5.2923    3.6803    2.4965    0.0130    0.2469    3.2221   37.0000   37.0000 
3739.0157 1139.6520    7.8750    8.6293  104.5409    5.7562    5.1220    3.6425    2.4816    0.0086    0.2544    3.1810   37.0000   37.0000 
3739.5157 1139.8044    7.8750    8.6131  109.0904    6.1469    5.6641    3.7025    2.4471    0.0058    0.2764    3.0823   37.0000   37.0000 
3740.0157 1139.9568    7.8750    8.6077  110.9879    6.2659    6.1388    3.8468    2.4344    0.0030    0.3037    2.9850   37.0000   37.0000 
3740.5157 1140.1093    7.8750    8.6138  113.0871    6.4614    6.1091    4.1197    2.4435    0.0017    0.2766    2.9243   37.0000   37.0000 
3741.0157 1140.2616    7.8750    8.6261  122.4923    6.4732    6.2365    4.0529    2.4427    0.0068    0.2725    2.8550   37.0000   37.0000 
3741.5157 1140.4139    7.8750    8.6194  129.0887    6.0713    5.7790    3.6746    2.4300    0.0150    0.2845    2.8547   37.0000   37.0000 
3742.0157 1140.5664    7.8750    8.6221  125.6225    5.7973    5.6382    3.2319    2.4147    0.0185    0.2897    2.9825   37.0000   37.0000 
3742.5157 1140.7188    7.8750    8.6262  116.3068    5.5745    5.2771    3.1860    2.4286    0.0228    0.2716    3.1109   37.0000   37.0000 
3743.0157 1140.8712    7.8750    8.6307  107.9549    6.3799    5.9356    4.1998    2.4770    0.0274    0.2546    3.1554   37.0000   37.0000 
3743.5157 1141.0236    7.8750    8.6293  106.2367    6.5980    6.3654    5.7875    2.4932    0.0276    0.2470    3.1398   37.0000   37.0000 
3744.0157 1141.1760    7.8750    8.6274  103.0170    6.5105    6.2937    6.9607    2.4788    0.0321    0.2353    3.0936   37.0000   37.0000 
3744.5157 1141.3284    7.8750    8.4648   90.3322    6.4009    6.4117    3.9704    2.5206    0.0384    0.2203    3.2537   37.0000   37.0000 
3745.0157 1141.4808    7.8750    8.4242   71.9998    5.4926    5.7298    3.1519    2.5907    0.0383    0.2128    3.4406   37.0000   22.0000 
3745.5157 1141.6332    7.8750    8.4333   72.7917    5.0671    5.1628    2.9459    2.5949    0.0359    0.2110    3.4326   37.0000   22.0000 
3746.0157 1141.7856    7.8750    8.4623  102.3895    5.3471    5.4261    3.1581    2.4918    0.0222    0.2449    3.1495   37.0000   37.0000 
3746.5157 1141.9380    7.8750    8.4918  107.7682    5.8765    6.3211    3.9852    2.4583    0.0130    0.2528    3.1255   37.0000   37.0000 
3747.0157 1142.0905    7.8750    8.4945  102.6958    6.2527    7.0859    4.5774    2.4595    0.0061    0.2299    3.1880   37.0000   37.0000 
3747.5157 1142.2428    7.8750    8.5341  101.7470    5.8887    7.2486    4.2628    2.4559    0.0027    0.2410    3.1210   37.0000   37.0000 
3748.0157 1142.3951    7.8750    8.5615  104.7949    4.7615    5.6065    3.2315    2.4458    0.0035    0.2448    2.9962   37.0000   37.0000 
3748.5157 1142.5476    7.8750    8.5640  109.5760    4.0095    4.2480    2.3879    2.4481    0.0070    0.2450    2.9296   37.0000   37.0000 
3749.0157 1142.7000    7.8750    8.6063  112.2654    4.0222    4.1419    2.4726    2.4652    0.0093    0.2701    2.9867   37.0000   37.0000 
3749.5157 1142.8524    7.8750    8.6228  110.2633    4.4682    4.5004    3.8389    2.4911    0.0107    0.2575    3.0601   37.0000   37.0000 
3750.0157 1143.0048    7.8750    8.6452  109.8300    5.4883    5.8478    5.5529    2.5060    0.0115    0.2536    2.9897   37.0000   37.0000 
3750.5157 1143.1572    7.8750    8.6433  110.8759    6.2437    7.0561    5.4201    2.4988    0.0100    0.2632    2.9215   37.0000   37.0000 
3751.0157 1143.3096    7.8750    8.6397  114.0732    5.9578    6.5948    3.7299    2.4855    0.0108    0.2658    2.9534   37.0000   37.0000 
3751.5157 1143.4620    7.8750    8.6330  121.2523    5.2760    5.6457    3.0098    2.4676    0.0099    0.2702    3.0156   37.0000   37.0000 
3752.0157 1143.6144    7.8750    8.6357  119.1307    5.2453    5.2797    3.1536    2.4660    0.0016    0.2632    3.1112   37.0000   37.0000 
3752.5157 1143.7668    7.8750    8.6460  107.9848    6.4118    6.1443    4.6842    2.4886   -0.0023    0.2497    3.1858   37.0000   37.0000 
3753.0157 1143.9192    7.8750    8.6541  101.7620    9.4978    8.9842   10.8041    2.5009    0.0039    0.2442    3.1562   37.0000   37.0000 
3753.5157 1144.0717    7.8750    8.6213  104.5260    9.6042   11.3601   20.7855    2.4754    0.0126    0.2266    3.0892   37.0000   37.0000 
3754.0157 1144.2240    7.8750    8.4363  107.4171    7.4672    8.9853    8.0060    2.4855    0.0257    0.2210    3.1774   37.0000   37.0000 
3754.5157 1144.3763    7.8750    8.3428   93.5520    5.2049    5.7630    2.9415    2.5945    0.0341    0.2049    3.4628   37.0000   22.0000 
3755.0157 1144.5288    7.8750    8.3447   76.7510    4.0378    4.1279    2.2894    2.6624    0.0289    0.1593    3.6092   22.0000   22.0000 
3755.5157 1144.6812    7.8750    8.3787   84.8788    4.0000    4.0939    2.4708    2.5969    0.0249    0.1854    3.4290   22.0000   22.0000 
3756.0157 1144.8336    7.8750    8.4039   95.2851    4.3944    4.5258    2.8857    2.5488    0.0245    0.2268    3.3087   37.0000   37.0000 
3756.5157 1144.9860    7.8750    8.4895  106.5131    6.2536    7.1269    6.4968    2.5021    0.0174    0.2623    3.1118   37.0000   37.0000 
3757.0157 1145.1384    7.8750    8.5338  105.5793    6.1187    7.5958    7.2640    2.4873    0.0135    0.2676    3.0679   37.0000   37.0000 
3757.5157 1145.2908    7.8750    8.5366  108.7692    5.2606    5.8214    4.7088    2.4622    0.0099    0.2687    3.1120   37.0000   37.0000 
3758.0157 1145.4432    7.8750    8.5506  110.3380    5.0556    5.6025    3.1811    2.4545    0.0075    0.2730    3.1877   37.0000   37.0000 
3758.5157 1145.5956    7.8750    8.6074  107.5291    4.1585    4.3549    3.7359    2.4483    0.0033    0.2587    3.3261   37.0000   37.0000 
3759.0157 1145.7480    7.8750    8.6809  109.5013    4.5069    4.9286    5.2040    2.4520    0.0061    0.2523    3.2125   37.0000   37.0000 
3759.5157 1145.9004    7.8750    8.6828  110.6443    5.5430    5.7951    4.9929    2.4713    0.0055    0.2668    3.1808   37.0000   37.0000 
3760.0157 1146.0529    7.8750    8.6810  103.7043    6.5248    6.6637    4.1444    2.5117    0.0068    0.2543    3.3457   37.0000   37.0000 
3760.5157 1146.2052    7.8750    8.6953   97.7728    6.7699    7.0208    5.1231    2.5471    0.0103    0.2296    3.4848   37.0000   37.0000 
3761.0157 1146.3575    7.8750    8.7326   97.2274    6.5450    6.6333    5.1248    2.5362    0.0099    0.2369    3.3325   37.0000   37.0000 
3761.5157 1146.5100    7.8750    8.7374  104.5858    6.4759    6.1851    4.1379    2.4773    0.0057    0.2622    3.0697   37.0000   37.0000 
3762.0157 1146.6624    7.8750    8.7679  116.1350    6.1817    5.5674    4.4804    2.4267    0.0037    0.2823    3.0007   37.0000   37.0000 
3762.5157 1146.8148    7.8750    8.7908  117.1286    6.3791    5.4982    5.0738    2.4292    0.0017    0.2793    3.0142   37.0000   37.0000 
3763.0157 1146.9672    7.8750    8.8351  107.3498    7.7221    6.9164    5.3179    2.4582   -0.0087    0.2608    2.9966   37.0000   37.0000 
3763.5157 1147.1196    7.8750    8.7649   99.9765    9.7882    8.1749    7.7568    2.4751   -0.0155    0.2546    2.9820   37.0000   37.0000 
3764.0157 1147.2720    7.8750    8.7744   96.4804   11.2203   10.2842   10.2085    2.4652   -0.0129    0.2405    2.9269   37.0000   37.0000 
3764.5157 1147.4244    7.8750    8.7642   95.3150   11.2101    9.7699    8.2332    2.4327   -0.0115    0.2400    2.8964   37.0000   37.0000 
