~VERSION INFORMATION
 VERS.                 2.0:   CWLS LOG ASCII STANDARD - VERSION 2.0
 WRAP.                  NO:   SINGLE LINE PER DEPTH STEP
 CREA.                 12/04/2017 16:08:09
#CREATED USING DSPetro VERSION 5000.10.1.3 BY H191660 ON 12/04/2017 16:08:09
~WELL INFORMATION
#MNEM.UNIT       DATA                          DESCRIPTION MNEMONIC
#---------      ---------------------------   --------------------------
 STRT    .FT        174.0157                  : START DEPTH
 STOP    .FT        9268.0157                 : STOP DEPTH
 STEP    .FT        0.5000                    : STEP VALUE
 NULL    .      -999.0000                     : NULL VALUE
 DATE    .      12/04/2017                    : LAS file Creation Date
 WELL .      UNIVERSITY_45_8_4210540952 : Well Name
 COMP .                                 : Company
 FLD  .      WILDCAT (7C)               : Field
 UWI  .      X495988                    : Unique Well Identifier (UWI)
 LOC  .                                 : Location
 RWS  .      -999                       : Def_Rw
 WST  .      -999                       : Def_Rwt
 SRVC .                                 : Contractor
~CURVE INFORMATION
#MNEM              UNIT       API CODE   Curve Type Comments
#----------  --------------- ----------  ---------- -----------
 DEPTH      .FT                        : Depth       
 DEPTH_(m)  .                          :             
 BitSize    .in                        : bitSize     
 CAL_INCH   .inch                      :             Caliper Log - A representation of the measured diameter of a borehole along its depth
 GR_API     .API                       : GammaRay    Gamma Ray (API) - Measures the intensity of natural gamma-ray radiation emitted from formations containing radioactive elements, such as K, Th and U
 LLD_OHMM   .ohmm                      :             Laterlog Deep Resistivity - Measurement made several feet into the formation; generally considered a measurement of the undisturbed formation
 LLS_OHMM   .ohmm                      :             Laterlog Shallow Resistivity - one to two feet into the formation; generally considered to measure the formation
 MSFL_OHMM  .ohmm                      :             Micro-Spherically Focused Log - Measurement involves only the first few inches of the formation immediately adjacent to the borehole
 RHOB_G_CC  .g/cc                      :             Bulk Density - Measures the density of bulk material, including any void space or other materials contained in the subject volume
 DRHO_G_CC  .g/cc                      :             Density Correction - Investigates the correction to the Bulk Density log; used as an indication of hole condition to validate the Bulk Density measure
 NPHI_v/v   .PC                        : Neutron     Neutron Porosity - Measured with an neutron logging device calibrated to a given matrix (limestone, sandstone and dolomite)
 PEF_B_E    .b/e-                      : PEF         Photoelectric Factor - A log of photoelectric absorption properties. Often expressed in an approximation unit barns/electron (b/e-)
 LITH       .                          : LITH        Lithology Curve
 LITH_v2    .                          : LITH        Lithology Curve
~A  DEPTH DEPTH_(m)  BitSize   CAL_INCH   GR_API   LLD_OHMM  LLS_OHMM MSFL_OHM  RHOB_G_C  DRHO_G_C   NPHI_v/v  PEF_B_E     LITH    LITH_v2  
# ...
6244.5157 1903.3284    7.8750    7.7706   89.7869   63.0968   82.6683  109.2768    2.5386    0.0067    0.1676    3.8048   37.0000   37.0000 
6245.0157 1903.4808    7.8750    7.7586   85.1029   55.4727   73.4514   35.8472    2.5451    0.0079    0.1606    3.9272   37.0000   37.0000 
6245.5157 1903.6332    7.8750    7.7580   79.9857   50.4724   55.0393   20.4509    2.5516    0.0075    0.1510    4.0435   37.0000   37.0000 
6246.0157 1903.7856    7.8750    7.7617   75.7052   36.5322   41.2587   15.3203    2.5628    0.0031    0.1268    4.1467   18.0000   18.0000 
6246.5157 1903.9380    7.8750    7.7607   83.8554   27.5929   30.1864   21.8766    2.5401   -0.0031    0.1279    3.9221   18.0000   18.0000 
6247.0157 1904.0905    7.8750    7.7704   85.3345   25.6515   29.9144   17.2845    2.5384   -0.0053    0.1421    3.8377   37.0000   37.0000 
6247.5157 1904.2428    7.8750    7.7696   79.9334   22.7698   23.9472   13.2049    2.5616   -0.0098    0.1393    3.9743   37.0000   37.0000 
6248.0157 1904.3951    7.8750    7.7696   78.0658   23.4538   22.9023   12.5099    2.5526   -0.0162    0.1414    3.9671   37.0000   37.0000 
6248.5157 1904.5476    7.8750    7.7717   92.5211   26.7821   27.5301   17.1231    2.5258   -0.0108    0.1734    3.8230   37.0000   37.0000 
6249.0157 1904.7000    7.8750    7.7723  108.9560   29.8290   31.4850   29.8059    2.5332    0.0015    0.1958    3.8593   37.0000   37.0000 
6249.5157 1904.8524    7.8750    7.7746  106.8120   37.8022   43.5027   27.2635    2.5593    0.0098    0.1828    3.9724   37.0000   37.0000 
6250.0157 1905.0048    7.8750    7.7617   96.5775   44.5146   45.6029   23.0083    2.5721    0.0121    0.1691    4.0689   37.0000   37.0000 
6250.5157 1905.1572    7.8750    7.7621   97.4515   41.6983   48.6537   32.7727    2.5645    0.0106    0.1534    4.1490   18.0000   18.0000 
6251.0157 1905.3096    7.8750    7.7743  105.0489   36.8721   43.4720   33.1056    2.5479    0.0126    0.1563    4.0819   18.0000   18.0000 
6251.5157 1905.4620    7.8750    7.7701  106.7671   38.2373   40.0662   25.6645    2.5555    0.0161    0.1707    3.9548   37.0000   37.0000 
6252.0157 1905.6144    7.8750    7.7556   98.4675   36.0830   38.6961   20.3133    2.5783    0.0154    0.1635    3.9520   37.0000   37.0000 
6252.5157 1905.7668    7.8750    7.7586   99.0875   30.5899   33.7918   24.1280    2.5655    0.0130    0.1607    3.9783   37.0000   37.0000 
6253.0157 1905.9192    7.8750    7.7573  113.9537   30.4067   34.9771   14.1951    2.5292    0.0159    0.1969    3.9433   37.0000   37.0000 
6253.5157 1906.0717    7.8750    7.7621  121.5660   27.2978   29.4822   12.7950    2.5165    0.0194    0.1925    3.9133   37.0000   37.0000 
6254.0157 1906.2240    7.8750    7.7628  116.6654   26.3020   26.8330   13.9124    2.5312    0.0161    0.1847    3.8559   37.0000   37.0000 
6254.5157 1906.3763    7.8750    7.7740  108.5152   26.3808   27.5581   18.4661    2.5454    0.0071    0.1811    3.7681   37.0000   37.0000 
6255.0157 1906.5288    7.8750    7.7681  100.3575   29.4112   30.0012   21.2949    2.5526   -0.0070    0.1659    3.8257   37.0000   37.0000 
6255.5157 1906.6812    7.8750    7.7650   91.0419   33.6139   36.9777   23.8717    2.5664   -0.0138    0.1510    4.0809   37.0000   37.0000 
6256.0157 1906.8336    7.8750    7.7625   90.8029   34.7515   40.9232   18.3792    2.5715   -0.0116    0.1453    4.1754   18.0000   18.0000 
6256.5157 1906.9860    7.8750    7.7677  119.0261   35.6738   36.9188   14.3811    2.5236   -0.0059    0.1576    3.9594   37.0000   37.0000 
6257.0157 1907.1384    7.8750    7.7666  135.8943   39.1351   42.2868   19.0850    2.4873   -0.0072    0.1928    3.7465   37.0000   37.0000 
6257.5157 1907.2908    7.8750    7.7726  127.2809   38.3898   43.9745   34.8959    2.4883   -0.0090    0.1936    3.6830   37.0000   37.0000 
6258.0157 1907.4432    7.8750    7.7767  116.5235   36.5381   43.3328   37.1391    2.5032   -0.0075    0.1807    3.6950   37.0000   37.0000 
6258.5157 1907.5956    7.8750    7.7701   87.0079   31.8318   39.5564   15.9698    2.5687    0.0008    0.1517    4.0161   37.0000   37.0000 
6259.0157 1907.7480    7.8750    7.7704   85.9172   25.6044   30.5430   11.9387    2.5825    0.0058    0.1405    4.1129   37.0000   37.0000 
6259.5157 1907.9004    7.8750    7.7735   97.2648   20.0220   21.4107    9.4158    2.5484    0.0071    0.1643    3.8353   37.0000   37.0000 
6260.0157 1908.0529    7.8750    7.7856  110.1363   19.9615   22.0168   10.3013    2.5121    0.0109    0.2226    3.5115   37.0000   37.0000 
6260.5157 1908.2052    7.8750    7.7880  114.1404   19.7721   22.4556   14.6468    2.5060    0.0120    0.2339    3.4299   37.0000   37.0000 
6261.0157 1908.3575    7.8750    7.8005  106.8493   19.0454   21.5872   12.9896    2.5205    0.0045    0.2190    3.5618   37.0000   37.0000 
6261.5157 1908.5100    7.8750    7.7910   98.0492   20.1600   20.9660    9.0219    2.5318   -0.0049    0.1914    3.8003   37.0000   37.0000 
6262.0157 1908.6624    7.8750    7.7908   90.1305   23.1352   25.2295    9.2223    2.5287   -0.0153    0.1654    3.8791   37.0000   22.0000 
6262.5157 1908.8148    7.8750    7.8012   85.8873   27.4686   25.7888   17.5715    2.5395   -0.0206    0.1610    3.6559   37.0000   22.0000 
6263.0157 1908.9672    7.8750    7.7957   80.1799   42.8054   46.3941   50.2628    2.5729   -0.0167    0.1444    3.5594   37.0000   22.0000 
6263.5157 1909.1196    7.8750    7.7622   64.2157   57.7099   81.5210   64.9261    2.6140   -0.0164    0.1055    3.9346   37.0000   22.0000 
6264.0157 1909.2720    7.8750    7.7635   47.8330   48.4493   51.1850   25.4466    2.6519   -0.0178    0.0796    4.4286   18.0000   18.0000 
6264.5157 1909.4244    7.8750    7.7710   47.1906   41.7058   40.4035   17.9583    2.6541   -0.0166    0.0825    4.6371   18.0000   18.0000 
6265.0157 1909.5768    7.8750    7.7718   64.3651   35.3454   36.0681   27.0670    2.6030   -0.0151    0.1053    4.4440   18.0000   18.0000 
6265.5157 1909.7292    7.8750    7.7921   80.3592   35.5956   34.8481  154.2823    2.5548   -0.0026    0.1608    4.0523   37.0000   22.0000 
6266.0157 1909.8816    7.8750    7.7925   83.1830   35.3496   41.9363  141.0586    2.5470    0.0091    0.1785    3.8283   37.0000   22.0000 
6266.5157 1910.0341    7.8750    7.7954   81.5844   33.3346   36.6334   25.6654    2.5380    0.0049    0.1515    3.6577   37.0000   22.0000 
6267.0157 1910.1864    7.8750    7.8012   78.0882   31.0081   34.4616   18.4281    2.5180   -0.0023    0.1583    3.4953   37.0000   22.0000 
6267.5157 1910.3387    7.8750    7.7949   77.3486   28.9816   30.6831   15.1487    2.5064   -0.0020    0.1708    3.5601   37.0000   22.0000 
6268.0157 1910.4912    7.8750    7.7984   85.7753   29.1722   35.3399   15.8692    2.4962    0.0010    0.1838    3.6427   37.0000   22.0000 
6268.5157 1910.6436    7.8750    7.7933   89.4059   28.5861   37.4470   14.2806    2.4932    0.0014    0.1867    3.6287   37.0000   22.0000 
6269.0157 1910.7960    7.8750    7.7885   88.9054   24.1947   28.3775    9.1853    2.5182    0.0022    0.1813    3.5879   37.0000   37.0000 
6269.5157 1910.9484    7.8750    7.7901   91.8935   22.6146   25.0564    8.2697    2.5271    0.0032    0.1893    3.5672   37.0000   37.0000 
6270.0157 1911.1008    7.8750    7.7847   93.7313   21.2417   21.6527   10.6293    2.5255    0.0026    0.2022    3.5410   37.0000   37.0000 
6270.5157 1911.2532    7.8750    7.7983   92.6182   22.0441   21.9820   11.3536    2.5276    0.0022    0.2034    3.5632   37.0000   37.0000 
6271.0157 1911.4056    7.8750    7.7787   94.1421   31.5903   29.2549   14.1663    2.5273    0.0027    0.1927    3.6900   37.0000   37.0000 
6271.5157 1911.5580    7.8750    7.7752  100.3276   46.9147   40.6735   24.5739    2.5131    0.0008    0.1850    3.6501   37.0000   37.0000 
6272.0157 1911.7104    7.8750    7.7618  104.1376   80.9798   71.2603   76.3586    2.5252    0.0014    0.1696    3.6903   37.0000   37.0000 
6272.5157 1911.8628    7.8750    7.7448   89.3536  189.6723  160.2321  275.7914    2.5988    0.0008    0.1222    4.0231   37.0000   18.0000 
