~VERSION INFORMATION
 VERS.                 2.0:   CWLS LOG ASCII STANDARD - VERSION 2.0
 WRAP.                  NO:   SINGLE LINE PER DEPTH STEP
 CREA.                 01/12/2017 17:02:35
#CREATED USING DSPetro VERSION 5000.10.1.3 BY H191660 ON 01/12/2017 17:02:35
~WELL INFORMATION
#MNEM.UNIT       DATA                          DESCRIPTION MNEMONIC
#---------      ---------------------------   --------------------------
 STRT    .FT        50.4921                   : START DEPTH
 STOP    .FT        8514.9921                 : STOP DEPTH
 STEP    .FT        0.5000                    : STEP VALUE
 NULL    .      -999.0000                     : NULL VALUE
 DATE    .      01/12/2017                    : LAS file Creation Date
 WELL .      UNIVERSITY_42_22_4210540532 : Well Name
 COMP .                                  : Company
 FLD  .      HOLT RANCH (CONSOLIDATED)�  : Field
 UWI  .      224                         : Unique Well Identifier (UWI)
 LOC  .                                  : Location
 RWS  .      -999                        : Def_Rw
 WST  .      -999                        : Def_Rwt
 SRVC .                                  : Contractor
~CURVE INFORMATION
#MNEM              UNIT       API CODE   Curve Type Comments
#----------  --------------- ----------  ---------- -----------
 DEPTH      .FT                        : Depth       
 DEPTH_(m)  .                          :             
 BitSize    .inch                      : BitSize     
 CAL_INCH   .inch                      :             Caliper Log - A representation of the measured diameter of a borehole along its depth
 GR_API     .API                       : GammaRay    Gamma Ray (API) - Measures the intensity of natural gamma-ray radiation emitted from formations containing radioactive elements, such as K, Th and U
 LLD_OHMM   .ohmm                      :             Laterlog Deep Resistivity - Measurement made several feet into the formation; generally considered a measurement of the undisturbed formation
 LLS_OHMM   .ohmm                      :             Laterlog Shallow Resistivity - one to two feet into the formation; generally considered to measure the formation
 RHOB_G_CC  .g/cc                      :             Bulk Density - Measures the density of bulk material, including any void space or other materials contained in the subject volume
 DRHO_G_CC  .g/cc                      :             Density Correction - Investigates the correction to the Bulk Density log; used as an indication of hole condition to validate the Bulk Density measure
 NPHI_v/v   .dec                       : Neutron     
 PEF_B_E    .b/e-                      : PEF         Photoelectric Factor - A log of photoelectric absorption properties. Often expressed in an approximation unit barns/electron (b/e-)
 LITH       .                          : LITH        Lithology Curve
 LITH_v2    .                          : LITH        Lithology Curve
~A  DEPTH DEPTH_(m)  BitSize   CAL_INCH   GR_API   LLD_OHMM  LLS_OHMM RHOB_G_C  DRHO_G_C   NPHI_v/v  PEF_B_E     LITH    LITH_v2  
# ...
4638.4921 1413.8124    7.8750    8.1812   64.0641    6.9886    5.8536    2.5451   -0.0005    0.1324    2.7066   37.0000   37.0000 
4638.9921 1413.9648    7.8750    8.1578   54.4713    9.4106    7.9239    2.6065    0.0021    0.1077    2.9070   18.0000   37.0000 
4639.4921 1414.1172    7.8750    8.1031   44.0591   14.5476   17.8598    2.6753    0.0060    0.0700    3.3226   37.0000   12.0000 
4639.9921 1414.2697    7.8750    8.0719   42.0345   19.4253   24.1507    2.7310    0.0089    0.0592    3.6290   12.0000   12.0000 
4640.4921 1414.4220    7.8750    8.0484   50.6150   18.7161   24.8804    2.7449    0.0096    0.0642    3.7109   12.0000   12.0000 
4640.9921 1414.5743    7.8750    8.0562   59.2918   13.1907   19.4030    2.6837    0.0059    0.0762    3.5998   18.0000   12.0000 
4641.4921 1414.7268    7.8750    8.0875   63.1964    8.8139    8.9474    2.5877    0.0013    0.0986    3.1729   18.0000   37.0000 
4641.9921 1414.8792    7.8750    8.0953   74.8619    6.9036    6.2810    2.5265   -0.0030    0.1235    2.7139   37.0000   37.0000 
4642.4921 1415.0316    7.8750    8.1266   86.3347    6.1629    5.4375    2.5102   -0.0061    0.1427    2.5821   37.0000   37.0000 
4642.9921 1415.1840    7.8750    8.1344   86.1419    6.1108    5.4388    2.5142   -0.0052    0.1394    2.6723   37.0000   37.0000 
4643.4921 1415.3364    7.8750    8.1891   87.9736    6.3331    5.7624    2.5185   -0.0016    0.1536    2.7735   37.0000   37.0000 
4643.9921 1415.4888    7.8750    8.1656   86.6239    6.5458    6.0885    2.5185    0.0031    0.1545    2.8238   37.0000   37.0000 
4644.4921 1415.6412    7.8750    8.2047   78.5737    6.5502    6.2137    2.5219    0.0082    0.1530    2.8466   37.0000   37.0000 
4644.9921 1415.7936    7.8750    8.1812   78.2845    6.3254    5.9930    2.5208    0.0110    0.1577    2.8505   37.0000   37.0000 
4645.4921 1415.9460    7.8750    8.1734   74.8619    6.0790    5.6687    2.5192    0.0123    0.1515    2.8283   37.0000   37.0000 
4645.9921 1416.0984    7.8750    8.1500   71.6804    5.9170    5.4327    2.5301    0.0181    0.1461    2.7699   37.0000   37.0000 
4646.4921 1416.2509    7.8750    8.1500   74.4763    5.9384    5.3228    2.5395    0.0219    0.1465    2.6943   37.0000   37.0000 
4646.9921 1416.4032    7.8750    8.1500   76.3563    6.1605    5.5463    2.5328    0.0149    0.1458    2.6450   37.0000   37.0000 
4647.4921 1416.5555    7.8750    8.1422   75.8742    6.4717    5.7830    2.5282    0.0094    0.1538    2.6526   37.0000   37.0000 
4647.9921 1416.7080    7.8750    8.1656   77.9953    6.8052    6.0892    2.5278    0.0087    0.1430    2.7400   37.0000   37.0000 
4648.4921 1416.8604    7.8750    8.1578   81.8998    7.0694    6.3623    2.5216    0.0051    0.1535    2.8571   37.0000   37.0000 
4648.9921 1417.0128    7.8750    8.1656   85.2260    7.1818    6.4443    2.5271    0.0009    0.1655    2.9278   37.0000   37.0000 
4649.4921 1417.1652    7.8750    8.1344   86.9613    7.1167    6.3905    2.5424   -0.0029    0.1718    2.9749   37.0000   37.0000 
4649.9921 1417.3176    7.8750    8.2047   87.6844    6.8881    6.1683    2.5356   -0.0081    0.1671    3.0230   37.0000   37.0000 
4650.4921 1417.4700    7.8750    8.1891   96.5059    6.6300    5.8890    2.5203   -0.0123    0.1657    2.9886   37.0000   37.0000 
4650.9921 1417.6224    7.8750    8.1969  104.4596    6.5438    5.6617    2.5194   -0.0156    0.1527    2.8468   37.0000   37.0000 
4651.4921 1417.7748    7.8750    8.1969  101.9048    6.7716    5.7303    2.5110   -0.0194    0.1591    2.7190   37.0000   37.0000 
4651.9921 1417.9272    7.8750    8.1891  104.9417    7.3811    6.1313    2.4956   -0.0197    0.1519    2.6893   37.0000   37.0000 
4652.4921 1418.0796    7.8750    8.1812  103.8812    8.4305    7.0966    2.4831   -0.0149    0.1604    2.7677   37.0000   37.0000 
4652.9921 1418.2321    7.8750    8.1656  101.0853    9.6923    8.2677    2.4736   -0.0098    0.1742    2.8906   37.0000   37.0000 
4653.4921 1418.3844    7.8750    8.1578  103.5438   10.5535    9.0822    2.4769   -0.0059    0.1889    2.9294   37.0000   37.0000 
4653.9921 1418.5367    7.8750    8.1266   96.5059   10.6458    9.4193    2.4912   -0.0030    0.1739    2.8914   37.0000   37.0000 
4654.4921 1418.6892    7.8750    8.1422   90.5285    9.8829    8.8564    2.5018   -0.0061    0.1533    2.9157   37.0000   37.0000 
4654.9921 1418.8416    7.8750    8.1422   95.5900    8.8943    7.9655    2.5112   -0.0115    0.1506    2.9543   37.0000   37.0000 
4655.4921 1418.9940    7.8750    8.1578   92.6013    8.1413    7.2181    2.5207   -0.0131    0.1537    2.8740   37.0000   37.0000 
4655.9921 1419.1464    7.8750    8.1578   87.9254    7.8746    6.8392    2.5260   -0.0130    0.1677    2.7999   37.0000   37.0000 
4656.4921 1419.2988    7.8750    8.1500   99.3982    8.1470    6.9599    2.5230   -0.0045    0.1718    2.8385   37.0000   37.0000 
4656.9921 1419.4512    7.8750    8.1422  109.3765    8.8353    7.6276    2.5008    0.0042    0.1875    2.9196   37.0000   37.0000 
4657.4921 1419.6036    7.8750    8.1500  105.7612    9.7459    8.5234    2.4807    0.0019    0.1796    2.9285   37.0000   37.0000 
4657.9921 1419.7560    7.8750    8.1422  102.0976   10.5181    9.3196    2.4830   -0.0017    0.1761    2.8110   37.0000   37.0000 
4658.4921 1419.9084    7.8750    8.1422  100.8443   10.9346    9.7675    2.4874   -0.0046    0.1842    2.6704   37.0000   37.0000 
4658.9921 1420.0608    7.8750    8.1266   97.1325   10.9915    9.9375    2.4770   -0.0096    0.1768    2.5797   37.0000   37.0000 
4659.4921 1420.2133    7.8750    8.1109   96.1202   10.5727    9.7599    2.4700   -0.0115    0.1607    2.5869   37.0000   37.0000 
4659.9921 1420.3656    7.8750    8.1109   95.3008    9.8356    9.2541    2.4867   -0.0090    0.1593    2.7109   37.0000   37.0000 
4660.4921 1420.5179    7.8750    8.1344   96.9879    8.9936    8.5117    2.5124   -0.0053    0.1474    2.8327   37.0000   37.0000 
4660.9921 1420.6704    7.8750    8.1266   98.5787    8.2986    7.7374    2.5275   -0.0023    0.1522    2.8623   37.0000   37.0000 
4661.4921 1420.8228    7.8750    8.1344   95.6382    8.0912    7.3704    2.5214   -0.0007    0.1620    2.8162   37.0000   37.0000 
4661.9921 1420.9752    7.8750    8.1266   90.7695    8.5783    7.7608    2.4883   -0.0026    0.1792    2.7897   37.0000   37.0000 
4662.4921 1421.1276    7.8750    8.1266   95.4936    9.7023    8.8625    2.4523   -0.0089    0.2040    2.8309   37.0000   37.0000 
4662.9921 1421.2800    7.8750    8.0562  105.7130   11.1448   10.3561    2.4429   -0.0144    0.2087    2.8727   37.0000   37.0000 
4663.4921 1421.4324    7.8750    8.0484  106.6771   12.2291   11.5728    2.4471   -0.0188    0.1865    2.8802   37.0000   37.0000 
4663.9921 1421.5848    7.8750    8.0484   99.9766   12.1521   11.7945    2.4560   -0.0228    0.1581    2.8739   37.0000   37.0000 
4664.4921 1421.7372    7.8750    8.0641   88.6967   11.1313   10.9902    2.4791   -0.0206    0.1596    2.9106   37.0000   37.0000 
4664.9921 1421.8896    7.8750    8.0797   84.3583    9.9871    9.7265    2.5027   -0.0130    0.1491    2.9686   37.0000   37.0000 
4665.4921 1422.0420    7.8750    8.1187   94.0474    9.4990    8.8303    2.5145   -0.0064    0.1652    2.9573   37.0000   37.0000 
4665.9921 1422.1945    7.8750    8.1187   97.6628   10.3015    9.2627    2.5356   -0.0014    0.1743    2.9508   37.0000   37.0000 
4666.4921 1422.3468    7.8750    8.1187   77.2240   12.6139   11.8227    2.6053    0.0052    0.1676    3.1345   37.0000   37.0000 
4666.9921 1422.4991    7.8750    8.0719   57.4118   16.5285   16.4966    2.6755    0.0078    0.1412    3.4761   37.0000   22.0000 
4667.4921 1422.6516    7.8750    8.0328   67.6312   20.6548   21.5197    2.6522    0.0061    0.1193    3.5373   37.0000   22.0000 
4667.9921 1422.8040    7.8750    8.0328   89.2752   21.0986   22.5105    2.5625    0.0049    0.1163    3.1901   37.0000   22.0000 
4668.4921 1422.9564    7.8750    8.0641  108.5571   18.5870   19.6896    2.4979    0.0008    0.1452    2.9449   37.0000   37.0000 
4668.9921 1423.1088    7.8750    8.1109  111.0155   16.4107   15.8690    2.4860   -0.0042    0.1565    2.9715   37.0000   37.0000 
