~VERSION INFORMATION
 VERS.                 2.0:   CWLS LOG ASCII STANDARD - VERSION 2.0
 WRAP.                  NO:   SINGLE LINE PER DEPTH STEP
 CREA.                 01/12/2017 17:02:35
#CREATED USING DSPetro VERSION 5000.10.1.3 BY H191660 ON 01/12/2017 17:02:35
~WELL INFORMATION
#MNEM.UNIT       DATA                          DESCRIPTION MNEMONIC
#---------      ---------------------------   --------------------------
 STRT    .FT        50.4921                   : START DEPTH
 STOP    .FT        8514.9921                 : STOP DEPTH
 STEP    .FT        0.5000                    : STEP VALUE
 NULL    .      -999.0000                     : NULL VALUE
 DATE    .      01/12/2017                    : LAS file Creation Date
 WELL .      UNIVERSITY_42_22_4210540532 : Well Name
 COMP .                                  : Company
 FLD  .      HOLT RANCH (CONSOLIDATED)�  : Field
 UWI  .      224                         : Unique Well Identifier (UWI)
 LOC  .                                  : Location
 RWS  .      -999                        : Def_Rw
 WST  .      -999                        : Def_Rwt
 SRVC .                                  : Contractor
~CURVE INFORMATION
#MNEM              UNIT       API CODE   Curve Type Comments
#----------  --------------- ----------  ---------- -----------
 DEPTH      .FT                        : Depth       
 DEPTH_(m)  .                          :             
 BitSize    .inch                      : BitSize     
 CAL_INCH   .inch                      :             Caliper Log - A representation of the measured diameter of a borehole along its depth
 GR_API     .API                       : GammaRay    Gamma Ray (API) - Measures the intensity of natural gamma-ray radiation emitted from formations containing radioactive elements, such as K, Th and U
 LLD_OHMM   .ohmm                      :             Laterlog Deep Resistivity - Measurement made several feet into the formation; generally considered a measurement of the undisturbed formation
 LLS_OHMM   .ohmm                      :             Laterlog Shallow Resistivity - one to two feet into the formation; generally considered to measure the formation
 RHOB_G_CC  .g/cc                      :             Bulk Density - Measures the density of bulk material, including any void space or other materials contained in the subject volume
 DRHO_G_CC  .g/cc                      :             Density Correction - Investigates the correction to the Bulk Density log; used as an indication of hole condition to validate the Bulk Density measure
 NPHI_v/v   .dec                       : Neutron     
 PEF_B_E    .b/e-                      : PEF         Photoelectric Factor - A log of photoelectric absorption properties. Often expressed in an approximation unit barns/electron (b/e-)
 LITH       .                          : LITH        Lithology Curve
 LITH_v2    .                          : LITH        Lithology Curve
~A  DEPTH DEPTH_(m)  BitSize   CAL_INCH   GR_API   LLD_OHMM  LLS_OHMM RHOB_G_C  DRHO_G_C   NPHI_v/v  PEF_B_E     LITH    LITH_v2  
# ...
2530.4921  771.2940    7.8750    8.2203   53.7001    7.6151    6.9775    2.5408    0.0015    0.1919    3.5890   22.0000   22.0000 
2530.9921  771.4464    7.8750    8.2437   62.0395    7.5669    7.0438    2.5278   -0.0030    0.1812    3.7080   22.0000   22.0000 
2531.4921  771.5988    7.8750    8.2359   65.5584    7.3780    6.9372    2.5096   -0.0068    0.1877    3.6360   22.0000   22.0000 
2531.9921  771.7512    7.8750    8.2516   67.7276    7.1639    6.5830    2.4997   -0.0117    0.2140    3.5143   22.0000   22.0000 
2532.4921  771.9036    7.8750    8.2516   72.3553    7.1399    6.5104    2.4916   -0.0144    0.2040    3.4752   22.0000   22.0000 
2532.9921  772.0560    7.8750    8.2594   66.6189    7.4140    6.6908    2.4891   -0.0118    0.2027    3.4503   22.0000   22.0000 
2533.4921  772.2084    7.8750    8.2672   53.7965    7.8223    7.1724    2.5030   -0.0080    0.1971    3.4753   22.0000   22.0000 
2533.9921  772.3608    7.8750    8.2516   53.6037    8.1767    7.6135    2.5368   -0.0070    0.1766    3.5923   22.0000   22.0000 
2534.4921  772.5132    7.8750    8.2359   67.3420    8.2500    7.7598    2.5553   -0.0102    0.1650    3.6065   22.0000   22.0000 
2534.9921  772.6656    7.8750    8.2281   70.9092    8.0255    7.4844    2.5357   -0.0125    0.1700    3.4294   22.0000   22.0000 
2535.4921  772.8180    7.8750    8.2437   65.3174    7.8012    7.1905    2.5161   -0.0126    0.1867    3.3181   22.0000   22.0000 
2535.9921  772.9704    7.8750    8.2437   60.6415    7.6927    7.0881    2.5069   -0.0169    0.1915    3.3796   22.0000   22.0000 
2536.4921  773.1228    7.8750    8.2437   56.9780    7.7121    7.1023    2.4951   -0.0235    0.2072    3.4000   22.0000   22.0000 
2536.9921  773.2752    7.8750    8.2359   56.2549    7.8505    7.2467    2.4939   -0.0265    0.1873    3.3499   22.0000   22.0000 
2537.4921  773.4276    7.8750    8.2125   60.0631    7.8509    7.3468    2.4943   -0.0223    0.1685    3.4074   22.0000   22.0000 
2537.9921  773.5800    7.8750    8.1344   64.5461    7.7767    7.1831    2.4898   -0.0152    0.1822    3.5373   22.0000   22.0000 
2538.4921  773.7324    7.8750    8.2047   68.9810    7.7248    7.1442    2.4887   -0.0146    0.1932    3.6072   22.0000   22.0000 
2538.9921  773.8848    7.8750    8.2281   65.3174    7.6475    7.0597    2.4908   -0.0172    0.1942    3.6176   22.0000   22.0000 
2539.4921  774.0372    7.8750    8.2125   59.3882    7.6266    7.0838    2.4944   -0.0178    0.1893    3.6061   22.0000   22.0000 
2539.9921  774.1896    7.8750    8.2125   64.9800    7.5666    7.1353    2.4901   -0.0181    0.1846    3.5923   22.0000   22.0000 
2540.4921  774.3420    7.8750    8.2359   70.5235    7.4627    7.1086    2.4809   -0.0191    0.1910    3.5722   22.0000   22.0000 
2540.9921  774.4944    7.8750    8.2359   67.7758    7.3514    7.0033    2.4895   -0.0182    0.1910    3.5508   22.0000   22.0000 
2541.4921  774.6468    7.8750    8.1734   62.8590    7.3182    6.9353    2.5038   -0.0163    0.1905    3.5562   22.0000   22.0000 
2541.9921  774.7992    7.8750    8.1812   60.6898    7.2581    6.9253    2.5067   -0.0185    0.1902    3.5499   22.0000   22.0000 
2542.4921  774.9516    7.8750    8.2203   58.0385    7.1042    6.8217    2.5289   -0.0186    0.1820    3.4955   22.0000   22.0000 
2542.9921  775.1040    7.8750    8.2047   64.1605    6.8533    6.5698    2.5491   -0.0134    0.1791    3.4263   22.0000   22.0000 
2543.4921  775.2564    7.8750    8.1891   74.5245    6.5904    6.1531    2.5327   -0.0046    0.1968    3.3395   22.0000   22.0000 
2543.9921  775.4088    7.8750    8.1891   63.0518    6.6675    6.0521    2.5106    0.0011    0.2104    3.2737   22.0000   22.0000 
2544.4921  775.5612    7.8750    8.2203   47.8191    7.2349    6.5042    2.5049   -0.0024    0.2070    3.3463   22.0000   22.0000 
2544.9921  775.7136    7.8750    8.2125   50.3739    8.3062    7.6468    2.5183   -0.0047    0.1795    3.5012   22.0000   22.0000 
2545.4921  775.8660    7.8750    8.2047   53.8447    9.7785    9.0805    2.5328   -0.0043    0.1566    3.5518   18.0000   22.0000 
2545.9921  776.0184    7.8750    8.1969   54.6160   11.1243   10.1149    2.5296   -0.0032    0.1578    3.5637   18.0000   22.0000 
2546.4921  776.1708    7.8750    8.1891   54.2785   12.1547   10.8844    2.5247    0.0021    0.1499    3.6667   18.0000   22.0000 
2546.9921  776.3232    7.8750    8.1734   46.7104   12.7469   11.3156    2.5331    0.0040    0.1448    3.7734   18.0000   18.0000 
2547.4921  776.4756    7.8750    8.1734   41.6489   13.0835   11.5606    2.5429    0.0030    0.1440    3.8635   18.0000   18.0000 
2547.9921  776.6280    7.8750    8.1344   47.5781   13.4849   11.8222    2.5441    0.0043    0.1386    3.8997   18.0000   18.0000 
2548.4921  776.7804    7.8750    8.1734   55.1944   14.0095   11.9652    2.5383    0.0046    0.1379    3.7925   18.0000   18.0000 
2548.9921  776.9328    7.8750    8.1891   48.9278   15.1933   12.6518    2.5412    0.0051    0.1377    3.6895   18.0000   18.0000 
2549.4921  777.0852    7.8750    8.1734   34.1772   17.4285   14.8291    2.5596    0.0030    0.1218    3.7421   18.0000   18.0000 
2549.9921  777.2376    7.8750    8.1266   26.2716   20.0603   17.7689    2.5760   -0.0026    0.1040    3.9252   18.0000   18.0000 
2550.4921  777.3900    7.8750    8.1187   26.3198   21.2812   19.4308    2.5849   -0.0035    0.0922    4.1232   18.0000   18.0000 
2550.9921  777.5424    7.8750    8.0953   31.3813   19.8858   18.7164    2.5736   -0.0043    0.0959    4.1534   18.0000   18.0000 
2551.4921  777.6948    7.8750    8.0953   41.7935   16.6865   15.9043    2.5445   -0.0004    0.1182    4.0568   18.0000   18.0000 
2551.9921  777.8472    7.8750    8.1031   52.4467   13.6797   12.7798    2.5373    0.0152    0.1395    4.0292   18.0000   18.0000 
2552.4921  777.9996    7.8750    8.1266   58.6652   11.6195   10.7355    2.5428    0.0217    0.1446    3.9748   18.0000   18.0000 
2552.9921  778.1520    7.8750    8.1500   61.0754   10.4218    9.4444    2.5396    0.0173    0.1481    3.8021   18.0000   22.0000 
2553.4921  778.3044    7.8750    8.1734   64.6908    9.9631    8.9198    2.5453    0.0150    0.1652    3.6841   22.0000   22.0000 
2553.9921  778.4568    7.8750    8.1812   62.0395   10.2370    9.0913    2.5489    0.0105    0.1672    3.7111   22.0000   22.0000 
2554.4921  778.6092    7.8750    8.1734   53.1216   11.1092   10.0405    2.5312    0.0007    0.1564    3.7781   18.0000   22.0000 
2554.9921  778.7616    7.8750    8.1891   42.5648   12.3670   11.3855    2.5173   -0.0077    0.1450    3.8343   18.0000   18.0000 
2555.4921  778.9140    7.8750    8.1891   36.0089   13.3868   12.5497    2.5221   -0.0119    0.1336    3.9137   18.0000   18.0000 
2555.9921  779.0664    7.8750    8.1734   42.4202   13.5160   12.9011    2.5246   -0.0155    0.1307    3.9893   18.0000   18.0000 
2556.4921  779.2188    7.8750    8.1578   52.3503   12.6301   12.2399    2.5227   -0.0144    0.1361    3.9583   18.0000   18.0000 
2556.9921  779.3712    7.8750    8.0953   56.0139   11.3472   10.8467    2.5265   -0.0073    0.1465    3.7498   18.0000   22.0000 
2557.4921  779.5236    7.8750    8.1500   57.0744   10.3501    9.7660    2.5241   -0.0043    0.1665    3.5213   22.0000   22.0000 
2557.9921  779.6760    7.8750    8.2047   58.1831    9.6285    9.1205    2.5160   -0.0054    0.1719    3.4922   22.0000   22.0000 
2558.4921  779.8284    7.8750    8.1500   52.0129    9.2709    8.7633    2.5213   -0.0049    0.1725    3.5875   22.0000   22.0000 
2558.9921  779.9808    7.8750    8.1734   49.2170    8.9718    8.6865    2.5303   -0.0099    0.1661    3.5784   22.0000   22.0000 
2559.4921  780.1332    7.8750    8.1812   50.8078    8.6019    8.2635    2.5348   -0.0127    0.1682    3.5010   22.0000   22.0000 
2559.9921  780.2856    7.8750    8.1969   50.9524    8.5576    8.0841    2.5408   -0.0075    0.1816    3.5014   22.0000   22.0000 
2560.4921  780.4380    7.8750    8.1891   51.7719    8.9373    8.2135    2.5327   -0.0056    0.1787    3.5738   22.0000   22.0000 
2560.9921  780.5904    7.8750    8.1891   45.0232   10.0308    9.1367    2.5223   -0.0041    0.1711    3.7275   22.0000   22.0000 
