~VERSION INFORMATION
 VERS.                 2.0:   CWLS LOG ASCII STANDARD - VERSION 2.0
 WRAP.                  NO:   SINGLE LINE PER DEPTH STEP
 CREA.                 20/03/2018 14:58:23
#CREATED USING DSPetro VERSION 5000.10.1.3 BY H191660 ON 20/03/2018 14:58:23
~WELL INFORMATION
#MNEM.UNIT       DATA                          DESCRIPTION MNEMONIC
#---------      ---------------------------   --------------------------
 STRT    .FT        128.0000                  : START DEPTH
 STOP    .FT        12500.0000                : STOP DEPTH
 STEP    .FT        0.5000                    : STEP VALUE
 NULL    .      -999.0000                     : NULL VALUE
 DATE    .      20/03/2018                    : LAS file Creation Date
 WELL  .      UNIVERSITY_40_16_4247536999  : Well Name
 COMP  .      Neftex Exploration Insights  : Company
 FLD   .      PHANTOM (WOLFCAMP)           : Field
 STATE .      Texas                        : State
 COUNT .      USA                          : Country
 API   .      42475369990000               : API Number
 UWI   .      222                          : Unique Well Identifier (UWI)
 LOC   .      1980FNL x 1757FWL            : Location
 TOWN  .      16                           : Township
 SCT   .      40                           : Section
 RANG  .      U39                          : Range
 LATI  .      -6470541.88                  : Latitude/Northing
 LONG  .      783810.27                    : Longitude/Easting
 PDAT  .      GL                           : Permanent Datum
 EPDAT .      2604.000000                  : Reference Elevation
 LGMEA .      KB                           : Log Measured from
 DRMEA .      KB                           : Drill Measured From
 APDAT .      25.000000                    : Elevation Above Permanent Datum
 KB    .      2629.00000                   : KB Elevation
 GL    .      2604.00000                   : GL Elevation
 RWS   .      -999                         : Def_Rw
 WST   .      -999                         : Def_Rwt
 CNTY  .      WARD                         : County
 SRVC  .      Diversified Well Logging LLC : Contractor
~CURVE INFORMATION
#MNEM              UNIT       API CODE   Curve Type Comments
#----------  --------------- ----------  ---------- -----------
 DEPTH      .FT                        : Depth       
 BS         .inch                      : BitSize     
 DCAL_INCH  .inch                      :             Differential Caliper - Evaluates the difference between the actual borehole diameter and bit size
 GR         .GAPI                      : GammaRay    Gamma Ray {F11.4}
 LLD_OHMM   .ohmm                      :             Laterlog Deep Resistivity - Measurement made several feet into the formation; generally considered a measurement of the undisturbed formation
 LLM_OHMM   .ohm.m                     :             Laterlog Medium Resistivity - Measurement made approximately two to three feet into the formation - units of ohmm
 LLS_OHMM   .ohmm                      :             Laterlog Shallow Resistivity - one to two feet into the formation; generally considered to measure the formation
 NPHI_RATIO .ratio                     :             Neutron Porosity - Measured with an neutron logging device calibrated to a given matrix (limestone, sandstone and dolomite)
 PEF_B_E    .b/e-                      : PEF         Photoelectric Factor - A log of photoelectric absorption properties. Often expressed in an approximation unit barns/electron (b/e-)
 RHOZ_G_CC  .g/cc                      :             Formation Density - Measures the density of formation, including any void space or other materials contained in the subject volume
 LITH       .                          : LITH        Lithology Curve
~A  DEPTH     BS    DCAL_INC~     GR     LLD_OHMM  LLM_OHMM  LLS_OHMM NPHI_RAT~  PEF_B_E  RHOZ_G_C~    LITH   
# ...
4820.5000 -999.0000   -5.9379   13.4294    0.0051    0.0062    0.0065    0.0727    9.9602    2.0223    3.0000 
4821.0000 -999.0000   -5.9379   13.8498    0.0052    0.0065    0.0070    0.0751    9.9772    2.0172    3.0000 
4821.5000 -999.0000   -5.9157   14.2084    0.0046    0.0063    0.0070    0.0737    9.9501    2.0146    3.0000 
4822.0000 -999.0000   -5.9157   12.8935    0.0054    0.0068    0.0075    0.0719   10.0000    2.0126    3.0000 
4822.5000 -999.0000   -5.9157   12.3329    0.0053    0.0066    0.0073    0.0668    9.9556    2.0133    3.0000 
4823.0000 -999.0000   -5.9379   13.5242    0.0056    0.0069    0.0077    0.0723   10.0000    2.0101    3.0000 
4823.5000 -999.0000   -5.9379   15.4050    0.0055    0.0066    0.0073    0.0716   10.0000    2.0061    3.0000 
4824.0000 -999.0000   -5.9268   15.4972    0.0059    0.0071    0.0079    0.0792    9.8980    2.0025    3.0000 
4824.5000 -999.0000   -5.9157   13.2549    0.0058    0.0069    0.0075    0.0756   10.0000    2.0074    3.0000 
4825.0000 -999.0000   -5.9379   11.0938    0.0049    0.0066    0.0073    0.0777   10.0000    2.0034    3.0000 
4825.5000 -999.0000   -5.9157    9.6702    0.0038    0.0056    0.0060    0.0737   10.0000    2.0025    3.0000 
4826.0000 -999.0000   -5.9157    9.8804    0.0063    0.0079    0.0090    0.0748    9.8909    2.0126    3.0000 
4826.5000 -999.0000   -5.9268   10.1895    0.0063    0.0082    0.0093    0.0735    9.8803    2.0237    3.0000 
4827.0000 -999.0000   -5.9379   10.7151    0.0056    0.0071    0.0079    0.0747   10.0000    2.0436    3.0000 
4827.5000 -999.0000   -5.9157   10.9534    0.0055    0.0070    0.0078    0.0731   10.0000    2.0547    3.0000 
4828.0000 -999.0000   -5.9379   11.9055    0.0054    0.0069    0.0078    0.0744    9.9585    2.0564    3.0000 
4828.5000 -999.0000   -5.9157   12.5794    0.0045    0.0064    0.0073    0.0738    9.9821    2.0546    3.0000 
4829.0000 -999.0000   -5.9268   14.2611    0.0044    0.0061    0.0068    0.0753    9.9809    2.0558    3.0000 
4829.5000 -999.0000   -5.9157   13.9026    0.0039    0.0055    0.0059    0.0745    9.9987    2.0764    3.0000 
4830.0000 -999.0000   -5.9379   13.7542    0.0038    0.0053    0.0055    0.0729   10.0000    2.0913    3.0000 
4830.5000 -999.0000   -5.9157   12.5700    0.0042    0.0060    0.0065    0.0695    9.9493    2.0878    3.0000 
4831.0000 -999.0000   -5.9157   11.2469    0.0045    0.0060    0.0065    0.0693   10.0000    2.0683    3.0000 
4831.5000 -999.0000   -5.9157   10.8264    0.0041    0.0050    0.0048    0.0700    9.8909    2.0492    3.0000 
4832.0000 -999.0000   -5.9157    9.9854    0.0052    0.0064    0.0068    0.0757    9.9639    2.0393    3.0000 
4832.5000 -999.0000   -5.9157   10.6161    0.0053    0.0063    0.0067    0.0736   10.0000    2.0421    3.0000 
4833.0000 -999.0000   -5.9157   10.3935    0.0038    0.0054    0.0059    0.0783   10.0000    2.0513    3.0000 
4833.5000 -999.0000   -5.9157    9.7629    0.0061    0.0081    0.0093    0.0789   10.0000    2.0655    3.0000 
4834.0000 -999.0000   -5.9379    9.3144    0.0046    0.0058    0.0062    0.0824    9.8954    2.0798    3.0000 
4834.5000 -999.0000   -5.9157    9.0176    0.0055    0.0069    0.0075    0.0751    9.8817    2.0893    3.0000 
4835.0000 -999.0000   -5.9379    9.2279    0.0056    0.0070    0.0075    0.0676   10.0000    2.0831    3.0000 
4835.5000 -999.0000   -5.9379    8.5202    0.0054    0.0075    0.0084    0.0619    9.9943    2.0782    3.0000 
4836.0000 -999.0000   -5.9157    7.5680    0.0032    0.0050    0.0050    0.0612    9.9996    2.0669    3.0000 
4836.5000 -999.0000   -5.9379    8.5140    0.0042    0.0062    0.0068    0.0663    9.9821    2.0627    3.0000 
4837.0000 -999.0000   -5.9379    9.4600    0.0033    0.0049    0.0052    0.0676    9.9458    2.0496    3.0000 
4837.5000 -999.0000   -5.9379    9.4600    0.0057    0.0075    0.0085    0.0695   10.0000    2.0570    3.0000 
4838.0000 -999.0000   -5.9379    8.7242    0.0056    0.0067    0.0073    0.0654    9.9153    2.0807    3.0000 
4838.5000 -999.0000   -5.9379    9.5650    0.0056    0.0068    0.0076    0.0676    9.9734    2.0992    3.0000 
4839.0000 -999.0000   -5.9268   11.4570    0.0051    0.0061    0.0067    0.0639   10.0000    2.1026    3.0000 
4839.5000 -999.0000   -5.9268   10.9314    0.0055    0.0071    0.0082    0.0630   10.0000    2.0891    3.0000 
4840.0000 -999.0000   -5.9268    9.7752    0.0052    0.0071    0.0082    0.0596   10.0000    2.0877    3.0000 
4840.5000 -999.0000   -5.9379    7.9884    0.0057    0.0070    0.0079    0.0623    9.9339    2.0825    3.0000 
4841.0000 -999.0000   -5.9157    9.4600    0.0064    0.0061    0.0063    0.0646    9.9847    2.0782    3.0000 
4841.5000 -999.0000   -5.9157    9.9856    0.0053    0.0062    0.0067    0.0628    9.9371    2.0707    3.0000 
4842.0000 -999.0000   -5.9157    9.7753    0.0056    0.0063    0.0066    0.0648    9.9854    2.0642    3.0000 
4842.5000 -999.0000   -5.9157    8.8293    0.0057    0.0063    0.0066    0.0676   10.0000    2.0632    3.0000 
4843.0000 -999.0000   -5.9157    9.4599    0.0066    0.0073    0.0080    0.0689    9.9726    2.0687    3.0000 
4843.5000 -999.0000   -5.9268   10.4059    0.0053    0.0068    0.0076    0.0671   10.0000    2.0797    3.0000 
4844.0000 -999.0000   -5.9157   10.5110    0.0045    0.0057    0.0062    0.0654    9.9542    2.0880    3.0000 
4844.5000 -999.0000   -5.9157   10.7213    0.0051    0.0065    0.0073    0.0686   10.0000    2.0893    3.0000 
4845.0000 -999.0000   -5.9379   10.8264    0.0043    0.0055    0.0060    0.0661   10.0000    2.0786    3.0000 
4845.5000 -999.0000   -5.9268   10.5111    0.0040    0.0058    0.0066    0.0651    9.9418    2.0675    3.0000 
4846.0000 -999.0000   -5.9157   10.9315    0.0048    0.0066    0.0075    0.0650    9.9343    2.0679    3.0000 
4846.5000 -999.0000   -5.9379   11.0365    0.0054    0.0068    0.0076    0.0687   10.0000    2.0811    3.0000 
4847.0000 -999.0000   -5.9379   12.0876    0.0040    0.0056    0.0063    0.0706   10.0000    2.0925    3.0000 
4847.5000 -999.0000   -5.9268   11.2468    0.0044    0.0060    0.0069    0.0711    9.8673    2.0946    3.0000 
4848.0000 -999.0000   -5.9379   11.5622    0.0045    0.0063    0.0070    0.0711    9.9842    2.0933    3.0000 
4848.5000 -999.0000   -5.9157   10.8264    0.0041    0.0059    0.0067    0.0661   10.0000    2.1013    3.0000 
4849.0000 -999.0000   -5.9379   10.8264    0.0045    0.0062    0.0069    0.0648    9.9784    2.1133    3.0000 
4849.5000 -999.0000   -5.9157   11.0366    0.0052    0.0061    0.0070    0.0633    9.9375    2.1197    3.0000 
4850.0000 -999.0000   -5.9379   11.5622    0.0058    0.0063    0.0072    0.0620   10.0000    2.1091    3.0000 
4850.5000 -999.0000   -5.9157   11.5621    0.0050    0.0056    0.0062    0.0620   10.0000    2.0967    3.0000 
4851.0000 -999.0000   -5.9268   11.5621    0.0037    0.0045    0.0050    0.0703    9.8899    2.0938    3.0000 
4851.5000 -999.0000   -5.9268   11.0366    0.0054    0.0061    0.0071    0.0792    9.9947    2.0954    3.0000 
4852.0000 -999.0000   -5.9379    9.9855    0.0039    0.0055    0.0067    0.0827   10.0000    2.0918    3.0000 
4852.5000 -999.0000   -5.9379    9.5650    0.0052    0.0068    0.0083    0.0781    9.9894    2.0781    3.0000 
4853.0000 -999.0000   -5.9157    9.6771    0.0034    0.0049    0.0058    0.0755    9.9999    2.0712    3.0000 
4853.5000 -999.0000   -5.9157   10.0976    0.0050    0.0058    0.0069    0.0777    9.9475    2.0613    3.0000 
4854.0000 -999.0000   -5.9379   10.3882    0.0054    0.0059    0.0067    0.0796   10.0000    2.0643    3.0000 
4854.5000 -999.0000   -5.9268   10.6125    0.0053    0.0057    0.0065    0.0789    9.9644    2.0716    3.0000 
4855.0000 -999.0000   -5.9379   10.6248    0.0052    0.0054    0.0060    0.0781    9.9531    2.0879    3.0000 
4855.5000 -999.0000   -5.9268   10.3342    0.0034    0.0042    0.0047    0.0795    9.9994    2.0916    3.0000 
4856.0000 -999.0000   -5.9268   11.3644    0.0068    0.0063    0.0069    0.0850    9.9835    2.0914    3.0000 
4856.5000 -999.0000   -5.9268   11.8776    0.0053    0.0053    0.0059    0.0864    9.9569    2.0917    3.0000 
