~VERSION INFORMATION
 VERS.                 2.0:   CWLS LOG ASCII STANDARD - VERSION 2.0
 WRAP.                  NO:   SINGLE LINE PER DEPTH STEP
 CREA.                 20/03/2018 14:58:23
#CREATED USING DSPetro VERSION 5000.10.1.3 BY H191660 ON 20/03/2018 14:58:23
~WELL INFORMATION
#MNEM.UNIT       DATA                          DESCRIPTION MNEMONIC
#---------      ---------------------------   --------------------------
 STRT    .FT        128.0000                  : START DEPTH
 STOP    .FT        12500.0000                : STOP DEPTH
 STEP    .FT        0.5000                    : STEP VALUE
 NULL    .      -999.0000                     : NULL VALUE
 DATE    .      20/03/2018                    : LAS file Creation Date
 WELL  .      UNIVERSITY_40_16_4247536999  : Well Name
 COMP  .      Neftex Exploration Insights  : Company
 FLD   .      PHANTOM (WOLFCAMP)           : Field
 STATE .      Texas                        : State
 COUNT .      USA                          : Country
 API   .      42475369990000               : API Number
 UWI   .      222                          : Unique Well Identifier (UWI)
 LOC   .      1980FNL x 1757FWL            : Location
 TOWN  .      16                           : Township
 SCT   .      40                           : Section
 RANG  .      U39                          : Range
 LATI  .      -6470541.88                  : Latitude/Northing
 LONG  .      783810.27                    : Longitude/Easting
 PDAT  .      GL                           : Permanent Datum
 EPDAT .      2604.000000                  : Reference Elevation
 LGMEA .      KB                           : Log Measured from
 DRMEA .      KB                           : Drill Measured From
 APDAT .      25.000000                    : Elevation Above Permanent Datum
 KB    .      2629.00000                   : KB Elevation
 GL    .      2604.00000                   : GL Elevation
 RWS   .      -999                         : Def_Rw
 WST   .      -999                         : Def_Rwt
 CNTY  .      WARD                         : County
 SRVC  .      Diversified Well Logging LLC : Contractor
~CURVE INFORMATION
#MNEM              UNIT       API CODE   Curve Type Comments
#----------  --------------- ----------  ---------- -----------
 DEPTH      .FT                        : Depth       
 BS         .inch                      : BitSize     
 DCAL_INCH  .inch                      :             Differential Caliper - Evaluates the difference between the actual borehole diameter and bit size
 GR         .GAPI                      : GammaRay    Gamma Ray {F11.4}
 LLD_OHMM   .ohmm                      :             Laterlog Deep Resistivity - Measurement made several feet into the formation; generally considered a measurement of the undisturbed formation
 LLM_OHMM   .ohm.m                     :             Laterlog Medium Resistivity - Measurement made approximately two to three feet into the formation - units of ohmm
 LLS_OHMM   .ohmm                      :             Laterlog Shallow Resistivity - one to two feet into the formation; generally considered to measure the formation
 NPHI_RATIO .ratio                     :             Neutron Porosity - Measured with an neutron logging device calibrated to a given matrix (limestone, sandstone and dolomite)
 PEF_B_E    .b/e-                      : PEF         Photoelectric Factor - A log of photoelectric absorption properties. Often expressed in an approximation unit barns/electron (b/e-)
 RHOZ_G_CC  .g/cc                      :             Formation Density - Measures the density of formation, including any void space or other materials contained in the subject volume
 LITH       .                          : LITH        Lithology Curve
~A  DEPTH     BS    DCAL_INC~     GR     LLD_OHMM  LLM_OHMM  LLS_OHMM NPHI_RAT~  PEF_B_E  RHOZ_G_C~    LITH   
# ...
5329.5000    8.7500    1.2986   68.0483    6.0333    6.0264    5.4855    0.1408    2.8286    2.5590   36.0000 
5330.0000    8.7500    1.3134   71.8324    5.8618    5.7731    5.2970    0.1383    2.7739    2.5540   36.0000 
5330.5000    8.7500    1.3171   75.3640    6.4826    6.2681    5.6170    0.1283    2.9348    2.5532   36.0000 
5331.0000    8.7500    1.3208   72.1057    6.7231    6.4157    5.7755    0.1339    2.9253    2.5609   37.0000 
5331.5000    8.7500    1.3282   68.9523    6.9892    6.5759    5.9185    0.1290    2.9366    2.5689   37.0000 
5332.0000    8.7500    1.3430   66.9905    7.1987    6.6844    6.0316    0.1317    2.8576    2.5756   37.0000 
5332.5000    8.7500    1.3430   66.9904    7.2109    6.6247    5.9977    0.1277    2.8496    2.5778   37.0000 
5333.0000    8.7500    1.3356   66.8853    7.2026    6.5462    5.8892    0.1295    2.9308    2.5768   37.0000 
5333.5000    8.7500    1.3134   69.0575    6.9734    6.2828    5.6836    0.1343    2.9083    2.5721   37.0000 
5334.0000    8.7500    1.3356   71.7414    7.2810    6.4701    5.6277    0.1406    2.9583    2.5619   37.0000 
5334.5000    8.7500    1.3504   69.0085    4.6909    4.1326    3.8958    0.1408    2.8016    2.5317   36.0000 
5335.0000    8.7500    1.3875   63.6477    3.5540    3.1069    3.0571    0.1436    2.5537    2.5010   36.0000 
5335.5000    8.7500    1.4245   55.8135    3.1819    2.7732    2.7661    0.1335    2.6297    2.4803   36.0000 
5336.0000    8.7500    1.4763   58.0208    2.9953    2.6055    2.5964    0.1355    2.6445    2.4757   36.0000 
5336.5000    8.7500    1.4912   61.7699    2.9014    2.5009    2.4427    0.1264    2.5913    2.4711   36.0000 
5337.0000    8.7500    1.5504   65.3437    2.8400    2.4277    2.3298    0.1388    2.5388    2.4613   36.0000 
5337.5000    8.7500    1.5800   61.8750    2.7990    2.3693    2.2584    0.1493    2.5607    2.4621   36.0000 
5338.0000    8.7500    1.6060   57.6145    2.9803    2.4976    2.3382    0.1642    2.5797    2.4660   36.0000 
5338.5000    8.7500    1.6504   54.7765    2.9466    2.4159    2.2127    0.1685    2.6081    2.4564   36.0000 
5339.0000    8.7500    1.7171   48.4699    1.8142    1.4683    1.3992    0.1686    2.6086    2.4253   37.0000 
5339.5000    8.7500    1.7726   41.8340    1.4750    1.2004    1.1597    0.1585    2.5981    2.4023   27.0000 
5340.0000    8.7500    1.8615   37.0479    1.9388    1.5772    1.4710    0.1430    2.7056    2.4010   27.0000 
5340.5000    8.7500    1.9059   37.7838    1.9666    1.6034    1.4674    0.1345    2.5906    2.4011   27.0000 
5341.0000    8.7500    1.9948   39.9910    1.6126    1.3194    1.1920    0.1473    2.5881    2.3800   27.0000 
5341.5000    8.7500    2.0541   39.8368    1.3297    1.0999    0.9804    0.1748    2.4757    2.3555   27.0000 
5342.0000    8.7500    2.1281   39.7315    1.2650    1.0620    0.9430    0.1999    2.4088    2.3438   27.0000 
5342.5000    8.7500    2.1874   37.4332    1.2410    1.0593    0.9316    0.1869    2.3591    2.3473   27.0000 
5343.0000    8.7500    2.2392   36.8025    1.2296    1.0591    0.9181    0.1868    2.3383    2.3568   27.0000 
5343.5000    8.7500    2.2837   37.0128    1.2015    1.0322    0.8953    0.1759    2.3489    2.3570   27.0000 
5344.0000    8.7500    2.3281   39.0310    1.1859    1.0177    0.8856    0.1915    2.4398    2.3500   27.0000 
5344.5000    8.7500    2.3726   40.2923    1.1423    0.9787    0.8585    0.2002    2.3226    2.3383   27.0000 
5345.0000    8.7500    2.3874   38.6106    1.1145    0.9470    0.8613    0.2145    2.4138    2.3358   27.0000 
5345.5000    8.7500    2.3800   36.5783    1.1438    0.9620    0.8921    0.2330    2.3921    2.3408   27.0000 
5346.0000    8.7500    2.3652   35.6534    1.1829    0.9822    0.9135    0.2485    2.4118    2.3427   27.0000 
5346.5000    8.7500    2.3392   39.3322    1.1071    0.9074    0.8541    0.2455    2.5657    2.3570   27.0000 
5347.0000    8.7500    2.1837   41.3293    1.4316    1.1567    1.0574    0.2170    2.9003    2.3774   36.0000 
5347.5000    8.7500    2.0022   45.6178    1.8727    1.5271    1.3786    0.1766    2.5908    2.4020   36.0000 
5348.0000    8.7500    1.8467   45.2884    1.8779    1.5322    1.4070    0.1506    2.7007    2.4101   36.0000 
5348.5000    8.7500    1.7208   46.1293    1.9131    1.5845    1.4788    0.1558    2.6725    2.4102   36.0000 
5349.0000    8.7500    1.6837   44.0832    1.4636    1.2156    1.2062    0.1610    2.5334    2.4008   36.0000 
5349.5000    8.7500    1.6393   46.3045    1.4989    1.2337    1.2271    0.1771    2.5262    2.4058   36.0000 
5350.0000    8.7500    1.5949   48.6171    1.8303    1.4938    1.4514    0.1679    2.7182    2.4257   36.0000 
5350.5000    8.7500    1.5060   53.1018    3.3337    2.7131    2.3640    0.1548    2.8290    2.4515   36.0000 
5351.0000    8.7500    1.3504   57.0402    2.8030    2.3164    2.1440    0.1420    2.7734    2.4649   36.0000 
5351.5000    8.7500    1.3208   58.8549    2.8659    2.3747    2.1791    0.1422    2.5715    2.4708   36.0000 
5352.0000    8.7500    1.2615   60.9364    3.5870    2.9773    2.6095    0.1434    2.7658    2.4901   36.0000 
5352.5000    8.7500    1.1838   59.6258    4.4399    3.6971    3.1324    0.1331    2.7571    2.5190   36.0000 
5353.0000    8.7500    1.1430   59.8079    5.2994    4.4244    3.6027    0.1154    2.8120    2.5531   36.0000 
5353.5000    8.7500    1.1208   59.1839    6.6906    5.5901    4.2344    0.1052    2.7743    2.5707   36.0000 
5354.0000    8.7500    1.0838   58.3430    6.8352    5.8144    4.3107    0.1025    2.7145    2.5704   36.0000 
5354.5000    8.7500    1.0616   58.2381    5.8008    5.0380    3.8481    0.1068    2.7464    2.5518   36.0000 
5355.0000    8.7500    1.0542   58.2381    4.9411    4.3411    3.4396    0.1101    2.6867    2.5267   36.0000 
5355.5000    8.7500    1.0504   58.8688    3.6702    3.2725    2.7831    0.1255    2.6876    2.5009   36.0000 
5356.0000    8.7500    1.0504   61.0762    3.0399    2.7601    2.5080    0.1401    2.6244    2.4802   36.0000 
5356.5000    8.7500    1.0393   58.6096    3.0767    2.8422    2.5859    0.1549    2.6661    2.4671   36.0000 
5357.0000    8.7500    1.0319   61.2374    3.1554    2.9637    2.6673    0.1509    2.6551    2.4747   36.0000 
5357.5000    8.7500    1.0023   64.4957    3.2254    3.0937    2.6891    0.1468    2.7151    2.4799   36.0000 
5358.0000    8.7500    0.9949   64.4327    3.9237    3.8473    3.1184    0.1309    2.6897    2.4907   36.0000 
5358.5000    8.7500    0.9727   62.5407    4.6863    4.6268    3.5838    0.1286    2.7666    2.4875   36.0000 
5359.0000    8.7500    0.9616   57.9157    4.1491    4.1444    3.3260    0.1319    2.7722    2.4881   36.0000 
5359.5000    8.7500    0.9727   60.5575    3.7999    3.8172    3.1677    0.1417    2.8122    2.4889   36.0000 
5360.0000    8.7500    0.9579   59.1909    3.8777    3.8894    3.3125    0.1418    2.7271    2.4944   36.0000 
5360.5000    8.7500    0.9579   59.2962    3.6350    3.6363    3.2184    0.1464    2.8509    2.4989   36.0000 
5361.0000    8.7500    0.9393   59.9689    3.5211    3.5099    3.1941    0.1546    2.8844    2.4996   36.0000 
5361.5000    8.7500    0.9171   62.8070    3.4484    3.4433    3.1773    0.1617    2.9003    2.5036   36.0000 
5362.0000    8.7500    0.8949   64.4888    3.7320    3.7417    3.4282    0.1536    2.7668    2.5170   36.0000 
5362.5000    8.7500    0.8690   65.1616    4.3553    4.3852    3.8995    0.1356    2.8440    2.5380   36.0000 
5363.0000    8.7500    0.8394   66.5279    5.4253    5.4732    4.6296    0.1273    2.7655    2.5573   36.0000 
5363.5000    8.7500    0.8060   67.4738    7.1068    7.1439    5.6622    0.1182    2.7978    2.5682   36.0000 
5364.0000    8.7500    0.7653   72.1825    9.8090    9.8328    7.2907    0.1226    2.8341    2.5746   36.0000 
5364.5000    8.7500    0.7394   71.0265   10.1476   10.3200    7.6116    0.1207    2.8200    2.5739   36.0000 
5365.0000    8.7500    0.7283   67.0323    6.5099    6.6701    5.6945    0.1156    2.7086    2.5625   36.0000 
5365.5000    8.7500    0.6986   60.0812    5.8960    5.9819    5.4456    0.1074    2.7510    2.5463   36.0000 
