~VERSION INFORMATION
 VERS.                 2.0:   CWLS LOG ASCII STANDARD - VERSION 2.0
 WRAP.                  NO:   SINGLE LINE PER DEPTH STEP
 CREA.                 20/03/2018 14:44:45
#CREATED USING DSPetro VERSION 5000.10.1.3 BY H191660 ON 20/03/2018 14:44:45
~WELL INFORMATION
#MNEM.UNIT       DATA                          DESCRIPTION MNEMONIC
#---------      ---------------------------   --------------------------
 STRT    .FT        300.0092                  : START DEPTH
 STOP    .FT        12601.0092                : STOP DEPTH
 STEP    .FT        0.5000                    : STEP VALUE
 NULL    .      -999.0000                     : NULL VALUE
 DATE    .      20/03/2018                    : LAS file Creation Date
 WELL  .      UNIVERSITY_20_3_1_4230131346 : Well Name
 COMP  .      Chesapeake Operating, Inc.   : Company
 FLD   .      Haley                        : Field
 STATE .      Texas                        : State
 API   .      42-301-31346                 : API Number
 UWI   .      507                          : Unique Well Identifier (UWI)
 LOC   .      1320' FNL & 1320' FWL        : Location
 TOWN  .      20                           : Township
 SCT   .      3                            : Section
 RANG  .      University Lands             : Range
 PDAT  .      GROUND LEVEL                 : Permanent Datum
 EPDAT .      2800.000000                  : Reference Elevation
 LGMEA .      KELLY BUSHING                : Log Measured from
 DRMEA .      KELLY BUSHING                : Drill Measured From
 APDAT .      26.000000                    : Elevation Above Permanent Datum
 KB    .      2826.00000                   : KB Elevation
 GL    .      2800.00000                   : GL Elevation
 RWS   .      -999                         : Def_Rw
 WST   .      -999                         : Def_Rwt
 CNTY  .      Loving                       : County
 SRVC  .      Schlumberger                 : Contractor
~CURVE INFORMATION
#MNEM              UNIT       API CODE   Curve Type Comments
#----------  --------------- ----------  ---------- -----------
 DEPTH      .FT                        : Depth       
 BS         .inch                      : BitSize     
 CAL        .inch                      :             
 GR         .API                       : GammaRay    
 SP_MV      .mv                        : SP          Spontaneous Potential - Records the electrical potential produced by the interaction of formation water, conductive drilling mud, and certain ion-sele
 DRES       .OHMM                      :             
 MRES       .OHMM                      : MedRes      
 SRES       .OHMM                      : ShalRes     
 DRHO       .G/C3                      : Drho        
 NPHI       .CFCF                      : Neutron     
 PEF        .B/E                       : PEF         
 RHOB       .G/C3                      : Density     
 LITH       .                          : LITH        Lithology Curve
~A  DEPTH     BS       CAL        GR      SP_MV      DRES      MRES      SRES      DRHO      NPHI      PEF       RHOB      LITH   
# ...
2761.0092 -999.0000    4.0931   11.2218 -999.0000    0.0045    0.0061    0.0098    0.2858    0.0338    8.6457    2.3248    3.0000 
2761.5092 -999.0000    4.0931   13.0197 -999.0000    0.0042    0.0058    0.0090    0.2872    0.0363    8.6210    2.3407    3.0000 
2762.0092 -999.0000    4.0931    6.0425 -999.0000    0.0037    0.0050    0.0082    0.2854    0.0465    8.5878    2.3260    3.0000 
2762.5092 -999.0000    4.0931   13.0066 -999.0000    0.0051    0.0065    0.0099    0.2930    0.0600    8.5580    2.3775    3.0000 
2763.0092 -999.0000    4.0931    9.5083 -999.0000    0.0051    0.0064    0.0099    0.2987    0.0601    8.5295    2.3824    3.0000 
2763.5092 -999.0000    4.0931    9.5213 -999.0000    0.0046    0.0054    0.0085    0.2965    0.0446    8.5047    2.3891    3.0000 
2764.0092 -999.0000    4.0931   12.1240 -999.0000    0.0033    0.0039    0.0063    0.2936    0.0492    8.4652    2.3887    3.0000 
2764.5092 -999.0000    4.0931    4.3290 -999.0000    0.0034    0.0043    0.0071    0.2949    0.0433    8.4208    2.4464    3.0000 
2765.0092 -999.0000    4.0931   12.1499 -999.0000    0.0045    0.0053    0.0082    0.3000    0.0444    8.3702    2.4644    3.0000 
2765.5092 -999.0000    4.0931   15.5380 -999.0000    0.0052    0.0054    0.0084    0.2931    0.0348    8.3191    2.3931    3.0000 
2766.0092 -999.0000    4.0931   16.4662 -999.0000    0.0050    0.0051    0.0082    0.2901    0.0455    8.2627    2.3622    3.0000 
2766.5092 -999.0000    4.0931    8.6322 -999.0000    0.0066    0.0072    0.0109    0.2957    0.0425    8.2342    2.3782    3.0000 
2767.0092 -999.0000    4.0931    8.6776 -999.0000    0.0061    0.0065    0.0099    0.3088    0.0412    8.2481    2.3621    3.0000 
2767.5092 -999.0000    4.0931    6.9251 -999.0000    0.0053    0.0053    0.0084    0.3163    0.0356    8.3107    2.3818    3.0000 
2768.0092 -999.0000    4.0931    8.6581 -999.0000    0.0072    0.0077    0.0116    0.3094    0.0371    8.3725    2.3712    3.0000 
2768.5092 -999.0000    4.0698    6.0619 -999.0000    0.0068    0.0072    0.0106    0.3111    0.0339    8.4184    2.3804    3.0000 
2769.0092 -999.0000    4.0931    4.3159 -999.0000    0.0063    0.0068    0.0102    0.3070    0.0357    8.4442    2.3753    3.0000 
2769.5092 -999.0000    4.0931    6.0813 -999.0000    0.0063    0.0070    0.0105    0.3082    0.0253    8.4743    2.3573    3.0000 
2770.0092 -999.0000    4.0931    9.4954 -999.0000    0.0055    0.0057    0.0089    0.3054    0.0198    8.4928    2.3636    3.0000 
2770.5092 -999.0000    4.0931   11.8428 -999.0000    0.0059    0.0062    0.0092    0.3082    0.0072    8.4910    2.3813    3.0000 
2771.0092 -999.0000    4.0698   10.4105 -999.0000    0.0055    0.0057    0.0088    0.3081    0.0024    8.4481    2.3945    3.0000 
2771.5092 -999.0000    4.0931   14.7202 -999.0000    0.0049    0.0048    0.0076    0.2955   -0.0022    8.3993    2.3574    3.0000 
2772.0092 -999.0000    4.0931    8.6582 -999.0000    0.0065    0.0070    0.0104    0.2797   -0.0014    8.3908    2.3469    3.0000 
2772.5092 -999.0000    4.0931    6.9186 -999.0000    0.0055    0.0056    0.0085    0.2738    0.0004    8.4059    2.3392    3.0000 
2773.0092 -999.0000    4.0931    4.3159 -999.0000    0.0059    0.0061    0.0094    0.2827    0.0003    8.4550    2.3448    3.0000 
2773.5092 -999.0000    4.0931   15.6288 -999.0000    0.0055    0.0061    0.0094    0.2959   -0.0039    8.4914    2.3931    3.0000 
2774.0092 -999.0000    4.0931   12.0851 -999.0000    0.0064    0.0062    0.0094    0.3023    0.0073    8.5518    2.3666    3.0000 
2774.5092 -999.0000    4.0931    9.5473 -999.0000    0.0060    0.0057    0.0086    0.2998    0.0085    8.6084    2.3925    3.0000 
2775.0092 -999.0000    4.0931   10.3586 -999.0000    0.0060    0.0056    0.0086    0.2987    0.0143    8.6524    2.4005    3.0000 
2775.5092 -999.0000    4.0931    9.5408 -999.0000    0.0075    0.0074    0.0112    0.3031    0.0125    8.6512    2.4085    3.0000 
2776.0092 -999.0000    4.0931    9.5213 -999.0000    0.0065    0.0065    0.0099    0.3093    0.0082    8.6083    2.4021    3.0000 
2776.5092 -999.0000    4.0698   11.2478 -999.0000    0.0057    0.0052    0.0081    0.3125    0.0043    8.5403    2.4323    3.0000 
2777.0092 -999.0000    4.0698    7.7948 -999.0000    0.0062    0.0059    0.0091    0.3111    0.0006    8.4870    2.4066    3.0000 
2777.5092 -999.0000    4.0931   11.2348 -999.0000    0.0063    0.0060    0.0091    0.3158    0.0026    8.4355    2.4327    3.0000 
2778.0092 -999.0000    4.0931    9.5408 -999.0000    0.0070    0.0070    0.0104    0.3191    0.0007    8.3970    2.4329    3.0000 
2778.5092 -999.0000    4.0931   12.0851 -999.0000    0.0069    0.0070    0.0105    0.3219    0.0005    8.3573    2.4011    3.0000 
2779.0092 -999.0000    4.0931   13.8830 -999.0000    0.0067    0.0065    0.0099    0.3196   -0.0052    8.3201    2.4027    3.0000 
2779.5092 -999.0000    4.0931    9.4954 -999.0000    0.0074    0.0074    0.0110    0.3196   -0.0078    8.2726    2.4082    3.0000 
2780.0092 -999.0000    4.0931    5.2051 -999.0000    0.0073    0.0072    0.0107    0.3206   -0.0117    8.2102    2.3837    3.0000 
2780.5092 -999.0000    4.0931    8.6386 -999.0000    0.0079    0.0084    0.0124    0.3205   -0.0116    8.1416    2.3808    3.0000 
2781.0092 -999.0000    4.0698    7.8013 -999.0000    0.0072    0.0072    0.0108    0.3158   -0.0106    8.0671    2.4214    3.0000 
2781.5092 -999.0000    4.0931    8.6581 -999.0000    0.0062    0.0060    0.0090    0.3031   -0.0035    8.0083    2.3606    3.0000 
2782.0092 -999.0000    4.0931    6.9251 -999.0000    0.0070    0.0070    0.0107    0.2849    0.0053    7.9458    2.3159    3.0000 
2782.5092 -999.0000    4.0931    7.8143 -999.0000    0.0066    0.0065    0.0098    0.2729    0.0284    7.9189    2.3084    3.0000 
2783.0092 -999.0000    4.0698   10.3586 -999.0000    0.0060    0.0059    0.0090    0.2799    0.0370    7.9027    2.3575    3.0000 
2783.5092 -999.0000    4.0931    8.6840 -999.0000    0.0068    0.0071    0.0108    0.2937    0.0399    7.9100    2.3289    3.0000 
2784.0092 -999.0000    4.0931    8.6321 -999.0000    0.0067    0.0067    0.0101    0.3070    0.0450    7.9004    2.3273    3.0000 
2784.5092 -999.0000    4.0931    8.6711 -999.0000    0.0064    0.0066    0.0100    0.3029    0.0492    7.8560    2.3065    3.0000 
2785.0092 -999.0000    4.0931   14.7007 -999.0000    0.0053    0.0051    0.0082    0.2953    0.0622    7.8378    2.3140    3.0000 
2785.5092 -999.0000    4.0698   13.8570 -999.0000    0.0053    0.0054    0.0083    0.2868    0.0636    7.8351    2.3091    3.0000 
2786.0092 -999.0000    4.0931   14.7073 -999.0000    0.0069    0.0072    0.0106    0.2819    0.0650    7.8688    2.3007    3.0000 
2786.5092 -999.0000    4.0698   10.3651 -999.0000    0.0056    0.0056    0.0086    0.2831    0.0690    7.8868    2.3016    3.0000 
2787.0092 -999.0000    4.0931   10.4040 -999.0000    0.0061    0.0064    0.0099    0.2851    0.0523    7.9229    2.3070    3.0000 
2787.5092 -999.0000    4.0931   10.3586 -999.0000    0.0049    0.0056    0.0085    0.2863    0.0383    7.9438    2.3219    3.0000 
2788.0092 -999.0000    4.0698    8.6776 -999.0000    0.0058    0.0067    0.0103    0.2859    0.0202    7.9461    2.3172    3.0000 
2788.5092 -999.0000    4.0698    8.6321 -999.0000    0.0061    0.0069    0.0105    0.2877    0.0164    7.9338    2.3132    3.0000 
2789.0092 -999.0000    4.0931    7.7948 -999.0000    0.0056    0.0067    0.0100    0.2964    0.0107    7.9457    2.3398    3.0000 
2789.5092 -999.0000    4.0698    9.5278 -999.0000    0.0055    0.0070    0.0107    0.3010    0.0077    7.9753    2.3326    3.0000 
2790.0092 -999.0000    4.0931   12.1110 -999.0000    0.0061    0.0077    0.0115    0.3005    0.0043    8.0231    2.3507    3.0000 
2790.5092 -999.0000    4.0698   11.5412 -999.0000    0.0048    0.0061    0.0097    0.2929    0.0000    8.0583    2.3313    3.0000 
2791.0092 -999.0000    4.0931   11.8821 -999.0000    0.0051    0.0068    0.0104    0.2939    0.0014    8.0888    2.3109    3.0000 
2791.5092 -999.0000    4.0698    7.7689 -999.0000    0.0036    0.0050    0.0080    0.3003    0.0070    8.1053    2.3407    3.0000 
