~VERSION INFORMATION
 VERS.                 2.0:   CWLS LOG ASCII STANDARD - VERSION 2.0
 WRAP.                  NO:   SINGLE LINE PER DEPTH STEP
 CREA.                 20/03/2018 14:44:45
#CREATED USING DSPetro VERSION 5000.10.1.3 BY H191660 ON 20/03/2018 14:44:45
~WELL INFORMATION
#MNEM.UNIT       DATA                          DESCRIPTION MNEMONIC
#---------      ---------------------------   --------------------------
 STRT    .FT        300.0092                  : START DEPTH
 STOP    .FT        12601.0092                : STOP DEPTH
 STEP    .FT        0.5000                    : STEP VALUE
 NULL    .      -999.0000                     : NULL VALUE
 DATE    .      20/03/2018                    : LAS file Creation Date
 WELL  .      UNIVERSITY_20_3_1_4230131346 : Well Name
 COMP  .      Chesapeake Operating, Inc.   : Company
 FLD   .      Haley                        : Field
 STATE .      Texas                        : State
 API   .      42-301-31346                 : API Number
 UWI   .      507                          : Unique Well Identifier (UWI)
 LOC   .      1320' FNL & 1320' FWL        : Location
 TOWN  .      20                           : Township
 SCT   .      3                            : Section
 RANG  .      University Lands             : Range
 PDAT  .      GROUND LEVEL                 : Permanent Datum
 EPDAT .      2800.000000                  : Reference Elevation
 LGMEA .      KELLY BUSHING                : Log Measured from
 DRMEA .      KELLY BUSHING                : Drill Measured From
 APDAT .      26.000000                    : Elevation Above Permanent Datum
 KB    .      2826.00000                   : KB Elevation
 GL    .      2800.00000                   : GL Elevation
 RWS   .      -999                         : Def_Rw
 WST   .      -999                         : Def_Rwt
 CNTY  .      Loving                       : County
 SRVC  .      Schlumberger                 : Contractor
~CURVE INFORMATION
#MNEM              UNIT       API CODE   Curve Type Comments
#----------  --------------- ----------  ---------- -----------
 DEPTH      .FT                        : Depth       
 BS         .inch                      : BitSize     
 CAL        .inch                      :             
 GR         .API                       : GammaRay    
 SP_MV      .mv                        : SP          Spontaneous Potential - Records the electrical potential produced by the interaction of formation water, conductive drilling mud, and certain ion-sele
 DRES       .OHMM                      :             
 MRES       .OHMM                      : MedRes      
 SRES       .OHMM                      : ShalRes     
 DRHO       .G/C3                      : Drho        
 NPHI       .CFCF                      : Neutron     
 PEF        .B/E                       : PEF         
 RHOB       .G/C3                      : Density     
 LITH       .                          : LITH        Lithology Curve
~A  DEPTH     BS       CAL        GR      SP_MV      DRES      MRES      SRES      DRHO      NPHI      PEF       RHOB      LITH   
# ...
9329.5092   12.2500   12.4852   14.1447 -999.0000 1571.0021  101.0748    3.0913   -0.0101    0.0006    4.3800    2.6344   18.0000 
9330.0092   12.2500   12.4852   12.9670 -999.0000 1574.0106  101.4679    3.0892   -0.0101   -0.0010    4.3974    2.5778   27.0000 
9330.5092   12.2500   12.4852   12.9843 -999.0000 1940.2032  105.2397    3.1421   -0.0096   -0.0014    4.3881    2.6284   27.0000 
9331.0092   12.2500   12.4968   17.0356 -999.0000 1803.2745  104.2986    3.1237   -0.0079   -0.0032    4.3400    2.6528   18.0000 
9331.5092   12.2500   12.4852   13.2739 -999.0000 1717.7166  104.8122    3.2205   -0.0040    0.0011    4.1834    2.6551   18.0000 
9332.0092   12.2500   12.5084    8.9481 -999.0000 1213.7510   96.9908    3.0963   -0.0041    0.0003    4.0478    2.5935   27.0000 
9332.5092   12.2500   12.5084   11.8217 -999.0000 1003.5411   97.0238    2.9933   -0.0017    0.0015    3.9039    2.6423   18.0000 
9333.0092   12.2500   12.4852   14.4276 -999.0000  770.6179   93.7694    3.0803   -0.0013    0.0000    3.8571    2.6770   18.0000 
9333.5092   12.2500   12.4852   16.1692 -999.0000  484.4210   86.3167    3.0479    0.0019    0.0032    3.7463    2.6619   18.0000 
9334.0092   12.2500   12.4968   20.7758 -999.0000  271.1483   68.6146    3.0139    0.0020    0.0151    3.6324    2.6493   18.0000 
9334.5092   12.2500   12.5317   25.0748 -999.0000   81.8689   38.5581    3.0198    0.0006    0.0425    3.4825    2.6184   18.0000 
9335.0092   12.2500   12.5084   45.3045 -999.0000   37.8719   28.3206    2.9298   -0.0019    0.0887    3.3411    2.5383   18.0000 
9335.5092   12.2500   12.5549   72.1757 -999.0000   38.7814   27.7153    2.9069   -0.0044    0.1422    3.2216    2.5031   37.0000 
9336.0092   12.2500   12.5433   70.1543 -999.0000   28.8383   21.8344    2.8535   -0.0038    0.1673    3.0757    2.5262   37.0000 
9336.5092   12.2500   12.5317   82.2289 -999.0000   35.7663   26.7489    2.8432   -0.0041    0.1724    2.9816    2.4953   37.0000 
9337.0092   12.2500   12.5433   74.9873 -999.0000   42.3497   30.1220    2.9150   -0.0058    0.1773    2.9236    2.5066   37.0000 
9337.5092   12.2500   12.5317   85.9967 -999.0000   51.0452   35.0189    2.9180   -0.0084    0.1735    2.9264    2.4730   37.0000 
9338.0092   12.2500   12.5433   85.1695 -999.0000   50.6007   31.2642    2.9224   -0.0094    0.1781    2.9482    2.4577   37.0000 
9338.5092   12.2500   12.5317   92.3538 -999.0000   33.2382   25.0154    2.8773   -0.0082    0.1727    2.9890    2.4723   37.0000 
9339.0092   12.2500   12.5549   79.0098 -999.0000   33.2759   24.9539    2.8833   -0.0077    0.1610    3.0692    2.5011   37.0000 
9339.5092   12.2500   12.5317   84.2661 -999.0000   39.0458   28.1149    2.9038   -0.0077    0.1574    3.1274    2.5170   37.0000 
9340.0092   12.2500   12.5317   60.6304 -999.0000   38.3017   26.6777    2.8632   -0.0065    0.1466    3.1291    2.4992   36.0000 
9340.5092   12.2500   12.5317   64.9336 -999.0000   37.4606   25.8588    2.8911   -0.0045    0.1456    3.0822    2.5035   36.0000 
9341.0092   12.2500   12.5781   83.5783 -999.0000   30.4348   22.3461    2.8322   -0.0028    0.1394    3.0683    2.5159   36.0000 
9341.5092   12.2500   12.5781   96.6773 -999.0000   26.7617   20.5736    2.8411   -0.0038    0.1396    3.1105    2.5276   37.0000 
9342.0092   12.2500   12.5781   85.4162 -999.0000   32.3126   24.0367    2.8122   -0.0036    0.1400    3.1242    2.5519   37.0000 
9342.5092   12.2500   12.5781   80.5456 -999.0000   33.6088   23.6942    2.8338   -0.0026    0.1243    3.0999    2.5307   37.0000 
9343.0092   12.2500   12.6014   75.8440 -999.0000   28.1838   20.9852    2.7850   -0.0027    0.1396    3.0643    2.4794   37.0000 
9343.5092   12.2500   12.5781   86.8487 -999.0000   27.9230   20.5386    2.7752   -0.0031    0.1600    3.0644    2.5317   37.0000 
9344.0092   12.2500   12.5898   84.5991 -999.0000   26.6510   19.5860    2.7655   -0.0070    0.1737    3.1098    2.5152   37.0000 
9344.5092   12.2500   12.6014   77.6264 -999.0000   28.1862   19.9783    2.7661   -0.0076    0.1840    3.1402    2.4945   37.0000 
9345.0092   12.2500   12.5781   78.1483 -999.0000   32.1608   21.6834    2.7723   -0.0078    0.1783    3.1856    2.5123   37.0000 
9345.5092   12.2500   12.5781   87.9637 -999.0000   37.9436   24.6453    2.7777   -0.0046    0.1784    3.2194    2.5508   37.0000 
9346.0092   12.2500   12.6014   72.1795 -999.0000   47.9727   27.6327    2.8425   -0.0057    0.1444    3.2896    2.5468   37.0000 
9346.5092   12.2500   12.5781   61.7578 -999.0000   42.0476   25.7435    2.8018   -0.0089    0.1389    3.3187    2.5026   37.0000 
9347.0092   12.2500   12.5781   74.1620 -999.0000   48.8300   28.6453    2.7936   -0.0107    0.1298    3.2936    2.4879   37.0000 
9347.5092   12.2500   12.5781   53.1216 -999.0000   79.5475   37.3260    2.8002   -0.0095    0.1161    3.2119    2.5380   37.0000 
9348.0092   12.2500   12.5781   48.1686 -999.0000   72.0813   33.4921    2.8645   -0.0075    0.0968    3.1268    2.5647   37.0000 
9348.5092   12.2500   12.5781   48.7690 -999.0000   61.2421   33.2797    2.7902   -0.0061    0.0992    3.0707    2.4809   36.0000 
9349.0092   12.2500   12.6014   56.5864 -999.0000   78.7100   36.9299    2.7767   -0.0036    0.1163    3.0472    2.4850   36.0000 
9349.5092   12.2500   12.6014   62.0078 -999.0000   71.5236   34.0006    2.8124   -0.0006    0.1252    3.0795    2.5392   36.0000 
9350.0092   12.2500   12.6130   50.4571 -999.0000   61.6934   31.0278    2.7668    0.0011    0.1244    3.1609    2.5238   36.0000 
9350.5092   12.2500   12.6246   60.6053 -999.0000   59.1706   30.4864    2.7722   -0.0004    0.1329    3.2804    2.4985   36.0000 
9351.0092   12.2500   12.6130   52.5463 -999.0000   70.6568   34.3478    2.7418   -0.0006    0.1454    3.3526    2.5460   36.0000 
9351.5092   12.2500   12.6246   47.9113 -999.0000   79.9951   36.5135    2.7824    0.0003    0.1476    3.3716    2.5573   36.0000 
9352.0092   12.2500   12.6014   46.4080 -999.0000   85.0064   37.8042    2.7792    0.0011    0.1285    3.3469    2.5723   36.0000 
9352.5092   12.2500   12.6014   43.2936 -999.0000   82.2675   37.5582    2.7846   -0.0003    0.1158    3.3415    2.5819   36.0000 
9353.0092   12.2500   12.6014   39.2595 -999.0000   74.3946   34.7467    2.7443   -0.0046    0.1095    3.4067    2.5166   36.0000 
9353.5092   12.2500   12.6246   55.4085 -999.0000   56.6105   30.3917    2.6904   -0.0065    0.1202    3.4616    2.4678   36.0000 
9354.0092   12.2500   12.6246   70.0783 -999.0000   60.4400   30.6057    2.7430   -0.0057    0.1290    3.4400    2.5153   36.0000 
9354.5092   12.2500   12.6246   59.7397 -999.0000   49.4910   27.6156    2.7093   -0.0036    0.1171    3.3232    2.5562   36.0000 
9355.0092   12.2500   12.6246   56.8763 -999.0000   44.6288   26.3724    2.6970   -0.0039    0.1072    3.1992    2.5088   36.0000 
9355.5092   12.2500   12.6479   67.5263 -999.0000   49.0340   28.3098    2.7081   -0.0069    0.1127    3.1697    2.4639   36.0000 
9356.0092   12.2500   12.6246   69.7687 -999.0000   50.0499   28.2654    2.7251   -0.0098    0.1303    3.2343    2.4668   36.0000 
9356.5092   12.2500   12.6479   55.6637 -999.0000   46.1824   28.1926    2.7122   -0.0112    0.1382    3.3676    2.4937   36.0000 
9357.0092   12.2500   12.6246   55.1390 -999.0000   46.2740   28.3516    2.6956   -0.0106    0.1260    3.4592    2.5520   36.0000 
9357.5092   12.2500   12.6246   54.2552 -999.0000   43.2069   26.9920    2.6744   -0.0069    0.1133    3.4507    2.5674   36.0000 
9358.0092   12.2500   12.6246   60.3419 -999.0000   43.0049   27.7680    2.6393   -0.0040    0.1111    3.3717    2.5390   36.0000 
9358.5092   12.2500   12.6246   46.1119 -999.0000   42.3992   26.9878    2.7048   -0.0054    0.1056    3.3301    2.5438   36.0000 
9359.0092   12.2500   12.6363   55.4347 -999.0000   37.1974   24.8713    2.6896   -0.0082    0.1118    3.3115    2.5456   36.0000 
9359.5092   12.2500   12.6246   48.4884 -999.0000   35.5776   23.8829    2.6940   -0.0098    0.1201    3.3154    2.5239   36.0000 
9360.0092   12.2500   12.6246   64.6696 -999.0000   34.7921   23.6475    2.6675   -0.0135    0.1407    3.3129    2.4739   36.0000 
