~VERSION INFORMATION
 VERS.                 2.0:   CWLS LOG ASCII STANDARD - VERSION 2.0
 WRAP.                  NO:   SINGLE LINE PER DEPTH STEP
 CREA.                 20/03/2018 14:41:29
#CREATED USING DSPetro VERSION 5000.10.1.3 BY H191660 ON 20/03/2018 14:41:29
~WELL INFORMATION
#MNEM.UNIT       DATA                          DESCRIPTION MNEMONIC
#---------      ---------------------------   --------------------------
 STRT    .FT        325.3294                  : START DEPTH
 STOP    .FT        12308.5971                : STOP DEPTH
 STEP    .FT        1.6404                    : STEP VALUE
 NULL    .      -999.0000                     : NULL VALUE
 DATE    .      20/03/2018                    : LAS file Creation Date
 WELL .      UNIVERSITY_19-5             : Well Name
 COMP .      Neftex Exploration Insights : Company
 FLD  .      PHANTOM (WOLFCAMP)          : Field
 UWI  .      208                         : Unique Well Identifier (UWI)
 LOC  .                                  : Location
 RWS  .      -999                        : Def_Rw
 WST  .      -999                        : Def_Rwt
 SRVC .                                  : Contractor
~CURVE INFORMATION
#MNEM              UNIT       API CODE   Curve Type Comments
#----------  --------------- ----------  ---------- -----------
 DEPTH      .FT                        : Depth       
 DEPTH      .FT                        : Depth       
 BS         .inch                      : BitSize     
 CAL_INCH   .inch                      :             Caliper Log - A representation of the measured diameter of a borehole along its depth
 GR_API     .API                       : GammaRay    Gamma Ray (API) - Measures the intensity of natural gamma-ray radiation emitted from formations containing radioactive elements, such as K, Th and U
 SGR_API    .API                       : GammaRay    Spectral Gamma Ray - Total gamma calibrated to API, measured using a spectoral gamma array tool
 CGR_API    .API                       : GammaRay    Corrected / Computed Gamma Ray - Radiation with the Uranium component removed. Also known as a 'carbonate gamma ray'
 TH_PPM     .ppm                       : Spectral    Thorium Abundance (SGR) - The quantitative elemental abundace of Thorium derived from the Spectral Gamma Ray Log
 K_per        .PC                        :             Potassium Abundance (SGR) - The quantitative elemental abundace of Potassium derived from the Spectral Gamma Ray Log. Also wt_%
 U_PPM      .ppm                       :             Uranium Abundance (SGR) - The quantitative elemental abundace of Uranium derived from the Spectral Gamma Ray Log
 ThK        .PPM                       : Spectral    
 ThU        .PPM                       : Spectral    
 SRES       .ohmm                      :             10" array induction, two foot resistivity
 MRES       .ohm.m                     :             30" array induction, two foot resistivity
 DRES       .ohmm                      :             90" array induction, two foot resistivity log - units of ohmm
 DT_US_FT   .us/ft                     :             Interval Transit Time: Compressional Wave - Evaluates the time it takes for a compressional wave to traverse a fixed distance
 NPHI_RATIO .ratio                     :             Neutron Porosity - Measured with an neutron logging device calibrated to a given matrix (limestone, sandstone and dolomite)
 RHOB_G_CC  .g/cc                      :             Bulk Density - Measures the density of bulk material, including any void space or other materials contained in the subject volume
 DRHO_G_CC  .g/cc                      :             Density Correction - Investigates the correction to the Bulk Density log; used as an indication of hole condition to validate the Bulk Density measure
 PEF_B_E    .b/e-                      : PEF         Photoelectric Factor - A log of photoelectric absorption properties. Often expressed in an approximation unit barns/electron (b/e-)
 LITH       .                          : LITH        Lithology Curve
~A  DEPTH   DEPTH       BS     CAL_INCH   GR_API   SGR_API   CGR_API    TH_PPM     K_per      U_PPM      ThK       ThU       SRES      MRES      DRES    DT_US_FT NPHI_RAT~ RHOB_G_C~ DRHO_G_C~  PEF_B_E     LITH   
# ...
10797.7703 10797.7703   12.2500 -999.0000   66.5712 -999.0000 -999.0000    5.3930 -999.0000    4.7287 -999.0000 -999.0000    2.2131   24.8504  134.7266   70.7278    0.1263    2.5684    0.0054    3.4050   22.0000 
10799.4108 10799.4108   12.2500 -999.0000   53.6320 -999.0000 -999.0000    4.8777 -999.0000    4.1670 -999.0000 -999.0000    2.1213   19.2197   60.6256   69.0189    0.1345    2.5970    0.0008    3.5586   22.0000 
10801.0512 10801.0512   12.2500 -999.0000   52.0237 -999.0000 -999.0000    5.3922 -999.0000    4.4107 -999.0000 -999.0000    2.0914   18.7633   60.1455   73.8401    0.1001    2.6151    0.0058    3.5497   22.0000 
10802.6916 10802.6916   12.2500 -999.0000   59.9621 -999.0000 -999.0000    5.8932 -999.0000    3.6328 -999.0000 -999.0000    2.0560   18.9646   57.8959   75.8598    0.1011    2.5931    0.0033    3.4344   22.0000 
10804.3320 10804.3320   12.2500 -999.0000   63.8022 -999.0000 -999.0000    5.8878 -999.0000    3.5127 -999.0000 -999.0000    2.0673   18.7949   78.8241   71.6463    0.0912    2.5783    0.0034    3.4529   22.0000 
10805.9724 10805.9724   12.2500 -999.0000   80.9689 -999.0000 -999.0000    7.6686 -999.0000    4.4722 -999.0000 -999.0000    2.0395   18.6699   75.9426   70.8034    0.1091    2.5616    0.0019    3.3057   22.0000 
10807.6129 10807.6129   12.2500 -999.0000   95.5632 -999.0000 -999.0000    7.5592 -999.0000    5.5673 -999.0000 -999.0000    2.0084   18.1215   68.0898   80.9190    0.1609    2.5449   -0.0048    3.3295   37.0000 
10809.2533 10809.2533   12.2500 -999.0000   85.1271 -999.0000 -999.0000    6.8044 -999.0000    4.5812 -999.0000 -999.0000    2.0386   18.3343   59.6220   77.0621    0.1703    2.5717   -0.0019    3.2489   37.0000 
10810.8937 10810.8937   12.2500 -999.0000   53.3667 -999.0000 -999.0000    3.2987 -999.0000    2.4722 -999.0000 -999.0000    2.0935   23.7984  151.3567   60.1310    0.0415    2.6361    0.0012    3.6205   22.0000 
10812.5341 10812.5341   12.2500 -999.0000   72.0848 -999.0000 -999.0000    5.5950 -999.0000    4.1487 -999.0000 -999.0000    2.1257   21.0200   96.5602   69.9157    0.0794    2.5768    0.0197    2.9808   22.0000 
10814.1745 10814.1745   12.2500 -999.0000   54.9742 -999.0000 -999.0000    3.6204 -999.0000    3.0127 -999.0000 -999.0000    2.1519   24.6392  192.3187   61.5534    0.0341    2.6089    0.0059    3.5019   22.0000 
10815.8150 10815.8150   12.2500 -999.0000   41.0608 -999.0000 -999.0000    3.9782 -999.0000    3.5291 -999.0000 -999.0000    2.1484   22.5237  184.1059   66.1124    0.0621    2.6740    0.0056    4.1564   22.0000 
10817.4554 10817.4554   12.2500 -999.0000   75.3305 -999.0000 -999.0000    6.0592 -999.0000    4.6121 -999.0000 -999.0000    2.0609   18.8561   55.3741   81.3624    0.1593    2.5353   -0.0032    3.2924   37.0000 
10819.0958 10819.0958   12.2500 -999.0000   92.5623 -999.0000 -999.0000    6.2688 -999.0000    4.3275 -999.0000 -999.0000    2.0796   19.3426   59.2362   82.5988    0.1916    2.5374    0.0092    2.8859   37.0000 
10820.7362 10820.7362   12.2500 -999.0000   61.3877 -999.0000 -999.0000    5.3437 -999.0000    3.3888 -999.0000 -999.0000    2.0965   21.4003   70.8164   78.4597    0.1522    2.5522   -0.0045    3.4572   22.0000 
10822.3766 10822.3766   12.2500 -999.0000   49.0531 -999.0000 -999.0000    3.8403 -999.0000    3.3167 -999.0000 -999.0000    2.1351   23.8158  119.3234   66.1522    0.0874    2.5609   -0.0096    4.2126   18.0000 
10824.0171 10824.0171   12.2500 -999.0000   32.7302 -999.0000 -999.0000    2.5688 -999.0000    2.8733 -999.0000 -999.0000    2.1810   28.8814  404.2616   61.5916    0.0156    2.7759    0.0412    4.5770   18.0000 
10825.6575 10825.6575   12.2500 -999.0000   42.4642 -999.0000 -999.0000    3.8342 -999.0000    4.0790 -999.0000 -999.0000    2.1484   23.5640  108.2951   64.0987    0.0455    2.7072    0.0156    4.6857   18.0000 
10827.2979 10827.2979   12.2500 -999.0000   63.6942 -999.0000 -999.0000    4.2630 -999.0000    4.2433 -999.0000 -999.0000    2.1274   19.2303   46.6112   70.7298    0.1229    2.5839    0.0000    4.0832   22.0000 
10828.9383 10828.9383   12.2500 -999.0000   40.9609 -999.0000 -999.0000    3.8434 -999.0000    3.1465 -999.0000 -999.0000    2.1847   29.1767  256.5656   60.1340    0.0656    2.6209    0.0144    4.3733   18.0000 
10830.5787 10830.5787   12.2500 -999.0000   23.9512 -999.0000 -999.0000    1.7568 -999.0000    1.8615 -999.0000 -999.0000    2.1930   29.2593  334.9462   56.4720    0.0069    2.7121    0.0092    4.8046   18.0000 
10832.2192 10832.2192   12.2500 -999.0000   55.1985 -999.0000 -999.0000    3.7699 -999.0000    4.3352 -999.0000 -999.0000    2.2056   26.8569  200.2566   61.6488    0.0700    2.6442    0.0023    4.5228   18.0000 
10833.8596 10833.8596   12.2500 -999.0000   39.4951 -999.0000 -999.0000    2.5294 -999.0000    3.8018 -999.0000 -999.0000    2.1896   26.3577  264.4422   61.4996    0.0436    2.6374    0.0013    4.2244   18.0000 
10835.5000 10835.5000   12.2500 -999.0000   36.6336 -999.0000 -999.0000    1.8835 -999.0000    2.9595 -999.0000 -999.0000    2.1282   25.2402  209.6864   57.3517    0.0079    2.6858    0.0053    4.5889   18.0000 
10837.1404 10837.1404   12.2500 -999.0000   46.8786 -999.0000 -999.0000    2.9270 -999.0000    4.3306 -999.0000 -999.0000    2.1303   22.5950  103.6873   59.8316    0.0681    2.6685    0.0142    4.4281   18.0000 
10838.7808 10838.7808   12.2500 -999.0000   67.4661 -999.0000 -999.0000    3.7839 -999.0000    5.1203 -999.0000 -999.0000    2.1248   18.0222   45.8429   80.0064    0.2060    2.5231   -0.0046    3.7274   22.0000 
10840.4213 10840.4213   12.2500 -999.0000   54.4565 -999.0000 -999.0000    2.8455 -999.0000    4.1074 -999.0000 -999.0000    2.1801   25.3268  135.1004   65.7578    0.0865    2.5809   -0.0006    3.9304   22.0000 
10842.0617 10842.0617   12.2500 -999.0000   88.6612 -999.0000 -999.0000    4.4168 -999.0000    6.5590 -999.0000 -999.0000    2.1412   18.4277   45.1103   80.9377    0.1567    2.4907    0.0034    3.1045   37.0000 
10843.7021 10843.7021   12.2500 -999.0000   51.3905 -999.0000 -999.0000    2.7339 -999.0000    3.3200 -999.0000 -999.0000    2.1697   25.1872  117.0541   62.0992    0.0330    2.6061    0.0004    3.8518   22.0000 
10845.3425 10845.3425   12.2500 -999.0000   79.7004 -999.0000 -999.0000    6.3638 -999.0000    6.5151 -999.0000 -999.0000    2.1492   18.5218   41.4332   75.9380    0.1397    2.5629    0.0060    2.9295   37.0000 
10846.9829 10846.9829   12.2500 -999.0000  107.9675 -999.0000 -999.0000    7.4194 -999.0000    7.5360 -999.0000 -999.0000    2.1123   19.3357   50.3361   88.3299    0.1910    2.4837   -0.0033    3.1040   37.0000 
10848.6234 10848.6234   12.2500 -999.0000   82.5658 -999.0000 -999.0000    5.7558 -999.0000    6.0640 -999.0000 -999.0000    2.1293   22.4587   77.3918   77.6248    0.1812    2.4858   -0.0146    3.9643   37.0000 
10850.2638 10850.2638   12.2500 -999.0000   43.6319 -999.0000 -999.0000    3.6495 -999.0000    2.8319 -999.0000 -999.0000    2.1605   26.6083  221.6429   64.1194    0.0784    2.6131    0.0081    4.0676   18.0000 
10851.9042 10851.9042   12.2500 -999.0000   42.2605 -999.0000 -999.0000    4.1780 -999.0000    2.2795 -999.0000 -999.0000    2.1935   23.1293  126.0825   66.2686    0.0626    2.5839   -0.0009    3.9034   18.0000 
10853.5446 10853.5446   12.2500 -999.0000   70.0635 -999.0000 -999.0000    5.6561 -999.0000    3.2555 -999.0000 -999.0000    2.1305   22.0911  126.9351   74.6319    0.0928    2.5715    0.0053    3.4095   22.0000 
10855.1850 10855.1850   12.2500 -999.0000  110.3361 -999.0000 -999.0000   10.0085 -999.0000    6.6131 -999.0000 -999.0000    2.0569   22.7672  128.9523   89.3592    0.2117    2.4776   -0.0010    2.7285   37.0000 
10856.8255 10856.8255   12.2500 -999.0000  120.0709 -999.0000 -999.0000   10.0611 -999.0000    7.8383 -999.0000 -999.0000    2.0749   20.4371   83.5704   91.1386    0.2535    2.4555    0.0010    2.8053   37.0000 
10858.4659 10858.4659   12.2500 -999.0000   98.2506 -999.0000 -999.0000    6.2139 -999.0000    5.7793 -999.0000 -999.0000    2.0912   22.1550  114.4082   84.4835    0.1310    2.5332    0.0180    3.1071   37.0000 
