~VERSION INFORMATION
 VERS.                 2.0:   CWLS LOG ASCII STANDARD - VERSION 2.0
 WRAP.                  NO:   SINGLE LINE PER DEPTH STEP
 CREA.                 20/03/2018 14:44:45
#CREATED USING DSPetro VERSION 5000.10.1.3 BY H191660 ON 20/03/2018 14:44:45
~WELL INFORMATION
#MNEM.UNIT       DATA                          DESCRIPTION MNEMONIC
#---------      ---------------------------   --------------------------
 STRT    .FT        300.0092                  : START DEPTH
 STOP    .FT        12601.0092                : STOP DEPTH
 STEP    .FT        0.5000                    : STEP VALUE
 NULL    .      -999.0000                     : NULL VALUE
 DATE    .      20/03/2018                    : LAS file Creation Date
 WELL  .      UNIVERSITY_20_3_1_4230131346 : Well Name
 COMP  .      Chesapeake Operating, Inc.   : Company
 FLD   .      Haley                        : Field
 STATE .      Texas                        : State
 API   .      42-301-31346                 : API Number
 UWI   .      507                          : Unique Well Identifier (UWI)
 LOC   .      1320' FNL & 1320' FWL        : Location
 TOWN  .      20                           : Township
 SCT   .      3                            : Section
 RANG  .      University Lands             : Range
 PDAT  .      GROUND LEVEL                 : Permanent Datum
 EPDAT .      2800.000000                  : Reference Elevation
 LGMEA .      KELLY BUSHING                : Log Measured from
 DRMEA .      KELLY BUSHING                : Drill Measured From
 APDAT .      26.000000                    : Elevation Above Permanent Datum
 KB    .      2826.00000                   : KB Elevation
 GL    .      2800.00000                   : GL Elevation
 RWS   .      -999                         : Def_Rw
 WST   .      -999                         : Def_Rwt
 CNTY  .      Loving                       : County
 SRVC  .      Schlumberger                 : Contractor
~CURVE INFORMATION
#MNEM              UNIT       API CODE   Curve Type Comments
#----------  --------------- ----------  ---------- -----------
 DEPTH      .FT                        : Depth       
 BS         .inch                      : BitSize     
 CAL        .inch                      :             
 GR         .API                       : GammaRay    
 SP_MV      .mv                        : SP          Spontaneous Potential - Records the electrical potential produced by the interaction of formation water, conductive drilling mud, and certain ion-sele
 DRES       .OHMM                      :             
 MRES       .OHMM                      : MedRes      
 SRES       .OHMM                      : ShalRes     
 DRHO       .G/C3                      : Drho        
 NPHI       .CFCF                      : Neutron     
 PEF        .B/E                       : PEF         
 RHOB       .G/C3                      : Density     
 LITH       .                          : LITH        Lithology Curve
~A  DEPTH     BS       CAL        GR      SP_MV      DRES      MRES      SRES      DRHO      NPHI      PEF       RHOB      LITH   
# ...
4402.5092 -999.0000    4.0466   12.9872 -999.0000    0.0064    0.0056    0.0085    0.2125    0.1616    8.7441    2.2022    3.0000 
4403.0092 -999.0000    4.0466   11.5615 -999.0000    0.0057    0.0045    0.0069    0.2100    0.1537    8.7171    2.1838    3.0000 
4403.5092 -999.0000    4.0466    8.6321 -999.0000    0.0070    0.0058    0.0088    0.2124    0.1383    8.6922    2.2075    3.0000 
4404.0092 -999.0000    4.0466   12.1628 -999.0000    0.0084    0.0077    0.0113    0.2173    0.1472    8.6910    2.2303    3.0000 
4404.5092 -999.0000    4.0466   10.3586 -999.0000    0.0045    0.0024    0.0041    0.2218    0.1670    8.7050    2.2214    3.0000 
4405.0092 -999.0000    4.0466   14.4778 -999.0000    0.0052    0.0035    0.0056    0.2231    0.1531    8.7296    2.2210    3.0000 
4405.5092 -999.0000    4.0466   12.1045 -999.0000    0.0064    0.0052    0.0078    0.2244    0.1536    8.7347    2.2226    3.0000 
4406.0092 -999.0000    4.0466    9.5538 -999.0000    0.0069    0.0060    0.0092    0.2287    0.1082    8.7550    2.2257    3.0000 
4406.5092 -999.0000    4.0698   13.3346 -999.0000    0.0085    0.0079    0.0114    0.2341    0.1029    8.7999    2.2689    3.0000 
4407.0092 -999.0000    4.0698   12.0851 -999.0000    0.0052    0.0038    0.0061    0.2360    0.0931    8.8598    2.2777    3.0000 
4407.5092 -999.0000    4.0582   16.4985 -999.0000    0.0060    0.0047    0.0072    0.2312    0.1129    8.9137    2.2667    3.0000 
4408.0092 -999.0000    4.0466   10.6694 -999.0000    0.0071    0.0059    0.0089    0.2235    0.1324    8.9539    2.2610    3.0000 
4408.5092 -999.0000    4.0466    9.5213 -999.0000    0.0087    0.0082    0.0117    0.2195    0.1466    9.0019    2.2421    3.0000 
4409.0092 -999.0000    4.0698   11.2348 -999.0000    0.0069    0.0055    0.0083    0.2276    0.2011    9.0708    2.2908    3.0000 
4409.5092 -999.0000    4.0466    6.9512 -999.0000    0.0069    0.0062    0.0094    0.2472    0.1826    9.1191    2.3968    3.0000 
4410.0092 -999.0000    4.0466   10.9794 -999.0000    0.0086    0.0081    0.0117    0.2650    0.1508    9.1062    2.4075    3.0000 
4410.5092 -999.0000    4.0466    7.7690 -999.0000    0.0063    0.0050    0.0076    0.2644    0.1323    9.0671    2.3282    3.0000 
4411.0092 -999.0000    4.0466    5.2051 -999.0000    0.0068    0.0053    0.0081    0.2509    0.1583    9.0313    2.2998    3.0000 
4411.5092 -999.0000    4.0466   13.8373 -999.0000    0.0062    0.0046    0.0071    0.2355    0.1808    9.0143    2.2484    3.0000 
4412.0092 -999.0000    4.0698   15.5705 -999.0000    0.0066    0.0047    0.0071    0.2275    0.2075    8.9625    2.2422    3.0000 
4412.5092 -999.0000    4.0698    6.9382 -999.0000    0.0075    0.0064    0.0095    0.2238    0.1682    8.9087    2.2553    3.0000 
4413.0092 -999.0000    4.0698   16.7118 -999.0000    0.0077    0.0065    0.0098    0.2203    0.1685    8.8674    2.2397    3.0000 
4413.5092 -999.0000    4.0698   10.4301 -999.0000    0.0074    0.0060    0.0088    0.2247    0.1380    8.8479    2.2540    3.0000 
4414.0092 -999.0000    4.0698   12.9743 -999.0000    0.0067    0.0050    0.0075    0.2290    0.1693    8.8213    2.2566    3.0000 
4414.5092 -999.0000    4.0582   10.3781 -999.0000    0.0058    0.0043    0.0068    0.2305    0.1395    8.7849    2.2623    3.0000 
4415.0092 -999.0000    4.0698   11.2478 -999.0000    0.0066    0.0053    0.0081    0.2310    0.1525    8.7652    2.2427    3.0000 
4415.5092 -999.0000    4.0466   10.4105 -999.0000    0.0074    0.0064    0.0097    0.2380    0.1084    8.7525    2.2636    3.0000 
4416.0092 -999.0000    4.0582    9.4953 -999.0000    0.0055    0.0041    0.0065    0.2449    0.0903    8.7594    2.2625    3.0000 
4416.5092 -999.0000    4.0698   11.2305 -999.0000    0.0070    0.0061    0.0089    0.2452    0.0739    8.7389    2.2881    3.0000 
4417.0092 -999.0000    4.0698   14.7461 -999.0000    0.0073    0.0061    0.0091    0.2461    0.0723    8.7264    2.2721    3.0000 
4417.5092 -999.0000    4.0698   13.8310 -999.0000    0.0062    0.0058    0.0087    0.2391    0.0839    8.6933    2.2778    3.0000 
4418.0092 -999.0000    4.0698    9.2466 -999.0000    0.0075    0.0065    0.0098    0.2358    0.0880    8.6831    2.2763    3.0000 
4418.5092 -999.0000    4.0698   10.3781 -999.0000    0.0074    0.0068    0.0101    0.2297    0.0813    8.7005    2.2344    3.0000 
4419.0092 -999.0000    4.0698   13.0132 -999.0000    0.0078    0.0072    0.0107    0.2348    0.0876    8.7558    2.2518    3.0000 
4419.5092 -999.0000    4.0466    9.2142 -999.0000    0.0067    0.0067    0.0100    0.2307    0.1000    8.7902    2.2671    3.0000 
4420.0092 -999.0000    4.0698   11.2348 -999.0000    0.0077    0.0066    0.0097    0.2220    0.0838    8.8034    2.2697    3.0000 
4420.5092 -999.0000    4.0698    6.9187 -999.0000    0.0061    0.0053    0.0080    0.2176    0.0811    8.8023    2.2767    3.0000 
4421.0092 -999.0000    4.0466   14.6919 -999.0000    0.0067    0.0062    0.0093    0.2316    0.0797    8.8692    2.3013    3.0000 
4421.5092 -999.0000    4.0698    8.6647 -999.0000    0.0064    0.0054    0.0084    0.2502    0.0697    8.9393    2.3173    3.0000 
4422.0092 -999.0000    4.0466   13.8114 -999.0000    0.0064    0.0061    0.0093    0.2558    0.0459    8.9896    2.3285    3.0000 
4422.5092 -999.0000    4.0466   12.1500 -999.0000    0.0069    0.0067    0.0103    0.2486    0.0482    8.9836    2.2765    3.0000 
4423.0092 -999.0000    4.0698   13.8310 -999.0000    0.0056    0.0048    0.0075    0.2387    0.0562    8.9872    2.3239    3.0000 
4423.5092 -999.0000    4.0698    9.5149 -999.0000    0.0071    0.0067    0.0100    0.2462    0.0606    9.0289    2.3297    3.0000 
4424.0092 -999.0000    4.0582   10.3716 -999.0000    0.0060    0.0058    0.0089    0.2542    0.0506    9.0762    2.3379    3.0000 
4424.5092 -999.0000    4.0698   12.1305 -999.0000    0.0064    0.0066    0.0100    0.2580    0.0429    9.1131    2.3394    3.0000 
4425.0092 -999.0000    4.0698    7.8079 -999.0000    0.0064    0.0065    0.0097    0.2513    0.0386    9.1158    2.3514    3.0000 
4425.5092 -999.0000    4.0698    8.6321 -999.0000    0.0058    0.0053    0.0080    0.2431    0.0393    9.1215    2.3399    3.0000 
4426.0092 -999.0000    4.0582    8.3768 -999.0000    0.0057    0.0058    0.0089    0.2506    0.0270    9.1337    2.3465    3.0000 
4426.5092 -999.0000    4.0698   11.2673 -999.0000    0.0051    0.0052    0.0081    0.2621    0.0155    9.1800    2.3838    3.0000 
4427.0092 -999.0000    4.0698    7.7755 -999.0000    0.0051    0.0054    0.0084    0.2735    0.0092    9.2357    2.3556    3.0000 
4427.5092 -999.0000    4.0582    4.9109 -999.0000    0.0068    0.0070    0.0105    0.2712    0.0077    9.2986    2.3654    3.0000 
4428.0092 -999.0000    4.0466   12.9482 -999.0000    0.0067    0.0072    0.0109    0.2669    0.0126    9.3560    2.3607    3.0000 
4428.5092 -999.0000    4.0698    9.5409 -999.0000    0.0044    0.0038    0.0062    0.2732    0.0158    9.4026    2.3885    3.0000 
4429.0092 -999.0000    4.0466   10.9456 -999.0000    0.0052    0.0048    0.0075    0.2854    0.0143    9.4233    2.4118    3.0000 
4429.5092 -999.0000    4.0466   10.3845 -999.0000    0.0061    0.0064    0.0095    0.2980    0.0094    9.4240    2.4255    3.0000 
4430.0092 -999.0000    4.0698    6.9187 -999.0000    0.0054    0.0054    0.0083    0.3046    0.0076    9.3923    2.4136    3.0000 
4430.5092 -999.0000    4.0698   13.5756 -999.0000    0.0055    0.0057    0.0088    0.2999    0.0062    9.3352    2.3974    3.0000 
4431.0092 -999.0000    4.0466    7.8537 -999.0000    0.0044    0.0040    0.0065    0.2952    0.0005    9.2588    2.4019    3.0000 
4431.5092 -999.0000    4.0698    6.0424 -999.0000    0.0057    0.0064    0.0096    0.2838    0.0004    9.1728    2.3960    3.0000 
4432.0092 -999.0000    4.0466    9.5277 -999.0000    0.0056    0.0056    0.0085    0.2727   -0.0007    9.0893    2.4185    3.0000 
4432.5092 -999.0000    4.0582    9.2277 -999.0000    0.0053    0.0053    0.0081    0.2673    0.0013    9.0284    2.4006    3.0000 
4433.0092 -999.0000    4.0466    8.6321 -999.0000    0.0050    0.0049    0.0075    0.2689   -0.0009    9.0163    2.3963    3.0000 
