~VERSION INFORMATION
 VERS.                 2.0:   CWLS LOG ASCII STANDARD - VERSION 2.0
 WRAP.                  NO:   SINGLE LINE PER DEPTH STEP
 CREA.                 20/03/2018 14:58:23
#CREATED USING DSPetro VERSION 5000.10.1.3 BY H191660 ON 20/03/2018 14:58:23
~WELL INFORMATION
#MNEM.UNIT       DATA                          DESCRIPTION MNEMONIC
#---------      ---------------------------   --------------------------
 STRT    .FT        128.0000                  : START DEPTH
 STOP    .FT        12500.0000                : STOP DEPTH
 STEP    .FT        0.5000                    : STEP VALUE
 NULL    .      -999.0000                     : NULL VALUE
 DATE    .      20/03/2018                    : LAS file Creation Date
 WELL  .      UNIVERSITY_40_16_4247536999  : Well Name
 COMP  .      Neftex Exploration Insights  : Company
 FLD   .      PHANTOM (WOLFCAMP)           : Field
 STATE .      Texas                        : State
 COUNT .      USA                          : Country
 API   .      42475369990000               : API Number
 UWI   .      222                          : Unique Well Identifier (UWI)
 LOC   .      1980FNL x 1757FWL            : Location
 TOWN  .      16                           : Township
 SCT   .      40                           : Section
 RANG  .      U39                          : Range
 LATI  .      -6470541.88                  : Latitude/Northing
 LONG  .      783810.27                    : Longitude/Easting
 PDAT  .      GL                           : Permanent Datum
 EPDAT .      2604.000000                  : Reference Elevation
 LGMEA .      KB                           : Log Measured from
 DRMEA .      KB                           : Drill Measured From
 APDAT .      25.000000                    : Elevation Above Permanent Datum
 KB    .      2629.00000                   : KB Elevation
 GL    .      2604.00000                   : GL Elevation
 RWS   .      -999                         : Def_Rw
 WST   .      -999                         : Def_Rwt
 CNTY  .      WARD                         : County
 SRVC  .      Diversified Well Logging LLC : Contractor
~CURVE INFORMATION
#MNEM              UNIT       API CODE   Curve Type Comments
#----------  --------------- ----------  ---------- -----------
 DEPTH      .FT                        : Depth       
 BS         .inch                      : BitSize     
 DCAL_INCH  .inch                      :             Differential Caliper - Evaluates the difference between the actual borehole diameter and bit size
 GR         .GAPI                      : GammaRay    Gamma Ray {F11.4}
 LLD_OHMM   .ohmm                      :             Laterlog Deep Resistivity - Measurement made several feet into the formation; generally considered a measurement of the undisturbed formation
 LLM_OHMM   .ohm.m                     :             Laterlog Medium Resistivity - Measurement made approximately two to three feet into the formation - units of ohmm
 LLS_OHMM   .ohmm                      :             Laterlog Shallow Resistivity - one to two feet into the formation; generally considered to measure the formation
 NPHI_RATIO .ratio                     :             Neutron Porosity - Measured with an neutron logging device calibrated to a given matrix (limestone, sandstone and dolomite)
 PEF_B_E    .b/e-                      : PEF         Photoelectric Factor - A log of photoelectric absorption properties. Often expressed in an approximation unit barns/electron (b/e-)
 RHOZ_G_CC  .g/cc                      :             Formation Density - Measures the density of formation, including any void space or other materials contained in the subject volume
 LITH       .                          : LITH        Lithology Curve
~A  DEPTH     BS    DCAL_INC~     GR     LLD_OHMM  LLM_OHMM  LLS_OHMM NPHI_RAT~  PEF_B_E  RHOZ_G_C~    LITH   
# ...
6899.0000    8.7500    0.4727   50.3968    9.7942    8.6658   10.1877    0.0575    2.7954    2.5682   36.0000 
6899.5000    8.7500    0.5060   47.5940    4.8899    4.3463    5.1327    0.0628    2.7704    2.5634   36.0000 
6900.0000    8.7500    0.5505   47.3836    4.5367    4.0360    4.5753    0.0978    2.5364    2.5431   36.0000 
6900.5000    8.7500    0.5949   51.9032    4.1811    3.6880    4.1804    0.1289    2.4958    2.5169   36.0000 
6901.0000    8.7500    0.6283   55.7152    2.9307    2.6063    2.9414    0.1470    2.4937    2.5018   36.0000 
6901.5000    8.7500    0.6171   56.2408    3.6171    3.2573    3.5344    0.1175    2.4501    2.5014   27.0000 
6902.0000    8.7500    0.6505   50.2776    6.1018    5.4826    5.5035    0.0808    2.6893    2.5240   27.0000 
6902.5000    8.7500    0.6542   41.6516    5.2952    4.8117    4.5583    0.0537    2.7571    2.5295   27.0000 
6903.0000    8.7500    0.6838   36.2210    5.1778    4.4993    3.5797    0.0734    2.9828    2.5112   27.0000 
6903.5000    8.7500    0.7134   34.8265    2.1930    1.9269    1.6730    0.1283    2.5591    2.4474   27.0000 
6904.0000    8.7500    0.8282   38.6314    1.8610    1.6378    1.5221    0.1695    2.3411    2.3964   27.0000 
6904.5000    8.7500    0.8542   39.7526    1.8327    1.6078    1.5652    0.1816    2.5715    2.3671   27.0000 
6905.0000    8.7500    0.8282   43.4314    1.7032    1.4871    1.4307    0.1775    2.3368    2.3625   27.0000 
6905.5000    8.7500    0.8542   45.1132    1.8044    1.5753    1.3942    0.1919    2.2878    2.3544   27.0000 
6906.0000    8.7500    0.8727   47.9161    1.7228    1.5181    1.3203    0.1968    2.3502    2.3489   27.0000 
6906.5000    8.7500    0.8912   45.6037    1.6900    1.5100    1.2625    0.1845    2.1756    2.3578   27.0000 
6907.0000    8.7500    0.8282   44.1464    2.4925    2.2107    1.7106    0.1538    2.2758    2.3830   27.0000 
6907.5000    8.7500    0.7949   45.4427    2.1229    1.8773    1.5627    0.1403    2.6428    2.4121   27.0000 
6908.0000    8.7500    0.8171   50.8033    2.2766    1.9805    1.6985    0.1391    2.2934    2.4174   27.0000 
6908.5000    8.7500    0.8468   50.5789    2.9222    2.4803    2.0968    0.1520    2.4645    2.4088   27.0000 
6909.0000    8.7500    0.9282   49.8430    1.6071    1.3020    1.2863    0.1623    2.5637    2.3873   27.0000 
6909.5000    8.7500    0.9505   48.0983    1.9495    1.4685    1.4581    0.1721    2.5157    2.3901   27.0000 
6910.0000    8.7500    0.9727   48.8130    2.1601    1.5923    1.5939    0.1678    2.5910    2.4004   27.0000 
6910.5000    8.7500    0.9801   49.6542    2.2825    1.6661    1.6613    0.1714    2.8360    2.4154   27.0000 
6911.0000    8.7500    0.9949   49.9904    2.3490    1.6519    1.6693    0.1710    2.6382    2.4233   27.0000 
6911.5000    8.7500    0.9282   50.9366   10.7530    7.4276    6.2195    0.1554    2.7432    2.4538   27.0000 
6912.0000    8.7500    0.8282   44.6017   20.0014   13.9167   12.0854    0.1103    3.2052    2.5133   27.0000 
6912.5000    8.7500    0.7060   38.1270   20.1065   14.0143   10.7075    0.0705    3.7583    2.5653   22.0000 
6913.0000    8.7500    0.6986   36.3400    8.3667    6.0601    4.9516    0.0617    3.3019    2.5681   22.0000 
6913.5000    8.7500    0.7394   34.9947    4.2496    3.0587    2.7568    0.0799    3.3276    2.5177   27.0000 
6914.0000    8.7500    0.8245   35.7305    3.3849    2.4160    2.3650    0.1025    3.1589    2.4570   27.0000 
6914.5000    8.7500    0.8838   36.6414    2.5473    1.8133    1.9276    0.1394    2.7920    2.4242   27.0000 
6915.0000    8.7500    0.8912   40.6425    2.1853    1.5638    1.7079    0.1479    2.6480    2.4383   27.0000 
6915.5000    8.7500    0.8616   39.2761    2.5510    1.8301    1.9540    0.1250    2.7291    2.5102   27.0000 
6916.0000    8.7500    0.6764   35.3521    7.3056    5.3946    4.5014    0.0742    3.2157    2.5845   27.0000 
6916.5000    8.7500    0.5949   32.9345    9.1924    7.0746    5.7543    0.0328    3.3858    2.6391   27.0000 
6917.0000    8.7500    0.6097   31.9675   22.7600   17.8984   11.0808    0.0154    3.2594    2.6527   27.0000 
6917.5000    8.7500    0.6171   32.1427   22.1330   17.9697   14.0367    0.0083    3.4341    2.6517   27.0000 
6918.0000    8.7500    0.5949   30.8953   20.6569   17.1215   11.6600    0.0064    3.3269    2.6495   27.0000 
6918.5000    8.7500    0.6171   32.0725   13.6984   11.6397    8.9087    0.0068    3.1712    2.6391   27.0000 
6919.0000    8.7500    0.7431   32.5700   17.1909   14.7750   11.4564    0.0094    3.4512    2.6161   27.0000 
6919.5000    8.7500    1.2949   32.6610   14.1955   13.4152   10.1643    0.0248    3.7809    2.5486   27.0000 
6920.0000    8.7500    1.3504   35.2888    3.4064    3.4264    3.6179    0.0694    3.0706    2.4693   27.0000 
6920.5000    8.7500    1.0838   38.4281    2.1743    2.2442    2.7537    0.1325    2.8525    2.4132   27.0000 
6921.0000    8.7500    1.4615   40.7406    1.6186    1.7104    2.2874    0.1693    3.0899    2.3822   27.0000 
6921.5000    8.7500    1.5060   38.0568    1.5615    1.6759    2.1528    0.1647    3.3337    2.3627   37.0000 
6922.0000    8.7500    1.6319   34.3148    2.6702    2.9110    3.2715    0.1077    4.2254    2.3801   18.0000 
6922.5000    8.7500    1.2319   30.1175    9.9787   10.9096    9.8204    0.0393    4.8691    2.4600   18.0000 
6923.0000    8.7500    1.0838   26.1933   26.3680   28.2350   16.1797    0.0105    5.0282    2.5694   18.0000 
6923.5000    8.7500    1.5060   24.4066   38.9209   39.8196   17.7569    0.0026    4.9543    2.6573   18.0000 
6924.0000    8.7500    0.8616   23.4535   42.5904   39.8737   18.2885    0.0066    4.7684    2.7121   18.0000 
6924.5000    8.7500    0.4912   24.9110   66.8106   56.1361   21.8150    0.0103    4.7303    2.7357   18.0000 
6925.0000    8.7500    0.4838   24.8339   95.9273   71.2438   23.0094    0.0136    4.7125    2.7286   18.0000 
6925.5000    8.7500    0.3357   28.5128  105.1390   69.2512   17.0332    0.0163    4.7817    2.7195   18.0000 
6926.0000    8.7500    0.3135   32.1918   84.6114   52.5518   15.0334    0.0201    4.4656    2.7017   18.0000 
6926.5000    8.7500    0.2838   31.7433   84.4125   50.6265   14.1871    0.0229    4.1988    2.6870   18.0000 
6927.0000    8.7500    0.2838   29.5780   84.5498   50.2139   12.3123    0.0243    4.3539    2.6641   18.0000 
6927.5000    8.7500    0.3061   33.5230   96.4423   55.4013   11.5542    0.0299    4.1533    2.6519   18.0000 
6928.0000    8.7500    0.2542   47.5028  117.3811   65.7477   10.0616    0.0519    4.5322    2.6475   18.0000 
6928.5000    8.7500    0.2098   54.0056  111.8173   64.1621    9.6457    0.0669    3.8648    2.6440   22.0000 
6929.0000    8.7500    0.1727   51.6372  102.0080   60.9155    9.3108    0.0583    3.7175    2.6447   22.0000 
6929.5000    8.7500    0.1727   37.7695   85.2562   53.7277    8.9599    0.0330    4.3728    2.6519   18.0000 
6930.0000    8.7500    0.2172   31.0145   86.5627   56.7920    8.5159    0.0167    4.4367    2.6605   18.0000 
6930.5000    8.7500    0.2320   24.7498   78.8514   52.6388    8.8705    0.0125    4.7396    2.6797   18.0000 
6931.0000    8.7500    0.2616   22.0100   61.9434   43.3841   11.3574    0.0106    4.7351    2.6957   18.0000 
6931.5000    8.7500    0.2838   22.6407   51.5839   38.2128   13.2302    0.0109    4.7036    2.7079   18.0000 
6932.0000    8.7500    0.2950   26.7892   39.2597   32.1030   13.9416    0.0105    3.9373    2.7093   18.0000 
6932.5000    8.7500    0.3357   35.5133   29.3627   26.8063   13.4687    0.0162    3.6648    2.6891   27.0000 
6933.0000    8.7500    0.3283   41.6377   13.4314   13.4245    9.2485    0.0241    3.5255    2.6538   27.0000 
6933.5000    8.7500    0.4690   43.5435   11.4003   11.7983    9.0028    0.0301    2.9579    2.6164   27.0000 
6934.0000    8.7500    0.6838   43.1230   15.3082   15.8699   11.7343    0.0321    3.2261    2.6038   27.0000 
6934.5000    8.7500    1.0245   43.0109    9.6863   10.1845    9.6859    0.0299    3.0188    2.6116   27.0000 
6935.0000    8.7500    1.1579   43.7468    8.5088    8.9644    9.0041    0.0454    3.1488    2.6142   27.0000 
