~VERSION INFORMATION
 VERS.                 2.0:   CWLS LOG ASCII STANDARD - VERSION 2.0
 WRAP.                  NO:   SINGLE LINE PER DEPTH STEP
 CREA.                 20/03/2018 14:41:29
#CREATED USING DSPetro VERSION 5000.10.1.3 BY H191660 ON 20/03/2018 14:41:29
~WELL INFORMATION
#MNEM.UNIT       DATA                          DESCRIPTION MNEMONIC
#---------      ---------------------------   --------------------------
 STRT    .FT        325.3294                  : START DEPTH
 STOP    .FT        12308.5971                : STOP DEPTH
 STEP    .FT        1.6404                    : STEP VALUE
 NULL    .      -999.0000                     : NULL VALUE
 DATE    .      20/03/2018                    : LAS file Creation Date
 WELL .      UNIVERSITY_19-5             : Well Name
 COMP .      Neftex Exploration Insights : Company
 FLD  .      PHANTOM (WOLFCAMP)          : Field
 UWI  .      208                         : Unique Well Identifier (UWI)
 LOC  .                                  : Location
 RWS  .      -999                        : Def_Rw
 WST  .      -999                        : Def_Rwt
 SRVC .                                  : Contractor
~CURVE INFORMATION
#MNEM              UNIT       API CODE   Curve Type Comments
#----------  --------------- ----------  ---------- -----------
 DEPTH      .FT                        : Depth       
 DEPTH      .FT                        : Depth       
 BS         .inch                      : BitSize     
 CAL_INCH   .inch                      :             Caliper Log - A representation of the measured diameter of a borehole along its depth
 GR_API     .API                       : GammaRay    Gamma Ray (API) - Measures the intensity of natural gamma-ray radiation emitted from formations containing radioactive elements, such as K, Th and U
 SGR_API    .API                       : GammaRay    Spectral Gamma Ray - Total gamma calibrated to API, measured using a spectoral gamma array tool
 CGR_API    .API                       : GammaRay    Corrected / Computed Gamma Ray - Radiation with the Uranium component removed. Also known as a 'carbonate gamma ray'
 TH_PPM     .ppm                       : Spectral    Thorium Abundance (SGR) - The quantitative elemental abundace of Thorium derived from the Spectral Gamma Ray Log
 K_per        .PC                        :             Potassium Abundance (SGR) - The quantitative elemental abundace of Potassium derived from the Spectral Gamma Ray Log. Also wt_%
 U_PPM      .ppm                       :             Uranium Abundance (SGR) - The quantitative elemental abundace of Uranium derived from the Spectral Gamma Ray Log
 ThK        .PPM                       : Spectral    
 ThU        .PPM                       : Spectral    
 SRES       .ohmm                      :             10" array induction, two foot resistivity
 MRES       .ohm.m                     :             30" array induction, two foot resistivity
 DRES       .ohmm                      :             90" array induction, two foot resistivity log - units of ohmm
 DT_US_FT   .us/ft                     :             Interval Transit Time: Compressional Wave - Evaluates the time it takes for a compressional wave to traverse a fixed distance
 NPHI_RATIO .ratio                     :             Neutron Porosity - Measured with an neutron logging device calibrated to a given matrix (limestone, sandstone and dolomite)
 RHOB_G_CC  .g/cc                      :             Bulk Density - Measures the density of bulk material, including any void space or other materials contained in the subject volume
 DRHO_G_CC  .g/cc                      :             Density Correction - Investigates the correction to the Bulk Density log; used as an indication of hole condition to validate the Bulk Density measure
 PEF_B_E    .b/e-                      : PEF         Photoelectric Factor - A log of photoelectric absorption properties. Often expressed in an approximation unit barns/electron (b/e-)
 LITH       .                          : LITH        Lithology Curve
~A  DEPTH   DEPTH       BS     CAL_INCH   GR_API   SGR_API   CGR_API    TH_PPM     K_per      U_PPM      ThK       ThU       SRES      MRES      DRES    DT_US_FT NPHI_RAT~ RHOB_G_C~ DRHO_G_C~  PEF_B_E     LITH   
# ...
7867.9803 7867.9803   12.2500 -999.0000   60.8476 -999.0000 -999.0000    5.0686 -999.0000    3.1697 -999.0000 -999.0000    2.7109   18.1892   33.3094   63.8784    0.0601    2.5735    0.0002    2.4871   36.0000 
7869.6207 7869.6207   12.2500 -999.0000   90.3818 -999.0000 -999.0000    6.6341 -999.0000    6.9848 -999.0000 -999.0000    2.7512   21.2422   44.2576   64.9963    0.1022    2.5849   -0.0016    2.6060   37.0000 
7871.2612 7871.2612   12.2500 -999.0000  177.2489 -999.0000 -999.0000    8.1783 -999.0000   12.2375 -999.0000 -999.0000    2.8349   35.8219  374.6036   70.0345    0.1825    2.5590   -0.0023    3.0935   37.0000 
7872.9016 7872.9016   12.2500 -999.0000   55.2639 -999.0000 -999.0000    2.2818 -999.0000    4.0585 -999.0000 -999.0000    2.8453   37.3698  627.3333   56.0236    0.0084    2.6440    0.0036    3.1579   22.0000 
7874.5420 7874.5420   12.2500 -999.0000  111.0117 -999.0000 -999.0000    7.4375 -999.0000   10.1966 -999.0000 -999.0000    2.8570   36.5209  445.2212   61.7813    0.0824    2.6578    0.0024    3.4039   22.0000 
7876.1824 7876.1824   12.2500 -999.0000   91.2499 -999.0000 -999.0000    6.3667 -999.0000    6.6348 -999.0000 -999.0000    2.8416   33.7138  181.3106   61.9255    0.0759    2.6662    0.0025    2.8961   37.0000 
7877.8228 7877.8228   12.2500 -999.0000   87.3304 -999.0000 -999.0000    7.9406 -999.0000    4.6286 -999.0000 -999.0000    2.8698   33.0281  170.7325   62.9706    0.0667    2.6364   -0.0044    2.6587   37.0000 
7879.4633 7879.4633   12.2500 -999.0000   81.7210 -999.0000 -999.0000    7.8267 -999.0000    4.1407 -999.0000 -999.0000    2.8604   31.8759  142.0365   62.1791    0.0726    2.5951   -0.0036    2.8101   37.0000 
7881.1037 7881.1037   12.2500 -999.0000   85.2280 -999.0000 -999.0000    9.0771 -999.0000    3.6950 -999.0000 -999.0000    2.8138   28.1834   95.5758   62.0967    0.0931    2.6144   -0.0040    2.9045   37.0000 
7882.7441 7882.7441   12.2500 -999.0000   47.8226 -999.0000 -999.0000    4.0953 -999.0000    2.0923 -999.0000 -999.0000    2.7816   25.0823   67.1045   58.8662    0.0171    2.6023    0.0004    2.7471   27.0000 
7884.3845 7884.3845   12.2500 -999.0000   56.4778 -999.0000 -999.0000    4.7630 -999.0000    2.5997 -999.0000 -999.0000    2.7756   24.0588   56.7520   61.0211    0.0316    2.6006   -0.0030    2.7499   36.0000 
7886.0249 7886.0249   12.2500 -999.0000   64.9009 -999.0000 -999.0000    5.5120 -999.0000    3.1237 -999.0000 -999.0000    2.7552   24.0735   50.2992   61.7539    0.0462    2.6219    0.0030    2.6886   36.0000 
7887.6654 7887.6654   12.2500 -999.0000   59.8021 -999.0000 -999.0000    4.9705 -999.0000    3.0185 -999.0000 -999.0000    2.7214   15.9734   23.8080   62.9737    0.0493    2.5634   -0.0040    2.6066   36.0000 
7889.3058 7889.3058   12.2500 -999.0000  101.1848 -999.0000 -999.0000    9.2460 -999.0000    6.2196 -999.0000 -999.0000    2.8224   32.5847  149.3093   64.1193    0.1056    2.6090   -0.0006    2.7262   37.0000 
7890.9462 7890.9462   12.2500 -999.0000   81.2696 -999.0000 -999.0000    6.5770 -999.0000    5.1212 -999.0000 -999.0000    2.8530   36.3049  361.6396   62.4663    0.0939    2.6062   -0.0023    2.9775   37.0000 
7892.5866 7892.5866   12.2500 -999.0000   70.8402 -999.0000 -999.0000    5.3153 -999.0000    4.9843 -999.0000 -999.0000    2.8959   34.4581  295.8390   59.7281    0.0426    2.6264   -0.0031    3.3645   22.0000 
7894.2270 7894.2270   12.2500 -999.0000   81.5936 -999.0000 -999.0000    5.5215 -999.0000    4.6983 -999.0000 -999.0000    2.7786   22.0302   48.6177   63.5518    0.0635    2.6050   -0.0003    2.7344   36.0000 
7895.8675 7895.8675   12.2500 -999.0000   64.4689 -999.0000 -999.0000    4.7175 -999.0000    3.4032 -999.0000 -999.0000    2.7165   18.5009   31.4956   62.8515    0.0523    2.5952   -0.0025    2.6032   36.0000 
7897.5079 7897.5079   12.2500 -999.0000   56.3513 -999.0000 -999.0000    4.4175 -999.0000    2.6079 -999.0000 -999.0000    2.7300   19.1267   32.5427   62.1883    0.0407    2.6160    0.0009    2.6151   36.0000 
7899.1483 7899.1483   12.2500 -999.0000   55.3791 -999.0000 -999.0000    4.2021 -999.0000    2.7130 -999.0000 -999.0000    2.7610   21.4340   44.3392   61.5982    0.0411    2.5877   -0.0006    2.6161   36.0000 
7900.7887 7900.7887   12.2500 -999.0000   81.9630 -999.0000 -999.0000    7.1416 -999.0000    4.3354 -999.0000 -999.0000    2.8311   31.7002  199.3932   67.0540    0.1375    2.5983   -0.0003    3.0650   37.0000 
7902.4291 7902.4291   12.2500 -999.0000   83.4466 -999.0000 -999.0000    6.5281 -999.0000    4.4029 -999.0000 -999.0000    2.8052   31.1317  186.1734   64.9794    0.1128    2.6004   -0.0047    2.9345   37.0000 
7904.0696 7904.0696   12.2500 -999.0000   80.9632 -999.0000 -999.0000    7.3750 -999.0000    3.5725 -999.0000 -999.0000    2.7841   27.1698   98.0283   64.1423    0.0836    2.5982   -0.0030    2.7763   36.0000 
7905.7100 7905.7100   12.2500 -999.0000   64.9009 -999.0000 -999.0000    5.5875 -999.0000    1.9109 -999.0000 -999.0000    2.5728   11.7192   18.9723   63.3068    0.0558    2.5776    0.0005    2.4923   36.0000 
7907.3504 7907.3504   12.2500 -999.0000   50.6465 -999.0000 -999.0000    4.2583 -999.0000    1.0767 -999.0000 -999.0000    2.5106    8.5036   11.7929   65.8058    0.0476    2.5678    0.0016    2.4725   27.0000 
7908.9908 7908.9908   12.2500 -999.0000   51.1902 -999.0000 -999.0000    4.3909 -999.0000    1.3106 -999.0000 -999.0000    2.4847    8.3483   11.4343   65.2311    0.0620    2.5654   -0.0035    2.6767   36.0000 
7910.6312 7910.6312   12.2500 -999.0000   48.8107 -999.0000 -999.0000    4.2435 -999.0000    1.4831 -999.0000 -999.0000    2.4785    8.7374   12.7303   66.2683    0.0648    2.5667    0.0017    2.5594   36.0000 
7912.2717 7912.2717   12.2500 -999.0000   50.0901 -999.0000 -999.0000    4.3965 -999.0000    1.4280 -999.0000 -999.0000    2.4061    7.6283   11.6831   67.9683    0.0701    2.5193    0.0007    2.4364   27.0000 
7913.9121 7913.9121   12.2500 -999.0000   45.6593 -999.0000 -999.0000    4.2271 -999.0000    1.0831 -999.0000 -999.0000    2.3871    7.6320   12.0750   67.7871    0.0636    2.5247    0.0009    2.3581   27.0000 
7915.5525 7915.5525   12.2500 -999.0000   51.6812 -999.0000 -999.0000    4.1222 -999.0000    1.7170 -999.0000 -999.0000    2.2067    7.0918   11.3781   67.7410    0.0736    2.5070   -0.0025    2.3867   27.0000 
7917.1929 7917.1929   12.2500 -999.0000   48.6120 -999.0000 -999.0000    3.8004 -999.0000    1.3311 -999.0000 -999.0000    2.1500    7.0598   11.4557   67.3364    0.0686    2.5199   -0.0018    2.3621   27.0000 
7918.8333 7918.8333   12.2500 -999.0000   47.7142 -999.0000 -999.0000    3.9949 -999.0000    1.3132 -999.0000 -999.0000    2.2011    7.6214   12.5379   66.7505    0.0651    2.5151   -0.0005    2.4511   27.0000 
7920.4738 7920.4738   12.2500 -999.0000   48.5796 -999.0000 -999.0000    4.6329 -999.0000    1.4323 -999.0000 -999.0000    2.1630    7.1397   11.3485   66.5873    0.0599    2.5004   -0.0046    2.4544   27.0000 
7922.1142 7922.1142   12.2500 -999.0000   48.8107 -999.0000 -999.0000    5.2937 -999.0000    1.4068 -999.0000 -999.0000    2.3258    7.9059   12.9980   66.4237    0.0765    2.5267    0.0006    2.3905   27.0000 
7923.7546 7923.7546   12.2500 -999.0000   53.0222 -999.0000 -999.0000    6.8234 -999.0000    1.4189 -999.0000 -999.0000    2.4142    8.6343   14.8155   65.5710    0.0480    2.5234   -0.0014    2.4415   27.0000 
7925.3950 7925.3950   12.2500 -999.0000   49.5491 -999.0000 -999.0000    6.0206 -999.0000    1.5494 -999.0000 -999.0000    2.4301    8.7023   14.7887   65.7369    0.0432    2.5175   -0.0032    2.4837   27.0000 
7927.0354 7927.0354   12.2500 -999.0000   55.8093 -999.0000 -999.0000    5.8016 -999.0000    1.6153 -999.0000 -999.0000    2.4480    8.3630   13.7743   66.5147    0.0380    2.5014   -0.0036    2.5000   27.0000 
7928.6759 7928.6759   12.2500 -999.0000   53.1302 -999.0000 -999.0000    5.4034 -999.0000    1.7185 -999.0000 -999.0000    2.4376    8.0908   13.1395   65.6589    0.0441    2.5390   -0.0007    2.4702   27.0000 
