~VERSION INFORMATION
 VERS.                 2.0:   CWLS LOG ASCII STANDARD - VERSION 2.0
 WRAP.                  NO:   SINGLE LINE PER DEPTH STEP
 CREA.                 20/03/2018 14:41:29
#CREATED USING DSPetro VERSION 5000.10.1.3 BY H191660 ON 20/03/2018 14:41:29
~WELL INFORMATION
#MNEM.UNIT       DATA                          DESCRIPTION MNEMONIC
#---------      ---------------------------   --------------------------
 STRT    .FT        325.3294                  : START DEPTH
 STOP    .FT        12308.5971                : STOP DEPTH
 STEP    .FT        1.6404                    : STEP VALUE
 NULL    .      -999.0000                     : NULL VALUE
 DATE    .      20/03/2018                    : LAS file Creation Date
 WELL .      UNIVERSITY_19-5             : Well Name
 COMP .      Neftex Exploration Insights : Company
 FLD  .      PHANTOM (WOLFCAMP)          : Field
 UWI  .      208                         : Unique Well Identifier (UWI)
 LOC  .                                  : Location
 RWS  .      -999                        : Def_Rw
 WST  .      -999                        : Def_Rwt
 SRVC .                                  : Contractor
~CURVE INFORMATION
#MNEM              UNIT       API CODE   Curve Type Comments
#----------  --------------- ----------  ---------- -----------
 DEPTH      .FT                        : Depth       
 DEPTH      .FT                        : Depth       
 BS         .inch                      : BitSize     
 CAL_INCH   .inch                      :             Caliper Log - A representation of the measured diameter of a borehole along its depth
 GR_API     .API                       : GammaRay    Gamma Ray (API) - Measures the intensity of natural gamma-ray radiation emitted from formations containing radioactive elements, such as K, Th and U
 SGR_API    .API                       : GammaRay    Spectral Gamma Ray - Total gamma calibrated to API, measured using a spectoral gamma array tool
 CGR_API    .API                       : GammaRay    Corrected / Computed Gamma Ray - Radiation with the Uranium component removed. Also known as a 'carbonate gamma ray'
 TH_PPM     .ppm                       : Spectral    Thorium Abundance (SGR) - The quantitative elemental abundace of Thorium derived from the Spectral Gamma Ray Log
 K_per        .PC                        :             Potassium Abundance (SGR) - The quantitative elemental abundace of Potassium derived from the Spectral Gamma Ray Log. Also wt_%
 U_PPM      .ppm                       :             Uranium Abundance (SGR) - The quantitative elemental abundace of Uranium derived from the Spectral Gamma Ray Log
 ThK        .PPM                       : Spectral    
 ThU        .PPM                       : Spectral    
 SRES       .ohmm                      :             10" array induction, two foot resistivity
 MRES       .ohm.m                     :             30" array induction, two foot resistivity
 DRES       .ohmm                      :             90" array induction, two foot resistivity log - units of ohmm
 DT_US_FT   .us/ft                     :             Interval Transit Time: Compressional Wave - Evaluates the time it takes for a compressional wave to traverse a fixed distance
 NPHI_RATIO .ratio                     :             Neutron Porosity - Measured with an neutron logging device calibrated to a given matrix (limestone, sandstone and dolomite)
 RHOB_G_CC  .g/cc                      :             Bulk Density - Measures the density of bulk material, including any void space or other materials contained in the subject volume
 DRHO_G_CC  .g/cc                      :             Density Correction - Investigates the correction to the Bulk Density log; used as an indication of hole condition to validate the Bulk Density measure
 PEF_B_E    .b/e-                      : PEF         Photoelectric Factor - A log of photoelectric absorption properties. Often expressed in an approximation unit barns/electron (b/e-)
 LITH       .                          : LITH        Lithology Curve
~A  DEPTH   DEPTH       BS     CAL_INCH   GR_API   SGR_API   CGR_API    TH_PPM     K_per      U_PPM      ThK       ThU       SRES      MRES      DRES    DT_US_FT NPHI_RAT~ RHOB_G_C~ DRHO_G_C~  PEF_B_E     LITH   
# ...
7369.2927 7369.2927   12.2500 -999.0000   68.2582 -999.0000 -999.0000    5.3862 -999.0000    3.0342 -999.0000 -999.0000    2.5714   13.1841   22.5935   65.4402    0.0907    2.5722    0.0036    2.4315   36.0000 
7370.9331 7370.9331   12.2500 -999.0000   61.7266 -999.0000 -999.0000    4.8496 -999.0000    3.1770 -999.0000 -999.0000    2.6378   14.9107   30.7061   64.5344    0.0834    2.5723   -0.0005    2.4480   36.0000 
7372.5735 7372.5735   12.2500 -999.0000   85.2549 -999.0000 -999.0000    6.3095 -999.0000    4.1538 -999.0000 -999.0000    2.7043   22.0752   77.9920   65.0199    0.0907    2.6114    0.0009    2.6113   37.0000 
7374.2139 7374.2139   12.2500 -999.0000   91.5984 -999.0000 -999.0000    6.6032 -999.0000    4.3779 -999.0000 -999.0000    2.8426   32.5349  192.3608   70.7780    0.1778    2.5558   -0.0001    2.9242   37.0000 
7375.8543 7375.8543   12.2500 -999.0000   80.5946 -999.0000 -999.0000    6.5044 -999.0000    4.1759 -999.0000 -999.0000    2.8505   32.5833  191.6101   69.8281    0.1932    2.5493    0.0008    2.8449   37.0000 
7377.4948 7377.4948   12.2500 -999.0000   72.0054 -999.0000 -999.0000    6.2248 -999.0000    3.3011 -999.0000 -999.0000    2.8468   31.1687  140.0469   66.7692    0.1155    2.5645    0.0031    2.6441   36.0000 
7379.1352 7379.1352   12.2500 -999.0000   55.2373 -999.0000 -999.0000    6.9207 -999.0000    1.7828 -999.0000 -999.0000    2.9051   32.0262  111.3199   64.3046    0.0828    2.6241    0.0209    2.8081   36.0000 
7380.7756 7380.7756   12.2500 -999.0000   55.3251 -999.0000 -999.0000    6.2804 -999.0000    1.7855 -999.0000 -999.0000    2.8556   27.9042   65.1334   62.2024    0.0688    2.5656   -0.0010    2.6640   36.0000 
7382.4160 7382.4160   12.2500 -999.0000   56.8246 -999.0000 -999.0000    5.7679 -999.0000    2.7779 -999.0000 -999.0000    2.7812   28.3715   65.2436   64.5522    0.0850    2.5501    0.0031    2.5325   36.0000 
7384.0564 7384.0564   12.2500 -999.0000   81.3400 -999.0000 -999.0000    7.6868 -999.0000    5.5005 -999.0000 -999.0000    2.8831   36.0481  138.8017   66.6983    0.1374    2.5553   -0.0005    2.6726   37.0000 
7385.6969 7385.6969   12.2500 -999.0000   97.4475 -999.0000 -999.0000    8.2042 -999.0000    8.4843 -999.0000 -999.0000    2.8932   38.2667  331.1794   66.1985    0.1887    2.5978   -0.0084    3.4767   37.0000 
7387.3373 7387.3373   12.2500 -999.0000  175.0420 -999.0000 -999.0000   11.0117 -999.0000   11.5162 -999.0000 -999.0000    2.7867   38.6964  477.8580   78.2630    0.2928    2.5445    0.0008    3.1941   37.0000 
7388.9777 7388.9777   12.2500 -999.0000  111.5055 -999.0000 -999.0000    6.9127 -999.0000    8.6674 -999.0000 -999.0000    2.7854   38.1993  291.3055   71.0602    0.1890    2.5546   -0.0008    2.8665   37.0000 
7390.6181 7390.6181   12.2500 -999.0000   94.5821 -999.0000 -999.0000    5.9231 -999.0000    6.1087 -999.0000 -999.0000    2.8411   37.8206  167.8603   63.9808    0.1453    2.5586    0.0037    2.9323   37.0000 
7392.2585 7392.2585   12.2500 -999.0000   99.3787 -999.0000 -999.0000    7.4713 -999.0000    6.8202 -999.0000 -999.0000    2.8949   42.6059  625.8224   66.8356    0.1322    2.5756    0.0012    3.1608   37.0000 
7393.8990 7393.8990   12.2500 -999.0000   98.8963 -999.0000 -999.0000    6.6841 -999.0000    6.5216 -999.0000 -999.0000    2.9486   41.2215  721.4156   64.2735    0.1547    2.5951    0.0137    3.3423   37.0000 
7395.5394 7395.5394   12.2500 -999.0000   87.5530 -999.0000 -999.0000    5.0054 -999.0000    6.2644 -999.0000 -999.0000    2.9478   39.9061  744.0861   64.6558    0.1086    2.6567    0.0501    3.0884   37.0000 
7397.1798 7397.1798   12.2500 -999.0000  104.5325 -999.0000 -999.0000    5.1398 -999.0000    8.8223 -999.0000 -999.0000    3.0119   43.5088  616.2364   68.1261    0.1472    2.5518   -0.0038    2.8862   37.0000 
7398.8202 7398.8202   12.2500 -999.0000   91.5843 -999.0000 -999.0000    3.8110 -999.0000    6.0277 -999.0000 -999.0000    2.9734   46.5502  992.8920   65.1052    0.1508    2.6085    0.0072    4.1340   37.0000 
7400.4606 7400.4606   12.2500 -999.0000   91.3323 -999.0000 -999.0000    6.0319 -999.0000    7.8698 -999.0000 -999.0000    3.0597   49.7845  655.5535   65.9586    0.1460    2.6041   -0.0077    3.6337   37.0000 
7402.1010 7402.1010   12.2500 -999.0000   72.1361 -999.0000 -999.0000    5.6933 -999.0000    6.0915 -999.0000 -999.0000    3.1747   49.0008  731.1696   64.4037    0.1109    2.5915    0.0001    2.7206   37.0000 
7403.7415 7403.7415   12.2500 -999.0000  102.1567 -999.0000 -999.0000    6.8776 -999.0000    8.9961 -999.0000 -999.0000    3.1083   49.4363  683.1463   68.3096    0.1744    2.5905   -0.0010    3.1765   37.0000 
7405.3819 7405.3819   12.2500 -999.0000  177.5684 -999.0000 -999.0000   10.0554 -999.0000   15.6050 -999.0000 -999.0000    3.1716   50.0295 1024.4000   76.2647    0.2842    2.5173    0.0011    3.2158   37.0000 
7407.0223 7407.0223   12.2500 -999.0000  162.0139 -999.0000 -999.0000    8.6868 -999.0000   13.3088 -999.0000 -999.0000    3.1128   47.5693  571.9028   75.1301    0.2494    2.5197    0.0019    3.1131   37.0000 
7408.6627 7408.6627   12.2500 -999.0000  129.2788 -999.0000 -999.0000    7.6806 -999.0000    9.2099 -999.0000 -999.0000    3.0236   37.0218  205.9673   70.1620    0.1880    2.5692    0.0043    2.9281   37.0000 
7410.3031 7410.3031   12.2500 -999.0000   72.7660 -999.0000 -999.0000    5.5091 -999.0000    4.6913 -999.0000 -999.0000    2.9789   33.7743  184.3465   63.4433    0.0825    2.5918   -0.0016    2.8169   37.0000 
7411.9436 7411.9436   12.2500 -999.0000   69.0975 -999.0000 -999.0000    6.5253 -999.0000    3.4355 -999.0000 -999.0000    2.9128   33.3898  222.2334   61.0813    0.0637    2.6434    0.0030    2.8251   36.0000 
7413.5840 7413.5840   12.2500 -999.0000   72.6586 -999.0000 -999.0000    6.1530 -999.0000    3.5443 -999.0000 -999.0000    2.8366   25.6471   84.2325   61.1502    0.0862    2.6101    0.0026    3.0440   36.0000 
7415.2244 7415.2244   12.2500 -999.0000   62.0787 -999.0000 -999.0000    6.1221 -999.0000    3.5575 -999.0000 -999.0000    2.7475   23.2006   68.0741   61.6500    0.0593    2.6547    0.0017    3.4600   36.0000 
7416.8648 7416.8648   12.2500 -999.0000   70.3012 -999.0000 -999.0000    6.3964 -999.0000    3.8197 -999.0000 -999.0000    2.7136   18.4773   42.8712   65.1722    0.0810    2.5872    0.0012    2.6393   36.0000 
7418.5052 7418.5052   12.2500 -999.0000   68.0075 -999.0000 -999.0000    6.9445 -999.0000    3.5631 -999.0000 -999.0000    2.6786   15.3543   28.3552   64.3865    0.0776    2.5656   -0.0031    2.6269   36.0000 
7420.1457 7420.1457   12.2500 -999.0000   64.7929 -999.0000 -999.0000    6.8937 -999.0000    3.0775 -999.0000 -999.0000    2.5808   11.9166   17.9112   65.7090    0.0787    2.5463   -0.0038    2.5124   36.0000 
7421.7861 7421.7861   12.2500 -999.0000   71.1328 -999.0000 -999.0000    6.3066 -999.0000    3.1363 -999.0000 -999.0000    2.4860    9.9639   13.4218   66.0887    0.0835    2.5535   -0.0029    2.4823   36.0000 
7423.4265 7423.4265   12.2500 -999.0000   63.0464 -999.0000 -999.0000    6.4086 -999.0000    2.9133 -999.0000 -999.0000    2.4862    9.2049   12.4166   66.1283    0.0990    2.5264   -0.0072    2.6036   36.0000 
7425.0669 7425.0669   12.2500 -999.0000   65.3105 -999.0000 -999.0000    5.6446 -999.0000    2.6918 -999.0000 -999.0000    2.5665   11.2140   17.0567   65.0329    0.0873    2.5708    0.0043    2.5388   36.0000 
7426.7073 7426.7073   12.2500 -999.0000   57.4310 -999.0000 -999.0000    5.3799 -999.0000    2.2253 -999.0000 -999.0000    2.6127   12.1314   20.8467   62.9717    0.0624    2.5826    0.0006    2.4355   36.0000 
7428.3478 7428.3478   12.2500 -999.0000   50.6732 -999.0000 -999.0000    5.0536 -999.0000    2.2045 -999.0000 -999.0000    2.5797    9.9855   17.1560   62.5537    0.0569    2.5761    0.0011    2.4612   27.0000 
7429.9882 7429.9882   12.2500 -999.0000   55.2519 -999.0000 -999.0000    5.0185 -999.0000    2.2049 -999.0000 -999.0000    2.5348   10.6185   19.3730   63.2411    0.0701    2.5477   -0.0021    2.4793   36.0000 
