~VERSION INFORMATION
 VERS.                 2.0:   CWLS LOG ASCII STANDARD - VERSION 2.0
 WRAP.                  NO:   SINGLE LINE PER DEPTH STEP
 CREA.                 20/03/2018 14:58:23
#CREATED USING DSPetro VERSION 5000.10.1.3 BY H191660 ON 20/03/2018 14:58:23
~WELL INFORMATION
#MNEM.UNIT       DATA                          DESCRIPTION MNEMONIC
#---------      ---------------------------   --------------------------
 STRT    .FT        128.0000                  : START DEPTH
 STOP    .FT        12500.0000                : STOP DEPTH
 STEP    .FT        0.5000                    : STEP VALUE
 NULL    .      -999.0000                     : NULL VALUE
 DATE    .      20/03/2018                    : LAS file Creation Date
 WELL  .      UNIVERSITY_40_16_4247536999  : Well Name
 COMP  .      Neftex Exploration Insights  : Company
 FLD   .      PHANTOM (WOLFCAMP)           : Field
 STATE .      Texas                        : State
 COUNT .      USA                          : Country
 API   .      42475369990000               : API Number
 UWI   .      222                          : Unique Well Identifier (UWI)
 LOC   .      1980FNL x 1757FWL            : Location
 TOWN  .      16                           : Township
 SCT   .      40                           : Section
 RANG  .      U39                          : Range
 LATI  .      -6470541.88                  : Latitude/Northing
 LONG  .      783810.27                    : Longitude/Easting
 PDAT  .      GL                           : Permanent Datum
 EPDAT .      2604.000000                  : Reference Elevation
 LGMEA .      KB                           : Log Measured from
 DRMEA .      KB                           : Drill Measured From
 APDAT .      25.000000                    : Elevation Above Permanent Datum
 KB    .      2629.00000                   : KB Elevation
 GL    .      2604.00000                   : GL Elevation
 RWS   .      -999                         : Def_Rw
 WST   .      -999                         : Def_Rwt
 CNTY  .      WARD                         : County
 SRVC  .      Diversified Well Logging LLC : Contractor
~CURVE INFORMATION
#MNEM              UNIT       API CODE   Curve Type Comments
#----------  --------------- ----------  ---------- -----------
 DEPTH      .FT                        : Depth       
 BS         .inch                      : BitSize     
 DCAL_INCH  .inch                      :             Differential Caliper - Evaluates the difference between the actual borehole diameter and bit size
 GR         .GAPI                      : GammaRay    Gamma Ray {F11.4}
 LLD_OHMM   .ohmm                      :             Laterlog Deep Resistivity - Measurement made several feet into the formation; generally considered a measurement of the undisturbed formation
 LLM_OHMM   .ohm.m                     :             Laterlog Medium Resistivity - Measurement made approximately two to three feet into the formation - units of ohmm
 LLS_OHMM   .ohmm                      :             Laterlog Shallow Resistivity - one to two feet into the formation; generally considered to measure the formation
 NPHI_RATIO .ratio                     :             Neutron Porosity - Measured with an neutron logging device calibrated to a given matrix (limestone, sandstone and dolomite)
 PEF_B_E    .b/e-                      : PEF         Photoelectric Factor - A log of photoelectric absorption properties. Often expressed in an approximation unit barns/electron (b/e-)
 RHOZ_G_CC  .g/cc                      :             Formation Density - Measures the density of formation, including any void space or other materials contained in the subject volume
 LITH       .                          : LITH        Lithology Curve
~A  DEPTH     BS    DCAL_INC~     GR     LLD_OHMM  LLM_OHMM  LLS_OHMM NPHI_RAT~  PEF_B_E  RHOZ_G_C~    LITH   
# ...
4309.5000 -999.0000   -5.9601   16.5774    0.0062    0.0078    0.0083    0.7754    9.9566    2.1873    3.0000 
4310.0000 -999.0000   -5.9379   15.7366    0.0062    0.0083    0.0093    0.7445    9.8695    1.9918    3.0000 
4310.5000 -999.0000   -5.9379   15.2260    0.0049    0.0064    0.0067    0.7180    9.9773    1.8813    3.0000 
4311.0000 -999.0000   -5.9490   16.5174    0.0056    0.0065    0.0068    0.6666   10.0000    1.8135    3.0000 
4311.5000 -999.0000   -5.9379   16.6675    0.0091    0.0091    0.0095    0.7293   10.0000    1.7382    3.0000 
4312.0000 -999.0000   -5.9490   15.0759    0.0079    0.0089    0.0095    0.7070   10.0000    1.6639    3.0000 
4312.5000 -999.0000   -5.9379   14.2650    0.0080    0.0085    0.0087    0.7474    9.9867    1.6299    3.0000 
4313.0000 -999.0000   -5.9601   13.9047    0.0090    0.0091    0.0097    0.6895    9.9379    1.6417    3.0000 
4313.5000 -999.0000   -5.9379   14.5353    0.0099    0.0099    0.0105    0.6845   10.0000    1.6757    3.0000 
4314.0000 -999.0000   -5.9379   13.8746    0.0093    0.0092    0.0097    0.8499   10.0000    1.7024    3.0000 
4314.5000 -999.0000   -5.9601   13.9947    0.0087    0.0084    0.0086    0.8675    9.9110    1.7291    3.0000 
4315.0000 -999.0000   -5.9379   14.4151    0.0089    0.0087    0.0088    0.9201    9.9936    1.7647    3.0000 
4315.5000 -999.0000   -5.9379   14.6253    0.0085    0.0079    0.0080    0.7572   10.0000    1.8209    3.0000 
4316.0000 -999.0000   -5.9379   13.2439    0.0082    0.0074    0.0074    0.7675   10.0000    1.9098    3.0000 
4316.5000 -999.0000   -5.9490   16.1871    0.0071    0.0074    0.0075    0.7239   10.0000    2.0054    3.0000 
4317.0000 -999.0000   -5.9601   16.6076    0.0081    0.0088    0.0096    0.6746   10.0000    2.1352    3.0000 
4317.5000 -999.0000   -5.9490   17.9890    0.0068    0.0067    0.0072    0.6269   10.0000    2.3347    3.0000 
4318.0000 -999.0000   -5.9601   16.9379    0.0059    0.0072    0.0081    0.6922   10.0000    2.6376    3.0000 
4318.5000 -999.0000   -5.9601   16.9679    0.0053    0.0068    0.0079    0.6748   10.0000    2.9033    3.0000 
4319.0000 -999.0000   -5.9379   17.0579    0.0051    0.0061    0.0070    0.6817    9.4056    3.0591    3.0000 
4319.5000 -999.0000   -5.9379   16.0068    0.0048    0.0064    0.0072    0.5924    9.3985    2.9541    3.0000 
4320.0000 -999.0000   -5.9601   17.9288    0.0040    0.0055    0.0058    0.6331    9.6089    2.6947    3.0000 
4320.5000 -999.0000   -5.9601   17.2981    0.0052    0.0070    0.0077    0.7463   10.0000    2.3499    3.0000 
4321.0000 -999.0000   -5.9601   17.7185    0.0059    0.0077    0.0086    0.7787    9.9151    2.0951    3.0000 
4321.5000 -999.0000   -5.9490   16.6075    0.0054    0.0066    0.0071    0.8571    9.8912    1.9469    3.0000 
4322.0000 -999.0000   -5.9601   19.0702    0.0064    0.0082    0.0097    0.8025   10.0000    1.8331    3.0000 
4322.5000 -999.0000   -5.9490   19.9111    0.0060    0.0061    0.0066    0.9020    9.9732    1.7279    3.0000 
4323.0000 -999.0000   -5.9379   16.4574    0.0080    0.0082    0.0087    0.8865   10.0000    1.6440    3.0000 
4323.5000 -999.0000   -5.9601   15.0459    0.0074    0.0080    0.0089    0.8636   10.0000    1.6235    3.0000 
4324.0000 -999.0000   -5.9601   14.2049    0.0088    0.0096    0.0103    0.8126   10.0000    1.6434    3.0000 
4324.5000 -999.0000   -5.9379   15.4062    0.0085    0.0085    0.0088    0.7627   10.0000    1.6702    3.0000 
4325.0000 -999.0000   -5.9601   14.7754    0.0074    0.0085    0.0093    0.8619    9.9378    1.6898    3.0000 
4325.5000 -999.0000   -5.9601   14.5353    0.0069    0.0077    0.0082    0.8412    9.9786    1.7085    3.0000 
4326.0000 -999.0000   -5.9490   15.9468    0.0085    0.0084    0.0088    0.7676    9.9659    1.7330    3.0000 
4326.5000 -999.0000   -5.9601   15.8267    0.0086    0.0097    0.0108    0.7582   10.0000    1.7723    3.0000 
4327.0000 -999.0000   -5.9379   15.8566    0.0070    0.0084    0.0093    0.7061   10.0000    1.8489    3.0000 
4327.5000 -999.0000   -5.9379   14.6855    0.0070    0.0072    0.0072    0.7898   10.0000    1.9584    3.0000 
4328.0000 -999.0000   -5.9490   13.9647    0.0088    0.0089    0.0096    0.6795   10.0000    2.0691    3.0000 
4328.5000 -999.0000   -5.9379   12.9736    0.0061    0.0065    0.0065    0.6339   10.0000    2.2143    3.0000 
4329.0000 -999.0000   -5.9379   13.9345    0.0069    0.0071    0.0074    0.6416   10.0000    2.4347    3.0000 
4329.5000 -999.0000   -5.9379   16.0369    0.0039    0.0045    0.0044    0.7422   10.0000    2.7450    3.0000 
4330.0000 -999.0000   -5.9379   16.0369    0.0056    0.0066    0.0075    0.8247    9.9307    2.9622    3.0000 
4330.5000 -999.0000   -5.9379   14.5654    0.0047    0.0051    0.0052    0.8250    9.4370    3.0083    3.0000 
4331.0000 -999.0000   -5.9379   14.8656    0.0058    0.0072    0.0082    0.7177    9.3867    2.7922    3.0000 
4331.5000 -999.0000   -5.9379   17.9588    0.0054    0.0074    0.0085    0.7445    9.9830    2.4958    3.0000 
4332.0000 -999.0000   -5.9601   19.4303    0.0060    0.0070    0.0074    0.6814    9.9086    2.1824    3.0000 
4332.5000 -999.0000   -5.9379   19.4303    0.0053    0.0072    0.0079    0.7590    9.9033    2.0087    3.0000 
4333.0000 -999.0000   -5.9601   20.0609    0.0046    0.0060    0.0064    0.6858   10.0000    1.8914    3.0000 
4333.5000 -999.0000   -5.9379   21.2623    0.0059    0.0071    0.0078    0.6849    9.9455    1.8018    3.0000 
4334.0000 -999.0000   -5.9379   19.7007    0.0045    0.0057    0.0061    0.7733    9.9136    1.7035    3.0000 
4334.5000 -999.0000   -5.9601   15.7365    0.0057    0.0067    0.0072    0.8522    9.9813    1.6448    3.0000 
4335.0000 -999.0000   -5.9601   13.2739    0.0060    0.0066    0.0066    0.8318   10.0000    1.6321    3.0000 
4335.5000 -999.0000   -5.9379   13.6343    0.0068    0.0069    0.0069    0.6653    9.9965    1.6452    3.0000 
4336.0000 -999.0000   -5.9379   14.2349    0.0107    0.0090    0.0092    0.6101   10.0000    1.6737    3.0000 
4336.5000 -999.0000   -5.9601   16.3372    0.0078    0.0079    0.0081    0.6229    9.9386    1.7080    3.0000 
4337.0000 -999.0000   -5.9601   15.8568    0.0072    0.0085    0.0095    0.6813   10.0000    1.7380    3.0000 
4337.5000 -999.0000   -5.9379   14.8056    0.0076    0.0085    0.0092    0.7362    9.9576    1.7601    3.0000 
4338.0000 -999.0000   -5.9379   13.9647    0.0073    0.0078    0.0079    0.8198   10.0000    1.7804    3.0000 
4338.5000 -999.0000   -5.9490   12.6131    0.0069    0.0079    0.0084    0.8500   10.0000    1.8136    3.0000 
4339.0000 -999.0000   -5.9601   16.4272    0.0078    0.0087    0.0095    0.7919    9.9639    1.8717    3.0000 
4339.5000 -999.0000   -5.9490   15.3762    0.0104    0.0089    0.0091    0.7211   10.0000    1.9516    3.0000 
4340.0000 -999.0000   -5.9379   14.7455    0.0068    0.0074    0.0077    0.6463    9.9392    2.0331    3.0000 
4340.5000 -999.0000   -5.9379   13.0637    0.0055    0.0068    0.0072    0.6181   10.0000    2.1585    3.0000 
4341.0000 -999.0000   -5.9379   12.8535    0.0064    0.0069    0.0074    0.6270   10.0000    2.3707    3.0000 
4341.5000 -999.0000   -5.9601   12.6734    0.0078    0.0083    0.0094    0.6354   10.0000    2.6854    3.0000 
4342.0000 -999.0000   -5.9601   13.2740    0.0058    0.0070    0.0079    0.6118    9.9595    2.9640    3.0000 
4342.5000 -999.0000   -5.9379   14.0548    0.0073    0.0081    0.0091    0.5877    9.4660    3.0356    3.0000 
4343.0000 -999.0000   -5.9379   16.1269    0.0064    0.0070    0.0078    0.5802    9.3824    2.8436    3.0000 
4343.5000 -999.0000   -5.9601   13.8445    0.0048    0.0053    0.0055    0.6076    9.9712    2.5108    3.0000 
4344.0000 -999.0000   -5.9490   14.1147    0.0060    0.0068    0.0072    0.6496    9.8042    2.1935    3.0000 
4344.5000 -999.0000   -5.9379   12.2226    0.0072    0.0082    0.0093    0.6766    9.9235    1.9755    3.0000 
4345.0000 -999.0000   -5.9490   13.9045    0.0055    0.0067    0.0068    0.7750    9.8655    1.8082    3.0000 
4345.5000 -999.0000   -5.9601   14.1148    0.0072    0.0083    0.0094    0.7548   10.0000    1.6884    3.0000 
