~VERSION INFORMATION
 VERS.                 2.0:   CWLS LOG ASCII STANDARD - VERSION 2.0
 WRAP.                  NO:   SINGLE LINE PER DEPTH STEP
 CREA.                 20/03/2018 14:41:29
#CREATED USING DSPetro VERSION 5000.10.1.3 BY H191660 ON 20/03/2018 14:41:29
~WELL INFORMATION
#MNEM.UNIT       DATA                          DESCRIPTION MNEMONIC
#---------      ---------------------------   --------------------------
 STRT    .FT        325.3294                  : START DEPTH
 STOP    .FT        12308.5971                : STOP DEPTH
 STEP    .FT        1.6404                    : STEP VALUE
 NULL    .      -999.0000                     : NULL VALUE
 DATE    .      20/03/2018                    : LAS file Creation Date
 WELL .      UNIVERSITY_19-5             : Well Name
 COMP .      Neftex Exploration Insights : Company
 FLD  .      PHANTOM (WOLFCAMP)          : Field
 UWI  .      208                         : Unique Well Identifier (UWI)
 LOC  .                                  : Location
 RWS  .      -999                        : Def_Rw
 WST  .      -999                        : Def_Rwt
 SRVC .                                  : Contractor
~CURVE INFORMATION
#MNEM              UNIT       API CODE   Curve Type Comments
#----------  --------------- ----------  ---------- -----------
 DEPTH      .FT                        : Depth       
 DEPTH      .FT                        : Depth       
 BS         .inch                      : BitSize     
 CAL_INCH   .inch                      :             Caliper Log - A representation of the measured diameter of a borehole along its depth
 GR_API     .API                       : GammaRay    Gamma Ray (API) - Measures the intensity of natural gamma-ray radiation emitted from formations containing radioactive elements, such as K, Th and U
 SGR_API    .API                       : GammaRay    Spectral Gamma Ray - Total gamma calibrated to API, measured using a spectoral gamma array tool
 CGR_API    .API                       : GammaRay    Corrected / Computed Gamma Ray - Radiation with the Uranium component removed. Also known as a 'carbonate gamma ray'
 TH_PPM     .ppm                       : Spectral    Thorium Abundance (SGR) - The quantitative elemental abundace of Thorium derived from the Spectral Gamma Ray Log
 K_per        .PC                        :             Potassium Abundance (SGR) - The quantitative elemental abundace of Potassium derived from the Spectral Gamma Ray Log. Also wt_%
 U_PPM      .ppm                       :             Uranium Abundance (SGR) - The quantitative elemental abundace of Uranium derived from the Spectral Gamma Ray Log
 ThK        .PPM                       : Spectral    
 ThU        .PPM                       : Spectral    
 SRES       .ohmm                      :             10" array induction, two foot resistivity
 MRES       .ohm.m                     :             30" array induction, two foot resistivity
 DRES       .ohmm                      :             90" array induction, two foot resistivity log - units of ohmm
 DT_US_FT   .us/ft                     :             Interval Transit Time: Compressional Wave - Evaluates the time it takes for a compressional wave to traverse a fixed distance
 NPHI_RATIO .ratio                     :             Neutron Porosity - Measured with an neutron logging device calibrated to a given matrix (limestone, sandstone and dolomite)
 RHOB_G_CC  .g/cc                      :             Bulk Density - Measures the density of bulk material, including any void space or other materials contained in the subject volume
 DRHO_G_CC  .g/cc                      :             Density Correction - Investigates the correction to the Bulk Density log; used as an indication of hole condition to validate the Bulk Density measure
 PEF_B_E    .b/e-                      : PEF         Photoelectric Factor - A log of photoelectric absorption properties. Often expressed in an approximation unit barns/electron (b/e-)
 LITH       .                          : LITH        Lithology Curve
~A  DEPTH   DEPTH       BS     CAL_INCH   GR_API   SGR_API   CGR_API    TH_PPM     K_per      U_PPM      ThK       ThU       SRES      MRES      DRES    DT_US_FT NPHI_RAT~ RHOB_G_C~ DRHO_G_C~  PEF_B_E     LITH   
# ...
8803.0197 8803.0197   12.2500 -999.0000   22.0384 -999.0000 -999.0000    2.2215 -999.0000    1.0146 -999.0000 -999.0000    2.8176   28.1208   98.6167   62.2356    0.0332    2.5546    0.0039    2.5086   27.0000 
8804.6601 8804.6601   12.2500 -999.0000   33.0240 -999.0000 -999.0000    3.6743 -999.0000    1.2428 -999.0000 -999.0000    2.8354   22.1795   49.9331   55.4734    0.0773    2.5102    0.0030    2.2798   27.0000 
8806.3005 8806.3005   12.2500 -999.0000   32.2117 -999.0000 -999.0000    4.4683 -999.0000    1.5028 -999.0000 -999.0000    2.7030   16.1389   28.2274   72.5003    0.1525    2.4544    0.0022    2.5346   27.0000 
8807.9409 8807.9409   12.2500 -999.0000   30.4456 -999.0000 -999.0000    3.8315 -999.0000    1.6301 -999.0000 -999.0000    2.7153   24.4373   77.2711   64.7413    0.0991    2.5242   -0.0171    3.4677   18.0000 
8809.5814 8809.5814   12.2500 -999.0000   23.1264 -999.0000 -999.0000    2.8700 -999.0000    1.4810 -999.0000 -999.0000    2.6988   22.8379   61.7991   60.2338    0.0522    2.5304    0.0001    2.8994   27.0000 
8811.2218 8811.2218   12.2500 -999.0000   32.1797 -999.0000 -999.0000    3.2654 -999.0000    1.4195 -999.0000 -999.0000    2.6998   19.1617   38.6283   66.8264    0.0965    2.5062    0.0016    2.5409   27.0000 
8812.8622 8812.8622   12.2500 -999.0000   37.3316 -999.0000 -999.0000    4.2344 -999.0000    1.7045 -999.0000 -999.0000    2.6406   13.7521   20.6845   70.2908    0.1260    2.4778    0.0010    2.3382   27.0000 
8814.5026 8814.5026   12.2500 -999.0000   25.6916 -999.0000 -999.0000    1.7821 -999.0000    0.8511 -999.0000 -999.0000    2.7085   28.0360  133.6328   60.6413    0.0159    2.5828    0.0021    2.4140   27.0000 
8816.1430 8816.1430   12.2500 -999.0000   20.6268 -999.0000 -999.0000    1.7069 -999.0000    1.1212 -999.0000 -999.0000    2.7527   29.2574  136.2557   57.8141    0.0119    2.5910    0.0034    2.9105   27.0000 
8817.7835 8817.7835   12.2500 -999.0000   16.6473 -999.0000 -999.0000    1.2753 -999.0000    0.7047 -999.0000 -999.0000    2.8321   43.3755  707.6021   51.8713   -0.0036    2.6528   -0.0034    4.0959   18.0000 
8819.4239 8819.4239   12.2500 -999.0000   17.0564 -999.0000 -999.0000    1.0829 -999.0000    0.7997 -999.0000 -999.0000    2.8851   45.9866  575.3152   51.8243   -0.0037    2.6670    0.0010    3.8904   18.0000 
8821.0643 8821.0643   12.2500 -999.0000   14.0241 -999.0000 -999.0000    1.0539 -999.0000    0.8222 -999.0000 -999.0000    2.8390   44.4365  475.2370   52.2738   -0.0028    2.6689   -0.0026    3.8286   18.0000 
8822.7047 8822.7047   12.2500 -999.0000   21.9479 -999.0000 -999.0000    1.6929 -999.0000    1.1533 -999.0000 -999.0000    2.9451   37.6698  204.5294   57.7045    0.0139    2.6256    0.0230    3.1484   27.0000 
8824.3451 8824.3451   12.2500 -999.0000   26.1553 -999.0000 -999.0000    1.6651 -999.0000    1.9634 -999.0000 -999.0000    2.8674   41.5077  248.3137   59.6237    0.0131    2.5880    0.0306    2.3210   27.0000 
8825.9856 8825.9856   12.2500 -999.0000   68.3115 -999.0000 -999.0000    3.5744 -999.0000    4.9435 -999.0000 -999.0000    2.7595   29.8061   78.6399   69.6188    0.0844    2.5335    0.0123    2.5521   27.0000 
8827.6260 8827.6260   12.2500 -999.0000   89.3170 -999.0000 -999.0000    3.9924 -999.0000    6.9152 -999.0000 -999.0000    2.7637   30.8535   86.3491   75.7803    0.1477    2.4470    0.0060    2.6197   27.0000 
8829.2664 8829.2664   12.2500 -999.0000   88.1094 -999.0000 -999.0000    4.9246 -999.0000    8.0508 -999.0000 -999.0000    2.7559   29.4327   82.9787   96.3236    0.2101    2.3973   -0.0020    2.6315   37.0000 
8830.9068 8830.9068   12.2500 -999.0000   97.4532 -999.0000 -999.0000    5.2055 -999.0000    9.0638 -999.0000 -999.0000    2.7820   22.9571   51.5077   77.2855    0.1808    2.4391   -0.0051    2.7415   37.0000 
8832.5472 8832.5472   12.2500 -999.0000   94.1339 -999.0000 -999.0000    5.4854 -999.0000    8.0681 -999.0000 -999.0000    2.7034   20.7324   38.4921   69.0728    0.2087    2.5076   -0.0067    2.7533   37.0000 
8834.1877 8834.1877   12.2500 -999.0000   87.9806 -999.0000 -999.0000    5.1772 -999.0000    7.7136 -999.0000 -999.0000    2.7133   20.5656   43.8542   71.5868    0.1811    2.4640   -0.0046    2.7284   37.0000 
8835.8281 8835.8281   12.2500 -999.0000   49.0264 -999.0000 -999.0000    3.2077 -999.0000    3.7804 -999.0000 -999.0000    2.7646   31.1953  230.2377   54.6412    0.0501    2.5931    0.0203    3.3862   18.0000 
8837.4685 8837.4685   12.2500 -999.0000   13.7311 -999.0000 -999.0000    0.7472 -999.0000    1.1484 -999.0000 -999.0000    2.7539   33.4767  424.5623   50.1731   -0.0030    2.6975    0.0207    4.5406   18.0000 
8839.1089 8839.1089   12.2500 -999.0000   22.7267 -999.0000 -999.0000    0.8522 -999.0000    1.6895 -999.0000 -999.0000    2.7069   26.6917  117.7993   51.3181    0.0015    2.6440    0.0009    4.5006   18.0000 
8840.7493 8840.7493   12.2500 -999.0000   32.2885 -999.0000 -999.0000    1.8113 -999.0000    3.1797 -999.0000 -999.0000    2.7057   28.2605  109.3553   59.9785    0.0369    2.6534    0.0167    4.3690   18.0000 
8842.3898 8842.3898   12.2500 -999.0000   23.9270 -999.0000 -999.0000    1.0136 -999.0000    2.4597 -999.0000 -999.0000    2.7442   34.5546  233.8347   56.7988    0.0101    2.6698    0.0143    4.4773   18.0000 
8844.0302 8844.0302   12.2500 -999.0000   28.8028 -999.0000 -999.0000    1.0822 -999.0000    2.3307 -999.0000 -999.0000    2.7232   29.7558  139.1939   57.1157    0.0221    2.6342    0.0107    4.4891   18.0000 
8845.6706 8845.6706   12.2500 -999.0000   22.2009 -999.0000 -999.0000    0.8926 -999.0000    1.9081 -999.0000 -999.0000    2.7664   33.1702  233.2025   55.0829    0.0139    2.6992    0.0596    4.1332   18.0000 
8847.3110 8847.3110   12.2500 -999.0000   27.3601 -999.0000 -999.0000    1.0164 -999.0000    1.9654 -999.0000 -999.0000    2.7292   32.8245  376.1767   57.6981    0.0181    2.6190    0.0005    4.2742   18.0000 
8848.9514 8848.9514   12.2500 -999.0000   21.0591 -999.0000 -999.0000    1.0249 -999.0000    2.4331 -999.0000 -999.0000    2.7988   34.9753  260.3969   54.7477    0.0098    2.6542    0.0117    4.3983   18.0000 
8850.5919 8850.5919   12.2500 -999.0000   22.2628 -999.0000 -999.0000    0.6514 -999.0000    2.6071 -999.0000 -999.0000    2.7124   35.0454  319.8965   53.9766    0.0038    2.6680    0.0122    4.5236   18.0000 
8852.2323 8852.2323   12.2500 -999.0000   30.0353 -999.0000 -999.0000    0.4576 -999.0000    3.7815 -999.0000 -999.0000    2.7435   33.8835  247.9384   54.1281    0.0106    2.6251   -0.0008    4.2966   18.0000 
8853.8727 8853.8727   12.2500 -999.0000   17.2422 -999.0000 -999.0000    0.3889 -999.0000    1.6849 -999.0000 -999.0000    2.8238   36.7993  457.7368   51.7307    0.0041    2.6558    0.0019    4.6972   18.0000 
8855.5131 8855.5131   12.2500 -999.0000   14.7289 -999.0000 -999.0000    0.2463 -999.0000    1.1721 -999.0000 -999.0000    2.8289   37.3478  392.9019   51.3439   -0.0051    2.6788   -0.0014    5.4479   18.0000 
8857.1535 8857.1535   12.2500 -999.0000   20.0331 -999.0000 -999.0000    0.8127 -999.0000    1.7960 -999.0000 -999.0000    2.7879   35.8574  257.0959   51.4700    0.0028    2.6561    0.0015    4.7107   18.0000 
8858.7940 8858.7940   12.2500 -999.0000   76.0629 -999.0000 -999.0000    4.5114 -999.0000    5.2558 -999.0000 -999.0000    2.6517   17.3779   24.7529   78.6532    0.1634    2.5251    0.0087    3.3051   37.0000 
8860.4344 8860.4344   12.2500 -999.0000   79.7240 -999.0000 -999.0000    6.1998 -999.0000    5.8975 -999.0000 -999.0000    2.6538   16.0179   20.6912   89.0506    0.2297    2.4119    0.0329    2.6009   37.0000 
8862.0748 8862.0748   12.2500 -999.0000   54.4058 -999.0000 -999.0000    4.6880 -999.0000    3.3339 -999.0000 -999.0000    2.7384   24.6601   48.5397   73.2248    0.1331    2.5347    0.0372    2.5675   37.0000 
8863.7152 8863.7152   12.2500 -999.0000   19.2158 -999.0000 -999.0000    1.2321 -999.0000    1.1507 -999.0000 -999.0000    2.8345   38.0723  591.2415   57.6279    0.0117    2.5707    0.0062    2.5865   27.0000 
