~VERSION INFORMATION
 VERS.                 2.0:   CWLS LOG ASCII STANDARD - VERSION 2.0
 WRAP.                  NO:   SINGLE LINE PER DEPTH STEP
 CREA.                 20/03/2018 14:55:32
#CREATED USING DSPetro VERSION 5000.10.1.3 BY H191660 ON 20/03/2018 14:55:32
~WELL INFORMATION
#MNEM.UNIT       DATA                          DESCRIPTION MNEMONIC
#---------      ---------------------------   --------------------------
 STRT    .FT        10799.4984                : START DEPTH
 STOP    .FT        13010.9983                : STOP DEPTH
 STEP    .FT        0.5000                    : STEP VALUE
 NULL    .      -999.0000                     : NULL VALUE
 DATE    .      20/03/2018                    : LAS file Creation Date
 WELL  .      UNIVERSITY_21-17             : Well Name
 COMP  .      Neftex Exploration Insights  : Company
 FLD   .                                   : Field
 STATE .      Texas                        : State
 API   .      42475370100000               : API Number
 UWI   .      213                          : Unique Well Identifier (UWI)
 LOC   .                                   : Location
 LATI  .      -6235758.22                  : Latitude/Northing
 LONG  .      777123.41                    : Longitude/Easting
 RWS   .      -999                         : Def_Rw
 WST   .      -999                         : Def_Rwt
 CNTY  .      WARD                         : County
 SRVC  .      Diversified Well Logging LLC : Contractor
~CURVE INFORMATION
#MNEM              UNIT       API CODE   Curve Type Comments
#----------  --------------- ----------  ---------- -----------
 DEPTH      .FT                        : Depth       
 DCAL_INCH  .inch                      :             Differential Caliper - Evaluates the difference between the actual borehole diameter and bit size
 GR_API     .API                       : GammaRay    Gamma Ray (API) - Measures the intensity of natural gamma-ray radiation emitted from formations containing radioactive elements, such as K, Th and U
 CGR_API    .API                       : GammaRay    Corrected / Computed Gamma Ray - Radiation with the Uranium component removed. Also known as a 'carbonate gamma ray'
 K_per        .PC                        :             Potassium Abundance (SGR) - The quantitative elemental abundace of Potassium derived from the Spectral Gamma Ray Log. Also wt_%
 TH_PPM     .ppm                       : Spectral    Thorium Abundance (SGR) - The quantitative elemental abundace of Thorium derived from the Spectral Gamma Ray Log
 U_PPM      .ppm                       :             Uranium Abundance (SGR) - The quantitative elemental abundace of Uranium derived from the Spectral Gamma Ray Log
 RD_OHMM    .ohmm                      :             Unspecified Deep Resistivity - No accroynm or method of attainment is specified - units of ohmm
 RM_OHMM    .ohm.m                     :             Unspecified Medium Resistivity - No accroynm or method of attainment is specified
 MSFL_OHMM  .ohmm                      :             Micro-Spherically Focused Log - Measurement involves only the first few inches of the formation immediately adjacent to the borehole
 NPHI_RATIO .ratio                     :             Neutron Porosity - Measured with an neutron logging device calibrated to a given matrix (limestone, sandstone and dolomite)
 RHOZ_G_CC  .g/cc                      :             Formation Density - Measures the density of formation, including any void space or other materials contained in the subject volume
 PEF_B_E    .b/e-                      : PEF         Photoelectric Factor - A log of photoelectric absorption properties. Often expressed in an approximation unit barns/electron (b/e-)
 LITH       .                          : LITH        Lithology Curve
~A  DEPTH DCAL_INC~   GR_API   CGR_API     K_per      TH_PPM    U_PPM    RD_OHMM   RM_OHMM  MSFL_OHM~ NPHI_RAT~ RHOZ_G_C~  PEF_B_E     LITH   
# ...
12195.9984    0.0422  119.1133   74.6195    2.1506   11.2859    4.2862   11.8297   10.2624    4.2410    0.2330    2.5591    3.5306   37.0000 
12196.4984    0.0530  123.8513   78.1390    2.2997   11.5394    3.9286   11.1425    9.7497    3.7109    0.2407    2.5553    3.5562   37.0000 
12196.9984    0.0243  121.3172   76.2884    2.2696   11.1234    3.9123   12.0003   10.5815    3.9932    0.2285    2.5503    3.5855   37.0000 
12197.4984    0.0458  121.9505   76.1045    2.3003   10.8849    3.7599   12.0323   10.6186    4.0948    0.2220    2.5371    3.6682   37.0000 
12197.9984    0.0171  116.1569   72.7734    2.1838   10.5013    3.4821   12.8373   11.2368    4.3093    0.2248    2.5340    3.7218   37.0000 
12198.4984    0.0099  112.2495   75.6101    2.2211   11.1907    3.6762   12.9613   11.4972    4.4154    0.2271    2.5389    3.7208   37.0000 
12198.9984   -0.0116  113.8332   74.0190    2.1604   11.0366    3.7075   13.0541   11.4599    4.3752    0.2203    2.5431    3.6717   37.0000 
12199.4984   -0.0116  120.0774   78.9626    2.2759   11.9422    3.5778   13.2515   11.4981    4.4794    0.2232    2.5344    3.6281   37.0000 
12199.9984    0.0243  123.1397   79.3411    2.2544   12.1886    3.3315   13.4863   11.4992    4.5641    0.2378    2.5242    3.6154   37.0000 
12200.4984    0.0673  117.1704   82.9195    2.3575   12.7291    3.2692   14.4635   12.0227    4.7844    0.2440    2.5220    3.6318   37.0000 
12200.9984    0.1032  113.4603   81.1235    2.3356   12.2825    3.1267   16.0277   13.4245    5.2419    0.2265    2.5308    3.6842   37.0000 
12201.4984    0.0745  113.7767   77.3343    2.2492   11.5761    3.1998   14.5753   12.4700    4.9660    0.2113    2.5423    3.7427   37.0000 
12201.9984   -0.0008  118.7328   78.2782    2.2382   11.9426    2.9956   11.8940   10.3639    4.9892    0.2018    2.5511    3.7712   37.0000 
12202.4984    0.0315  122.4289   82.7734    2.3810   12.5453    3.2795   10.8424    9.5431    4.2803    0.2156    2.5548    3.7515   37.0000 
12202.9984    0.0422  121.4086   87.4208    2.5074   13.2923    3.3109    9.8440    8.6288    3.8965    0.2308    2.5570    3.7240   37.0000 
12203.4984    0.0243  122.0842   90.2778    2.5784   13.7904    3.2188    9.8844    8.7612    3.7516    0.2387    2.5577    3.7438   37.0000 
12203.9984   -0.0116  123.5624   90.5944    2.6170   13.6658    3.0358   10.5727    9.3815    4.1363    0.2433    2.5599    3.7644   37.0000 
12204.4984    0.0027  128.8562   90.3333    2.6327   13.4898    3.0664   10.4406    9.2762    4.4721    0.2377    2.5589    3.7570   37.0000 
12204.9984    0.0422  129.0813   91.5092    2.6564   13.7278    2.7766    9.4224    8.3939    4.1129    0.2333    2.5597    3.6943   37.0000 
12205.4984    0.0602  125.8080   87.1800    2.5294   13.0862    2.7641    9.2729    8.2390    3.8843    0.2278    2.5602    3.6438   37.0000 
12205.9984    0.0961  119.1627   82.3477    2.4162   12.2030    2.7630    9.1574    8.0336    4.0085    0.2164    2.5575    3.6848   37.0000 
12206.4984    0.0889  112.4119   80.1940    2.3343   11.9944    2.5216    9.4179    8.1571    4.1890    0.2121    2.5621    3.7889   37.0000 
12206.9984    0.0530  107.6880   81.8574    2.3165   12.6301    1.8963    8.2009    7.0379    4.1662    0.2024    2.5717    3.9682   37.0000 
12207.4984    0.0530  103.6188   79.4581    2.2263   12.3903    1.7304    9.4684    8.1199    5.2920    0.1901    2.5902    4.1612   37.0000 
12207.9984    0.0638   97.1915   76.6398    2.1293   12.0562    1.4100   10.0641    8.6340    4.3220    0.1797    2.6023    4.3580   22.0000 
12208.4984    0.0602   89.9830   73.3336    2.0156   11.6639    1.4567   12.0273   10.2726    6.1635    0.1748    2.6066    4.4682   22.0000 
12208.9984    0.0602   90.8278   73.2589    2.0157   11.6402    1.4392   10.5319    8.9370    5.9288    0.1796    2.5920    4.5040   22.0000 
12209.4984    0.0315   94.2067   73.4964    2.0281   11.6435    1.6695   10.5101    8.8754    4.5297    0.1855    2.5850    4.3759   22.0000 
12209.9984    0.0099  106.0335   77.7625    2.1385   12.3622    1.7774   11.4371    9.6165    1.2018    0.1837    2.5729    4.2041   37.0000 
12210.4984    0.0207  114.7978   81.3327    2.2249   12.9989    2.1683    8.5139    7.0579    3.1444    0.2030    2.5640    4.0130   37.0000 
12210.9984    0.0458  120.4298   84.5645    2.3825   13.1098    2.4157    8.5759    6.9920    3.9639    0.2132    2.5481    3.9591   37.0000 
12211.4984    0.0530  115.5722   81.6160    2.2702   12.8236    2.3766    8.1300    6.5672    3.2121    0.2206    2.5432    4.0196   37.0000 
12211.9984    0.0530  111.8342   82.2450    2.2453   13.1703    2.4772   11.5819    9.2711    1.6661    0.2096    2.5512    4.0910   37.0000 
12212.4984    0.0207  113.0520   81.5498    2.3004   12.6253    2.8478    8.4020    6.7113    2.2137    0.2151    2.5482    4.1478   37.0000 
12212.9984    0.0458  119.9156   80.9320    2.3073   12.3874    3.1257    8.4408    6.6814    3.3752    0.2193    2.5456    4.1474   37.0000 
12213.4984    0.0530  117.4379   78.6303    2.1987   12.2867    3.1232    8.4015    6.6384    2.9034    0.2349    2.5557    4.2400   37.0000 
12213.9984    0.0961  115.2204   72.3311    2.0554   11.1104    2.9940    8.2957    6.5525    1.2422    0.2209    2.5797    4.3529   37.0000 
12214.4984    0.0745  108.0405   70.7363    2.0529   10.6149    2.9992    9.0545    7.0945    4.6958    0.2092    2.5955    4.4029   37.0000 
12214.9984    0.0530  104.2106   72.1611    2.0575   11.0438    2.7376    8.7725    6.8074    4.5613    0.1882    2.5978    4.3424   37.0000 
12215.4984    0.0386   99.3532   71.0353    2.0489   10.7335    2.5287   10.6726    8.3023    5.6075    0.1808    2.6028    4.2015   37.0000 
12215.9984    0.0386  100.5140   67.5380    1.9948    9.9311    2.4773   10.7930    8.4495    5.6847    0.1825    2.6081    4.1168   37.0000 
12216.4984    0.0817  102.8796   66.6334    1.9220   10.0680    2.4572   10.8717    8.4923    5.7268    0.1833    2.6067    4.0539   37.0000 
12216.9984    0.1284  110.7990   74.0869    2.1435   11.1563    2.4146   10.7650    8.4016    5.7864    0.1972    2.5958    4.0125   37.0000 
12217.4984    0.1176  119.0919   80.7808    2.3470   12.1065    2.7623   11.2633    8.7735    5.0457    0.2155    2.5766    3.9609   37.0000 
12217.9984    0.0422  126.2440   85.9207    2.5015   12.8474    3.0656    9.7391    7.6600    4.3538    0.2323    2.5508    3.9522   37.0000 
12218.4984    0.0530  130.3766   89.2267    2.5970   13.3462    2.9552   10.7003    8.6116    4.0039    0.2401    2.5438    4.0673   37.0000 
12218.9984    0.0673  127.5752   89.9315    2.6983   12.9781    3.4233   12.0120    9.8284    1.7993    0.2378    2.5556    4.2122   37.0000 
12219.4984    0.1068  124.7030   90.2948    2.7325   12.8948    3.7783   11.7784    9.6959    2.4826    0.2329    2.5720    4.1919   37.0000 
12219.9984    0.1032  120.9860   91.2541    2.6475   13.6990    3.7766   16.3442   13.6429    5.1662    0.2238    2.5755    4.0099   37.0000 
12220.4984    0.0889  121.3098   86.1136    2.5542   12.6013    3.6951   16.5814   14.2252    4.9439    0.2132    2.5755    3.7864   37.0000 
12220.9984    0.0961  127.2449   84.1351    2.4798   12.4038    3.7946   12.4186   10.9151    5.7296    0.2151    2.5800    3.6943   37.0000 
12221.4984    0.1176  133.8903   87.3174    2.5432   13.0521    3.6556    7.3059    6.5693    4.9649    0.2345    2.5779    3.6840   37.0000 
12221.9984    0.1391  136.1429   89.8829    2.6382   13.3168    3.7006    6.5236    6.0685    4.0634    0.2495    2.5701    3.7045   37.0000 
12222.4984    0.1607  135.9309   88.7984    2.6410   12.9537    4.0634    8.2420    7.7853    3.8646    0.2500    2.5607    3.7126   37.0000 
12222.9984    0.2037  137.0572   91.9528    2.7505   13.3220    3.8434   13.5952   12.8477    3.8109    0.2349    2.5571    3.7189   37.0000 
12223.4984    0.1284  131.0878   89.3288    2.6970   12.7953    3.9447   12.6476   11.8983    3.7731    0.2436    2.5551    3.7460   37.0000 
12223.9984    0.0745  127.6033   86.5176    2.6549   12.1417    4.0199   12.7119   12.1354    5.1519    0.2424    2.5543    3.8290   37.0000 
