~VERSION INFORMATION
 VERS.                 2.0:   CWLS LOG ASCII STANDARD - VERSION 2.0
 WRAP.                  NO:   SINGLE LINE PER DEPTH STEP
 CREA.                 20/03/2018 14:58:23
#CREATED USING DSPetro VERSION 5000.10.1.3 BY H191660 ON 20/03/2018 14:58:23
~WELL INFORMATION
#MNEM.UNIT       DATA                          DESCRIPTION MNEMONIC
#---------      ---------------------------   --------------------------
 STRT    .FT        128.0000                  : START DEPTH
 STOP    .FT        12500.0000                : STOP DEPTH
 STEP    .FT        0.5000                    : STEP VALUE
 NULL    .      -999.0000                     : NULL VALUE
 DATE    .      20/03/2018                    : LAS file Creation Date
 WELL  .      UNIVERSITY_40_16_4247536999  : Well Name
 COMP  .      Neftex Exploration Insights  : Company
 FLD   .      PHANTOM (WOLFCAMP)           : Field
 STATE .      Texas                        : State
 COUNT .      USA                          : Country
 API   .      42475369990000               : API Number
 UWI   .      222                          : Unique Well Identifier (UWI)
 LOC   .      1980FNL x 1757FWL            : Location
 TOWN  .      16                           : Township
 SCT   .      40                           : Section
 RANG  .      U39                          : Range
 LATI  .      -6470541.88                  : Latitude/Northing
 LONG  .      783810.27                    : Longitude/Easting
 PDAT  .      GL                           : Permanent Datum
 EPDAT .      2604.000000                  : Reference Elevation
 LGMEA .      KB                           : Log Measured from
 DRMEA .      KB                           : Drill Measured From
 APDAT .      25.000000                    : Elevation Above Permanent Datum
 KB    .      2629.00000                   : KB Elevation
 GL    .      2604.00000                   : GL Elevation
 RWS   .      -999                         : Def_Rw
 WST   .      -999                         : Def_Rwt
 CNTY  .      WARD                         : County
 SRVC  .      Diversified Well Logging LLC : Contractor
~CURVE INFORMATION
#MNEM              UNIT       API CODE   Curve Type Comments
#----------  --------------- ----------  ---------- -----------
 DEPTH      .FT                        : Depth       
 BS         .inch                      : BitSize     
 DCAL_INCH  .inch                      :             Differential Caliper - Evaluates the difference between the actual borehole diameter and bit size
 GR         .GAPI                      : GammaRay    Gamma Ray {F11.4}
 LLD_OHMM   .ohmm                      :             Laterlog Deep Resistivity - Measurement made several feet into the formation; generally considered a measurement of the undisturbed formation
 LLM_OHMM   .ohm.m                     :             Laterlog Medium Resistivity - Measurement made approximately two to three feet into the formation - units of ohmm
 LLS_OHMM   .ohmm                      :             Laterlog Shallow Resistivity - one to two feet into the formation; generally considered to measure the formation
 NPHI_RATIO .ratio                     :             Neutron Porosity - Measured with an neutron logging device calibrated to a given matrix (limestone, sandstone and dolomite)
 PEF_B_E    .b/e-                      : PEF         Photoelectric Factor - A log of photoelectric absorption properties. Often expressed in an approximation unit barns/electron (b/e-)
 RHOZ_G_CC  .g/cc                      :             Formation Density - Measures the density of formation, including any void space or other materials contained in the subject volume
 LITH       .                          : LITH        Lithology Curve
~A  DEPTH     BS    DCAL_INC~     GR     LLD_OHMM  LLM_OHMM  LLS_OHMM NPHI_RAT~  PEF_B_E  RHOZ_G_C~    LITH   
# ...
3251.0000 -999.0000   -5.9824   10.3310    0.0074    0.0095    0.0112    0.1406    9.9742    2.8464    3.0000 
3251.5000 -999.0000   -5.9824   10.1207    0.0065    0.0080    0.0091    0.1243    9.9988    2.8049    3.0000 
3252.0000 -999.0000   -5.9824    9.8804    0.0071    0.0090    0.0105    0.1231    9.9923    2.8061    3.0000 
3252.5000 -999.0000   -5.9824    7.9584    0.0059    0.0075    0.0084    0.1396   10.0000    2.8581    3.0000 
3253.0000 -999.0000   -5.9824    8.8893    0.0059    0.0078    0.0089    0.1526   10.0000    2.9560    3.0000 
3253.5000 -999.0000   -5.9824    8.2887    0.0063    0.0085    0.0097    0.1453   10.0000    3.0330    3.0000 
3254.0000 -999.0000   -5.9824    9.3398    0.0060    0.0082    0.0093    0.1446    9.9371    3.0792    3.0000 
3254.5000 -999.0000   -5.9824    8.8593    0.0061    0.0083    0.0095    0.1482    9.9523    3.0516    3.0000 
3255.0000 -999.0000   -5.9712   10.3309    0.0073    0.0093    0.0109    0.1542    9.9415    2.9714    3.0000 
3255.5000 -999.0000   -5.9824   11.4420    0.0075    0.0094    0.0109    0.1545    9.9819    2.8826    3.0000 
3256.0000 -999.0000   -5.9824   10.5711    0.0070    0.0085    0.0096    0.1476    9.9426    2.8046    3.0000 
3256.5000 -999.0000   -5.9824    9.7001    0.0065    0.0081    0.0091    0.1394   10.0000    2.7671    3.0000 
3257.0000 -999.0000   -5.9824   11.9525    0.0073    0.0091    0.0103    0.1283   10.0000    2.7615    3.0000 
3257.5000 -999.0000   -5.9824   13.0637    0.0050    0.0064    0.0065    0.1414   10.0000    2.7989    3.0000 
3258.0000 -999.0000   -5.9824   13.7245    0.0067    0.0083    0.0089    0.1468    9.9902    2.7992    3.0000 
3258.5000 -999.0000   -5.9824   10.7513    0.0064    0.0079    0.0087    0.1447    9.9983    2.7829    3.0000 
3259.0000 -999.0000   -5.9824   11.3220    0.0069    0.0080    0.0087    0.1429   10.0000    2.7581    3.0000 
3259.5000 -999.0000   -5.9824   14.0248    0.0087    0.0091    0.0100    0.1489    9.9945    2.7743    3.0000 
3260.0000 -999.0000   -5.9824   15.9469    0.0072    0.0085    0.0093    0.1645    9.9998    2.8090    3.0000 
3260.5000 -999.0000   -5.9824   16.5776    0.0069    0.0081    0.0089    0.1590   10.0000    2.8338    3.0000 
3261.0000 -999.0000   -5.9824   12.4031    0.0083    0.0097    0.0111    0.1443    9.9863    2.8415    3.0000 
3261.5000 -999.0000   -5.9824    9.2798    0.0067    0.0083    0.0094    0.1182    9.9889    2.8413    3.0000 
3262.0000 -999.0000   -5.9824    6.5468    0.0074    0.0091    0.0105    0.0969    9.9218    2.8393    3.0000 
3262.5000 -999.0000   -5.9712    6.3367    0.0074    0.0077    0.0082    0.0851   10.0000    2.8178    3.0000 
3263.0000 -999.0000   -5.9824    7.0574    0.0096    0.0092    0.0100    0.0863   10.0000    2.8135    3.0000 
3263.5000 -999.0000   -5.9824    7.2676    0.0078    0.0084    0.0095    0.0922    9.9857    2.8252    3.0000 
3264.0000 -999.0000   -5.9824    6.6068    0.0097    0.0109    0.0128    0.0932   10.0000    2.8607    3.0000 
3264.5000 -999.0000   -5.9824    7.3276    0.0063    0.0072    0.0077    0.0820    9.9704    2.8739    3.0000 
3265.0000 -999.0000   -5.9824    7.9283    0.0073    0.0088    0.0102    0.0672   10.0000    2.8720    3.0000 
3265.5000 -999.0000   -5.9824    9.2197    0.0069    0.0081    0.0089    0.0737    9.9678    2.8708    3.0000 
3266.0000 -999.0000   -5.9824    9.7002    0.0077    0.0091    0.0103    0.0893    9.9625    2.8643    3.0000 
3266.5000 -999.0000   -5.9824    9.0996    0.0075    0.0091    0.0105    0.1218   10.0000    2.8566    3.0000 
3267.0000 -999.0000   -5.9824    9.7302    0.0079    0.0089    0.0102    0.1266    9.8951    2.8416    3.0000 
3267.5000 -999.0000   -5.9601    9.0395    0.0075    0.0081    0.0090    0.1373   10.0000    2.8303    3.0000 
3268.0000 -999.0000   -5.9824    8.4389    0.0075    0.0078    0.0085    0.1365   10.0000    2.8228    3.0000 
3268.5000 -999.0000   -5.9824    8.2287    0.0074    0.0087    0.0098    0.1454   10.0000    2.8210    3.0000 
3269.0000 -999.0000   -5.9601    8.4389    0.0072    0.0087    0.0099    0.1494    9.9435    2.8228    3.0000 
3269.5000 -999.0000   -5.9824    9.3999    0.0067    0.0083    0.0095    0.1472    9.9833    2.8305    3.0000 
3270.0000 -999.0000   -5.9824   10.8714    0.0074    0.0088    0.0100    0.1463    9.9793    2.8365    3.0000 
3270.5000 -999.0000   -5.9824   10.3910    0.0063    0.0077    0.0084    0.1331    9.9808    2.8385    3.0000 
3271.0000 -999.0000   -5.9601   10.6612    0.0081    0.0101    0.0119    0.1194    9.9898    2.8119    3.0000 
3271.5000 -999.0000   -5.9824   10.3609    0.0070    0.0086    0.0097    0.1160   10.0000    2.7727    3.0000 
3272.0000 -999.0000   -5.9824    9.3698    0.0059    0.0071    0.0078    0.1274    9.9728    2.7372    3.0000 
3272.5000 -999.0000   -5.9824    9.0995    0.0073    0.0089    0.0104    0.1290   10.0000    2.7518    3.0000 
3273.0000 -999.0000   -5.9712    8.9794    0.0070    0.0083    0.0092    0.1334   10.0000    2.7851    3.0000 
3273.5000 -999.0000   -5.9824   10.2107    0.0070    0.0081    0.0090    0.1371   10.0000    2.8192    3.0000 
3274.0000 -999.0000   -5.9824   10.2709    0.0065    0.0078    0.0089    0.1487    9.9656    2.8248    3.0000 
3274.5000 -999.0000   -5.9824   11.1118    0.0058    0.0067    0.0071    0.1404    9.9334    2.8103    3.0000 
3275.0000 -999.0000   -5.9824   11.9826    0.0058    0.0076    0.0085    0.1289   10.0000    2.8026    3.0000 
3275.5000 -999.0000   -5.9824   14.7155    0.0066    0.0088    0.0103    0.1239   10.0000    2.7968    3.0000 
3276.0000 -999.0000   -5.9601   13.5142    0.0062    0.0077    0.0086    0.1256   10.0000    2.8045    3.0000 
3276.5000 -999.0000   -5.9824   13.3040    0.0055    0.0071    0.0078    0.1182    9.9909    2.8035    3.0000 
3277.0000 -999.0000   -5.9824   11.9527    0.0064    0.0083    0.0095    0.1192    9.9383    2.7996    3.0000 
3277.5000 -999.0000   -5.9712   11.2620    0.0071    0.0090    0.0105    0.1202   10.0000    2.7930    3.0000 
3278.0000 -999.0000   -5.9824   12.2830    0.0052    0.0068    0.0075    0.1210   10.0000    2.7855    3.0000 
3278.5000 -999.0000   -5.9824   12.5831    0.0059    0.0073    0.0080    0.1184   10.0000    2.7801    3.0000 
3279.0000 -999.0000   -5.9824   12.5531    0.0068    0.0085    0.0097    0.1150    9.9942    2.7765    3.0000 
3279.5000 -999.0000   -5.9824    9.4299    0.0063    0.0079    0.0091    0.1112   10.0000    2.7612    3.0000 
3280.0000 -999.0000   -5.9824    8.8894    0.0060    0.0077    0.0088    0.1101   10.0000    2.7295    3.0000 
3280.5000 -999.0000   -5.9824    9.3399    0.0060    0.0079    0.0090    0.1259    9.9021    2.7227    3.0000 
3281.0000 -999.0000   -5.9824   10.3009    0.0065    0.0081    0.0091    0.1331   10.0000    2.7096    3.0000 
3281.5000 -999.0000   -5.9824    8.1086    0.0073    0.0088    0.0101    0.1327   10.0000    2.7241    3.0000 
3282.0000 -999.0000   -5.9824    9.0996    0.0060    0.0076    0.0086    0.1174    9.9653    2.7157    3.0000 
3282.5000 -999.0000   -5.9712   10.4510    0.0064    0.0080    0.0091    0.1211   10.0000    2.7315    3.0000 
3283.0000 -999.0000   -5.9601   10.4510    0.0076    0.0083    0.0092    0.1228   10.0000    2.7320    3.0000 
3283.5000 -999.0000   -5.9824    9.2497    0.0083    0.0097    0.0113    0.1220   10.0000    2.7302    3.0000 
3284.0000 -999.0000   -5.9824    7.1475    0.0072    0.0085    0.0097    0.1202   10.0000    2.7247    3.0000 
3284.5000 -999.0000   -5.9824    9.5801    0.0071    0.0085    0.0095    0.1175    9.9901    2.7226    3.0000 
3285.0000 -999.0000   -5.9824    8.7392    0.0061    0.0076    0.0085    0.1155    9.9708    2.7163    3.0000 
3285.5000 -999.0000   -5.9824    9.4900    0.0074    0.0089    0.0102    0.1098   10.0000    2.7084    3.0000 
3286.0000 -999.0000   -5.9824    6.8472    0.0077    0.0087    0.0099    0.1041    9.9272    2.7025    3.0000 
3286.5000 -999.0000   -5.9824    7.4478    0.0082    0.0092    0.0106    0.0967    9.9923    2.7012    3.0000 
3287.0000 -999.0000   -5.9824    7.7481    0.0057    0.0069    0.0075    0.0932   10.0000    2.6873    3.0000 
