~VERSION INFORMATION
 VERS.                 2.0:   CWLS LOG ASCII STANDARD - VERSION 2.0
 WRAP.                  NO:   SINGLE LINE PER DEPTH STEP
 CREA.                 20/03/2018 14:44:45
#CREATED USING DSPetro VERSION 5000.10.1.3 BY H191660 ON 20/03/2018 14:44:45
~WELL INFORMATION
#MNEM.UNIT       DATA                          DESCRIPTION MNEMONIC
#---------      ---------------------------   --------------------------
 STRT    .FT        300.0092                  : START DEPTH
 STOP    .FT        12601.0092                : STOP DEPTH
 STEP    .FT        0.5000                    : STEP VALUE
 NULL    .      -999.0000                     : NULL VALUE
 DATE    .      20/03/2018                    : LAS file Creation Date
 WELL  .      UNIVERSITY_20_3_1_4230131346 : Well Name
 COMP  .      Chesapeake Operating, Inc.   : Company
 FLD   .      Haley                        : Field
 STATE .      Texas                        : State
 API   .      42-301-31346                 : API Number
 UWI   .      507                          : Unique Well Identifier (UWI)
 LOC   .      1320' FNL & 1320' FWL        : Location
 TOWN  .      20                           : Township
 SCT   .      3                            : Section
 RANG  .      University Lands             : Range
 PDAT  .      GROUND LEVEL                 : Permanent Datum
 EPDAT .      2800.000000                  : Reference Elevation
 LGMEA .      KELLY BUSHING                : Log Measured from
 DRMEA .      KELLY BUSHING                : Drill Measured From
 APDAT .      26.000000                    : Elevation Above Permanent Datum
 KB    .      2826.00000                   : KB Elevation
 GL    .      2800.00000                   : GL Elevation
 RWS   .      -999                         : Def_Rw
 WST   .      -999                         : Def_Rwt
 CNTY  .      Loving                       : County
 SRVC  .      Schlumberger                 : Contractor
~CURVE INFORMATION
#MNEM              UNIT       API CODE   Curve Type Comments
#----------  --------------- ----------  ---------- -----------
 DEPTH      .FT                        : Depth       
 BS         .inch                      : BitSize     
 CAL        .inch                      :             
 GR         .API                       : GammaRay    
 SP_MV      .mv                        : SP          Spontaneous Potential - Records the electrical potential produced by the interaction of formation water, conductive drilling mud, and certain ion-sele
 DRES       .OHMM                      :             
 MRES       .OHMM                      : MedRes      
 SRES       .OHMM                      : ShalRes     
 DRHO       .G/C3                      : Drho        
 NPHI       .CFCF                      : Neutron     
 PEF        .B/E                       : PEF         
 RHOB       .G/C3                      : Density     
 LITH       .                          : LITH        Lithology Curve
~A  DEPTH     BS       CAL        GR      SP_MV      DRES      MRES      SRES      DRHO      NPHI      PEF       RHOB      LITH   
 300.0092 -999.0000    4.0931   39.9441 -999.0000    0.0024 100000.0000 100000.0000    0.3175    0.2406    9.9485    2.4072    3.0000 
 300.5092 -999.0000    4.0931   52.8780 -999.0000 100000.0000 100000.0000 100000.0000    0.3103    0.2788    9.9495    2.3516    3.0000 
 301.0092 -999.0000    4.0931   41.4152 -999.0000    0.0194    0.0211    0.0298    0.2963    0.3531    9.9249    2.3471    3.0000 
 301.5092 -999.0000    4.1163   59.6541 -999.0000 100000.0000 100000.0000 100000.0000    0.2896    0.6991    9.8833    2.3476    3.0000 
 302.0092 -999.0000    4.0931   59.2755 -999.0000    0.0284    0.0327    0.0447    0.2849    0.5626    9.8577    2.3614    3.0000 
 302.5092 -999.0000    4.1163   56.1103 -999.0000    0.0020    0.0004    0.0024    0.2799    0.7122    9.8255    2.3514    3.0000 
 303.0092 -999.0000    4.0931   50.3292 -999.0000    0.0125    0.0124    0.0186    0.2777    0.4802    9.7675    2.3579    3.0000 
 303.5092 -999.0000    4.0931   66.2760 -999.0000 100000.0000 100000.0000 100000.0000    0.2817    0.4204    9.6968    2.3894    3.0000 
 304.0092 -999.0000    4.1163   73.2704 -999.0000 100000.0000 100000.0000 100000.0000    0.2947    0.2769    9.6366    2.4173    3.0000 
 304.5092 -999.0000    4.0931   46.6186 -999.0000 100000.0000 100000.0000 100000.0000    0.3090    0.2406    9.5991    2.4572    3.0000 
 305.0092 -999.0000    4.0931   37.2498 -999.0000 100000.0000 100000.0000 100000.0000    0.3105    0.2242    9.5768    2.4441    3.0000 
 305.5092 -999.0000    4.1163   52.9296 -999.0000 100000.0000 100000.0000 100000.0000    0.3024    0.2070    9.5587    2.4460    3.0000 
 306.0092 -999.0000    4.0931   18.2062 -999.0000 100000.0000 100000.0000 100000.0000    0.2849    0.2226    9.5683    2.3974    3.0000 
 306.5092 -999.0000    4.0931   42.2984 -999.0000    0.0010 100000.0000 100000.0000    0.2723    0.2373    9.5816    2.3775    3.0000 
 307.0092 -999.0000    4.0931   60.7927 -999.0000 100000.0000 100000.0000 100000.0000    0.2693    0.3267    9.5810    2.3883    3.0000 
 307.5092 -999.0000    4.1163   52.8529 -999.0000 100000.0000 100000.0000 100000.0000    0.2808    0.3887    9.5589    2.4057    3.0000 
 308.0092 -999.0000    4.1163   52.0818 -999.0000    0.0049    0.0071    0.0092    0.2946    0.3625    9.5422    2.3894    3.0000 
 308.5092 -999.0000    4.0931   52.5527 -999.0000    0.0121    0.0145    0.0216    0.2948    0.3162    9.5449    2.4165    3.0000 
 309.0092 -999.0000    4.0931   53.8606 -999.0000 100000.0000 100000.0000 100000.0000    0.2899    0.2550    9.5493    2.4004    3.0000 
 309.5092 -999.0000    4.1163   52.0295 -999.0000    0.0239    0.0294    0.0405    0.2854    0.2564    9.5251    2.4038    3.0000 
 310.0092 -999.0000    4.0931   39.8918 -999.0000 100000.0000 100000.0000 100000.0000    0.2800    0.2414    9.4820    2.3531    3.0000 
 310.5092 -999.0000    4.0931   38.7279 -999.0000    0.0163    0.0184    0.0266    0.2738    0.2590    9.4286    2.3382    3.0000 
 311.0092 -999.0000    4.0931   59.1176 -999.0000 100000.0000 100000.0000 100000.0000    0.2699    0.2278    9.3880    2.3766    3.0000 
 311.5092 -999.0000    4.0931   64.8920 -999.0000    0.0293    0.0365    0.0500    0.2787    0.2831    9.3412    2.3636    3.0000 
 312.0092 -999.0000    4.0931   40.5519 -999.0000    0.0296    0.0352    0.0481    0.2859    0.3153    9.2961    2.3670    3.0000 
 312.5092 -999.0000    4.0931   47.6142 -999.0000 100000.0000 100000.0000 100000.0000    0.2943    0.3580    9.2219    2.3897    3.0000 
 313.0092 -999.0000    4.0931   66.0245 -999.0000    0.0067    0.0098    0.0145    0.3017    0.3746    9.1126    2.4064    3.0000 
 313.5092 -999.0000    4.0931   52.7677 -999.0000    0.0010 100000.0000    0.0007    0.3075    0.3269    8.9840    2.4423    3.0000 
 314.0092 -999.0000    4.0931   47.1501 -999.0000    0.0136    0.0169    0.0245    0.3065    0.2873    8.8832    2.4160    3.0000 
 314.5092 -999.0000    4.0931   36.3604 -999.0000 100000.0000 100000.0000 100000.0000    0.3001    0.2574    8.8339    2.3775    3.0000 
 315.0092 -999.0000    4.0931   44.8036 -999.0000    0.0144    0.0169    0.0244    0.2908    0.2465    8.8397    2.3619    3.0000 
 315.5092 -999.0000    4.0931   45.9868 -999.0000 100000.0000 100000.0000 100000.0000    0.2869    0.2317    8.8543    2.3595    3.0000 
 316.0092 -999.0000    4.0931   61.1084 -999.0000    0.0201    0.0252    0.0351    0.2861    0.2406    8.8707    2.3422    3.0000 
 316.5092 -999.0000    4.0931   53.8868 -999.0000    0.0622    0.0794    0.1080    0.3013    0.3133    8.8434    2.3676    3.0000 
 317.0092 -999.0000    4.0931   54.4125 -999.0000    0.0168    0.0194    0.0276    0.3105    0.2422    8.8453    2.3757    3.0000 
 317.5092 -999.0000    4.0931   39.9441 -999.0000    0.0235    0.0282    0.0402    0.3161    0.2749    8.8186    2.3572    3.0000 
 318.0092 -999.0000    4.0931   42.1543 -999.0000    0.0063    0.0051    0.0089    0.3073    0.2080    8.7940    2.3639    3.0000 
 318.5092 -999.0000    4.1163   39.8134 -999.0000    0.0195    0.0242    0.0332    0.3037    0.2746    8.7599    2.3706    3.0000 
 319.0092 -999.0000    4.1163   59.5123 -999.0000    0.0115    0.0180    0.0263    0.3028    0.2524    8.8194    2.3646    3.0000 
 319.5092 -999.0000    4.0931   41.7229 -999.0000    0.0138    0.0131    0.0200    0.3108    0.3460    8.9086    2.3828    3.0000 
 320.0092 -999.0000    4.1163   29.3008 -999.0000 100000.0000 100000.0000 100000.0000    0.3215    0.2789    9.0134    2.4054    3.0000 
 320.5092 -999.0000    4.0931   36.6220 -999.0000 100000.0000 100000.0000    0.0008    0.3303    0.2568    9.0715    2.3888    3.0000 
 321.0092 -999.0000    4.0931   41.4352 -999.0000    0.0059    0.0089    0.0145    0.3303    0.2458    9.1442    2.3912    3.0000 
 321.5092 -999.0000    4.1163   38.9240 -999.0000 100000.0000 100000.0000 100000.0000    0.3202    0.2345    9.2158    2.4043    3.0000 
 322.0092 -999.0000    4.1163   59.4716 -999.0000    0.0312    0.0372    0.0511    0.3128    0.2241    9.2743    2.3942    3.0000 
 322.5092 -999.0000    4.0931   49.6752 -999.0000 100000.0000 100000.0000 100000.0000    0.3091    0.2302    9.3644    2.3972    3.0000 
 323.0092 -999.0000    4.1163   47.5687 -999.0000 100000.0000 100000.0000 100000.0000    0.3202    0.2654    9.4494    2.4053    3.0000 
 323.5092 -999.0000    4.1163   41.3898 -999.0000    0.0092    0.0122    0.0170    0.3236    0.2562    9.5627    2.4608    3.0000 
 324.0092 -999.0000    4.0931   43.3709 -999.0000    0.0055    0.0055    0.0089    0.3206    0.2499    9.6131    2.4101    3.0000 
 324.5092 -999.0000    4.0931   47.6272 -999.0000 100000.0000 100000.0000 100000.0000    0.3040    0.2294    9.6287    2.4281    3.0000 
 325.0092 -999.0000    4.0931   53.6244 -999.0000 100000.0000 100000.0000    0.0006    0.2975    0.2558    9.5929    2.4417    3.0000 
 325.5092 -999.0000    4.0931   44.7003 -999.0000    0.0058    0.0065    0.0098    0.3019    0.2538    9.5770    2.4192    3.0000 
 326.0092 -999.0000    4.1163   26.0277 -999.0000    0.0040    0.0031    0.0062    0.3127    0.2543    9.5968    2.4938    3.0000 
 326.5092 -999.0000    4.1163   41.3630 -999.0000    0.0383    0.0499    0.0688    0.3165    0.2765    9.6369    2.5775    3.0000 
 327.0092 -999.0000    4.0931   53.7037 -999.0000 100000.0000    0.0008    0.0026    0.3054    0.3286    9.6668    2.4945    3.0000 
 327.5092 -999.0000    4.0931   31.0763 -999.0000    0.0120    0.0170    0.0240    0.2957    0.4657    9.6605    2.4146    3.0000 
 328.0092 -999.0000    4.0931   40.7812 -999.0000 100000.0000 100000.0000 100000.0000    0.2908    0.4247    9.6493    2.4221    3.0000 
 328.5092 -999.0000    4.1163   37.2097 -999.0000    0.0336    0.0437    0.0609    0.2922    0.4405    9.6228    2.3896    3.0000 
 329.0092 -999.0000    4.0931   45.1236 -999.0000    0.0101    0.0111    0.0174    0.3012    0.3917    9.5897    2.4117    3.0000 
 329.5092 -999.0000    4.1163   36.2557 -999.0000    0.0033    0.0046    0.0080    0.3103    0.2728    9.5591    2.4183    3.0000 
