~VERSION INFORMATION
 VERS.                 2.0:   CWLS LOG ASCII STANDARD - VERSION 2.0
 WRAP.                  NO:   SINGLE LINE PER DEPTH STEP
 CREA.                 20/03/2018 14:58:23
#CREATED USING DSPetro VERSION 5000.10.1.3 BY H191660 ON 20/03/2018 14:58:23
~WELL INFORMATION
#MNEM.UNIT       DATA                          DESCRIPTION MNEMONIC
#---------      ---------------------------   --------------------------
 STRT    .FT        128.0000                  : START DEPTH
 STOP    .FT        12500.0000                : STOP DEPTH
 STEP    .FT        0.5000                    : STEP VALUE
 NULL    .      -999.0000                     : NULL VALUE
 DATE    .      20/03/2018                    : LAS file Creation Date
 WELL  .      UNIVERSITY_40_16_4247536999  : Well Name
 COMP  .      Neftex Exploration Insights  : Company
 FLD   .      PHANTOM (WOLFCAMP)           : Field
 STATE .      Texas                        : State
 COUNT .      USA                          : Country
 API   .      42475369990000               : API Number
 UWI   .      222                          : Unique Well Identifier (UWI)
 LOC   .      1980FNL x 1757FWL            : Location
 TOWN  .      16                           : Township
 SCT   .      40                           : Section
 RANG  .      U39                          : Range
 LATI  .      -6470541.88                  : Latitude/Northing
 LONG  .      783810.27                    : Longitude/Easting
 PDAT  .      GL                           : Permanent Datum
 EPDAT .      2604.000000                  : Reference Elevation
 LGMEA .      KB                           : Log Measured from
 DRMEA .      KB                           : Drill Measured From
 APDAT .      25.000000                    : Elevation Above Permanent Datum
 KB    .      2629.00000                   : KB Elevation
 GL    .      2604.00000                   : GL Elevation
 RWS   .      -999                         : Def_Rw
 WST   .      -999                         : Def_Rwt
 CNTY  .      WARD                         : County
 SRVC  .      Diversified Well Logging LLC : Contractor
~CURVE INFORMATION
#MNEM              UNIT       API CODE   Curve Type Comments
#----------  --------------- ----------  ---------- -----------
 DEPTH      .FT                        : Depth       
 BS         .inch                      : BitSize     
 DCAL_INCH  .inch                      :             Differential Caliper - Evaluates the difference between the actual borehole diameter and bit size
 GR         .GAPI                      : GammaRay    Gamma Ray {F11.4}
 LLD_OHMM   .ohmm                      :             Laterlog Deep Resistivity - Measurement made several feet into the formation; generally considered a measurement of the undisturbed formation
 LLM_OHMM   .ohm.m                     :             Laterlog Medium Resistivity - Measurement made approximately two to three feet into the formation - units of ohmm
 LLS_OHMM   .ohmm                      :             Laterlog Shallow Resistivity - one to two feet into the formation; generally considered to measure the formation
 NPHI_RATIO .ratio                     :             Neutron Porosity - Measured with an neutron logging device calibrated to a given matrix (limestone, sandstone and dolomite)
 PEF_B_E    .b/e-                      : PEF         Photoelectric Factor - A log of photoelectric absorption properties. Often expressed in an approximation unit barns/electron (b/e-)
 RHOZ_G_CC  .g/cc                      :             Formation Density - Measures the density of formation, including any void space or other materials contained in the subject volume
 LITH       .                          : LITH        Lithology Curve
~A  DEPTH     BS    DCAL_INC~     GR     LLD_OHMM  LLM_OHMM  LLS_OHMM NPHI_RAT~  PEF_B_E  RHOZ_G_C~    LITH   
# ...
1178.5000 -999.0000   -6.0268   10.8114    0.0081    0.0071    0.0075    0.5813   10.0000    1.7924    3.0000 
1179.0000 -999.0000   -6.0268   11.7724    0.0076    0.0069    0.0074    0.6368   10.0000    1.7735    3.0000 
1179.5000 -999.0000   -6.0268   16.3973    0.0092    0.0086    0.0098    0.6404   10.0000    1.7495    3.0000 
1180.0000 -999.0000   -6.0268   16.4274    0.0088    0.0080    0.0086    0.6727    9.7755    1.7426    3.0000 
1180.5000 -999.0000   -6.0268   15.7968    0.0088    0.0080    0.0082    0.6857   10.0000    1.7429    3.0000 
1181.0000 -999.0000   -6.0268   14.3252    0.0089    0.0084    0.0089    0.6501    9.9907    1.7455    3.0000 
1181.5000 -999.0000   -6.0268   15.5263    0.0084    0.0080    0.0080    0.6433   10.0000    1.7490    3.0000 
1182.0000 -999.0000   -6.0268   17.4184    0.0090    0.0088    0.0088    0.5577   10.0000    1.7543    3.0000 
1182.5000 -999.0000   -6.0268   17.8388    0.0100    0.0095    0.0100    0.5880    9.9624    1.7583    3.0000 
1183.0000 -999.0000   -6.0046   15.9769    0.0101    0.0092    0.0098    0.5732    9.9804    1.7553    3.0000 
1183.5000 -999.0000   -6.0157   14.2951    0.0089    0.0076    0.0076    0.6277    9.8930    1.7506    3.0000 
1184.0000 -999.0000   -6.0268   15.0158    0.0104    0.0094    0.0099    0.6441    9.9771    1.7453    3.0000 
1184.5000 -999.0000   -6.0268   15.2260    0.0091    0.0081    0.0084    0.6131    9.9677    1.7489    3.0000 
1185.0000 -999.0000   -6.0268   14.4451    0.0093    0.0081    0.0085    0.6656    9.9142    1.7529    3.0000 
1185.5000 -999.0000   -6.0268   14.3552    0.0100    0.0086    0.0090    0.6269   10.0000    1.7632    3.0000 
1186.0000 -999.0000   -6.0268   12.8837    0.0099    0.0083    0.0088    0.6187    9.9767    1.7706    3.0000 
1186.5000 -999.0000   -6.0157   14.5653    0.0086    0.0065    0.0064    0.5743    9.9686    1.7753    3.0000 
1187.0000 -999.0000   -6.0268   13.5142    0.0108    0.0094    0.0105    0.6042   10.0000    1.7721    3.0000 
1187.5000 -999.0000   -6.0268   15.4362    0.0095    0.0079    0.0084    0.6260    9.9582    1.7715    3.0000 
1188.0000 -999.0000   -6.0268   13.0639    0.0091    0.0071    0.0075    0.5523    9.9033    1.7737    3.0000 
1188.5000 -999.0000   -6.0268   11.1718    0.0088    0.0066    0.0067    0.6605   10.0000    1.7816    3.0000 
1189.0000 -999.0000   -6.0268    9.4900    0.0092    0.0069    0.0071    0.6403   10.0000    1.7864    3.0000 
1189.5000 -999.0000   -6.0268   12.4330    0.0100    0.0079    0.0086    0.6874   10.0000    1.7950    3.0000 
1190.0000 -999.0000   -6.0046   13.0637    0.0099    0.0079    0.0086    0.5600    9.8996    1.8003    3.0000 
1190.5000 -999.0000   -6.0046   13.2439    0.0107    0.0085    0.0095    0.5619    9.9592    1.7994    3.0000 
1191.0000 -999.0000   -6.0268   11.5622    0.0108    0.0090    0.0101    0.6248    9.9932    1.7907    3.0000 
1191.5000 -999.0000   -6.0046   13.9648    0.0103    0.0082    0.0090    0.6429    9.9624    1.7833    3.0000 
1192.0000 -999.0000   -6.0268   14.8057    0.0092    0.0075    0.0085    0.6537   10.0000    1.7803    3.0000 
1192.5000 -999.0000   -6.0268   14.1750    0.0100    0.0074    0.0077    0.6500   10.0000    1.7824    3.0000 
1193.0000 -999.0000   -6.0268   13.4542    0.0087    0.0064    0.0069    0.6673    9.9071    1.7817    3.0000 
1193.5000 -999.0000   -6.0268   15.5565    0.0085    0.0066    0.0070    0.6519    9.9775    1.7829    3.0000 
1194.0000 -999.0000   -6.0046   16.3373    0.0084    0.0067    0.0070    0.5904    9.9696    1.7874    3.0000 
1194.5000 -999.0000   -6.0268   14.6554    0.0094    0.0078    0.0086    0.5296   10.0000    1.7915    3.0000 
1195.0000 -999.0000   -6.0268   11.2919    0.0116    0.0083    0.0089    0.5389    9.9216    1.8000    3.0000 
1195.5000 -999.0000   -6.0268    9.2498    0.0089    0.0066    0.0068    0.5445   10.0000    1.8078    3.0000 
1196.0000 -999.0000   -6.0268   11.5622    0.0093    0.0075    0.0081    0.5888    9.9900    1.8167    3.0000 
1196.5000 -999.0000   -6.0268   14.4453    0.0089    0.0078    0.0089    0.5724    9.9529    1.8123    3.0000 
1197.0000 -999.0000   -6.0268   16.9679    0.0086    0.0059    0.0059    0.5930   10.0000    1.8081    3.0000 
1197.5000 -999.0000   -6.0268   15.6164    0.0080    0.0079    0.0092    0.6278    9.9682    1.8079    3.0000 
1198.0000 -999.0000   -6.0268   13.9947    0.0080    0.0079    0.0090    0.6265    9.9578    1.8181    3.0000 
1198.5000 -999.0000   -6.0268   14.4751    0.0078    0.0074    0.0083    0.6066    9.9506    1.8226    3.0000 
1199.0000 -999.0000   -6.0268   14.1449    0.0095    0.0081    0.0089    0.5922    9.9056    1.8207    3.0000 
1199.5000 -999.0000   -6.0046   13.3039    0.0081    0.0073    0.0082    0.6069   10.0000    1.8203    3.0000 
1200.0000 -999.0000   -6.0268   11.6223    0.0071    0.0062    0.0066    0.6617    9.9857    1.8279    3.0000 
1200.5000 -999.0000   -6.0268   12.4631    0.0081    0.0076    0.0085    0.6350   10.0000    1.8386    3.0000 
1201.0000 -999.0000   -6.0268   13.7245    0.0077    0.0078    0.0090    0.7139    9.9123    1.8503    3.0000 
1201.5000 -999.0000   -6.0268   14.5053    0.0069    0.0068    0.0075    0.6497    9.9001    1.8551    3.0000 
1202.0000 -999.0000   -6.0268   14.7156    0.0074    0.0072    0.0081    0.6866   10.0000    1.8587    3.0000 
1202.5000 -999.0000   -6.0046   14.2951    0.0076    0.0075    0.0085    0.7848    9.8706    1.8551    3.0000 
1203.0000 -999.0000   -6.0268   15.6766    0.0070    0.0068    0.0076    0.7984   10.0000    1.8533    3.0000 
1203.5000 -999.0000   -6.0268   14.8356    0.0074    0.0064    0.0068    0.7929   10.0000    1.8586    3.0000 
1204.0000 -999.0000   -6.0046   14.4153    0.0087    0.0071    0.0076    0.5794    9.8620    1.8720    3.0000 
1204.5000 -999.0000   -6.0046   15.1358    0.0094    0.0081    0.0090    0.5378    9.9949    1.8917    3.0000 
1205.0000 -999.0000   -6.0268   16.3972    0.0103    0.0090    0.0103    0.5328   10.0000    1.9021    3.0000 
1205.5000 -999.0000   -6.0268   16.8175    0.0094    0.0080    0.0090    0.5672    9.9869    1.9014    3.0000 
1206.0000 -999.0000   -6.0157   15.3762    0.0096    0.0079    0.0087    0.5890   10.0000    1.8969    3.0000 
1206.5000 -999.0000   -6.0268   14.9557    0.0090    0.0067    0.0070    0.5515   10.0000    1.8968    3.0000 
1207.0000 -999.0000   -6.0268   15.6165    0.0089    0.0069    0.0072    0.5251    9.8506    1.8996    3.0000 
1207.5000 -999.0000   -6.0268   14.9558    0.0066    0.0068    0.0077    0.5099   10.0000    1.9041    3.0000 
1208.0000 -999.0000   -6.0046   15.3763    0.0072    0.0078    0.0091    0.6303    9.9318    1.9078    3.0000 
1208.5000 -999.0000   -6.0268   13.2140    0.0063    0.0066    0.0072    0.6442    9.9345    1.9235    3.0000 
1209.0000 -999.0000   -6.0268   13.4242    0.0060    0.0059    0.0063    0.7182    9.9604    1.9368    3.0000 
1209.5000 -999.0000   -6.0268   10.3610    0.0064    0.0067    0.0076    0.6401   10.0000    1.9509    3.0000 
1210.0000 -999.0000   -6.0268   11.0217    0.0078    0.0079    0.0090    0.6315   10.0000    1.9500    3.0000 
1210.5000 -999.0000   -6.0268   11.4420    0.0081    0.0080    0.0091    0.6464    9.9231    1.9473    3.0000 
1211.0000 -999.0000   -6.0268   13.8446    0.0074    0.0072    0.0081    0.5970   10.0000    1.9450    3.0000 
1211.5000 -999.0000   -6.0268   13.6344    0.0075    0.0074    0.0083    0.5958    9.9477    1.9467    3.0000 
1212.0000 -999.0000   -6.0268   12.2230    0.0081    0.0080    0.0090    0.5004   10.0000    1.9556    3.0000 
1212.5000 -999.0000   -6.0268   12.4632    0.0066    0.0061    0.0065    0.4916   10.0000    1.9578    3.0000 
1213.0000 -999.0000   -6.0268   12.9737    0.0073    0.0069    0.0076    0.4696    9.8945    1.9605    3.0000 
1213.5000 -999.0000   -6.0268   13.5443    0.0072    0.0069    0.0077    0.4610    9.9415    1.9542    3.0000 
1214.0000 -999.0000   -6.0268   12.9136    0.0079    0.0076    0.0086    0.5260   10.0000    1.9521    3.0000 
1214.5000 -999.0000   -6.0268   12.9136    0.0074    0.0067    0.0073    0.5458    9.9770    1.9550    3.0000 
