~VERSION INFORMATION
 VERS.                 2.0:   CWLS LOG ASCII STANDARD - VERSION 2.0
 WRAP.                  NO:   SINGLE LINE PER DEPTH STEP
 CREA.                 20/03/2018 14:58:23
#CREATED USING DSPetro VERSION 5000.10.1.3 BY H191660 ON 20/03/2018 14:58:23
~WELL INFORMATION
#MNEM.UNIT       DATA                          DESCRIPTION MNEMONIC
#---------      ---------------------------   --------------------------
 STRT    .FT        128.0000                  : START DEPTH
 STOP    .FT        12500.0000                : STOP DEPTH
 STEP    .FT        0.5000                    : STEP VALUE
 NULL    .      -999.0000                     : NULL VALUE
 DATE    .      20/03/2018                    : LAS file Creation Date
 WELL  .      UNIVERSITY_40_16_4247536999  : Well Name
 COMP  .      Neftex Exploration Insights  : Company
 FLD   .      PHANTOM (WOLFCAMP)           : Field
 STATE .      Texas                        : State
 COUNT .      USA                          : Country
 API   .      42475369990000               : API Number
 UWI   .      222                          : Unique Well Identifier (UWI)
 LOC   .      1980FNL x 1757FWL            : Location
 TOWN  .      16                           : Township
 SCT   .      40                           : Section
 RANG  .      U39                          : Range
 LATI  .      -6470541.88                  : Latitude/Northing
 LONG  .      783810.27                    : Longitude/Easting
 PDAT  .      GL                           : Permanent Datum
 EPDAT .      2604.000000                  : Reference Elevation
 LGMEA .      KB                           : Log Measured from
 DRMEA .      KB                           : Drill Measured From
 APDAT .      25.000000                    : Elevation Above Permanent Datum
 KB    .      2629.00000                   : KB Elevation
 GL    .      2604.00000                   : GL Elevation
 RWS   .      -999                         : Def_Rw
 WST   .      -999                         : Def_Rwt
 CNTY  .      WARD                         : County
 SRVC  .      Diversified Well Logging LLC : Contractor
~CURVE INFORMATION
#MNEM              UNIT       API CODE   Curve Type Comments
#----------  --------------- ----------  ---------- -----------
 DEPTH      .FT                        : Depth       
 BS         .inch                      : BitSize     
 DCAL_INCH  .inch                      :             Differential Caliper - Evaluates the difference between the actual borehole diameter and bit size
 GR         .GAPI                      : GammaRay    Gamma Ray {F11.4}
 LLD_OHMM   .ohmm                      :             Laterlog Deep Resistivity - Measurement made several feet into the formation; generally considered a measurement of the undisturbed formation
 LLM_OHMM   .ohm.m                     :             Laterlog Medium Resistivity - Measurement made approximately two to three feet into the formation - units of ohmm
 LLS_OHMM   .ohmm                      :             Laterlog Shallow Resistivity - one to two feet into the formation; generally considered to measure the formation
 NPHI_RATIO .ratio                     :             Neutron Porosity - Measured with an neutron logging device calibrated to a given matrix (limestone, sandstone and dolomite)
 PEF_B_E    .b/e-                      : PEF         Photoelectric Factor - A log of photoelectric absorption properties. Often expressed in an approximation unit barns/electron (b/e-)
 RHOZ_G_CC  .g/cc                      :             Formation Density - Measures the density of formation, including any void space or other materials contained in the subject volume
 LITH       .                          : LITH        Lithology Curve
~A  DEPTH     BS    DCAL_INC~     GR     LLD_OHMM  LLM_OHMM  LLS_OHMM NPHI_RAT~  PEF_B_E  RHOZ_G_C~    LITH   
# ...
6388.0000    8.7500    1.6763   57.8527    2.3053    2.1464    2.1100    0.1620    2.5594    2.4234   27.0000 
6388.5000    8.7500    1.7282   52.1765    1.6170    1.4786    1.5544    0.1693    2.4268    2.3941   27.0000 
6389.0000    8.7500    1.7837   44.8189    1.4764    1.3319    1.4128    0.1718    2.4087    2.3724   27.0000 
6389.5000    8.7500    1.8097   45.8281    1.4180    1.2737    1.3525    0.1866    2.3497    2.3684   27.0000 
6390.0000    8.7500    1.8319   48.9816    1.5301    1.3742    1.4251    0.1835    2.3237    2.3909   27.0000 
6390.5000    8.7500    1.8615   54.2371    2.0791    1.8608    1.8240    0.1680    2.4231    2.4296   27.0000 
6391.0000    8.7500    1.8615   59.0580    2.5982    2.3301    2.2382    0.1439    2.4713    2.4607   36.0000 
6391.5000    8.7500    1.9059   60.5295    2.7894    2.4866    2.3289    0.1496    2.4693    2.4600   36.0000 
6392.0000    8.7500    1.9282   55.3790    1.6669    1.4851    1.4495    0.1661    2.4361    2.4219   36.0000 
6392.5000    8.7500    2.0393   48.7642    1.2345    1.0782    1.1089    0.1927    2.4333    2.3801   27.0000 
6393.0000    8.7500    2.0911   42.0371    1.1992    1.0289    1.0942    0.2107    2.4031    2.3565   27.0000 
6393.5000    8.7500    2.1356   44.0342    1.2150    1.0313    1.1243    0.2185    2.3437    2.3594   27.0000 
6394.0000    8.7500    2.1615   45.1973    1.4543    1.2194    1.2810    0.2235    2.4301    2.3812   27.0000 
6394.5000    8.7500    2.1800   46.1994    1.6182    1.3510    1.3733    0.2118    2.5469    2.3976   27.0000 
6395.0000    8.7500    2.1874   43.7819    1.9312    1.6158    1.5782    0.1891    2.6750    2.4257   27.0000 
6395.5000    8.7500    2.1948   42.7309    2.4951    2.0959    2.0625    0.1413    2.5231    2.4551   27.0000 
6396.0000    8.7500    2.1430   42.0440    4.8668    4.0702    4.0921    0.1015    2.7991    2.4886   27.0000 
6396.5000    8.7500    2.0689   43.0951    3.6297    3.0224    3.2529    0.1067    2.8493    2.4891   27.0000 
6397.0000    8.7500    2.0726   43.5435    1.9657    1.6360    1.7545    0.1292    2.6351    2.4625   27.0000 
6397.5000    8.7500    2.0837   45.9611    1.4496    1.1924    1.3288    0.1669    2.5704    2.4328   36.0000 
6398.0000    8.7500    2.0689   48.7990    2.1944    1.7971    2.0137    0.1793    2.4015    2.4310   36.0000 
6398.5000    8.7500    2.0059   52.0505    2.3430    1.9288    2.2212    0.1841    2.4559    2.4362   36.0000 
6399.0000    8.7500    1.9615   56.1498    2.2764    1.8799    2.0900    0.1864    2.5153    2.4477   36.0000 
6399.5000    8.7500    1.8911   59.0930    1.8365    1.5326    1.6547    0.1898    2.5345    2.4398   36.0000 
6400.0000    8.7500    1.8393   60.1020    2.1828    1.8457    1.8693    0.1907    2.4247    2.4469   36.0000 
6400.5000    8.7500    1.7615   55.7925    2.2247    1.9190    1.9365    0.1688    2.4795    2.4581   36.0000 
6401.0000    8.7500    1.6911   50.0116    3.4153    2.9421    2.7703    0.1494    2.7048    2.4800   36.0000 
6401.5000    8.7500    1.6689   44.3566    2.7737    2.3929    2.3190    0.1417    2.6911    2.4785   36.0000 
6402.0000    8.7500    1.6837   44.6299    2.2736    1.9778    1.9010    0.1562    2.5424    2.4580   27.0000 
6402.5000    8.7500    1.6763   47.6780    2.1258    1.8791    1.8001    0.1555    2.5389    2.4381   27.0000 
6403.0000    8.7500    1.6763   49.7801    2.3502    2.0989    1.9975    0.1604    2.5594    2.4366   27.0000 
6403.5000    8.7500    1.6615   49.5559    2.3903    2.1405    2.0215    0.1549    2.7264    2.4497   36.0000 
6404.0000    8.7500    1.6726   49.8714    2.2307    2.0099    1.8880    0.1556    2.6334    2.4642   36.0000 
6404.5000    8.7500    1.6504   51.2378    2.4746    2.2595    2.1076    0.1520    2.6416    2.4768   36.0000 
6405.0000    8.7500    1.6171   53.3680    3.3158    3.0657    2.7336    0.1447    2.8411    2.4896   36.0000 
6405.5000    8.7500    1.6097   54.3139    2.7465    2.5823    2.4264    0.1483    2.7825    2.4999   36.0000 
6406.0000    8.7500    1.5949   55.4701    3.0012    2.8368    2.5969    0.1486    2.7020    2.5077   36.0000 
6406.5000    8.7500    1.5615   56.4793    3.0257    2.8667    2.6609    0.1484    2.7831    2.5170   36.0000 
6407.0000    8.7500    1.5430   55.3231    3.8206    3.6123    3.3149    0.1293    2.7157    2.5135   36.0000 
6407.5000    8.7500    1.4504   52.6954    4.6617    4.4301    3.9138    0.1307    2.8329    2.5053   36.0000 
6408.0000    8.7500    1.4097   50.7893    3.2027    3.0696    2.9918    0.1319    2.9348    2.4916   36.0000 
6408.5000    8.7500    1.3356   51.1046    3.5091    3.3683    3.2052    0.1357    2.7976    2.4882   36.0000 
6409.0000    8.7500    1.2467   51.3987    4.1769    4.0577    3.7986    0.1235    2.8149    2.4903   36.0000 
6409.5000    8.7500    1.2060   52.7443    4.0263    3.9536    3.7480    0.1234    2.8701    2.5047   36.0000 
6410.0000    8.7500    1.1356   55.1616    4.1053    4.0503    3.7717    0.1277    2.7744    2.5265   36.0000 
6410.5000    8.7500    1.0838   59.9828    5.0160    4.9843    4.4653    0.1204    2.8566    2.5503   36.0000 
6411.0000    8.7500    1.0245   61.1390    6.1483    6.1334    5.2956    0.0973    2.8267    2.5639   36.0000 
6411.5000    8.7500    0.9393   55.6735    9.0347    9.0487    6.9559    0.0751    2.9706    2.5796   36.0000 
6412.0000    8.7500    0.8838   51.9244    9.0558    9.1697    7.2279    0.0640    2.8612    2.5802   36.0000 
6412.5000    8.7500    0.8319   50.9924   11.3472   11.4633    8.4446    0.0610    2.9832    2.5854   36.0000 
6413.0000    8.7500    0.7949   60.5576   11.2518   11.4157    8.5872    0.0731    2.9610    2.5894   36.0000 
6413.5000    8.7500    0.7505   66.1004   10.8091   10.9642    8.6050    0.0935    2.8043    2.5988   36.0000 
6414.0000    8.7500    0.7283   77.5429   13.1199   13.2284    9.8937    0.1284    2.7695    2.6028   37.0000 
6414.5000    8.7500    0.7171   84.0595   21.1227   21.0470   13.2512    0.1565    2.8565    2.5940   37.0000 
6415.0000    8.7500    0.6949   88.6564   33.3585   33.7084   17.0427    0.1534    3.2971    2.5889   37.0000 
6415.5000    8.7500    0.6394   83.6116   20.0781   21.2611   14.6862    0.1271    3.0778    2.5918   37.0000 
6416.0000    8.7500    0.6171   81.2993   24.5552   26.0027   16.9929    0.1068    3.0389    2.6036   37.0000 
6416.5000    8.7500    0.5283   85.2445   67.3199   71.3027   27.2595    0.1101    3.8631    2.6184   37.0000 
6417.0000    8.7500    0.4949   88.2643   78.7490   84.5043   32.4973    0.1009    3.7744    2.6258   37.0000 
6417.5000    8.7500    0.4616   94.4659   91.2062   97.7754   37.0096    0.0983    3.5467    2.6249   37.0000 
6418.0000    8.7500    0.4542   85.5316   94.0973  101.6381   39.0343    0.0744    3.4842    2.6218   37.0000 
6418.5000    8.7500    0.4394   71.5802  240.0108  249.1814   45.0297    0.0617    4.1639    2.6289   22.0000 
6419.0000    8.7500    0.4394   55.2810  401.7145  388.0045   48.6811    0.0537    4.2860    2.6368   22.0000 
6419.5000    8.7500    0.4468   56.0167  183.2783  182.8856   49.6946    0.0624    4.3469    2.6344   22.0000 
6420.0000    8.7500    0.4542   64.6356  167.3720  161.6174   49.1175    0.0886    4.4032    2.6322   22.0000 
6420.5000    8.7500    0.4949   70.0173   55.2465   54.5795   39.4435    0.0820    4.3400    2.6276   22.0000 
6421.0000    8.7500    0.5394   64.6566   15.3044   15.6481   17.9317    0.0659    3.6617    2.6275   27.0000 
6421.5000    8.7500    0.5838   56.4581   18.1372   18.5501   21.0502    0.0378    3.2598    2.6203   27.0000 
6422.0000    8.7500    0.6468   47.8250   14.5919   14.9090   19.4079    0.0232    3.3558    2.6094   27.0000 
6422.5000    8.7500    0.7283   45.9331   11.1949   11.4177   14.4309    0.0348    3.2325    2.5992   27.0000 
6423.0000    8.7500    0.7801   51.6089    7.4155    7.5747    9.6964    0.0574    3.1491    2.5826   27.0000 
6423.5000    8.7500    0.8319   53.6061    9.4896    9.4678   11.8449    0.0759    2.9761    2.5744   27.0000 
6424.0000    8.7500    0.8727   59.9548    8.3408    8.2249   10.5205    0.0885    2.9726    2.5568   27.0000 
