~VERSION INFORMATION
 VERS.                 2.0:   CWLS LOG ASCII STANDARD - VERSION 2.0
 WRAP.                  NO:   SINGLE LINE PER DEPTH STEP
 CREA.                 20/03/2018 14:44:45
#CREATED USING DSPetro VERSION 5000.10.1.3 BY H191660 ON 20/03/2018 14:44:45
~WELL INFORMATION
#MNEM.UNIT       DATA                          DESCRIPTION MNEMONIC
#---------      ---------------------------   --------------------------
 STRT    .FT        300.0092                  : START DEPTH
 STOP    .FT        12601.0092                : STOP DEPTH
 STEP    .FT        0.5000                    : STEP VALUE
 NULL    .      -999.0000                     : NULL VALUE
 DATE    .      20/03/2018                    : LAS file Creation Date
 WELL  .      UNIVERSITY_20_3_1_4230131346 : Well Name
 COMP  .      Chesapeake Operating, Inc.   : Company
 FLD   .      Haley                        : Field
 STATE .      Texas                        : State
 API   .      42-301-31346                 : API Number
 UWI   .      507                          : Unique Well Identifier (UWI)
 LOC   .      1320' FNL & 1320' FWL        : Location
 TOWN  .      20                           : Township
 SCT   .      3                            : Section
 RANG  .      University Lands             : Range
 PDAT  .      GROUND LEVEL                 : Permanent Datum
 EPDAT .      2800.000000                  : Reference Elevation
 LGMEA .      KELLY BUSHING                : Log Measured from
 DRMEA .      KELLY BUSHING                : Drill Measured From
 APDAT .      26.000000                    : Elevation Above Permanent Datum
 KB    .      2826.00000                   : KB Elevation
 GL    .      2800.00000                   : GL Elevation
 RWS   .      -999                         : Def_Rw
 WST   .      -999                         : Def_Rwt
 CNTY  .      Loving                       : County
 SRVC  .      Schlumberger                 : Contractor
~CURVE INFORMATION
#MNEM              UNIT       API CODE   Curve Type Comments
#----------  --------------- ----------  ---------- -----------
 DEPTH      .FT                        : Depth       
 BS         .inch                      : BitSize     
 CAL        .inch                      :             
 GR         .API                       : GammaRay    
 SP_MV      .mv                        : SP          Spontaneous Potential - Records the electrical potential produced by the interaction of formation water, conductive drilling mud, and certain ion-sele
 DRES       .OHMM                      :             
 MRES       .OHMM                      : MedRes      
 SRES       .OHMM                      : ShalRes     
 DRHO       .G/C3                      : Drho        
 NPHI       .CFCF                      : Neutron     
 PEF        .B/E                       : PEF         
 RHOB       .G/C3                      : Density     
 LITH       .                          : LITH        Lithology Curve
~A  DEPTH     BS       CAL        GR      SP_MV      DRES      MRES      SRES      DRHO      NPHI      PEF       RHOB      LITH   
# ...
7686.5092   12.2500   13.9265   49.4581 -999.0000   51.4084   25.5463    2.2930   -0.0006    0.0352    3.4661    2.6327   36.0000 
7687.0092   12.2500   13.9265   48.4583 -999.0000   61.6545   28.7952    2.2910   -0.0017    0.0314    3.5650    2.6460   27.0000 
7687.5092   12.2500   13.9032   40.4081 -999.0000   57.5872   27.1001    2.3240   -0.0031    0.0312    3.6550    2.6415   27.0000 
7688.0092   12.2500   13.9032   48.7268 -999.0000   51.1584   26.5725    2.3364   -0.0021    0.0329    3.5859    2.6332   27.0000 
7688.5092   12.2500   13.9032   60.1366 -999.0000   56.0243   28.2350    2.3835   -0.0027    0.0423    3.4958    2.6370   36.0000 
7689.0092   12.2500   13.9032   61.6211 -999.0000   61.5870   29.9597    2.3948   -0.0024    0.0487    3.4345    2.6460   36.0000 
7689.5092   12.2500   13.9265   52.9457 -999.0000   57.3814   27.0743    2.3447   -0.0028    0.0500    3.4590    2.6466   36.0000 
7690.0092   12.2500   13.9265   62.7588 -999.0000   57.5154   26.8028    2.3886   -0.0024    0.0540    3.4541    2.6175   36.0000 
7690.5092   12.2500   13.9265   62.8846 -999.0000   60.6072   27.5102    2.3514   -0.0033    0.0596    3.4118    2.6074   36.0000 
7691.0092   12.2500   13.9265   74.9089 -999.0000   63.5246   28.3528    2.3256   -0.0039    0.0617    3.3584    2.6075   36.0000 
7691.5092   12.2500   13.9032   67.1632 -999.0000   67.5204   28.9415    2.3834   -0.0039    0.0637    3.3186    2.6108   36.0000 
7692.0092   12.2500   13.9265   75.7836 -999.0000   65.2526   28.5157    2.4148   -0.0028    0.0700    3.3311    2.6025   36.0000 
7692.5092   12.2500   13.9265   66.3748 -999.0000   70.5368   29.5568    2.4132    0.0003    0.0797    3.3899    2.6438   36.0000 
7693.0092   12.2500   13.9497   86.1767 -999.0000   77.2621   30.7149    2.4285    0.0016    0.0765    3.4632    2.6386   36.0000 
7693.5092   12.2500   13.9497   71.0193 -999.0000   74.5972   30.9332    2.4306    0.0016    0.0755    3.4840    2.6648   36.0000 
7694.0092   12.2500   13.9730   63.2066 -999.0000   62.9408   27.8027    2.4002    0.0014    0.0817    3.4113    2.6189   36.0000 
7694.5092   12.2500   13.9730   78.1737 -999.0000   60.5967   27.6719    2.3964    0.0011    0.0946    3.3084    2.6288   36.0000 
7695.0092   12.2500   14.0194   88.2839 -999.0000   60.3134   28.0376    2.4161    0.0013    0.1053    3.2631    2.6088   36.0000 
7695.5092   12.2500   14.0194   75.4723 -999.0000   56.6334   27.3267    2.3912   -0.0027    0.1192    3.3054    2.5768   37.0000 
7696.0092   12.2500   14.0659  118.2994 -999.0000   53.4189   26.1419    2.3847   -0.0048    0.1529    3.3914    2.5470   37.0000 
7696.5092   12.2500   14.0892  103.5416 -999.0000   43.1322   23.0332    2.3596   -0.0067    0.1422    3.4552    2.6000   37.0000 
7697.0092   12.2500   14.1124   70.6054 -999.0000   34.0359   20.2666    2.3159   -0.0067    0.0916    3.4746    2.6019   37.0000 
7697.5092   12.2500   14.1822   50.8282 -999.0000   23.8352   15.2061    2.2595   -0.0058    0.0698    3.4252    2.5856   27.0000 
7698.0092   12.2500   14.2287   51.8980 -999.0000   14.2820   10.3301    2.1198   -0.0063    0.0712    3.3203    2.5766   27.0000 
7698.5092   12.2500   14.2752   56.0328 -999.0000   11.2916    8.5619    2.0687   -0.0050    0.0815    3.1899    2.5550   27.0000 
7699.0092   12.2500   14.3333   62.5588 -999.0000   10.4991    8.1967    2.0483   -0.0070    0.0912    3.1153    2.5537   36.0000 
7699.5092   12.2500   14.3449   61.1951 -999.0000   10.2944    8.2374    2.0370   -0.0079    0.0983    3.0864    2.5561   36.0000 
7700.0092   12.2500   14.3333   49.5675 -999.0000   10.1600    8.3012    2.0136   -0.0107    0.1173    3.1041    2.4915   36.0000 
7700.5092   12.2500   14.3449   59.4945 -999.0000    9.7709    8.1816    1.9758   -0.0128    0.1147    3.1593    2.4891   36.0000 
7701.0092   12.2500   14.3217   55.9658 -999.0000   10.3356    8.7019    1.9625   -0.0144    0.1138    3.2531    2.4759   36.0000 
7701.5092   12.2500   14.3449   73.2282 -999.0000   11.5792    9.4919    1.9464   -0.0125    0.1053    3.3052    2.4725   36.0000 
7702.0092   12.2500   14.4379   61.4397 -999.0000    9.4907    7.8718    1.9157   -0.0024    0.0955    3.2720    2.4105   36.0000 
7702.5092   12.2500   14.4728   65.6364 -999.0000    8.8872    7.1552    1.8577    0.0121    0.1094    3.1556    2.3997   36.0000 
7703.0092   12.2500   14.5774   65.1315 -999.0000    8.8253    6.8858    1.8616    0.0228    0.1111    3.0645    2.4845   36.0000 
7703.5092   12.2500   14.5425   58.6056 -999.0000    9.2970    7.0870    1.8620    0.0202    0.1125    2.9943    2.4828   36.0000 
7704.0092   12.2500   14.2519   57.0688 -999.0000    9.9908    7.4215    1.8830    0.0120    0.1127    2.9674    2.4780   36.0000 
7704.5092   12.2500   14.2054   55.1612 -999.0000   10.6168    7.7256    1.9022    0.0004    0.1059    3.0052    2.4802   36.0000 
7705.0092   12.2500   14.1357   60.8323 -999.0000   16.2757   10.7201    2.0109    0.0109    0.0862    3.1575    2.5303   36.0000 
7705.5092   12.2500   14.0427   59.4427 -999.0000   21.8208   12.9593    2.0745    0.0287    0.0710    3.3515    2.5647   36.0000 
7706.0092   12.2500   13.9497   45.3000 -999.0000   21.9427   12.2713    2.0566    0.0585    0.0646    3.4929    2.5625   27.0000 
7706.5092   12.2500   13.7637   38.0801 -999.0000   16.3920    9.5583    1.9441    0.0742    0.0653    3.5190    2.3939   27.0000 
7707.0092   12.2500   13.7289   57.7175 -999.0000   17.9818    9.7000    1.9935    0.0668    0.0754    3.4583    2.4950   27.0000 
7707.5092   12.2500   13.6475   57.2854 -999.0000   16.5710    8.8056    1.9506    0.0396    0.0766    3.3497    2.5582   36.0000 
7708.0092   12.2500   13.6359   58.2806 -999.0000   14.3806    7.8951    1.9260    0.0120    0.0760    3.2189    2.5215   36.0000 
7708.5092   12.2500   13.6707   64.8726 -999.0000   14.2858    7.7476    1.8984    0.0001    0.0823    3.1174    2.4849   36.0000 
7709.0092   12.2500   13.6707   54.2722 -999.0000   14.3407    7.8722    1.9156   -0.0002    0.0797    3.0511    2.5738   36.0000 
7709.5092   12.2500   13.6707   50.4392 -999.0000   14.2936    7.8112    1.8917   -0.0055    0.0843    3.0865    2.5588   36.0000 
7710.0092   12.2500   13.6707   62.6536 -999.0000   13.9398    7.9457    1.9147   -0.0068    0.0939    3.0943    2.5975   36.0000 
7710.5092   12.2500   13.6475   53.7111 -999.0000   14.5843    8.3020    1.9133   -0.0102    0.1100    3.1055    2.5615   36.0000 
7711.0092   12.2500   13.6243   57.3881 -999.0000   15.7526    9.0016    1.9543   -0.0097    0.1119    3.0468    2.5599   36.0000 
7711.5092   12.2500   13.6010   76.3703 -999.0000   16.3490    9.5947    2.0116   -0.0150    0.1185    3.0385    2.5326   36.0000 
7712.0092   12.2500   13.6243   78.9767 -999.0000   18.2074   10.4913    2.0374   -0.0156    0.1150    3.0298    2.5105   36.0000 
7712.5092   12.2500   13.6010   76.4542 -999.0000   21.0737   11.8248    2.0814   -0.0115    0.1221    3.0480    2.5350   36.0000 
7713.0092   12.2500   13.5894   83.9396 -999.0000   27.0810   13.6693    2.1071   -0.0016    0.1307    3.1144    2.5280   36.0000 
7713.5092   12.2500   13.5545   92.5936 -999.0000   36.5870   15.9500    2.1317    0.0189    0.1398    3.2838    2.5653   37.0000 
7714.0092   12.2500   13.5313  114.4160 -999.0000   41.5460   17.3138    2.1656    0.0576    0.1606    3.5239    2.5229   37.0000 
7714.5092   12.2500   13.5080   94.8103 -999.0000   48.4659   19.1773    2.2212    0.1026    0.1378    3.7476    2.4850   11.0000 
7715.0092   12.2500   13.5080   65.5381 -999.0000   55.4303   20.7335    2.2446    0.1381    0.1263    3.9132    2.5574   11.0000 
7715.5092   12.2500   13.4848   75.7663 -999.0000   61.3442   22.3965    2.2991    0.1413    0.1006    4.0607    2.5993   11.0000 
7716.0092   12.2500   13.4615   74.1869 -999.0000   70.9828   24.5571    2.3054    0.1173    0.1085    4.1933    2.5692   11.0000 
7716.5092   12.2500   13.4383   70.4319 -999.0000   80.9906   26.3640    2.3418    0.0788    0.1132    4.2578    2.6093   11.0000 
7717.0092   12.2500   13.4150   82.5548 -999.0000   81.9629   26.0003    2.3517    0.0372    0.1174    4.1596    2.6092   22.0000 
