~VERSION INFORMATION
 VERS.                 2.0:   CWLS LOG ASCII STANDARD - VERSION 2.0
 WRAP.                  NO:   SINGLE LINE PER DEPTH STEP
 CREA.                 20/03/2018 14:44:45
#CREATED USING DSPetro VERSION 5000.10.1.3 BY H191660 ON 20/03/2018 14:44:45
~WELL INFORMATION
#MNEM.UNIT       DATA                          DESCRIPTION MNEMONIC
#---------      ---------------------------   --------------------------
 STRT    .FT        300.0092                  : START DEPTH
 STOP    .FT        12601.0092                : STOP DEPTH
 STEP    .FT        0.5000                    : STEP VALUE
 NULL    .      -999.0000                     : NULL VALUE
 DATE    .      20/03/2018                    : LAS file Creation Date
 WELL  .      UNIVERSITY_20_3_1_4230131346 : Well Name
 COMP  .      Chesapeake Operating, Inc.   : Company
 FLD   .      Haley                        : Field
 STATE .      Texas                        : State
 API   .      42-301-31346                 : API Number
 UWI   .      507                          : Unique Well Identifier (UWI)
 LOC   .      1320' FNL & 1320' FWL        : Location
 TOWN  .      20                           : Township
 SCT   .      3                            : Section
 RANG  .      University Lands             : Range
 PDAT  .      GROUND LEVEL                 : Permanent Datum
 EPDAT .      2800.000000                  : Reference Elevation
 LGMEA .      KELLY BUSHING                : Log Measured from
 DRMEA .      KELLY BUSHING                : Drill Measured From
 APDAT .      26.000000                    : Elevation Above Permanent Datum
 KB    .      2826.00000                   : KB Elevation
 GL    .      2800.00000                   : GL Elevation
 RWS   .      -999                         : Def_Rw
 WST   .      -999                         : Def_Rwt
 CNTY  .      Loving                       : County
 SRVC  .      Schlumberger                 : Contractor
~CURVE INFORMATION
#MNEM              UNIT       API CODE   Curve Type Comments
#----------  --------------- ----------  ---------- -----------
 DEPTH      .FT                        : Depth       
 BS         .inch                      : BitSize     
 CAL        .inch                      :             
 GR         .API                       : GammaRay    
 SP_MV      .mv                        : SP          Spontaneous Potential - Records the electrical potential produced by the interaction of formation water, conductive drilling mud, and certain ion-sele
 DRES       .OHMM                      :             
 MRES       .OHMM                      : MedRes      
 SRES       .OHMM                      : ShalRes     
 DRHO       .G/C3                      : Drho        
 NPHI       .CFCF                      : Neutron     
 PEF        .B/E                       : PEF         
 RHOB       .G/C3                      : Density     
 LITH       .                          : LITH        Lithology Curve
~A  DEPTH     BS       CAL        GR      SP_MV      DRES      MRES      SRES      DRHO      NPHI      PEF       RHOB      LITH   
# ...
11749.5092   12.2500   14.2984   52.2082 -999.0000   12.6278   10.9639    5.6698    0.0049    0.1752    4.1722    2.6800   22.0000 
11750.0092   12.2500   14.2752   48.7216 -999.0000   13.3552   11.3298    5.7396    0.0005    0.1310    3.7595    2.5329   27.0000 
11750.5092   12.2500   14.2752   37.7990 -999.0000   14.7683   11.9638    5.9899    0.0000    0.1035    3.5000    2.5233   27.0000 
11751.0092   12.2500   14.2752   37.8201 -999.0000   15.5359   12.6079    5.9956   -0.0019    0.0913    3.3088    2.5256   27.0000 
11751.5092   12.2500   14.2752   34.3414 -999.0000   15.6641   12.7711    5.9306   -0.0003    0.0939    3.2262    2.5375   27.0000 
11752.0092   12.2500   14.2752   41.2280 -999.0000   15.2722   12.4551    5.8917    0.0024    0.1025    3.2089    2.5385   27.0000 
11752.5092   12.2500   14.2752   33.1878 -999.0000   14.2757   11.9618    5.8232    0.0033    0.1033    3.1989    2.5274   27.0000 
11753.0092   12.2500   14.2868   41.5665 -999.0000   13.6377   11.2792    5.6153    0.0019    0.0969    3.1292    2.5073   27.0000 
11753.5092   12.2500   14.2752   42.6766 -999.0000   11.6654    9.6606    5.3633   -0.0009    0.0980    3.0472    2.4859   27.0000 
11754.0092   12.2500   14.2984   46.7341 -999.0000   10.3496    8.9624    5.3474   -0.0032    0.1083    3.1653    2.4912   27.0000 
11754.5092   12.2500   14.3217   50.5188 -999.0000    7.5806    6.6415    4.7197   -0.0026    0.1179    3.5865    2.4877   27.0000 
11755.0092   12.2500   14.3217   46.7443 -999.0000    2.8724    2.6875    2.5463    0.0025    0.1412    4.0224    2.2999   11.0000 
11755.5092   12.2500   14.9145   59.9634 -999.0000    4.7601    4.4893    3.8414    0.0075    0.1744    4.0937    2.5773   22.0000 
11756.0092   12.2500   14.4379   52.5053 -999.0000    7.3611    7.2362    4.8754    0.0059    0.1705    3.7279    2.4559   22.0000 
11756.5092   12.2500   14.3914   40.9970 -999.0000    7.6650    7.8378    4.8801   -0.0005    0.1417    3.3435    2.4763   22.0000 
11757.0092   12.2500   14.4146   37.5156 -999.0000    8.1919    8.3614    4.8671   -0.0069    0.1256    3.1745    2.4438   27.0000 
11757.5092   12.2500   14.4146   34.6395 -999.0000    8.5620    8.7309    4.9990   -0.0073    0.1245    3.1831    2.4292   27.0000 
11758.0092   12.2500   14.4146   45.5741 -999.0000    8.9130    9.0275    5.1858   -0.0051    0.1289    3.2775    2.4522   27.0000 
11758.5092   12.2500   14.4146   45.8518 -999.0000    9.0249    9.0623    5.2983   -0.0008    0.1405    3.5092    2.4806   27.0000 
11759.0092   12.2500   14.4379   82.2765 -999.0000    7.8786    7.5102    5.0812    0.0000    0.1806    3.8636    2.4631   37.0000 
11759.5092   12.2500   14.4611   97.2539 -999.0000    8.4111    7.7173    5.3428    0.0016    0.2194    4.1489    2.5631   37.0000 
11760.0092   12.2500   14.4146   92.2287 -999.0000   11.3057   10.4014    5.7776    0.0047    0.2193    4.2910    2.5546   37.0000 
11760.5092   12.2500   14.3914   47.3232 -999.0000   10.3986   10.4246    5.7701    0.0134    0.1731    4.3134    2.7237   37.0000 
11761.0092   12.2500   14.3449   63.8135 -999.0000    7.0773    7.4519    5.2565    0.0157    0.1662    4.2672    2.6224   37.0000 
11761.5092   12.2500   14.4379   70.7069 -999.0000    6.6059    7.0345    5.3460    0.0132    0.1808    4.1488    2.5904   37.0000 
11762.0092   12.2500   14.4844   71.4935 -999.0000    6.7504    7.2047    5.3569    0.0070    0.2114    3.9905    2.5762   37.0000 
11762.5092   12.2500   14.4611   91.7717 -999.0000    6.9822    7.4903    5.2672    0.0030    0.2127    3.8680    2.5491   37.0000 
11763.0092   12.2500   14.4844   90.3726 -999.0000    7.3687    7.8249    5.3044    0.0010    0.1960    3.8103    2.5452   37.0000 
11763.5092   12.2500   14.4844  101.0138 -999.0000    7.8286    8.3405    5.3151   -0.0010    0.1897    3.8840    2.5957   37.0000 
11764.0092   12.2500   14.4379   71.4857 -999.0000   10.7505   11.0902    5.8349    0.0008    0.1960    4.1073    2.6486   37.0000 
11764.5092   12.2500   14.4146   62.6500 -999.0000   13.1579   12.7322    5.8424    0.0026    0.1882    4.3251    2.7282   37.0000 
11765.0092   12.2500   14.4379   56.8526 -999.0000    8.4877    8.2326    5.3603    0.0028    0.1742    4.3062    2.5132   37.0000 
11765.5092   12.2500   14.4844   75.3520 -999.0000    7.5191    7.1422    5.1796   -0.0011    0.1725    4.0426    2.5965   37.0000 
11766.0092   12.2500   14.5076   79.0480 -999.0000    7.2890    6.7940    5.1388   -0.0046    0.1775    3.6727    2.5783   36.0000 
11766.5092   12.2500   14.5309   76.3958 -999.0000    7.2315    6.7745    5.0717   -0.0051    0.1837    3.3784    2.5182   36.0000 
11767.0092   12.2500   14.5309   76.1848 -999.0000    7.4437    6.9361    5.0156   -0.0024    0.1704    3.1652    2.5241   36.0000 
11767.5092   12.2500   14.5076   53.4069 -999.0000    8.9018    8.1973    5.2446   -0.0012    0.1571    3.0811    2.5180   36.0000 
11768.0092   12.2500   14.5076   52.2015 -999.0000   10.4033    9.4440    5.4786   -0.0018    0.1343    3.0733    2.4943   27.0000 
11768.5092   12.2500   14.4611   42.9525 -999.0000   11.3287   10.0925    5.5510   -0.0047    0.1166    3.1274    2.4799   27.0000 
11769.0092   12.2500   14.4844   47.0356 -999.0000   12.3598   10.7316    5.6414   -0.0067    0.1119    3.1843    2.4962   27.0000 
11769.5092   12.2500   14.4611   43.8812 -999.0000   12.5852   10.6886    5.7311   -0.0078    0.1118    3.2385    2.5072   27.0000 
11770.0092   12.2500   14.4611   45.5988 -999.0000   12.1570   10.1167    5.6836   -0.0081    0.1141    3.2397    2.4936   27.0000 
11770.5092   12.2500   14.4844   42.9290 -999.0000   11.4408    9.4318    5.4872   -0.0070    0.1185    3.1651    2.4993   27.0000 
11771.0092   12.2500   14.5076   43.2890 -999.0000   10.6444    8.7375    5.4058   -0.0046    0.1191    3.0507    2.5054   27.0000 
11771.5092   12.2500   14.5309   39.2594 -999.0000   10.0698    8.3403    5.3425   -0.0036    0.1285    2.9833    2.4935   27.0000 
11772.0092   12.2500   14.5309   49.5906 -999.0000    9.1938    7.7105    5.1451   -0.0031    0.1206    2.9452    2.4807   27.0000 
11772.5092   12.2500   14.5657   43.8484 -999.0000    8.7367    7.4942    5.1378   -0.0044    0.1182    2.9221    2.4682   27.0000 
11773.0092   12.2500   14.5541   35.7959 -999.0000    8.6160    7.5681    5.0721   -0.0046    0.1098    2.8625    2.4608   27.0000 
11773.5092   12.2500   14.5890   47.9039 -999.0000    8.5916    7.6924    5.0544   -0.0074    0.1059    2.8332    2.4500   27.0000 
11774.0092   12.2500   14.5774   52.4917 -999.0000    8.4146    7.6794    5.0798   -0.0094    0.1167    2.8063    2.4433   27.0000 
11774.5092   12.2500   14.5890   51.9122 -999.0000    8.1785    7.5979    4.9913   -0.0084    0.1232    2.7865    2.4517   27.0000 
11775.0092   12.2500   14.5774   49.6526 -999.0000    8.0620    7.6054    5.0254   -0.0046    0.1261    2.7557    2.4766   27.0000 
11775.5092   12.2500   14.6006   48.4858 -999.0000    8.0043    7.6394    4.9913   -0.0002    0.1245    2.7541    2.4862   27.0000 
11776.0092   12.2500   14.5890   60.3436 -999.0000    8.0782    7.7945    5.0399    0.0003    0.1283    2.7897    2.4967   27.0000 
11776.5092   12.2500   14.6006   53.6428 -999.0000    8.1913    7.9178    5.1099   -0.0013    0.1197    2.8836    2.4544   27.0000 
11777.0092   12.2500   14.5890   47.0426 -999.0000    8.3440    8.1420    5.2094   -0.0046    0.1192    2.9935    2.4722   27.0000 
11777.5092   12.2500   14.5774   49.9463 -999.0000    8.8953    8.7116    5.4693   -0.0040    0.1220    3.0415    2.4900   36.0000 
11778.0092   12.2500   14.6122   49.3565 -999.0000    9.2904    9.0855    5.4879   -0.0027    0.1257    3.0571    2.5079   36.0000 
11778.5092   12.2500   14.6006   49.3082 -999.0000    9.1743    8.9069    5.4435   -0.0009    0.1306    3.0731    2.5148   36.0000 
11779.0092   12.2500   14.6122   61.4649 -999.0000    9.2907    8.9475    5.5233   -0.0010    0.1242    3.2195    2.5398   36.0000 
11779.5092   12.2500   14.6006   50.5173 -999.0000   10.7260   10.2317    5.6705    0.0009    0.1206    3.5319    2.6104   36.0000 
