~VERSION INFORMATION
 VERS.                 2.0:   CWLS LOG ASCII STANDARD - VERSION 2.0
 WRAP.                  NO:   SINGLE LINE PER DEPTH STEP
 CREA.                 20/03/2018 14:58:23
#CREATED USING DSPetro VERSION 5000.10.1.3 BY H191660 ON 20/03/2018 14:58:23
~WELL INFORMATION
#MNEM.UNIT       DATA                          DESCRIPTION MNEMONIC
#---------      ---------------------------   --------------------------
 STRT    .FT        128.0000                  : START DEPTH
 STOP    .FT        12500.0000                : STOP DEPTH
 STEP    .FT        0.5000                    : STEP VALUE
 NULL    .      -999.0000                     : NULL VALUE
 DATE    .      20/03/2018                    : LAS file Creation Date
 WELL  .      UNIVERSITY_40_16_4247536999  : Well Name
 COMP  .      Neftex Exploration Insights  : Company
 FLD   .      PHANTOM (WOLFCAMP)           : Field
 STATE .      Texas                        : State
 COUNT .      USA                          : Country
 API   .      42475369990000               : API Number
 UWI   .      222                          : Unique Well Identifier (UWI)
 LOC   .      1980FNL x 1757FWL            : Location
 TOWN  .      16                           : Township
 SCT   .      40                           : Section
 RANG  .      U39                          : Range
 LATI  .      -6470541.88                  : Latitude/Northing
 LONG  .      783810.27                    : Longitude/Easting
 PDAT  .      GL                           : Permanent Datum
 EPDAT .      2604.000000                  : Reference Elevation
 LGMEA .      KB                           : Log Measured from
 DRMEA .      KB                           : Drill Measured From
 APDAT .      25.000000                    : Elevation Above Permanent Datum
 KB    .      2629.00000                   : KB Elevation
 GL    .      2604.00000                   : GL Elevation
 RWS   .      -999                         : Def_Rw
 WST   .      -999                         : Def_Rwt
 CNTY  .      WARD                         : County
 SRVC  .      Diversified Well Logging LLC : Contractor
~CURVE INFORMATION
#MNEM              UNIT       API CODE   Curve Type Comments
#----------  --------------- ----------  ---------- -----------
 DEPTH      .FT                        : Depth       
 BS         .inch                      : BitSize     
 DCAL_INCH  .inch                      :             Differential Caliper - Evaluates the difference between the actual borehole diameter and bit size
 GR         .GAPI                      : GammaRay    Gamma Ray {F11.4}
 LLD_OHMM   .ohmm                      :             Laterlog Deep Resistivity - Measurement made several feet into the formation; generally considered a measurement of the undisturbed formation
 LLM_OHMM   .ohm.m                     :             Laterlog Medium Resistivity - Measurement made approximately two to three feet into the formation - units of ohmm
 LLS_OHMM   .ohmm                      :             Laterlog Shallow Resistivity - one to two feet into the formation; generally considered to measure the formation
 NPHI_RATIO .ratio                     :             Neutron Porosity - Measured with an neutron logging device calibrated to a given matrix (limestone, sandstone and dolomite)
 PEF_B_E    .b/e-                      : PEF         Photoelectric Factor - A log of photoelectric absorption properties. Often expressed in an approximation unit barns/electron (b/e-)
 RHOZ_G_CC  .g/cc                      :             Formation Density - Measures the density of formation, including any void space or other materials contained in the subject volume
 LITH       .                          : LITH        Lithology Curve
~A  DEPTH     BS    DCAL_INC~     GR     LLD_OHMM  LLM_OHMM  LLS_OHMM NPHI_RAT~  PEF_B_E  RHOZ_G_C~    LITH   
# ...
2194.5000 -999.0000   -6.0268    9.5201    0.0025    0.0075    0.0089    0.5052    9.9678    2.1521    3.0000 
2195.0000 -999.0000   -6.0046   10.5711    0.0031    0.0084    0.0104    0.4224   10.0000    2.1901    3.0000 
2195.5000 -999.0000   -6.0268   10.3308    0.0028    0.0078    0.0095    0.3526   10.0000    2.2132    3.0000 
2196.0000 -999.0000   -6.0157   11.1717    0.0029    0.0082    0.0100    0.3771    9.9952    2.2101    3.0000 
2196.5000 -999.0000   -6.0268   10.5711    0.0026    0.0077    0.0093    0.3697    9.9140    2.1888    3.0000 
2197.0000 -999.0000   -6.0268    9.0697    0.0024    0.0074    0.0088    0.3489   10.0000    2.1706    3.0000 
2197.5000 -999.0000   -6.0268    8.1086    0.0025    0.0071    0.0084    0.2858    9.9866    2.1654    3.0000 
2198.0000 -999.0000   -6.0268    7.2376    0.0025    0.0075    0.0090    0.2966   10.0000    2.1680    3.0000 
2198.5000 -999.0000   -6.0157    9.7602    0.0020    0.0064    0.0073    0.3445    9.9826    2.1664    3.0000 
2199.0000 -999.0000   -6.0046   10.9616    0.0021    0.0070    0.0079    0.3581    9.9769    2.1590    3.0000 
2199.5000 -999.0000   -6.0046   11.8025    0.0017    0.0065    0.0075    0.3768   10.0000    2.1593    3.0000 
2200.0000 -999.0000   -6.0268   10.7514    0.0028    0.0080    0.0096    0.3424   10.0000    2.1606    3.0000 
2200.5000 -999.0000   -6.0046    9.3099    0.0027    0.0079    0.0094    0.3246    9.9250    2.1630    3.0000 
2201.0000 -999.0000   -6.0268    8.4689    0.0032    0.0079    0.0094    0.2815   10.0000    2.1607    3.0000 
2201.5000 -999.0000   -6.0046    9.2197    0.0028    0.0081    0.0098    0.2423    9.9326    2.1647    3.0000 
2202.0000 -999.0000   -6.0268    8.9494    0.0038    0.0088    0.0107    0.2508   10.0000    2.1691    3.0000 
2202.5000 -999.0000   -6.0046    7.8983    0.0029    0.0077    0.0092    0.2505   10.0000    2.1769    3.0000 
2203.0000 -999.0000   -6.0046    4.4147    0.0019    0.0065    0.0074    0.2910    9.9992    2.1811    3.0000 
2203.5000 -999.0000   -6.0046    5.4057    0.0030    0.0084    0.0102    0.2988    9.9159    2.1840    3.0000 
2204.0000 -999.0000   -6.0046    6.6671    0.0026    0.0078    0.0095    0.3202   10.0000    2.1849    3.0000 
2204.5000 -999.0000   -6.0268    8.7092    0.0026    0.0073    0.0086    0.3273   10.0000    2.1847    3.0000 
2205.0000 -999.0000   -6.0268    9.1896    0.0022    0.0071    0.0085    0.3125    9.9790    2.1842    3.0000 
2205.5000 -999.0000   -6.0268    8.3487    0.0022    0.0074    0.0089    0.3303    9.9667    2.1836    3.0000 
2206.0000 -999.0000   -6.0046    8.5890    0.0028    0.0076    0.0092    0.3564   10.0000    2.1815    3.0000 
2206.5000 -999.0000   -6.0268    7.9583    0.0020    0.0067    0.0076    0.4259    9.9717    2.1738    3.0000 
2207.0000 -999.0000   -6.0157    8.5890    0.0021    0.0073    0.0088    0.4426   10.0000    2.1687    3.0000 
2207.5000 -999.0000   -6.0046    7.3878    0.0026    0.0080    0.0099    0.4437    9.9477    2.1731    3.0000 
2208.0000 -999.0000   -6.0268    6.5470    0.0028    0.0080    0.0096    0.4086    9.9478    2.1836    3.0000 
2208.5000 -999.0000   -6.0268    5.9764    0.0024    0.0075    0.0089    0.3741    9.9992    2.1930    3.0000 
2209.0000 -999.0000   -6.0046    6.3667    0.0023    0.0075    0.0090    0.3588   10.0000    2.1939    3.0000 
2209.5000 -999.0000   -6.0046    5.9463    0.0023    0.0077    0.0093    0.3912    9.9546    2.1981    3.0000 
2210.0000 -999.0000   -6.0046    6.9074    0.0031    0.0083    0.0101    0.4008    9.9801    2.2027    3.0000 
2210.5000 -999.0000   -6.0157    8.7993    0.0028    0.0085    0.0104    0.4134    9.9839    2.2067    3.0000 
2211.0000 -999.0000   -6.0046   13.0938    0.0025    0.0081    0.0096    0.3796   10.0000    2.2101    3.0000 
2211.5000 -999.0000   -6.0268   13.7544    0.0011    0.0067    0.0079    0.4404    9.9655    2.2055    3.0000 
2212.0000 -999.0000   -6.0157   15.0158    0.0011    0.0074    0.0091    0.5191   10.0000    2.1985    3.0000 
2212.5000 -999.0000   -6.0268   12.6133    0.0009    0.0072    0.0087    0.6409    9.9394    2.1997    3.0000 
2213.0000 -999.0000   -6.0046   11.7725    0.0003    0.0064    0.0076    0.6343    9.9968    2.2291    3.0000 
2213.5000 -999.0000   -6.0046   12.0728    0.0006    0.0067    0.0080    0.6173    9.9470    2.2677    3.0000 
2214.0000 -999.0000   -6.0046   12.4933    0.0014    0.0080    0.0097    0.4872    9.9999    2.3080    3.0000 
2214.5000 -999.0000   -6.0268   14.5956    0.0009    0.0071    0.0085    0.5082   10.0000    2.3080    3.0000 
2215.0000 -999.0000   -6.0046   13.6344    0.0003    0.0064    0.0076    0.4670    9.9312    2.3059    3.0000 
2215.5000 -999.0000   -6.0268   13.8446    0.0008    0.0073    0.0088    0.4829   10.0000    2.2902    3.0000 
2216.0000 -999.0000   -6.0268   12.4029    0.0020    0.0086    0.0107    0.4198   10.0000    2.2996    3.0000 
2216.5000 -999.0000   -6.0268   10.7512    0.0024    0.0092    0.0114    0.3313    9.9864    2.2891    3.0000 
2217.0000 -999.0000   -6.0268   10.1206    0.0000    0.0061    0.0070    0.2515    9.9582    2.2759    3.0000 
2217.5000 -999.0000   -6.0046    9.8804    0.0013    0.0077    0.0095    0.2024    9.9803    2.2550    3.0000 
2218.0000 -999.0000   -6.0046    7.9885    0.0016    0.0080    0.0100    0.1888    9.9727    2.2522    3.0000 
2218.5000 -999.0000   -6.0046    6.7271 100000.0000    0.0053    0.0061    0.2006   10.0000    2.2549    3.0000 
2219.0000 -999.0000   -6.0046    4.5648    0.0009    0.0072    0.0089    0.2030   10.0000    2.2602    3.0000 
2219.5000 -999.0000   -6.0046    6.2466    0.0017    0.0084    0.0105    0.2260    9.9713    2.2678    3.0000 
2220.0000 -999.0000   -6.0268    6.0665    0.0010    0.0076    0.0094    0.2498    9.9471    2.2732    3.0000 
2220.5000 -999.0000   -6.0268    6.9674 100000.0000    0.0058    0.0068    0.2426    9.9718    2.2757    3.0000 
2221.0000 -999.0000   -6.0046    6.3367    0.0009    0.0074    0.0090    0.2468   10.0000    2.2754    3.0000 
2221.5000 -999.0000   -6.0046    6.5769    0.0006    0.0070    0.0085    0.2287   10.0000    2.2745    3.0000 
2222.0000 -999.0000   -6.0046    5.7360    0.0012    0.0078    0.0095    0.2540    9.9503    2.2760    3.0000 
2222.5000 -999.0000   -6.0046    6.7871    0.0020    0.0090    0.0111    0.2505   10.0000    2.2812    3.0000 
2223.0000 -999.0000   -6.0268    7.5679    0.0021    0.0090    0.0112    0.2628    9.9867    2.2841    3.0000 
2223.5000 -999.0000   -6.0268   13.0337    0.0011    0.0078    0.0096    0.2746   10.0000    2.2822    3.0000 
2224.0000 -999.0000   -6.0046   15.6764    0.0000    0.0065    0.0079    0.3239   10.0000    2.2795    3.0000 
2224.5000 -999.0000   -6.0268   21.3524    0.0005    0.0070    0.0085    0.3404    9.9284    2.2818    3.0000 
2225.0000 -999.0000   -6.0268   22.3133    0.0010    0.0077    0.0095    0.3815    9.9933    2.2868    3.0000 
2225.5000 -999.0000   -6.0046   18.6195    0.0007    0.0073    0.0090    0.3824    9.9799    2.2849    3.0000 
2226.0000 -999.0000   -6.0046   11.8925    0.0002    0.0065    0.0077    0.3801   10.0000    2.2873    3.0000 
2226.5000 -999.0000   -6.0268    6.3667    0.0006    0.0073    0.0088    0.3174    9.9844    2.2892    3.0000 
2227.0000 -999.0000   -6.0046    6.1565    0.0015    0.0083    0.0104    0.2626    9.9877    2.2967    3.0000 
2227.5000 -999.0000   -6.0046    5.9462    0.0017    0.0084    0.0104    0.2410   10.0000    2.2978    3.0000 
2228.0000 -999.0000   -6.0268    5.6760    0.0006    0.0071    0.0086    0.2381    9.9869    2.2976    3.0000 
2228.5000 -999.0000   -6.0268    5.8862    0.0007    0.0072    0.0085    0.2219   10.0000    2.2961    3.0000 
2229.0000 -999.0000   -6.0268    6.6070    0.0014    0.0083    0.0104    0.2049    9.9914    2.2956    3.0000 
2229.5000 -999.0000   -6.0268    7.6582    0.0012    0.0081    0.0100    0.2236    9.9575    2.2979    3.0000 
2230.0000 -999.0000   -6.0268    6.8172    0.0008    0.0074    0.0090    0.2500   10.0000    2.3019    3.0000 
2230.5000 -999.0000   -6.0157    6.3367    0.0004    0.0068    0.0082    0.2811    9.9596    2.3077    3.0000 
