~VERSION INFORMATION
 VERS.                 2.0:   CWLS LOG ASCII STANDARD - VERSION 2.0
 WRAP.                  NO:   SINGLE LINE PER DEPTH STEP
 CREA.                 20/03/2018 14:55:32
#CREATED USING DSPetro VERSION 5000.10.1.3 BY H191660 ON 20/03/2018 14:55:32
~WELL INFORMATION
#MNEM.UNIT       DATA                          DESCRIPTION MNEMONIC
#---------      ---------------------------   --------------------------
 STRT    .FT        10799.4984                : START DEPTH
 STOP    .FT        13010.9983                : STOP DEPTH
 STEP    .FT        0.5000                    : STEP VALUE
 NULL    .      -999.0000                     : NULL VALUE
 DATE    .      20/03/2018                    : LAS file Creation Date
 WELL  .      UNIVERSITY_21-17             : Well Name
 COMP  .      Neftex Exploration Insights  : Company
 FLD   .                                   : Field
 STATE .      Texas                        : State
 API   .      42475370100000               : API Number
 UWI   .      213                          : Unique Well Identifier (UWI)
 LOC   .                                   : Location
 LATI  .      -6235758.22                  : Latitude/Northing
 LONG  .      777123.41                    : Longitude/Easting
 RWS   .      -999                         : Def_Rw
 WST   .      -999                         : Def_Rwt
 CNTY  .      WARD                         : County
 SRVC  .      Diversified Well Logging LLC : Contractor
~CURVE INFORMATION
#MNEM              UNIT       API CODE   Curve Type Comments
#----------  --------------- ----------  ---------- -----------
 DEPTH      .FT                        : Depth       
 DCAL_INCH  .inch                      :             Differential Caliper - Evaluates the difference between the actual borehole diameter and bit size
 GR_API     .API                       : GammaRay    Gamma Ray (API) - Measures the intensity of natural gamma-ray radiation emitted from formations containing radioactive elements, such as K, Th and U
 CGR_API    .API                       : GammaRay    Corrected / Computed Gamma Ray - Radiation with the Uranium component removed. Also known as a 'carbonate gamma ray'
 K_per        .PC                        :             Potassium Abundance (SGR) - The quantitative elemental abundace of Potassium derived from the Spectral Gamma Ray Log. Also wt_%
 TH_PPM     .ppm                       : Spectral    Thorium Abundance (SGR) - The quantitative elemental abundace of Thorium derived from the Spectral Gamma Ray Log
 U_PPM      .ppm                       :             Uranium Abundance (SGR) - The quantitative elemental abundace of Uranium derived from the Spectral Gamma Ray Log
 RD_OHMM    .ohmm                      :             Unspecified Deep Resistivity - No accroynm or method of attainment is specified - units of ohmm
 RM_OHMM    .ohm.m                     :             Unspecified Medium Resistivity - No accroynm or method of attainment is specified
 MSFL_OHMM  .ohmm                      :             Micro-Spherically Focused Log - Measurement involves only the first few inches of the formation immediately adjacent to the borehole
 NPHI_RATIO .ratio                     :             Neutron Porosity - Measured with an neutron logging device calibrated to a given matrix (limestone, sandstone and dolomite)
 RHOZ_G_CC  .g/cc                      :             Formation Density - Measures the density of formation, including any void space or other materials contained in the subject volume
 PEF_B_E    .b/e-                      : PEF         Photoelectric Factor - A log of photoelectric absorption properties. Often expressed in an approximation unit barns/electron (b/e-)
 LITH       .                          : LITH        Lithology Curve
~A  DEPTH DCAL_INC~   GR_API   CGR_API     K_per      TH_PPM    U_PPM    RD_OHMM   RM_OHMM  MSFL_OHM~ NPHI_RAT~ RHOZ_G_C~  PEF_B_E     LITH   
# ...
10941.9984    0.0315   57.1065   34.4561    0.8174    6.3102    3.3401    0.0245    0.0020    0.0199    0.1817    4.4947   10.0000   11.0000 
10942.4984    0.0422   52.7136   32.1189    0.7586    5.9018    3.5604    0.0265    0.0050    0.0195    0.1837    4.4819   10.0000   11.0000 
10942.9984    0.0530   54.5160   36.8942    0.8581    6.8567    3.3483    0.0285    0.0064    0.0221    0.1986    4.4586   10.0000   11.0000 
10943.4984    0.0386   52.3759   39.2406    0.9599    7.0172    3.2288    0.0277    0.0072    0.0232    0.2052    4.4463   10.0000   11.0000 
10943.9984    0.0315   54.4035   41.5612    1.0131    7.4529    3.0358    0.0294    0.0094    0.0195    0.1960    4.4906   10.0000   11.0000 
10944.4984    0.0099   55.3043   39.7519    0.9917    6.9958    2.8930    0.0259    0.0052    0.0240    0.1980    4.5568   10.0000   11.0000 
10944.9984    0.0207   58.2332   38.6364    0.9637    6.7996    2.8035    0.0258    0.0052    0.0271    0.2277    4.6165   10.0000   11.0000 
10945.4984    0.0207   60.8096   37.7935    0.9200    6.7840    2.6601    0.0290    0.0081    0.0226    0.2371    4.6288   10.0000   11.0000 
10945.9984    0.0315   59.1202   35.8230    0.8792    6.3888    2.5251    0.0281    0.0048    0.0219    0.2132    4.6288   10.0000   11.0000 
10946.4984    0.0386   54.8399   37.4240    0.9045    6.7563    2.3526    0.0290    0.0083    0.0201    0.1874    4.6288   10.0000   11.0000 
10946.9984    0.0386   54.7414   38.1000    0.9411    6.7591    2.3474    0.0264    0.0039    0.0237    0.1818    4.5980   10.0000   11.0000 
10947.4984    0.0386   56.3817   40.6785    0.9863    7.3257    2.5137    0.0259    0.0038    0.0259    0.1990    4.4098   10.0000   11.0000 
10947.9984    0.0243   58.0550   42.2477    0.9876    7.8230    1.9083    0.0262    1.0150    0.0202    0.1950    4.1573   10.0000   11.0000 
10948.4984    0.0315   55.7248   40.1440    0.9563    7.3296    2.3024    0.0076 99997.8047    0.0237    0.2087    3.9187   10.0000   11.0000 
10948.9984    0.0207   54.5633   41.0830    0.9351    7.7555    2.4765    0.0263    1.1938    0.0259    0.2105    3.8362   10.0000   11.0000 
10949.4984    0.0458   52.8901   42.6361    1.0058    7.8418    2.5987    0.0267    0.0060    0.0245    0.2213    3.8199   10.0000   11.0000 
10949.9984    0.0386   54.6571   42.3750    0.9808    7.9040    2.7327    0.0295    0.0100    0.0237    0.2292    3.8251   10.0000   11.0000 
10950.4984    0.0386   55.1922   41.7523    1.0031    7.5734    2.8523    0.0260    0.0061    0.0204    0.2292    3.8454   10.0000   11.0000 
10950.9984    0.0458   62.5976   42.6291    1.0644    7.4970    3.1171    0.0265    0.0057    0.0207    0.2310    3.8758   10.0000   11.0000 
10951.4984    0.0315   64.8503   43.9347    1.0842    7.8007    3.2784    0.0249    0.0052    0.0242    0.2328    3.9160   10.0000   11.0000 
10951.9984    0.0243   69.5811   42.7349    1.0452    7.6426    3.2533    0.0259    0.0057    0.0210    0.2323    3.9530   10.0000   11.0000 
10952.4984    0.0171   64.8293   40.6015    0.9913    7.2718    3.0662    0.0252    0.0059    0.0192    0.2313    3.9841   10.0000   11.0000 
10952.9984    0.0171   57.1701   35.4819    0.8881    6.2269    2.7156    0.0263    0.0060    0.0201    0.1909    4.0071   10.0000   11.0000 
10953.4984    0.0458   50.9748   29.2793    0.7670    4.9384    2.6794    0.0265    0.0063    0.0216    0.1626    4.0183   10.0000   11.0000 
10953.9984    0.0315   43.2524   25.2637    0.6842    4.1303    2.4140    0.0270    0.0063    0.0309    0.1366    4.0342   10.0000   11.0000 
10954.4984    0.0422   41.9007   23.1848    0.7010    3.3619    2.5811    0.0253    0.0055    0.0237    0.1392    4.0478   10.0000   11.0000 
10954.9984    0.0315   38.7469   22.8387    0.6853    3.3427    2.6566    0.0262    0.0056    0.0199    0.1473    4.0690   10.0000   11.0000 
10955.4984    0.0315   44.9418   24.8829    0.7825    3.4314    2.9866    0.0257    0.0059    0.0196    0.1537    4.0821   10.0000   11.0000 
10955.9984    0.0422   51.1369   28.3424    0.8445    4.1816    3.3323    0.0266    0.0066    0.0204    0.1958    4.0905   10.0000   11.0000 
10956.4984    0.0315   55.4170   31.1807    0.8817    4.8780    3.5277    0.0257    0.0055    0.0264    0.2331    4.0951   10.0000   11.0000 
10956.9984    0.0530   56.6560   30.3146    0.8700    4.6680    3.4302    0.0261    0.0062    0.0231    0.2437    4.0947   10.0000   11.0000 
10957.4984    0.0386   50.9116   26.6149    0.7499    4.1797    3.0958    0.0271    0.0059    0.0208    0.2007    4.1044   10.0000   11.0000 
10957.9984    0.0315   45.5053   24.0232    0.6389    3.9949    2.9449    0.0260    0.0063    0.0193    0.1703    4.1192   10.0000   11.0000 
10958.4984    0.0315   39.5354   21.9612    0.5752    3.7034    2.8270    0.0263    0.0061    0.0206    0.1581    4.1364   10.0000   11.0000 
10958.9984    0.0530   38.7470   23.7693    0.6024    4.1261    2.6617    0.0261    0.0061    0.0256    0.1652    4.1482   10.0000   11.0000 
10959.4984    0.0530   41.6752   22.9049    0.5300    4.2720    2.2255    0.0266    0.0063    0.0215    0.1662    4.1580   10.0000   11.0000 
10959.9984    0.0171   38.1838   19.8235    0.4254    3.8920    1.9667    0.0253    0.0056    0.0210    0.1658    4.1743   10.0000   11.0000 
10960.4984    0.0315   32.3197   15.2018    0.3340    2.9393    1.5428    0.0261    0.0060    0.0216    0.1499    4.1933   10.0000   11.0000 
10960.9984    0.0315   23.1962   13.7493    0.3217    2.5438    1.3641    0.0270    0.0067    0.0251    0.1271    4.2040   10.0000   11.0000 
10961.4984    0.0386   25.4488   16.9788    0.4313    2.9426    1.7493    0.0259    0.0056    0.0246    0.1152    4.1919   10.0000   11.0000 
10961.9984    0.0422   32.4392   22.0722    0.5911    3.6471    2.3934    0.0257    0.0054    0.0197    0.1302    4.1514   10.0000   11.0000 
10962.4984    0.0530   42.6820   27.1731    0.7044    4.6266    3.0155    0.0259    0.0052    0.0233    0.1457    4.0918   10.0000   11.0000 
10962.9984    0.0386   49.6658   31.5126    0.8705    5.0511    3.3396    0.0285    0.0072    0.0232    0.1708    4.0369   10.0000   11.0000 
10963.4984    0.0315   55.7691   31.7861    0.8931    5.0069    3.3921    0.0256    0.0060    0.0199    0.1907    3.9923   10.0000   11.0000 
10963.9984    0.0207   51.8339   29.5637    0.8234    4.6996    3.1795    0.0253    0.0059    0.0189    0.1957    3.9557   10.0000   11.0000 
10964.4984    0.0207   45.4134   21.8500    0.6341    3.3241    2.9878    0.0263    0.0052    0.0192    0.1668    3.9188   10.0000   11.0000 
10964.9984    0.0243   37.3953   20.2306    0.6321    2.8144    2.7947    0.0256    0.0060    0.0227    0.1296    3.8807   10.0000   11.0000 
10965.4984    0.0422   39.5355   22.1436    0.6758    3.1742    2.6507    0.0272    0.0060    0.0264    0.1431    3.8588   10.0000   11.0000 
10965.9984    0.0315   47.1947   27.1501    0.7955    4.0860    3.0991    0.0271    0.0072    0.0226    0.1808    3.8479   10.0000   11.0000 
10966.4984    0.0099   53.3896   31.3517    0.9092    4.7734    3.4728    0.0242    0.0049    0.0222    0.2047    3.8530   10.0000   11.0000 
10966.9984   -0.0008   55.8676   33.8595    0.9551    5.3125    3.7396    0.0260    0.0059    0.0209    0.1970    3.8626   10.0000   11.0000 
10967.4984   -0.0008   54.5090   34.9041    0.9699    5.5618    3.7857    0.0257    0.0055    0.0208    0.1986    3.8846   10.0000   11.0000 
10967.9984    0.0243   56.5367   36.0348    1.0137    5.6693    3.9340    0.0274    0.0084    0.0214    0.2116    3.9137   10.0000   11.0000 
10968.4984    0.0386   59.9155   35.8967    1.0309    5.5251    3.7913    0.0257    0.0052    0.0200    0.2120    3.9511   10.0000   11.0000 
10968.9984    0.0207   61.3941   35.0062    1.0277    5.2570    3.7920    0.0261    0.0054    0.0211    0.2112    3.9870   10.0000   11.0000 
10969.4984    0.0171   62.1826   34.9450    1.0391    5.1703    3.4472    0.0255    0.0054    0.0227    0.2119    4.0108   10.0000   11.0000 
10969.9984    0.0315   61.8169   39.6067    1.1576    5.9775    3.1573    0.0271    0.0064    0.0199    0.2145    4.0141   10.0000   11.0000 
