~VERSION INFORMATION
 VERS.                 2.0:   CWLS LOG ASCII STANDARD - VERSION 2.0
 WRAP.                  NO:   SINGLE LINE PER DEPTH STEP
 CREA.                 20/03/2018 14:44:45
#CREATED USING DSPetro VERSION 5000.10.1.3 BY H191660 ON 20/03/2018 14:44:45
~WELL INFORMATION
#MNEM.UNIT       DATA                          DESCRIPTION MNEMONIC
#---------      ---------------------------   --------------------------
 STRT    .FT        300.0092                  : START DEPTH
 STOP    .FT        12601.0092                : STOP DEPTH
 STEP    .FT        0.5000                    : STEP VALUE
 NULL    .      -999.0000                     : NULL VALUE
 DATE    .      20/03/2018                    : LAS file Creation Date
 WELL  .      UNIVERSITY_20_3_1_4230131346 : Well Name
 COMP  .      Chesapeake Operating, Inc.   : Company
 FLD   .      Haley                        : Field
 STATE .      Texas                        : State
 API   .      42-301-31346                 : API Number
 UWI   .      507                          : Unique Well Identifier (UWI)
 LOC   .      1320' FNL & 1320' FWL        : Location
 TOWN  .      20                           : Township
 SCT   .      3                            : Section
 RANG  .      University Lands             : Range
 PDAT  .      GROUND LEVEL                 : Permanent Datum
 EPDAT .      2800.000000                  : Reference Elevation
 LGMEA .      KELLY BUSHING                : Log Measured from
 DRMEA .      KELLY BUSHING                : Drill Measured From
 APDAT .      26.000000                    : Elevation Above Permanent Datum
 KB    .      2826.00000                   : KB Elevation
 GL    .      2800.00000                   : GL Elevation
 RWS   .      -999                         : Def_Rw
 WST   .      -999                         : Def_Rwt
 CNTY  .      Loving                       : County
 SRVC  .      Schlumberger                 : Contractor
~CURVE INFORMATION
#MNEM              UNIT       API CODE   Curve Type Comments
#----------  --------------- ----------  ---------- -----------
 DEPTH      .FT                        : Depth       
 BS         .inch                      : BitSize     
 CAL        .inch                      :             
 GR         .API                       : GammaRay    
 SP_MV      .mv                        : SP          Spontaneous Potential - Records the electrical potential produced by the interaction of formation water, conductive drilling mud, and certain ion-sele
 DRES       .OHMM                      :             
 MRES       .OHMM                      : MedRes      
 SRES       .OHMM                      : ShalRes     
 DRHO       .G/C3                      : Drho        
 NPHI       .CFCF                      : Neutron     
 PEF        .B/E                       : PEF         
 RHOB       .G/C3                      : Density     
 LITH       .                          : LITH        Lithology Curve
~A  DEPTH     BS       CAL        GR      SP_MV      DRES      MRES      SRES      DRHO      NPHI      PEF       RHOB      LITH   
# ...
12573.0092    8.5000    8.5000   37.5805  -76.8750   20.1525   17.3549    8.4469   -0.0229    0.2163    6.1920    2.3729   11.0000 
12573.5092    8.5000    8.5000   37.1824  -77.5000   22.1613   18.4440    8.4378   -0.0199    0.2012    6.2048    2.3675   11.0000 
12574.0092    8.5000    8.5000   36.6532  -78.1250   23.5915   19.4909    8.3720   -0.0140    0.2011    6.2214    2.3769   11.0000 
12574.5092    8.5000    8.5000   37.6792  -78.1250   24.0197   19.7255    8.3842   -0.0112    0.2011    6.2153    2.3742   11.0000 
12575.0092    8.5000    8.5000   42.1686  -78.7500   24.0419   19.8081    8.3601   -0.0150    0.2011    6.2345    2.3762   11.0000 
12575.5092    8.5000    8.5000   45.3825  -78.7500   24.4033   19.9323    8.2574   -0.0220    0.2011    6.2551    2.3628   11.0000 
12576.0092    8.5000    8.5000   45.3827  -78.7500   21.7829   18.1256 -999.0000   -0.0258    0.2011    6.3349    2.3624   11.0000 
12576.5092    8.5000    8.5000   40.6628  -78.7500   15.8653   13.5681 -999.0000   -0.0234    0.2012    6.4525    2.3715   11.0000 
12577.0092    8.5000    8.5000   37.3509  -78.7500   20.4249   17.8983 -999.0000   -0.0190    0.2011    6.6036    2.3680   11.0000 
12577.5092    8.5000    8.5000   40.2573  -78.1250   12.7365   16.9887 -999.0000   -0.0154    0.2011    6.7740    2.3743   11.0000 
12578.0092    8.5000    8.5000   40.4627  -78.1250   12.7355   17.0689 -999.0000   -0.0067    0.2011    6.9476    2.3730   11.0000 
12578.5092    8.5000    8.5000   41.9238  -78.1250   12.7348   16.4960 -999.0000    0.0059    0.2012    7.1000    2.3408   11.0000 
12579.0092    8.5000    8.5000   36.3495  -77.5000   12.7344 -999.0000 -999.0000    0.0231    0.2012    7.4362    2.3548   11.0000 
12579.5092    8.5000    8.5000   32.2899  -77.5000   12.7343 -999.0000 -999.0000    0.0332 -999.0000    8.1260    1.8893   11.0000 
12580.0092    8.5000    8.5000   27.1348  -77.5000   12.7340 -999.0000 -999.0000    0.0489 -999.0000 -999.0000    2.0264   11.0000 
12580.5092    8.5000    8.5000   27.9796  -77.5000   12.7337 -999.0000 -999.0000 -999.0000 -999.0000 -999.0000    2.1248   11.0000 
12581.0092    8.5000    8.5000   32.6546  -77.5000   12.7340 -999.0000 -999.0000 -999.0000 -999.0000 -999.0000    2.0758   11.0000 
12581.5092    8.5000    8.5000   38.6059  -77.5000   12.7341 -999.0000 -999.0000 -999.0000 -999.0000 -999.0000    2.0241   11.0000 
12582.0092    8.5000    8.5000   38.1950  -77.5000   12.7343 -999.0000 -999.0000 -999.0000 -999.0000 -999.0000    2.0275   11.0000 
12582.5092    8.5000    8.5000   37.5793  -77.5000   12.7344 -999.0000 -999.0000 -999.0000 -999.0000 -999.0000    2.0854   11.0000 
12583.0092    8.5000    8.5000   39.4262  -76.2501   12.7348 -999.0000 -999.0000 -999.0000 -999.0000 -999.0000    2.0318   11.0000 
12583.5092    8.5000    8.5000   41.2633  -76.2500   12.7352 -999.0000 -999.0000 -999.0000 -999.0000 -999.0000    1.9461   11.0000 
12584.0092    8.5000    8.5000   43.3303  -75.6250   12.7359 -999.0000 -999.0000 -999.0000 -999.0000 -999.0000    1.8786   11.0000 
12584.5092    8.5000    8.5000   40.4574  -75.6250   12.7367 -999.0000 -999.0000 -999.0000 -999.0000 -999.0000    1.8333   11.0000 
12585.0092    8.5000    8.5000   40.9677  -75.0000   12.7374 -999.0000 -999.0000 -999.0000 -999.0000 -999.0000    1.8404   11.0000 
12585.5092    8.5000    8.5000   38.2972  -74.3750   12.7381 -999.0000 -999.0000 -999.0000 -999.0000 -999.0000    1.8091   11.0000 
12586.0092    8.5000    8.5000   40.1440  -73.7500   12.7387 -999.0000 -999.0000 -999.0000 -999.0000 -999.0000    1.7626   11.0000 
12586.5092    8.5000    8.5000   38.4013  -73.1250   12.7397 -999.0000 -999.0000 -999.0000 -999.0000 -999.0000    1.7026   11.0000 
12587.0092    8.5000    8.5000   36.3470  -72.5000   12.7407 -999.0000 -999.0000 -999.0000 -999.0000 -999.0000    1.6847   11.0000 
12587.5092    8.5000    8.5000   38.6043  -72.5000   12.7416 -999.0000 -999.0000 -999.0000 -999.0000 -999.0000    1.7012   11.0000 
12588.0092    8.5000    8.5000   36.5502  -71.8750   12.7421 -999.0000 -999.0000 -999.0000 -999.0000 -999.0000    1.7299   11.0000 
12588.5092    8.5000    8.5000   42.2702  -71.2500   12.7428 -999.0000 -999.0000 -999.0000 -999.0000 -999.0000    1.7462   11.0000 
12589.0092    8.5000    8.5000   39.6298  -70.6250   12.7439 -999.0000 -999.0000 -999.0000 -999.0000 -999.0000    1.7391   11.0000 
12589.5092    8.5000    8.5000   43.3133  -70.0000   12.7445 -999.0000 -999.0000 -999.0000 -999.0000 -999.0000    1.7559   11.0000 
12590.0092    8.5000    8.5000   42.5383  -69.3750   12.7455 -999.0000 -999.0000 -999.0000 -999.0000 -999.0000    1.7872   11.0000 
12590.5092    8.5000    8.5000   44.1771  -67.5001   12.7471 -999.0000 -999.0000 -999.0000 -999.0000 -999.0000    1.7997   11.0000 
12591.0092    8.5000    8.5000   46.0568  -66.2501   12.7504 -999.0000 -999.0000 -999.0000 -999.0000 -999.0000    1.8051   11.0000 
12591.5092    8.5000    8.5000   47.0265  -64.3751   12.7523 -999.0000 -999.0000 -999.0000 -999.0000 -999.0000    1.7967   11.0000 
12592.0092    8.5000    8.5000   46.1958  -62.5001   12.7538 -999.0000 -999.0000 -999.0000 -999.0000 -999.0000    1.8449   11.0000 
12592.5092    8.5000    8.5000   43.4953  -60.6251   12.7565 -999.0000 -999.0000 -999.0000 -999.0000 -999.0000    1.8673   11.0000 
12593.0092    8.5000    8.5000   42.3052  -58.7501   12.7605 -999.0000 -999.0000 -999.0000 -999.0000 -999.0000    1.8873   11.0000 
12593.5092    8.5000    8.5000   43.7430  -56.2501   12.7664 -999.0000 -999.0000 -999.0000 -999.0000 -999.0000    1.8764   11.0000 
12594.0092    8.5000    8.5000   49.0786  -53.7501   12.7716 -999.0000 -999.0000 -999.0000 -999.0000 -999.0000    1.8730   11.0000 
12594.5092    8.5000    8.5000   47.0120  -51.8751   12.7770 -999.0000 -999.0000 -999.0000 -999.0000 -999.0000    1.8756   11.0000 
12595.0092    8.5000    8.5000   42.9036  -48.7502   12.7840 -999.0000 -999.0000 -999.0000 -999.0000 -999.0000    1.8366   11.0000 
12595.5092    8.5000    8.5000   36.9487  -46.2501   12.7911 -999.0000 -999.0000 -999.0000 -999.0000 -999.0000    1.7823   11.0000 
12596.0092    8.5000    8.5000   34.9070  -43.1252   12.7983 -999.0000 -999.0000 -999.0000 -999.0000 -999.0000    1.7455   11.0000 
12596.5092    8.5000    8.5000   35.9339  -40.0002   12.8045 -999.0000 -999.0000 -999.0000 -999.0000 -999.0000    1.7452   11.0000 
12597.0092    8.5000    8.5000   38.2305  -37.5001   12.8102 -999.0000 -999.0000 -999.0000 -999.0000 -999.0000    1.7818   11.0000 
12597.5092    8.5000    8.5000   39.0639  -33.7502   12.8159 -999.0000 -999.0000 -999.0000 -999.0000 -999.0000    1.8086   11.0000 
12598.0092    8.5000    8.5000   38.8459  -30.0002   12.8140 -999.0000 -999.0000 -999.0000 -999.0000 -999.0000    1.8054   11.0000 
12598.5092    8.5000    8.5000   39.4413  -26.8752   12.8104 -999.0000 -999.0000 -999.0000 -999.0000 -999.0000    1.7968   11.0000 
12599.0092    8.5000    8.5000   38.4026  -22.5002   12.8053 -999.0000 -999.0000 -999.0000 -999.0000 -999.0000    1.8005   11.0000 
12599.5092    8.5000    8.5000   38.1974  -18.7502   12.7950 -999.0000 -999.0000 -999.0000 -999.0000 -999.0000    1.7954   11.0000 
12600.0092    8.5000    8.5000   37.6159  -15.0002   12.7843 -999.0000 -999.0000 -999.0000 -999.0000 -999.0000    1.8039   11.0000 
12600.5092    8.5000    8.5000   41.1080  -11.2502   12.7713 -999.0000 -999.0000 -999.0000 -999.0000 -999.0000    1.7920   11.0000 
12601.0092    8.5000    8.5000   42.5309   -6.8752   12.7572 -999.0000 -999.0000 -999.0000 -999.0000 -999.0000    1.7991   11.0000 
