~VERSION INFORMATION
 VERS.                 2.0:   CWLS LOG ASCII STANDARD - VERSION 2.0
 WRAP.                  NO:   SINGLE LINE PER DEPTH STEP
 CREA.                 20/03/2018 14:44:45
#CREATED USING DSPetro VERSION 5000.10.1.3 BY H191660 ON 20/03/2018 14:44:45
~WELL INFORMATION
#MNEM.UNIT       DATA                          DESCRIPTION MNEMONIC
#---------      ---------------------------   --------------------------
 STRT    .FT        300.0092                  : START DEPTH
 STOP    .FT        12601.0092                : STOP DEPTH
 STEP    .FT        0.5000                    : STEP VALUE
 NULL    .      -999.0000                     : NULL VALUE
 DATE    .      20/03/2018                    : LAS file Creation Date
 WELL  .      UNIVERSITY_20_3_1_4230131346 : Well Name
 COMP  .      Chesapeake Operating, Inc.   : Company
 FLD   .      Haley                        : Field
 STATE .      Texas                        : State
 API   .      42-301-31346                 : API Number
 UWI   .      507                          : Unique Well Identifier (UWI)
 LOC   .      1320' FNL & 1320' FWL        : Location
 TOWN  .      20                           : Township
 SCT   .      3                            : Section
 RANG  .      University Lands             : Range
 PDAT  .      GROUND LEVEL                 : Permanent Datum
 EPDAT .      2800.000000                  : Reference Elevation
 LGMEA .      KELLY BUSHING                : Log Measured from
 DRMEA .      KELLY BUSHING                : Drill Measured From
 APDAT .      26.000000                    : Elevation Above Permanent Datum
 KB    .      2826.00000                   : KB Elevation
 GL    .      2800.00000                   : GL Elevation
 RWS   .      -999                         : Def_Rw
 WST   .      -999                         : Def_Rwt
 CNTY  .      Loving                       : County
 SRVC  .      Schlumberger                 : Contractor
~CURVE INFORMATION
#MNEM              UNIT       API CODE   Curve Type Comments
#----------  --------------- ----------  ---------- -----------
 DEPTH      .FT                        : Depth       
 BS         .inch                      : BitSize     
 CAL        .inch                      :             
 GR         .API                       : GammaRay    
 SP_MV      .mv                        : SP          Spontaneous Potential - Records the electrical potential produced by the interaction of formation water, conductive drilling mud, and certain ion-sele
 DRES       .OHMM                      :             
 MRES       .OHMM                      : MedRes      
 SRES       .OHMM                      : ShalRes     
 DRHO       .G/C3                      : Drho        
 NPHI       .CFCF                      : Neutron     
 PEF        .B/E                       : PEF         
 RHOB       .G/C3                      : Density     
 LITH       .                          : LITH        Lithology Curve
~A  DEPTH     BS       CAL        GR      SP_MV      DRES      MRES      SRES      DRHO      NPHI      PEF       RHOB      LITH   
# ...
6043.5092   12.2500   14.7633   38.7491 -999.0000    1.6009    1.4198    1.2661   -0.0055    0.1984    2.7373    2.3505   27.0000 
6044.0092   12.2500   14.7401   41.2281 -999.0000    1.4747    1.3233    1.2034   -0.0046    0.2219    2.7376    2.3440   27.0000 
6044.5092   12.2500   14.7517   40.6500 -999.0000    1.5621    1.4056    1.2197   -0.0033    0.2149    2.7166    2.3816   27.0000 
6045.0092   12.2500   14.7401   38.3537 -999.0000    1.4025    1.2757    1.1671   -0.0034    0.2575    2.6655    2.3788   36.0000 
6045.5092   12.2500   14.7401   44.7588 -999.0000    1.4141    1.2862    1.1879   -0.0048    0.2586    2.6120    2.3702   27.0000 
6046.0092   12.2500   14.7401   48.9973 -999.0000    1.4797    1.3430    1.2094   -0.0045    0.2947    2.5653    2.3893   27.0000 
6046.5092   12.2500   14.7401   53.0286 -999.0000    1.3712    1.2435    1.1777   -0.0054    0.2849    2.5695    2.3538   36.0000 
6047.0092   12.2500   14.7517   52.7352 -999.0000    1.3260    1.2090    1.1630   -0.0046    0.2447    2.5704    2.3465   27.0000 
6047.5092   12.2500   14.7633   42.7564 -999.0000    1.4333    1.2955    1.1889   -0.0049    0.2438    2.5761    2.3823   27.0000 
6048.0092   12.2500   14.7633   51.0085 -999.0000    1.3677    1.2359    1.1680   -0.0051    0.2297    2.5750    2.4209   36.0000 
6048.5092   12.2500   14.7401   43.8095 -999.0000    1.3364    1.1987    1.1408   -0.0080    0.2398    2.5841    2.3621   27.0000 
6049.0092   12.2500   14.7866   43.0151 -999.0000    1.3930    1.2404    1.1491   -0.0072    0.2378    2.5590    2.3850   27.0000 
6049.5092   12.2500   14.8331   43.5244 -999.0000    1.3595    1.2065    1.1326   -0.0053    0.2448    2.5223    2.4122   36.0000 
6050.0092   12.2500   14.8331   47.8319 -999.0000    1.3427    1.1865    1.1329   -0.0025    0.2579    2.4953    2.3326   27.0000 
6050.5092   12.2500   14.8912   52.0538 -999.0000    1.3137    1.1596    1.1139   -0.0049    0.2645    2.5199    2.3425   27.0000 
6051.0092   12.2500   14.9261   47.6405 -999.0000    1.3689    1.1917    1.1188   -0.0065    0.2611    2.5370    2.3227   27.0000 
6051.5092   12.2500   14.9726   44.7175 -999.0000    1.4963    1.2993    1.1423   -0.0092    0.2495    2.5484    2.2962   27.0000 
6052.0092   12.2500   14.9726   39.8908 -999.0000    1.6672    1.4357    1.1888   -0.0087    0.2509    2.5443    2.3313   27.0000 
6052.5092   12.2500   14.9958   39.3282 -999.0000    1.7765    1.5175    1.2164   -0.0097    0.2618    2.5700    2.3329   27.0000 
6053.0092   12.2500   14.9958   46.3902 -999.0000    1.8609    1.5729    1.2283   -0.0119    0.2863    2.5719    2.3512   36.0000 
6053.5092   12.2500   15.0191   52.8067 -999.0000    1.7997    1.5158    1.2199   -0.0086    0.2855    2.5820    2.3511   36.0000 
6054.0092   12.2500   15.0423   37.8963 -999.0000    1.7473    1.4558    1.2024   -0.0068    0.2701    2.5971    2.3489   27.0000 
6054.5092   12.2500   15.0423   44.4360 -999.0000    1.7801    1.4713    1.2130   -0.0021    0.2316    2.6140    2.3599   27.0000 
6055.0092   12.2500   15.0423   39.8259 -999.0000    1.7229    1.4169    1.1865   -0.0047    0.2763    2.6102    2.3459   27.0000 
6055.5092   12.2500   15.0191   51.4231 -999.0000    1.5404    1.2749    1.1349   -0.0067    0.2995    2.6000    2.3450   36.0000 
6056.0092   12.2500   15.0191   49.5930 -999.0000    1.4923    1.2434    1.1282   -0.0065    0.3543    2.5934    2.3248   36.0000 
6056.5092   12.2500   14.9958   45.8426 -999.0000    1.5331    1.2770    1.1348   -0.0060    0.2878    2.5798    2.3288   27.0000 
6057.0092   12.2500   15.0191   45.9156 -999.0000    1.4770    1.2312    1.1078   -0.0064    0.2394    2.5615    2.3354   27.0000 
6057.5092   12.2500   14.9958   44.3618 -999.0000    1.4092    1.1740    1.0823   -0.0075    0.2045    2.5497    2.3183   27.0000 
6058.0092   12.2500   14.9726   39.7781 -999.0000    1.4000    1.1680    1.0941   -0.0073    0.2363    2.5602    2.3285   27.0000 
6058.5092   12.2500   14.9842   39.8384 -999.0000    1.4104    1.1768    1.1008   -0.0053    0.2647    2.5582    2.3472   27.0000 
6059.0092   12.2500   14.9726   34.5727 -999.0000    1.3955    1.1556    1.0889   -0.0051    0.2506    2.5604    2.3448   27.0000 
6059.5092   12.2500   14.9261   45.8376 -999.0000    1.3978    1.1531    1.0899   -0.0059    0.2372    2.5578    2.3698   27.0000 
6060.0092   12.2500   14.8796   47.5471 -999.0000    1.4592    1.1946    1.1049   -0.0067    0.2305    2.5790    2.3370   27.0000 
6060.5092   12.2500   14.8563   45.0637 -999.0000    1.5701    1.2761    1.1512   -0.0081    0.2194    2.5842    2.3423   27.0000 
6061.0092   12.2500   14.8331   48.1858 -999.0000    1.6306    1.3204    1.1755   -0.0087    0.2278    2.5967    2.3507   27.0000 
6061.5092   12.2500   14.8098   43.5341 -999.0000    1.6384    1.3180    1.1787   -0.0100    0.2686    2.5880    2.3444   27.0000 
6062.0092   12.2500   14.7866   40.7994 -999.0000    1.5627    1.2592    1.1625   -0.0072    0.3216    2.6082    2.3319   36.0000 
6062.5092   12.2500   14.7750   26.8255 -999.0000    1.5803    1.2707    1.1744   -0.0048    0.2458    2.6325    2.3639   27.0000 
6063.0092   12.2500   14.7401   45.8226 -999.0000    1.5632    1.2652    1.1806   -0.0013    0.2241    2.6569    2.3715   27.0000 
6063.5092   12.2500   14.7401   50.0201 -999.0000    1.5773    1.2787    1.1972    0.0000    0.1983    2.6542    2.3695   27.0000 
6064.0092   12.2500   14.6471   46.7707 -999.0000    1.5706    1.2825    1.2062    0.0014    0.2373    2.6091    2.3867   27.0000 
6064.5092   12.2500   14.5890   44.8278 -999.0000    1.5081    1.2351    1.1866   -0.0014    0.2279    2.5567    2.3599   27.0000 
6065.0092   12.2500   14.5774   38.0735 -999.0000    1.4393    1.1989    1.1170   -0.0015    0.2336    2.4879    2.3898   27.0000 
6065.5092   12.2500   14.5076   31.4683 -999.0000    1.3779    1.1651    1.0750   -0.0013    0.2357    2.4519    2.3641   27.0000 
6066.0092   12.2500   14.4844   36.3987 -999.0000    1.3780    1.1637    1.0686    0.0020    0.2310    2.4532    2.3339   27.0000 
6066.5092   12.2500   14.3682   36.0656 -999.0000    1.3684    1.1570    1.0501    0.0062    0.2467    2.4995    2.3035   27.0000 
6067.0092   12.2500   14.2752   34.6139 -999.0000    1.3134    1.1236    1.0306    0.0142    0.2214    2.5413    2.2901   27.0000 
6067.5092   12.2500   14.2635   34.7242 -999.0000    1.2858    1.1068    1.0236    0.0183    0.2209    2.5662    2.3060   27.0000 
6068.0092   12.2500   14.2752   49.2733 -999.0000    1.2889    1.1101    1.0397    0.0180    0.1967    2.5668    2.3066   27.0000 
6068.5092   12.2500   14.2519   31.4222 -999.0000    1.3451    1.1667    1.0952    0.0103    0.1982    2.5588    2.3269   27.0000 
6069.0092   12.2500   14.1589   47.0633 -999.0000    1.4563    1.2696    1.2099    0.0069    0.2102    2.5726    2.3608   27.0000 
6069.5092   12.2500   14.0194   53.5983 -999.0000    1.6350    1.4316    1.3550    0.0033    0.2048    2.5706    2.4276   27.0000 
6070.0092   12.2500   13.9265   44.3793 -999.0000    1.4001    1.2701    1.2669    0.0011    0.2087    2.5676    2.4157   27.0000 
6070.5092   12.2500   13.9265   32.8724 -999.0000    1.4426    1.3258    1.2943   -0.0025    0.2059    2.5381    2.3593   27.0000 
6071.0092   12.2500   13.9032   41.5647 -999.0000    1.5583    1.4484    1.3387   -0.0040    0.2046    2.5245    2.3807   27.0000 
6071.5092   12.2500   13.9032   40.9434 -999.0000    1.6436    1.5458    1.3886   -0.0051    0.2097    2.5513    2.3881   27.0000 
6072.0092   12.2500   13.8683   42.6526 -999.0000    1.7900    1.7032    1.4874   -0.0048    0.2258    2.6170    2.3904   27.0000 
6072.5092   12.2500   13.8567   42.1346 -999.0000    2.0416    1.9550    1.6396   -0.0040    0.1917    2.6951    2.3641   27.0000 
6073.0092   12.2500   13.8335   40.9434 -999.0000    2.1549    2.0785    1.6997   -0.0047    0.1672    2.7565    2.4492   27.0000 
6073.5092   12.2500   13.7637   40.9434 -999.0000    1.9700    1.9215    1.6594   -0.0155    0.1689    2.7625    2.4285   27.0000 
6074.0092   12.2500   13.7986   47.4368 -999.0000    1.9471    1.9002    1.6885   -0.0146    0.1788    2.7576    2.4342   27.0000 
