~VERSION INFORMATION
 VERS.                 2.0:   CWLS LOG ASCII STANDARD - VERSION 2.0
 WRAP.                  NO:   SINGLE LINE PER DEPTH STEP
 CREA.                 20/03/2018 14:55:32
#CREATED USING DSPetro VERSION 5000.10.1.3 BY H191660 ON 20/03/2018 14:55:32
~WELL INFORMATION
#MNEM.UNIT       DATA                          DESCRIPTION MNEMONIC
#---------      ---------------------------   --------------------------
 STRT    .FT        10799.4984                : START DEPTH
 STOP    .FT        13010.9983                : STOP DEPTH
 STEP    .FT        0.5000                    : STEP VALUE
 NULL    .      -999.0000                     : NULL VALUE
 DATE    .      20/03/2018                    : LAS file Creation Date
 WELL  .      UNIVERSITY_21-17             : Well Name
 COMP  .      Neftex Exploration Insights  : Company
 FLD   .                                   : Field
 STATE .      Texas                        : State
 API   .      42475370100000               : API Number
 UWI   .      213                          : Unique Well Identifier (UWI)
 LOC   .                                   : Location
 LATI  .      -6235758.22                  : Latitude/Northing
 LONG  .      777123.41                    : Longitude/Easting
 RWS   .      -999                         : Def_Rw
 WST   .      -999                         : Def_Rwt
 CNTY  .      WARD                         : County
 SRVC  .      Diversified Well Logging LLC : Contractor
~CURVE INFORMATION
#MNEM              UNIT       API CODE   Curve Type Comments
#----------  --------------- ----------  ---------- -----------
 DEPTH      .FT                        : Depth       
 DCAL_INCH  .inch                      :             Differential Caliper - Evaluates the difference between the actual borehole diameter and bit size
 GR_API     .API                       : GammaRay    Gamma Ray (API) - Measures the intensity of natural gamma-ray radiation emitted from formations containing radioactive elements, such as K, Th and U
 CGR_API    .API                       : GammaRay    Corrected / Computed Gamma Ray - Radiation with the Uranium component removed. Also known as a 'carbonate gamma ray'
 K_per        .PC                        :             Potassium Abundance (SGR) - The quantitative elemental abundace of Potassium derived from the Spectral Gamma Ray Log. Also wt_%
 TH_PPM     .ppm                       : Spectral    Thorium Abundance (SGR) - The quantitative elemental abundace of Thorium derived from the Spectral Gamma Ray Log
 U_PPM      .ppm                       :             Uranium Abundance (SGR) - The quantitative elemental abundace of Uranium derived from the Spectral Gamma Ray Log
 RD_OHMM    .ohmm                      :             Unspecified Deep Resistivity - No accroynm or method of attainment is specified - units of ohmm
 RM_OHMM    .ohm.m                     :             Unspecified Medium Resistivity - No accroynm or method of attainment is specified
 MSFL_OHMM  .ohmm                      :             Micro-Spherically Focused Log - Measurement involves only the first few inches of the formation immediately adjacent to the borehole
 NPHI_RATIO .ratio                     :             Neutron Porosity - Measured with an neutron logging device calibrated to a given matrix (limestone, sandstone and dolomite)
 RHOZ_G_CC  .g/cc                      :             Formation Density - Measures the density of formation, including any void space or other materials contained in the subject volume
 PEF_B_E    .b/e-                      : PEF         Photoelectric Factor - A log of photoelectric absorption properties. Often expressed in an approximation unit barns/electron (b/e-)
 LITH       .                          : LITH        Lithology Curve
~A  DEPTH DCAL_INC~   GR_API   CGR_API     K_per      TH_PPM    U_PPM    RD_OHMM   RM_OHMM  MSFL_OHM~ NPHI_RAT~ RHOZ_G_C~  PEF_B_E     LITH   
10799.4984 -999.0000 -999.0000 -999.0000 -999.0000 -999.0000 -999.0000 -999.0000 -999.0000 -999.0000 -999.0000 -999.0000 -999.0000 -999.0000 
10799.9984 -999.0000 -999.0000 -999.0000 -999.0000 -999.0000 -999.0000 -999.0000 -999.0000 -999.0000 -999.0000 -999.0000 -999.0000   11.0000 
10800.4984   -2.8974   37.8399   18.0086    0.3540    3.7259    1.9814    0.0263    0.0047    0.0243    0.1333    2.3991   10.0000   11.0000 
10800.9984   -2.8759   35.7139   18.8039    0.4022    3.6998    2.0876    0.0269    0.0051    0.0243    0.1446    2.4044   10.0000   11.0000 
10801.4984   -2.8831   41.2893   23.6217    0.5261    4.5258    2.5721    0.0265    0.0050    0.0243    0.1689    2.3966   10.0000   11.0000 
10801.9984   -2.8831   52.6574   29.5638    0.7331    5.2273    3.2873    0.0266    0.0051    0.0243    0.2055    2.3929   10.0000   11.0000 
10802.4984   -2.8831   62.9073   33.8846    0.8433    5.9728    3.8972    0.0259    0.0041    0.0243    0.2404    2.3973   10.0000   11.0000 
10802.9984   -2.8867   63.0762   33.8518    0.8686    5.8137    3.7022    0.0240    0.0029    0.0243    0.2452    2.4137   10.0000   11.0000 
10803.4984   -2.8831   56.4450   31.5652    0.8129    5.4036    3.5598    0.0288    0.0062    0.0243    0.2132    2.4195   10.0000   11.0000 
10803.9984   -2.8902   54.9808   31.2914    0.8529    5.0812    3.7442    0.0270    0.0044    0.0243    0.1977    2.4151   10.0000   11.0000 
10804.4984   -2.8651   59.5989   34.4731    0.9582    5.4890    3.8875    0.0257    0.0047    0.0243    0.2108    2.4014   10.0000   11.0000 
10804.9984   -2.8902   65.1956   37.5266    1.0626    5.8602    4.0583    0.0268    0.0049    0.0243    0.2466    2.3986   10.0000   11.0000 
10805.4984   -2.8831   67.7862   37.5960    1.0805    5.7777    4.0219    0.0259    0.0048    0.0243    0.2337    2.3938   10.0000   11.0000 
10805.9984   -2.8867   68.4619   36.2602    1.0045    5.7928    4.2575    0.0263    0.0048    0.0243    0.2013    2.3886   10.0000   11.0000 
10806.4984   -2.8902   65.0827   37.2984    1.0340    5.9541    4.2520    0.0286    0.0074    0.0243    0.2068    2.3873   10.0000   11.0000 
10806.9984   -2.8759   61.8162   37.2001    0.9947    6.1533    4.1572    0.0246    0.0024    0.0243    0.2181    2.3894   10.0000   11.0000 
10807.4984   -2.8867   59.9016   37.4160    0.9830    6.2907    4.1868    0.0270    0.0051    0.0243    0.2408    2.3839   10.0000   11.0000 
10807.9984   -2.8831   60.9365   36.2775    0.9901    5.8826    3.9028    0.0270    0.0058    0.0243    0.2252    2.3740   10.0000   11.0000 
10808.4984   -2.8974   60.9717   35.1193    0.9793    5.5732    3.9406    0.0259    0.0048    0.0243    0.2104    2.3662   10.0000   11.0000 
10808.9984   -2.8902   61.9851   34.8176    0.9799    5.4725    3.9007    0.0292    0.0062    0.0243    0.2138    2.3675   10.0000   11.0000 
10809.4984   -2.8831   62.4287   36.4234    1.0105    5.8104    3.9104    0.0271    0.0046    0.0243    0.2185    2.3677   10.0000   11.0000 
10809.9984   -2.8867   60.9291   34.2452    0.9365    5.5425    3.8745    0.0258    0.0041    0.0243    0.2344    2.3735   10.0000   11.0000 
10810.4984   -2.8759   53.1997   28.3607    0.7931    4.4882    3.2911    0.0250    1.0675    0.0243    0.1959    2.3812   10.0000   11.0000 
10810.9984   -2.8759   43.7451   22.7484    0.6118    3.7427    2.2828    0.0211 99997.8594    0.0243    0.1460    2.3876   10.0000   11.0000 
10811.4984   -2.8759   38.3810   19.2228    0.5213    3.1373    1.7776    0.0267    1.0834    0.0243    0.1062    2.3958   10.0000   11.0000 
10811.9984   -2.8759   39.9156   22.9129    0.6209    3.7422    2.0734    0.0259    0.0047    0.0243    0.1337    2.3879   10.0000   11.0000 
10812.4984   -2.8651   45.8853   30.3620    0.8356    4.8831    2.7685    0.0258    0.0056    0.0243    0.1824    2.3799   10.0000   11.0000 
10812.9984   -2.8831   55.7056   35.1971    0.9272    5.9034    3.0764    0.0256    0.0052    0.0243    0.2328    2.3652   10.0000   11.0000 
10813.4984   -2.8759   59.3100   35.6689    0.9479    5.9344    3.2365    0.0254    0.0051    0.0243    0.2393    2.3645   10.0000   11.0000 
10813.9984   -2.8902   63.2523   34.3708    0.9134    5.7190    3.4110    0.0270    0.0047    0.0243    0.2408    2.3647   10.0000   11.0000 
10814.4984   -2.8651   56.0930   32.0692    0.8368    5.4264    3.1512    0.0272    0.0055    0.0243    0.2033    2.3670   10.0000   11.0000 
10814.9984   -2.8867   46.9695   24.0044    0.6334    4.0205    2.8221    0.0259    0.0046    0.0243    0.1490    2.3732   10.0000   11.0000 
10815.4984   -2.8759   39.4370   18.1510    0.4818    3.0233    2.3031    0.0270    0.0060    0.0243    0.1050    2.3781   10.0000   11.0000 
10815.9984   -2.8831   36.0578   15.8043    0.4041    2.7223    2.2469    0.0258    0.0046    0.0243    0.1202    2.3806   10.0000   11.0000 
10816.4984   -2.8867   36.9588   14.5116    0.3716    2.4966    2.6580    0.0264    0.0053    0.0243    0.1369    2.3850   10.0000   11.0000 
10816.9984   -2.8974   36.0436   16.1718    0.4050    2.8354    2.7143    0.0266    0.0066    0.0243    0.1573    2.3991   10.0000   11.0000 
10817.4984   -2.8902   37.7331   15.0026    0.3238    2.9342    3.0788    0.0233    0.0024    0.0243    0.1460    2.4261   10.0000   11.0000 
10817.9984   -2.8759   36.9449   13.8693    0.3344    2.5073    2.6911    0.0269    0.0061    0.0243    0.1238    2.4482   10.0000   11.0000 
10818.4984   -2.8759   31.9889   11.3902    0.2946    1.9422    2.3062    0.0271    0.0069    0.0243    0.0897    2.4619   10.0000   11.0000 
10818.9984   -2.8867   32.4396   12.3790    0.3159    2.1360    2.4726    0.0274    0.0063    0.0243    0.0837    2.4631   10.0000   11.0000 
10819.4984   -2.8543   39.7607   20.3770    0.5443    3.3734    3.6718    0.0264    0.0061    0.0243    0.1342    2.4749   10.0000   11.0000 
10819.9984   -2.8974   57.1067   27.7498    0.7399    4.6020    4.7255    0.0265    0.0053    0.0243    0.1975    2.5038   10.0000   11.0000 
10820.4984   -2.8902   65.8921   32.3617    0.9027    5.1341    5.0664    0.0266    0.0058    0.0243    0.2349    2.5397   10.0000   11.0000 
10820.9984   -2.8974   64.4492   31.3689    0.8589    5.0708    4.6321    0.0261    0.0048    0.0243    0.2149    2.5671   10.0000   11.0000 
10821.4984   -2.8759   58.7045   29.7004    0.8275    4.7172    4.1971    0.0268    0.0055    0.0243    0.1940    2.5768   10.0000   11.0000 
10821.9984   -2.8974   55.2132   27.0945    0.7878    4.1107    3.8028    0.0268    0.0057    0.0243    0.1973    2.5804   10.0000   11.0000 
10822.4984   -2.8831   57.8531   26.6339    0.8047    3.8638    3.6297    0.0274    0.0067    0.0243    0.2082    2.5830   10.0000   11.0000 
10822.9984   -2.8831   57.5152   28.2786    0.8880    3.9058    3.6428    0.0252    0.0054    0.0243    0.2161    2.5877   10.0000   11.0000 
10823.4984   -2.8615   56.0789   29.5853    0.9157    4.1648    3.9102    0.0234    0.0039    0.0243    0.2072    2.5940   10.0000   11.0000 
10823.9984   -2.8831   57.3600   32.8018    1.0240    4.5663    4.1705    0.0257    0.0060    0.0243    0.2369    2.5986   10.0000   11.0000 
10824.4984   -2.8831   62.8439   33.9343    1.0295    4.8984    4.2790    0.0269    0.0061    0.0243    0.2672    2.6019   10.0000   11.0000 
10824.9984   -2.8759   61.6896   32.6326    0.9578    4.8986    4.5828    0.0268    0.0058    0.0243    0.2836    2.6024   10.0000   11.0000 
10825.4984   -2.8759   55.7619   30.2657    0.8884    4.5430    4.2567    0.0255    0.0051    0.0243    0.2254    2.5926   10.0000   11.0000 
10825.9984   -2.8759   50.6160   29.3241    0.8365    4.5432    4.0697    0.0258    0.0049    0.0243    0.2138    2.5930   10.0000   11.0000 
10826.4984   -2.8759   52.5307   27.6313    0.7648    4.4180    3.9662    0.0259    0.0061    0.0243    0.1992    2.5999   10.0000   11.0000 
10826.9984   -2.8651   57.4446   28.7804    0.7769    4.7174    4.1471    0.0259    0.0051    0.0243    0.2416    2.6263   10.0000   11.0000 
10827.4984   -2.8759   59.1342   28.7737    0.7704    4.7535    4.2496    0.0252    0.0052    0.0243    0.2399    2.6662   10.0000   11.0000 
