~VERSION INFORMATION
 VERS.                 2.0:   CWLS LOG ASCII STANDARD - VERSION 2.0
 WRAP.                  NO:   SINGLE LINE PER DEPTH STEP
 CREA.                 20/03/2018 14:41:29
#CREATED USING DSPetro VERSION 5000.10.1.3 BY H191660 ON 20/03/2018 14:41:29
~WELL INFORMATION
#MNEM.UNIT       DATA                          DESCRIPTION MNEMONIC
#---------      ---------------------------   --------------------------
 STRT    .FT        325.3294                  : START DEPTH
 STOP    .FT        12308.5971                : STOP DEPTH
 STEP    .FT        1.6404                    : STEP VALUE
 NULL    .      -999.0000                     : NULL VALUE
 DATE    .      20/03/2018                    : LAS file Creation Date
 WELL .      UNIVERSITY_19-5             : Well Name
 COMP .      Neftex Exploration Insights : Company
 FLD  .      PHANTOM (WOLFCAMP)          : Field
 UWI  .      208                         : Unique Well Identifier (UWI)
 LOC  .                                  : Location
 RWS  .      -999                        : Def_Rw
 WST  .      -999                        : Def_Rwt
 SRVC .                                  : Contractor
~CURVE INFORMATION
#MNEM              UNIT       API CODE   Curve Type Comments
#----------  --------------- ----------  ---------- -----------
 DEPTH      .FT                        : Depth       
 DEPTH      .FT                        : Depth       
 BS         .inch                      : BitSize     
 CAL_INCH   .inch                      :             Caliper Log - A representation of the measured diameter of a borehole along its depth
 GR_API     .API                       : GammaRay    Gamma Ray (API) - Measures the intensity of natural gamma-ray radiation emitted from formations containing radioactive elements, such as K, Th and U
 SGR_API    .API                       : GammaRay    Spectral Gamma Ray - Total gamma calibrated to API, measured using a spectoral gamma array tool
 CGR_API    .API                       : GammaRay    Corrected / Computed Gamma Ray - Radiation with the Uranium component removed. Also known as a 'carbonate gamma ray'
 TH_PPM     .ppm                       : Spectral    Thorium Abundance (SGR) - The quantitative elemental abundace of Thorium derived from the Spectral Gamma Ray Log
 K_per        .PC                        :             Potassium Abundance (SGR) - The quantitative elemental abundace of Potassium derived from the Spectral Gamma Ray Log. Also wt_%
 U_PPM      .ppm                       :             Uranium Abundance (SGR) - The quantitative elemental abundace of Uranium derived from the Spectral Gamma Ray Log
 ThK        .PPM                       : Spectral    
 ThU        .PPM                       : Spectral    
 SRES       .ohmm                      :             10" array induction, two foot resistivity
 MRES       .ohm.m                     :             30" array induction, two foot resistivity
 DRES       .ohmm                      :             90" array induction, two foot resistivity log - units of ohmm
 DT_US_FT   .us/ft                     :             Interval Transit Time: Compressional Wave - Evaluates the time it takes for a compressional wave to traverse a fixed distance
 NPHI_RATIO .ratio                     :             Neutron Porosity - Measured with an neutron logging device calibrated to a given matrix (limestone, sandstone and dolomite)
 RHOB_G_CC  .g/cc                      :             Bulk Density - Measures the density of bulk material, including any void space or other materials contained in the subject volume
 DRHO_G_CC  .g/cc                      :             Density Correction - Investigates the correction to the Bulk Density log; used as an indication of hole condition to validate the Bulk Density measure
 PEF_B_E    .b/e-                      : PEF         Photoelectric Factor - A log of photoelectric absorption properties. Often expressed in an approximation unit barns/electron (b/e-)
 LITH       .                          : LITH        Lithology Curve
~A  DEPTH   DEPTH       BS     CAL_INCH   GR_API   SGR_API   CGR_API    TH_PPM     K_per      U_PPM      ThK       ThU       SRES      MRES      DRES    DT_US_FT NPHI_RAT~ RHOB_G_C~ DRHO_G_C~  PEF_B_E     LITH   
# ...
10299.0827 10299.0827   12.2500 -999.0000   58.8535 -999.0000 -999.0000    6.8723 -999.0000    2.3561 -999.0000 -999.0000    1.9593    6.0110    9.7387   74.1506    0.1613    2.5492    0.0049    2.3194   37.0000 
10300.7231 10300.7231   12.2500 -999.0000   42.1013 -999.0000 -999.0000    4.5024 -999.0000    1.3088 -999.0000 -999.0000    1.9911    6.8188   10.7193   66.9706    0.1086    2.5783    0.0020    2.5905   36.0000 
10302.3635 10302.3635   12.2500 -999.0000   45.4471 -999.0000 -999.0000    6.1737 -999.0000    1.2078 -999.0000 -999.0000    1.9939    6.7408   10.3353   67.8898    0.1126    2.5602   -0.0010    2.6642   36.0000 
10304.0039 10304.0039   12.2500 -999.0000   61.3668 -999.0000 -999.0000    6.7000 -999.0000    1.4516 -999.0000 -999.0000    1.9950    5.8175    8.4630   68.9347    0.0917    2.5350    0.0042    2.3432   36.0000 
10305.6444 10305.6444   12.2500 -999.0000   75.3757 -999.0000 -999.0000    7.9099 -999.0000    1.3175 -999.0000 -999.0000    2.1088    8.3860   13.3964   72.6980    0.1451    2.5149   -0.0003    2.3679   36.0000 
10307.2848 10307.2848   12.2500 -999.0000   67.2597 -999.0000 -999.0000    6.3399 -999.0000    1.5110 -999.0000 -999.0000    2.1332    8.7270   12.8949   72.5579    0.1040    2.5152    0.0038    2.2870   36.0000 
10308.9252 10308.9252   12.2500 -999.0000   78.0532 -999.0000 -999.0000    9.0272 -999.0000    2.1538 -999.0000 -999.0000    2.2215   10.7345   16.0422   73.8762    0.1471    2.5629    0.0050    2.4850   37.0000 
10310.5656 10310.5656   12.2500 -999.0000   91.6269 -999.0000 -999.0000    8.8638 -999.0000    2.8608 -999.0000 -999.0000    2.2434   10.9175   15.9678   75.4580    0.1397    2.5497   -0.0017    2.5498   36.0000 
10312.2060 10312.2060   12.2500 -999.0000  101.0297 -999.0000 -999.0000   10.4463 -999.0000    4.3780 -999.0000 -999.0000    2.3393   15.7169   25.3147   82.6756    0.2093    2.5164    0.0009    2.6709   37.0000 
10313.8465 10313.8465   12.2500 -999.0000   94.5975 -999.0000 -999.0000    9.2754 -999.0000    4.2277 -999.0000 -999.0000    2.3460   15.4637   26.0044   77.4550    0.1796    2.5462    0.0016    2.6227   37.0000 
10315.4869 10315.4869   12.2500 -999.0000   78.2683 -999.0000 -999.0000    7.8387 -999.0000    3.5597 -999.0000 -999.0000    2.3542   17.6317   30.7488   75.4085    0.1241    2.5544    0.0008    2.7317   36.0000 
10317.1273 10317.1273   12.2500 -999.0000   65.9687 -999.0000 -999.0000    7.4034 -999.0000    3.5663 -999.0000 -999.0000    2.3328   17.5061   33.5098   71.2650    0.1012    2.5865    0.0033    2.9505   22.0000 
10318.7677 10318.7677   12.2500 -999.0000   63.1730 -999.0000 -999.0000    6.1189 -999.0000    3.8039 -999.0000 -999.0000    2.3306   19.7844   40.9364   67.9585    0.0884    2.6111    0.0021    3.0247   22.0000 
10320.4081 10320.4081   12.2500 -999.0000   58.8042 -999.0000 -999.0000    6.3572 -999.0000    4.4320 -999.0000 -999.0000    2.2650   15.3343   26.4621   67.2425    0.0990    2.6230    0.0062    3.0080   22.0000 
10322.0486 10322.0486   12.2500 -999.0000   76.9742 -999.0000 -999.0000    6.4408 -999.0000    4.8388 -999.0000 -999.0000    2.2075   12.0463   16.7608   69.2870    0.1486    2.5930    0.0046    2.8226   37.0000 
10323.6890 10323.6890   12.2500 -999.0000   68.5507 -999.0000 -999.0000    5.9897 -999.0000    4.4732 -999.0000 -999.0000    2.2519   16.8013   32.2115   66.5373    0.1102    2.6323    0.0277    3.0145   37.0000 
10325.3294 10325.3294   12.2500 -999.0000   78.8313 -999.0000 -999.0000    5.6649 -999.0000    4.6132 -999.0000 -999.0000    2.2760   20.0846   47.7943   67.9708    0.1208    2.5924   -0.0023    3.3644   22.0000 
10326.9698 10326.9698   12.2500 -999.0000   61.3372 -999.0000 -999.0000    4.8097 -999.0000    3.5347 -999.0000 -999.0000    2.3126   22.4360   76.0684   65.8954    0.0993    2.6357    0.0046    3.8401   22.0000 
10328.6102 10328.6102   12.2500 -999.0000   66.9329 -999.0000 -999.0000    4.7838 -999.0000    3.5116 -999.0000 -999.0000    2.3815   26.3635  113.5522   64.3373    0.1056    2.6411    0.0025    3.5969   22.0000 
10330.2507 10330.2507   12.2500 -999.0000   53.2197 -999.0000 -999.0000    4.5816 -999.0000    3.5239 -999.0000 -999.0000    2.3780   24.6899   85.5082   64.2205    0.0753    2.6201    0.0025    3.8045   22.0000 
10331.8911 10331.8911   12.2500 -999.0000   57.2669 -999.0000 -999.0000    4.9968 -999.0000    3.4892 -999.0000 -999.0000    2.3558   24.2267   85.5998   64.3246    0.0799    2.6191   -0.0002    3.5455   22.0000 
10333.5315 10333.5315   12.2500 -999.0000   51.3055 -999.0000 -999.0000    5.4284 -999.0000    3.2068 -999.0000 -999.0000    2.3479   24.2004   81.1231   64.2134    0.0583    2.5994   -0.0027    3.8745   22.0000 
10335.1719 10335.1719   12.2500 -999.0000   51.3869 -999.0000 -999.0000    6.0281 -999.0000    2.8112 -999.0000 -999.0000    2.3435   24.1045   85.7681   63.3007    0.0642    2.5965   -0.0075    3.8653   22.0000 
10336.8123 10336.8123   12.2500 -999.0000   70.1678 -999.0000 -999.0000    8.8768 -999.0000    3.1679 -999.0000 -999.0000    2.2669   18.1824   37.3879   67.9398    0.1115    2.5723   -0.0034    2.9692   22.0000 
10338.4528 10338.4528   12.2500 -999.0000   39.5236 -999.0000 -999.0000    4.8089 -999.0000    2.0538 -999.0000 -999.0000    2.2783   21.7740   53.1409   62.2176    0.0189    2.6147   -0.0031    3.0040   27.0000 
10340.0932 10340.0932   12.2500 -999.0000   34.1242 -999.0000 -999.0000    5.0628 -999.0000    1.9078 -999.0000 -999.0000    2.2852   17.2491   32.2203   62.3013    0.0255    2.5850   -0.0024    3.0710   27.0000 
10341.7336 10341.7336   12.2500 -999.0000   45.2321 -999.0000 -999.0000    5.1397 -999.0000    1.5890 -999.0000 -999.0000    2.3054   17.0936   29.5210   63.2220    0.0621    2.5486   -0.0021    2.7177   36.0000 
10343.3740 10343.3740   12.2500 -999.0000   30.2269 -999.0000 -999.0000    2.5989 -999.0000    1.2859 -999.0000 -999.0000    2.3799   28.6386  143.4138   58.1080    0.0087    2.6866    0.0032    3.7117   27.0000 
10345.0144 10345.0144   12.2500 -999.0000   35.5281 -999.0000 -999.0000    3.2403 -999.0000    1.4670 -999.0000 -999.0000    2.3557   18.4118   31.8631   62.1058    0.0565    2.5704   -0.0055    3.3079   27.0000 
10346.6549 10346.6549   12.2500 -999.0000   28.9408 -999.0000 -999.0000    2.7879 -999.0000    1.0685 -999.0000 -999.0000    2.4030   31.4052  213.6000   56.9697    0.0030    2.6878    0.0043    3.6867   27.0000 
10348.2953 10348.2953   12.2500 -999.0000   31.3081 -999.0000 -999.0000    2.7747 -999.0000    1.7152 -999.0000 -999.0000    2.4223   25.7336   81.0199   60.8268    0.0249    2.5879   -0.0046    3.1200   27.0000 
10349.9357 10349.9357   12.2500 -999.0000   64.1212 -999.0000 -999.0000    5.3967 -999.0000    3.1503 -999.0000 -999.0000    2.3925   23.6165   72.9890   69.9705    0.0892    2.5477    0.0007    2.6037   36.0000 
10351.5761 10351.5761   12.2500 -999.0000   84.4466 -999.0000 -999.0000    7.2976 -999.0000    4.6325 -999.0000 -999.0000    2.2913   15.1568   24.0765   75.9059    0.1672    2.5453   -0.0001    2.5827   37.0000 
10353.2165 10353.2165   12.2500 -999.0000   50.1065 -999.0000 -999.0000    6.2808 -999.0000    3.0917 -999.0000 -999.0000    2.3428   19.8915   50.1035   68.0683    0.0542    2.5873    0.0001    2.8208   37.0000 
10354.8570 10354.8570   12.2500 -999.0000   84.3102 -999.0000 -999.0000    9.1372 -999.0000    4.6211 -999.0000 -999.0000    2.2677   14.3638   23.0608   75.4033    0.1471    2.5780    0.0009    2.6541   37.0000 
10356.4974 10356.4974   12.2500 -999.0000   70.2761 -999.0000 -999.0000    9.4749 -999.0000    4.1347 -999.0000 -999.0000    2.2986   19.0965   41.9429   73.7892    0.1251    2.5693   -0.0032    2.7290   37.0000 
10358.1378 10358.1378   12.2500 -999.0000   76.7795 -999.0000 -999.0000    8.8077 -999.0000    4.2214 -999.0000 -999.0000    2.2367   15.4971   28.1631   74.0435    0.1275    2.5507   -0.0056    2.8721   37.0000 
10359.7782 10359.7782   12.2500 -999.0000   71.7040 -999.0000 -999.0000    7.2485 -999.0000    3.2066 -999.0000 -999.0000    2.3504   23.4774   88.7254   73.9513    0.1398    2.5421   -0.0023    3.2538   37.0000 
