~VERSION INFORMATION
 VERS.                 2.0:   CWLS LOG ASCII STANDARD - VERSION 2.0
 WRAP.                  NO:   SINGLE LINE PER DEPTH STEP
 CREA.                 20/03/2018 14:44:45
#CREATED USING DSPetro VERSION 5000.10.1.3 BY H191660 ON 20/03/2018 14:44:45
~WELL INFORMATION
#MNEM.UNIT       DATA                          DESCRIPTION MNEMONIC
#---------      ---------------------------   --------------------------
 STRT    .FT        300.0092                  : START DEPTH
 STOP    .FT        12601.0092                : STOP DEPTH
 STEP    .FT        0.5000                    : STEP VALUE
 NULL    .      -999.0000                     : NULL VALUE
 DATE    .      20/03/2018                    : LAS file Creation Date
 WELL  .      UNIVERSITY_20_3_1_4230131346 : Well Name
 COMP  .      Chesapeake Operating, Inc.   : Company
 FLD   .      Haley                        : Field
 STATE .      Texas                        : State
 API   .      42-301-31346                 : API Number
 UWI   .      507                          : Unique Well Identifier (UWI)
 LOC   .      1320' FNL & 1320' FWL        : Location
 TOWN  .      20                           : Township
 SCT   .      3                            : Section
 RANG  .      University Lands             : Range
 PDAT  .      GROUND LEVEL                 : Permanent Datum
 EPDAT .      2800.000000                  : Reference Elevation
 LGMEA .      KELLY BUSHING                : Log Measured from
 DRMEA .      KELLY BUSHING                : Drill Measured From
 APDAT .      26.000000                    : Elevation Above Permanent Datum
 KB    .      2826.00000                   : KB Elevation
 GL    .      2800.00000                   : GL Elevation
 RWS   .      -999                         : Def_Rw
 WST   .      -999                         : Def_Rwt
 CNTY  .      Loving                       : County
 SRVC  .      Schlumberger                 : Contractor
~CURVE INFORMATION
#MNEM              UNIT       API CODE   Curve Type Comments
#----------  --------------- ----------  ---------- -----------
 DEPTH      .FT                        : Depth       
 BS         .inch                      : BitSize     
 CAL        .inch                      :             
 GR         .API                       : GammaRay    
 SP_MV      .mv                        : SP          Spontaneous Potential - Records the electrical potential produced by the interaction of formation water, conductive drilling mud, and certain ion-sele
 DRES       .OHMM                      :             
 MRES       .OHMM                      : MedRes      
 SRES       .OHMM                      : ShalRes     
 DRHO       .G/C3                      : Drho        
 NPHI       .CFCF                      : Neutron     
 PEF        .B/E                       : PEF         
 RHOB       .G/C3                      : Density     
 LITH       .                          : LITH        Lithology Curve
~A  DEPTH     BS       CAL        GR      SP_MV      DRES      MRES      SRES      DRHO      NPHI      PEF       RHOB      LITH   
# ...
8492.5092   12.2500   12.9966   53.3433 -999.0000    9.3717    6.5671    2.2025   -0.0031    0.0774    2.7258    2.5727   36.0000 
8493.0092   12.2500   13.0198   38.6365 -999.0000    9.3423    6.6556    2.2240    0.0006    0.0800    2.7242    2.5801   36.0000 
8493.5092   12.2500   13.0082   56.9776 -999.0000   10.3419    7.3173    2.2650    0.0013    0.0767    2.7145    2.5866   36.0000 
8494.0092   12.2500   13.0198   50.7864 -999.0000   11.2283    7.8553    2.2584   -0.0031    0.0784    2.7483    2.5910   36.0000 
8494.5092   12.2500   13.0431   69.5476 -999.0000    9.1881    6.6374    2.2133   -0.0090    0.0813    2.7732    2.5577   27.0000 
8495.0092   12.2500   13.0198   60.4445 -999.0000    9.2113    6.6151    2.2010   -0.0124    0.0846    2.7809    2.5099   27.0000 
8495.5092   12.2500   13.0431   55.4034 -999.0000    9.8182    6.9972    2.2097   -0.0125    0.0824    2.7651    2.5174   27.0000 
8496.0092   12.2500   13.0198   43.5735 -999.0000   10.1410    7.2453    2.2564   -0.0094    0.0757    2.7419    2.5208   27.0000 
8496.5092   12.2500   13.0431   45.3904 -999.0000    9.7008    7.0211    2.2150   -0.0090    0.0749    2.7405    2.5205   27.0000 
8497.0092   12.2500   13.0198   37.8963 -999.0000    9.0879    6.6760    2.2087   -0.0059    0.0730    2.7243    2.5199   27.0000 
8497.5092   12.2500   13.0431   43.4496 -999.0000    8.6546    6.4405    2.1878   -0.0043    0.0750    2.7087    2.5344   27.0000 
8498.0092   12.2500   13.0198   48.2418 -999.0000   10.0976    7.3786    2.2755   -0.0034    0.0716    2.7169    2.5807   36.0000 
8498.5092   12.2500   13.0431   56.6837 -999.0000   10.6182    7.7403    2.2445   -0.0042    0.0732    2.7831    2.5981   36.0000 
8499.0092   12.2500   13.0198   56.4876 -999.0000    9.9863    7.3393    2.2414   -0.0043    0.0704    2.8575    2.5770   36.0000 
8499.5092   12.2500   13.0431   66.1014 -999.0000    9.0960    6.7780    2.2338   -0.0041    0.0694    2.8952    2.5688   27.0000 
8500.0092   12.2500   13.0198   62.4390 -999.0000    9.4708    6.9939    2.2298   -0.0059    0.0647    2.8421    2.5502   27.0000 
8500.5092   12.2500   13.0198   55.9659 -999.0000    9.5292    7.0109    2.2195   -0.0073    0.0711    2.7787    2.5440   27.0000 
8501.0092   12.2500   13.0431   57.3537 -999.0000    9.1029    6.7532    2.2044   -0.0067    0.0816    2.7272    2.5527   27.0000 
8501.5092   12.2500   13.0198   53.7677 -999.0000    9.5448    6.9961    2.2173   -0.0052    0.0934    2.7264    2.5536   36.0000 
8502.0092   12.2500   13.0198   65.8006 -999.0000    9.7614    7.1586    2.2391   -0.0062    0.0859    2.7467    2.5474   27.0000 
8502.5092   12.2500   13.0198   51.0485 -999.0000    9.5415    7.0168    2.2042   -0.0086    0.0922    2.7745    2.5468   36.0000 
8503.0092   12.2500   13.0431   71.6747 -999.0000    9.2210    6.8389    2.2029   -0.0108    0.0948    2.7762    2.5239   27.0000 
8503.5092   12.2500   13.0198   69.4964 -999.0000    8.9743    6.6681    2.1865   -0.0105    0.1116    2.7432    2.5528   36.0000 
8504.0092   12.2500   13.0198   62.2098 -999.0000    9.4361    6.9560    2.2076   -0.0076    0.1027    2.7080    2.5489   36.0000 
8504.5092   12.2500   12.9966   60.8355 -999.0000    9.4485    7.0032    2.1987   -0.0035    0.0960    2.6798    2.5387   27.0000 
8505.0092   12.2500   13.0198   51.6303 -999.0000    9.8974    7.2819    2.2180   -0.0027    0.0913    2.7060    2.5472   37.0000 
8505.5092   12.2500   13.0082   61.9150 -999.0000   10.3792    7.5681    2.2283   -0.0022    0.0857    2.7050    2.5577   37.0000 
8506.0092   12.2500   13.0198   63.9488 -999.0000    9.9778    7.3501    2.2267   -0.0012    0.0865    2.7096    2.5509   27.0000 
8506.5092   12.2500   13.0198   59.9813 -999.0000   10.0753    7.3474    2.2258    0.0019    0.0873    2.6938    2.5586   36.0000 
8507.0092   12.2500   12.9966   56.6711 -999.0000   10.1846    7.4635    2.2328    0.0019    0.0935    2.7085    2.5634   36.0000 
8507.5092   12.2500   13.0082   73.7719 -999.0000   11.3676    8.1833    2.2671   -0.0031    0.0940    2.7489    2.5706   36.0000 
8508.0092   12.2500   13.0198   64.8325 -999.0000   10.3742    7.5745    2.2389   -0.0082    0.0923    2.7833    2.5729   36.0000 
8508.5092   12.2500   13.0198   82.1349 -999.0000    9.8575    7.3597    2.2460   -0.0083    0.0922    2.7766    2.5414   27.0000 
8509.0092   12.2500   13.0198   69.2284 -999.0000   11.2122    8.1480    2.2732   -0.0067    0.0797    2.7760    2.5572   27.0000 
8509.5092   12.2500   13.0198   48.1724 -999.0000   10.6667    7.8536    2.2502   -0.0048    0.0695    2.7920    2.5925   36.0000 
8510.0092   12.2500   12.9966   51.4395 -999.0000    9.6162    7.2229    2.2296   -0.0053    0.0712    2.8150    2.5575   27.0000 
8510.5092   12.2500   13.0198   52.2185 -999.0000    9.8911    7.4406    2.2418   -0.0053    0.0825    2.7951    2.5491   27.0000 
8511.0092   12.2500   13.0198   65.8044 -999.0000    9.8419    7.4266    2.2200   -0.0068    0.0923    2.7749    2.5552   36.0000 
8511.5092   12.2500   13.0198   65.8010 -999.0000    9.7991    7.4604    2.2249   -0.0075    0.0895    2.7695    2.5282   27.0000 
8512.0092   12.2500   13.0315   58.5686 -999.0000    9.9667    7.6704    2.2248   -0.0070    0.0881    2.7811    2.5124   27.0000 
8512.5092   12.2500   13.0198   48.7993 -999.0000    9.9966    7.7378    2.2328   -0.0053    0.0874    2.7685    2.5261   27.0000 
8513.0092   12.2500   13.0082   59.0713 -999.0000    9.8011    7.5712    2.2267   -0.0038    0.0934    2.7633    2.5215   27.0000 
8513.5092   12.2500   12.9733   57.7182 -999.0000    9.9356    7.7409    2.2570   -0.0068    0.0968    2.8063    2.5206   27.0000 
8514.0092   12.2500   12.9966   50.8278 -999.0000   10.6374    8.1875    2.2579   -0.0080    0.0933    2.8493    2.5410   36.0000 
8514.5092   12.2500   12.9733   57.0600 -999.0000   10.5740    8.2247    2.2699   -0.0083    0.0895    2.8626    2.5327   27.0000 
8515.0092   12.2500   12.9733   66.8663 -999.0000   10.5155    7.8168    2.2091   -0.0041    0.0909    2.8148    2.5648   36.0000 
8515.5092   12.2500   12.9733   55.4291 -999.0000   10.6286    7.9742    2.2544   -0.0049    0.0835    2.8282    2.5670   36.0000 
8516.0092   12.2500   12.9501   44.9579 -999.0000   15.7191   11.6815    2.5489   -0.0053    0.0699    2.8679    2.5872   36.0000 
8516.5092   12.2500   12.9268   48.6953 -999.0000   15.8891   11.3679    2.4210   -0.0058    0.0464    2.9147    2.6493   36.0000 
8517.0092   12.2500   12.9036   48.2206 -999.0000   10.0326    7.9482    2.3328   -0.0027    0.0425    2.8694    2.5995   27.0000 
8517.5092   12.2500   12.9268   60.2365 -999.0000   12.2067    9.4494    2.4131   -0.0018    0.0465    2.8117    2.5979   27.0000 
8518.0092   12.2500   12.9152   60.2456 -999.0000   11.6300    9.2492    2.3892   -0.0020    0.0577    2.7974    2.6057   36.0000 
8518.5092   12.2500   12.9036   53.7110 -999.0000   10.6296    8.6841    2.3341   -0.0014    0.0616    2.8046    2.5882   27.0000 
8519.0092   12.2500   12.8804   48.7043 -999.0000    9.6757    8.1629    2.3007   -0.0027    0.0662    2.8326    2.5501   27.0000 
8519.5092   12.2500   12.9036   44.4656 -999.0000    8.3795    7.2495    2.2650   -0.0050    0.0795    2.8394    2.5181   27.0000 
8520.0092   12.2500   12.9036   50.1541 -999.0000    8.4508    7.3993    2.2892   -0.0055    0.0946    2.8260    2.5180   27.0000 
8520.5092   12.2500   12.9036   50.4478 -999.0000    9.0912    7.9328    2.2766   -0.0054    0.0930    2.7978    2.5524   36.0000 
8521.0092   12.2500   12.9268   58.5102 -999.0000    7.9611    7.1730    2.2752   -0.0059    0.0935    2.7687    2.5350   27.0000 
8521.5092   12.2500   12.9036   49.6625 -999.0000    8.4281    7.5500    2.2962   -0.0087    0.0935    2.7780    2.5456   36.0000 
8522.0092   12.2500   12.8804   55.0487 -999.0000    8.2373    7.3556    2.3104   -0.0107    0.1029    2.8037    2.5147   27.0000 
8522.5092   12.2500   12.9036   47.5648 -999.0000    8.3871    7.4931    2.3065   -0.0060    0.0999    2.7901    2.5430   36.0000 
8523.0092   12.2500   12.8804   66.1323 -999.0000   10.6285    9.1056    2.4134   -0.0012    0.0924    2.7752    2.5599   36.0000 
