~VERSION INFORMATION
 VERS.                 2.0:   CWLS LOG ASCII STANDARD - VERSION 2.0
 WRAP.                  NO:   SINGLE LINE PER DEPTH STEP
 CREA.                 20/03/2018 14:55:32
#CREATED USING DSPetro VERSION 5000.10.1.3 BY H191660 ON 20/03/2018 14:55:32
~WELL INFORMATION
#MNEM.UNIT       DATA                          DESCRIPTION MNEMONIC
#---------      ---------------------------   --------------------------
 STRT    .FT        10799.4984                : START DEPTH
 STOP    .FT        13010.9983                : STOP DEPTH
 STEP    .FT        0.5000                    : STEP VALUE
 NULL    .      -999.0000                     : NULL VALUE
 DATE    .      20/03/2018                    : LAS file Creation Date
 WELL  .      UNIVERSITY_21-17             : Well Name
 COMP  .      Neftex Exploration Insights  : Company
 FLD   .                                   : Field
 STATE .      Texas                        : State
 API   .      42475370100000               : API Number
 UWI   .      213                          : Unique Well Identifier (UWI)
 LOC   .                                   : Location
 LATI  .      -6235758.22                  : Latitude/Northing
 LONG  .      777123.41                    : Longitude/Easting
 RWS   .      -999                         : Def_Rw
 WST   .      -999                         : Def_Rwt
 CNTY  .      WARD                         : County
 SRVC  .      Diversified Well Logging LLC : Contractor
~CURVE INFORMATION
#MNEM              UNIT       API CODE   Curve Type Comments
#----------  --------------- ----------  ---------- -----------
 DEPTH      .FT                        : Depth       
 DCAL_INCH  .inch                      :             Differential Caliper - Evaluates the difference between the actual borehole diameter and bit size
 GR_API     .API                       : GammaRay    Gamma Ray (API) - Measures the intensity of natural gamma-ray radiation emitted from formations containing radioactive elements, such as K, Th and U
 CGR_API    .API                       : GammaRay    Corrected / Computed Gamma Ray - Radiation with the Uranium component removed. Also known as a 'carbonate gamma ray'
 K_per        .PC                        :             Potassium Abundance (SGR) - The quantitative elemental abundace of Potassium derived from the Spectral Gamma Ray Log. Also wt_%
 TH_PPM     .ppm                       : Spectral    Thorium Abundance (SGR) - The quantitative elemental abundace of Thorium derived from the Spectral Gamma Ray Log
 U_PPM      .ppm                       :             Uranium Abundance (SGR) - The quantitative elemental abundace of Uranium derived from the Spectral Gamma Ray Log
 RD_OHMM    .ohmm                      :             Unspecified Deep Resistivity - No accroynm or method of attainment is specified - units of ohmm
 RM_OHMM    .ohm.m                     :             Unspecified Medium Resistivity - No accroynm or method of attainment is specified
 MSFL_OHMM  .ohmm                      :             Micro-Spherically Focused Log - Measurement involves only the first few inches of the formation immediately adjacent to the borehole
 NPHI_RATIO .ratio                     :             Neutron Porosity - Measured with an neutron logging device calibrated to a given matrix (limestone, sandstone and dolomite)
 RHOZ_G_CC  .g/cc                      :             Formation Density - Measures the density of formation, including any void space or other materials contained in the subject volume
 PEF_B_E    .b/e-                      : PEF         Photoelectric Factor - A log of photoelectric absorption properties. Often expressed in an approximation unit barns/electron (b/e-)
 LITH       .                          : LITH        Lithology Curve
~A  DEPTH DCAL_INC~   GR_API   CGR_API     K_per      TH_PPM    U_PPM    RD_OHMM   RM_OHMM  MSFL_OHM~ NPHI_RAT~ RHOZ_G_C~  PEF_B_E     LITH   
# ...
11654.4984   -0.0619  105.1954   50.0614    1.4147    7.7375    4.7814   12.9663   12.7278    6.3177    0.1943    2.4869    3.4389   37.0000 
11654.9984   -0.0332  100.6550   49.6337    1.3949    7.7166    4.3624   13.9619   13.7485    5.4130    0.2030    2.4742    3.2669   37.0000 
11655.4984   -0.0332   92.3200   51.1323    1.4449    7.9036    3.7483   14.2977   14.1736    5.7776    0.1854    2.4660    3.1173   37.0000 
11655.9984   -0.0188   89.6802   50.8565    1.4271    7.9197    3.3754   15.3737   15.3231    6.2385    0.1763    2.4633    3.0179   37.0000 
11656.4984   -0.0116   90.0742   55.2977    1.5826    8.4304    3.4036   15.3524   15.1970    6.5803    0.1881    2.4668    2.9641   37.0000 
11656.9984   -0.0116   95.7480   58.2460    1.6904    8.7431    3.8595   15.4182   15.1574    6.8165    0.2086    2.4688    2.9413   37.0000 
11657.4984    0.0315   99.8665   59.4519    1.7842    8.5800    4.2091   16.0904   15.7290    7.1767    0.2411    2.4584    2.9415   37.0000 
11657.9984    0.0422   97.7264   58.9225    1.8070    8.2766    3.9786   16.8378   16.2024    7.4235    0.2397    2.4535    2.9478   37.0000 
11658.4984    0.0243   94.9807   55.5810    1.7087    7.7833    4.1515   20.9951   19.7851    9.3239    0.2352    2.4570    2.9889   37.0000 
11658.9984   -0.0116   88.1170   56.0751    1.7432    7.7394    4.0034   16.8523   15.7857    7.5021    0.2249    2.4686    3.0932   37.0000 
11659.4984   -0.0008   90.1444   50.4388    1.5254    7.2105    4.0724   12.4116   11.6666    5.0304    0.2158    2.4672    3.2355   37.0000 
11659.9984   -0.0332   85.4141   49.9358    1.5260    7.0464    3.8720   10.7674   10.1959    4.5554    0.2099    2.4611    3.3402   37.0000 
11660.4984   -0.0188   84.2519   49.8790    1.5620    6.8171    3.4437   13.7318   13.0411    6.1263    0.1915    2.4651    3.3523   37.0000 
11660.9984   -0.0439   82.7030   51.3126    1.5821    7.1582    3.3637   16.1119   15.2416    6.4699    0.1843    2.4712    3.3353   37.0000 
11661.4984   -0.0403   84.3930   49.4577    1.5063    7.0084    2.9347   12.9392   12.1702    8.4708    0.1893    2.4739    3.3007   37.0000 
11661.9984   -0.0116   81.9153   46.7859    1.4336    6.5787    2.8326   12.6733   11.8689    5.8976    0.1969    2.4672    3.2564   37.0000 
11662.4984   -0.0332   80.0147   49.6605    1.4921    7.1560    2.7870   11.4138   10.7309    4.1795    0.2148    2.4677    3.2123   37.0000 
11662.9984   -0.0439   78.7749   51.3382    1.5442    7.3880    3.1105    9.8994    9.3422    4.5313    0.2140    2.4735    3.2227   37.0000 
11663.4984   -0.0332   76.0788   50.6828    1.4503    7.7280    3.0788    9.9442    9.3879    4.2748    0.2040    2.4799    3.2912   37.0000 
11663.9984   -0.0619   72.8827   46.2857    1.3223    7.0704    2.9000   15.0914   14.2898    2.0550    0.1855    2.4795    3.3739   36.0000 
11664.4984   -0.0475   69.0323   47.1797    1.3446    7.2257    2.7479   27.8249   26.8114    8.8370    0.1716    2.4846    3.4058   22.0000 
11664.9984   -0.0008   70.0388   49.6790    1.4501    7.4082    2.6253   16.3516   16.0783    5.5811    0.1657    2.5015    3.4679   22.0000 
11665.4984   -0.0475   73.0801   54.9700    1.5696    8.4013    2.7127   20.4928   20.3984    4.7224    0.1647    2.5248    3.6414   22.0000 
11665.9984   -0.0224   81.8446   58.4965    1.6450    9.0885    3.0054   14.3843   14.6638    6.1294    0.1756    2.5430    3.8411   22.0000 
11666.4984    0.0099   90.6301   61.3141    1.7579    9.3293    3.2243    9.7488   10.0135    0.7109    0.1891    2.5399    3.8723   37.0000 
11666.9984    0.0422   98.4936   61.8747    1.7468    9.5741    3.2568   10.7521   11.1322    5.5854    0.2052    2.5214    3.6345   37.0000 
11667.4984   -0.0116   98.9163   64.6452    1.8077   10.1040    3.1901    9.4517    9.7261    4.9646    0.2118    2.4978    3.3355   37.0000 
11667.9984   -0.0008  104.0129   63.8552    1.8485    9.6123    3.2366    7.0326    7.2283    5.1111    0.2245    2.4860    3.1298   37.0000 
11668.4984    0.0207   99.5286   63.3742    1.8227    9.6094    3.3596    7.6591    7.8539    5.2028    0.2189    2.4859    3.0651   37.0000 
11668.9984    0.0099   94.2485   56.5568    1.6518    8.4286    3.1678   10.4372   10.7571    5.8119    0.2114    2.4876    3.0772   37.0000 
11669.4984   -0.0332   84.8506   54.4342    1.5842    8.1444    3.1202   10.0211   10.3751    6.1206    0.2025    2.4970    3.1318   37.0000 
11669.9984   -0.0224   85.4280   52.5171    1.4938    8.0599    3.0038   14.7133   15.1929    5.4850    0.2163    2.5074    3.3149   37.0000 
11670.4984   -0.0403   87.3991   46.1508    1.2662    7.3553    2.9249   16.8775   17.3823    3.1108    0.2091    2.5359    3.6667   37.0000 
11670.9984   -0.0547   76.4174   35.1453    0.9726    5.5526    2.3234   33.0955   33.5393    5.6097    0.1626    2.5712    4.2423   37.0000 
11671.4984   -0.0870   59.8386   23.8990    0.6592    3.7881    1.7936  692.4368  701.2245   16.1621    0.0965    2.6254    4.7739   18.0000 
11671.9984   -0.0116   46.0969   22.4069    0.6130    3.5811    1.8850  135.2859  127.9292    7.1632    0.0557    2.6546    5.0825   18.0000 
11672.4984   -0.0332   45.6741   25.8153    0.7073    4.1200    2.3885   76.4880   71.6462   22.5044    0.0524    2.6589    4.9236   18.0000 
11672.9984   -0.0224   52.7491   31.3804    0.8615    4.9977    3.2270   46.2895   42.5952   11.6351    0.0732    2.6092    4.4560   18.0000 
11673.4984    0.0243   62.4357   35.5003    0.9568    5.7586    3.4804   22.2902   20.6434    7.3834    0.1278    2.5311    3.9328   37.0000 
11673.9984    0.1463   69.1941   38.0616    0.9933    6.3639    3.7153   24.1111   22.6706    6.0468    0.1755    2.4526    3.5430   22.0000 
11674.4984    0.1822   69.4053   36.5882    0.9493    6.1501    3.5753   31.0086   29.3878    7.5521    0.2220    2.3993    3.3159   22.0000 
11674.9984    0.0961   63.9919   33.2805    0.8718    5.5458    3.3004   50.2093   48.1260    7.6929    0.2218    2.3756    3.1847   22.0000 
11675.4984    0.0315   59.5357   30.8809    0.8251    5.0513    2.9933   43.0732   42.1847    6.8167    0.2180    2.3637    3.1327   22.0000 
11675.9984   -0.0224   57.9514   31.6027    0.8897    4.9039    2.7061   38.6778   38.7198    6.1515    0.2033    2.3558    3.1381   22.0000 
11676.4984   -0.0116   60.2112   35.2076    1.0053    5.3808    2.8350   32.5709   32.5719    9.6159    0.2101    2.3621    3.1357   22.0000 
11676.9984   -0.0332   61.4995   39.4951    1.1756    5.7561    2.7692   18.9162   18.7334    7.2730    0.2215    2.3746    3.2357   22.0000 
11677.4984   -0.0260   63.5061   40.7713    1.2006    6.0180    2.6100   16.2851   15.8632    4.1685    0.2135    2.4118    3.5195   22.0000 
11677.9984   -0.0439   61.4787   38.0470    1.1580    5.3960    2.5655   23.4238   22.6533    6.2657    0.1780    2.4699    4.0286   18.0000 
11678.4984   -0.1121   61.4785   39.4114    1.2070    5.5456    2.7339   20.9587   20.3027    5.3471    0.1412    2.5215    4.5225   18.0000 
11678.9984   -0.0547   68.5323   44.2819    1.3791    6.0965    3.3635    8.0441    7.9499    0.6781    0.1432    2.5746    4.7270   18.0000 
11679.4984   -0.0224   80.1335   51.4909    1.5999    7.1107    3.3923    5.9834    5.9400    0.5272    0.1658    2.5848    4.4925   37.0000 
11679.9984    0.0315   86.4694   56.0783    1.7874    7.4810    3.2406    9.5935    9.5479    4.5028    0.1903    2.5738    3.9833   37.0000 
11680.4984    0.0243   88.9192   55.7238    1.7730    7.4522    3.2753   12.3595   12.1977    7.7050    0.1959    2.5331    3.5304   37.0000 
11680.9984   -0.0008   86.7796   54.3802    1.7482    7.1677    3.4660    9.8660    9.6685    7.4543    0.1960    2.5025    3.3079   37.0000 
11681.4984   -0.0260   88.7858   53.6841    1.7341    7.0273    3.5646    8.7315    8.5353    5.7960    0.1987    2.4966    3.2975   37.0000 
11681.9984   -0.0116   87.7299   53.7665    1.7274    7.0931    3.4944    9.1665    8.9619    4.7377    0.2002    2.5071    3.3362   37.0000 
11682.4984   -0.0224   92.6858   53.9905    1.6856    7.4098    3.7200    9.6629    9.4156    4.6481    0.2100    2.5095    3.4128   37.0000 
