~VERSION INFORMATION
 VERS.                 2.0:   CWLS LOG ASCII STANDARD - VERSION 2.0
 WRAP.                  NO:   SINGLE LINE PER DEPTH STEP
 CREA.                 20/03/2018 14:58:23
#CREATED USING DSPetro VERSION 5000.10.1.3 BY H191660 ON 20/03/2018 14:58:23
~WELL INFORMATION
#MNEM.UNIT       DATA                          DESCRIPTION MNEMONIC
#---------      ---------------------------   --------------------------
 STRT    .FT        128.0000                  : START DEPTH
 STOP    .FT        12500.0000                : STOP DEPTH
 STEP    .FT        0.5000                    : STEP VALUE
 NULL    .      -999.0000                     : NULL VALUE
 DATE    .      20/03/2018                    : LAS file Creation Date
 WELL  .      UNIVERSITY_40_16_4247536999  : Well Name
 COMP  .      Neftex Exploration Insights  : Company
 FLD   .      PHANTOM (WOLFCAMP)           : Field
 STATE .      Texas                        : State
 COUNT .      USA                          : Country
 API   .      42475369990000               : API Number
 UWI   .      222                          : Unique Well Identifier (UWI)
 LOC   .      1980FNL x 1757FWL            : Location
 TOWN  .      16                           : Township
 SCT   .      40                           : Section
 RANG  .      U39                          : Range
 LATI  .      -6470541.88                  : Latitude/Northing
 LONG  .      783810.27                    : Longitude/Easting
 PDAT  .      GL                           : Permanent Datum
 EPDAT .      2604.000000                  : Reference Elevation
 LGMEA .      KB                           : Log Measured from
 DRMEA .      KB                           : Drill Measured From
 APDAT .      25.000000                    : Elevation Above Permanent Datum
 KB    .      2629.00000                   : KB Elevation
 GL    .      2604.00000                   : GL Elevation
 RWS   .      -999                         : Def_Rw
 WST   .      -999                         : Def_Rwt
 CNTY  .      WARD                         : County
 SRVC  .      Diversified Well Logging LLC : Contractor
~CURVE INFORMATION
#MNEM              UNIT       API CODE   Curve Type Comments
#----------  --------------- ----------  ---------- -----------
 DEPTH      .FT                        : Depth       
 BS         .inch                      : BitSize     
 DCAL_INCH  .inch                      :             Differential Caliper - Evaluates the difference between the actual borehole diameter and bit size
 GR         .GAPI                      : GammaRay    Gamma Ray {F11.4}
 LLD_OHMM   .ohmm                      :             Laterlog Deep Resistivity - Measurement made several feet into the formation; generally considered a measurement of the undisturbed formation
 LLM_OHMM   .ohm.m                     :             Laterlog Medium Resistivity - Measurement made approximately two to three feet into the formation - units of ohmm
 LLS_OHMM   .ohmm                      :             Laterlog Shallow Resistivity - one to two feet into the formation; generally considered to measure the formation
 NPHI_RATIO .ratio                     :             Neutron Porosity - Measured with an neutron logging device calibrated to a given matrix (limestone, sandstone and dolomite)
 PEF_B_E    .b/e-                      : PEF         Photoelectric Factor - A log of photoelectric absorption properties. Often expressed in an approximation unit barns/electron (b/e-)
 RHOZ_G_CC  .g/cc                      :             Formation Density - Measures the density of formation, including any void space or other materials contained in the subject volume
 LITH       .                          : LITH        Lithology Curve
~A  DEPTH     BS    DCAL_INC~     GR     LLD_OHMM  LLM_OHMM  LLS_OHMM NPHI_RAT~  PEF_B_E  RHOZ_G_C~    LITH   
# ...
2740.5000 -999.0000   -6.0046    7.2678    0.0105    0.0108    0.0122    0.1006    9.9796    3.2363    3.0000 
2741.0000 -999.0000   -6.0046    6.2166    0.0090    0.0094    0.0107    0.0988   10.0000    3.2470    3.0000 
2741.5000 -999.0000   -6.0046    5.4658    0.0083    0.0082    0.0089    0.0848    9.9586    3.2601    3.0000 
2742.0000 -999.0000   -6.0046    5.2555    0.0075    0.0081    0.0089    0.0877   10.0000    3.2684    3.0000 
2742.5000 -999.0000   -6.0046    6.4569    0.0065    0.0069    0.0074    0.0841   10.0000    3.2695    3.0000 
2743.0000 -999.0000   -6.0046    7.2076    0.0077    0.0086    0.0098    0.0882   10.0000    3.2686    3.0000 
2743.5000 -999.0000   -6.0046    7.6281    0.0055    0.0064    0.0068    0.0882    9.9845    3.2698    3.0000 
2744.0000 -999.0000   -6.0046    6.6370    0.0086    0.0098    0.0114    0.0866   10.0000    3.2792    3.0000 
2744.5000 -999.0000   -6.0046    4.9552    0.0086    0.0087    0.0095    0.0798   10.0000    3.2896    3.0000 
2745.0000 -999.0000   -6.0268    3.4837    0.0083    0.0085    0.0093    0.0803    9.9332    3.2982    3.0000 
2745.5000 -999.0000   -5.9824    3.7540    0.0079    0.0083    0.0092    0.0806    9.9667    3.3035    3.0000 
2746.0000 -999.0000   -5.9935    4.0543    0.0071    0.0070    0.0074    0.0781   10.0000    3.3076    3.0000 
2746.5000 -999.0000   -6.0268    5.3457    0.0068    0.0076    0.0085    0.0721   10.0000    3.3075    3.0000 
2747.0000 -999.0000   -6.0046    4.4447    0.0072    0.0085    0.0097    0.0675    9.9973    3.3034    3.0000 
2747.5000 -999.0000   -5.9824    4.6549    0.0073    0.0088    0.0100    0.0664   10.0000    3.3092    3.0000 
2748.0000 -999.0000   -6.0046    4.1744    0.0084    0.0093    0.0107    0.0676   10.0000    3.3530    3.0000 
2748.5000 -999.0000   -6.0268    3.9641    0.0092    0.0089    0.0097    0.0663    9.9971    3.4863    3.0000 
2749.0000 -999.0000   -5.9824    4.1744    0.0072    0.0079    0.0087    0.0633   10.0000    3.7124    3.0000 
2749.5000 -999.0000   -5.9824    5.0453    0.0086    0.0094    0.0109    0.0620   10.0000    3.9284    3.0000 
2750.0000 -999.0000   -6.0046    5.1955    0.0104    0.0105    0.0118    0.0702    9.9355    3.9638    3.0000 
2750.5000 -999.0000   -6.0046    4.5648    0.0081    0.0090    0.0102    0.0704    9.8508    3.7990    3.0000 
2751.0000 -999.0000   -5.9824    4.6549    0.0073    0.0082    0.0092    0.0672    9.9240    3.5699    3.0000 
2751.5000 -999.0000   -5.9824    5.1354    0.0076    0.0085    0.0095    0.0576   10.0000    3.4350    3.0000 
2752.0000 -999.0000   -6.0046    6.7271    0.0084    0.0092    0.0106    0.0601    9.9960    3.4083    3.0000 
2752.5000 -999.0000   -6.0046    5.5859    0.0071    0.0080    0.0087    0.0617    9.9687    3.4293    3.0000 
2753.0000 -999.0000   -6.0046    5.5859    0.0080    0.0090    0.0103    0.0632   10.0000    3.4494    3.0000 
2753.5000 -999.0000   -6.0046    3.9942    0.0084    0.0086    0.0096    0.0636    9.9541    3.4560    3.0000 
2754.0000 -999.0000   -5.9935    4.6249    0.0073    0.0076    0.0082    0.0677    9.9938    3.4503    3.0000 
2754.5000 -999.0000   -6.0268    4.8652    0.0078    0.0095    0.0111    0.0804   10.0000    3.4419    3.0000 
2755.0000 -999.0000   -6.0046    8.0185    0.0072    0.0079    0.0087    0.1020    9.9404    3.4328    3.0000 
2755.5000 -999.0000   -6.0046   11.6522    0.0073    0.0081    0.0091    0.1589   10.0000    3.4248    3.0000 
2756.0000 -999.0000   -6.0046   15.1960    0.0079    0.0079    0.0086    0.2485    9.9470    3.4205    3.0000 
2756.5000 -999.0000   -6.0046   15.7966    0.0082    0.0085    0.0095    0.2780    9.9779    3.4325    3.0000 
2757.0000 -999.0000   -6.0046   14.8957    0.0090    0.0088    0.0096    0.2238   10.0000    3.4686    3.0000 
2757.5000 -999.0000   -6.0046   11.5921    0.0074    0.0076    0.0080    0.1190   10.0000    3.5124    3.0000 
2758.0000 -999.0000   -6.0046    8.8893    0.0073    0.0083    0.0094    0.0621    9.9507    3.5447    3.0000 
2758.5000 -999.0000   -6.0046    6.9072    0.0068    0.0075    0.0084    0.0616    9.9780    3.5630    3.0000 
2759.0000 -999.0000   -5.9824    7.2676    0.0079    0.0088    0.0100    0.0793   10.0000    3.5785    3.0000 
2759.5000 -999.0000   -5.9935    8.7692    0.0081    0.0091    0.0102    0.1128   10.0000    3.5960    3.0000 
2760.0000 -999.0000   -6.0046    9.7003    0.0080    0.0094    0.0109    0.1322   10.0000    3.6214    3.0000 
2760.5000 -999.0000   -6.0157   10.3310    0.0072    0.0076    0.0084    0.1245   10.0000    3.6564    3.0000 
2761.0000 -999.0000   -6.0268    8.1687    0.0096    0.0103    0.0120    0.0915   10.0000    3.6985    3.0000 
2761.5000 -999.0000   -6.0268    6.9073    0.0073    0.0088    0.0099    0.0670    9.9467    3.7263    3.0000 
2762.0000 -999.0000   -6.0046    7.3578    0.0079    0.0096    0.0113    0.0596   10.0000    3.7402    3.0000 
2762.5000 -999.0000   -6.0046    8.4389    0.0065    0.0076    0.0087    0.0680    9.9171    3.7443    3.0000 
2763.0000 -999.0000   -5.9935    9.2498    0.0069    0.0078    0.0086    0.0675   10.0000    3.7507    3.0000 
2763.5000 -999.0000   -6.0046    7.5380    0.0071    0.0083    0.0095    0.0748   10.0000    3.7557    3.0000 
2764.0000 -999.0000   -6.0046    7.4178    0.0228    0.0300    0.0331    0.0776   10.0000    3.7625    3.0000 
2764.5000 -999.0000   -6.0046    7.2376    0.0062    0.0075    0.0087    0.0920    9.9789    3.7747    3.0000 
2765.0000 -999.0000   -6.0046    8.2287    0.0060    0.0065    0.0071    0.0984    9.9425    3.7857    3.0000 
2765.5000 -999.0000   -5.9824    7.0875    0.0036    0.0063    0.0103    0.0920   10.0000    3.7927    3.0000 
2766.0000 -999.0000   -6.0046    7.5081    0.0080    0.0090    0.0102    0.0784    9.9533    3.7868    3.0000 
2766.5000 -999.0000   -6.0046    6.7272    0.0069    0.0079    0.0087    0.0741    9.9598    3.7839    3.0000 
2767.0000 -999.0000   -6.0046    8.1086    0.0076    0.0079    0.0087    0.0872   10.0000    3.7882    3.0000 
2767.5000 -999.0000   -5.9935    7.4779    0.0093    0.0100    0.0114    0.0984   10.0000    3.8001    3.0000 
2768.0000 -999.0000   -5.9824    8.9795    0.0092    0.0102    0.0119    0.1041   10.0000    3.8045    3.0000 
2768.5000 -999.0000   -6.0046    9.9104    0.0078    0.0090    0.0103    0.0986    9.9109    3.7956    3.0000 
2769.0000 -999.0000   -6.0046    8.8593    0.0079    0.0090    0.0101    0.0938    9.9758    3.7778    3.0000 
2769.5000 -999.0000   -6.0268    8.8292    0.0090    0.0101    0.0117    0.0839   10.0000    3.7636    3.0000 
2770.0000 -999.0000   -6.0046    7.1475    0.0102    0.0099    0.0112    0.0778    9.9721    3.7578    3.0000 
2770.5000 -999.0000   -5.9824    7.1475    0.0071    0.0085    0.0097    0.0747    9.9884    3.7615    3.0000 
2771.0000 -999.0000   -6.0046    5.4658    0.0068    0.0081    0.0093    0.0831   10.0000    3.7658    3.0000 
2771.5000 -999.0000   -6.0046    5.2555    0.0076    0.0086    0.0097    0.1107    9.9981    3.7641    3.0000 
2772.0000 -999.0000   -6.0046    7.3578    0.0086    0.0084    0.0090    0.1471    9.9543    3.7518    3.0000 
2772.5000 -999.0000   -6.0046    8.8294    0.0085    0.0095    0.0110    0.1827   10.0000    3.7405    3.0000 
2773.0000 -999.0000   -6.0046    9.8805    0.0082    0.0091    0.0103    0.1641   10.0000    3.7419    3.0000 
2773.5000 -999.0000   -6.0046    8.9795    0.0085    0.0082    0.0090    0.1192   10.0000    3.7548    3.0000 
2774.0000 -999.0000   -5.9935    8.5590    0.0063    0.0065    0.0066    0.0652    9.9903    3.7584    3.0000 
2774.5000 -999.0000   -6.0046    8.4690    0.0072    0.0086    0.0099    0.0404    9.9620    3.7470    3.0000 
2775.0000 -999.0000   -6.0046    7.6881    0.0083    0.0094    0.0107    0.0327    9.9792    3.7289    3.0000 
2775.5000 -999.0000   -6.0046    8.3488    0.0077    0.0084    0.0094    0.0296   10.0000    3.7226    3.0000 
2776.0000 -999.0000   -5.9935    6.9674    0.0094    0.0102    0.0117    0.0315    9.9626    3.7237    3.0000 
2776.5000 -999.0000   -6.0046    5.9162    0.0083    0.0098    0.0114    0.0379    9.9542    3.7237    3.0000 
