~VERSION INFORMATION
 VERS.                 2.0:   CWLS LOG ASCII STANDARD - VERSION 2.0
 WRAP.                  NO:   SINGLE LINE PER DEPTH STEP
 CREA.                 20/03/2018 14:41:29
#CREATED USING DSPetro VERSION 5000.10.1.3 BY H191660 ON 20/03/2018 14:41:29
~WELL INFORMATION
#MNEM.UNIT       DATA                          DESCRIPTION MNEMONIC
#---------      ---------------------------   --------------------------
 STRT    .FT        325.3294                  : START DEPTH
 STOP    .FT        12308.5971                : STOP DEPTH
 STEP    .FT        1.6404                    : STEP VALUE
 NULL    .      -999.0000                     : NULL VALUE
 DATE    .      20/03/2018                    : LAS file Creation Date
 WELL .      UNIVERSITY_19-5             : Well Name
 COMP .      Neftex Exploration Insights : Company
 FLD  .      PHANTOM (WOLFCAMP)          : Field
 UWI  .      208                         : Unique Well Identifier (UWI)
 LOC  .                                  : Location
 RWS  .      -999                        : Def_Rw
 WST  .      -999                        : Def_Rwt
 SRVC .                                  : Contractor
~CURVE INFORMATION
#MNEM              UNIT       API CODE   Curve Type Comments
#----------  --------------- ----------  ---------- -----------
 DEPTH      .FT                        : Depth       
 DEPTH      .FT                        : Depth       
 BS         .inch                      : BitSize     
 CAL_INCH   .inch                      :             Caliper Log - A representation of the measured diameter of a borehole along its depth
 GR_API     .API                       : GammaRay    Gamma Ray (API) - Measures the intensity of natural gamma-ray radiation emitted from formations containing radioactive elements, such as K, Th and U
 SGR_API    .API                       : GammaRay    Spectral Gamma Ray - Total gamma calibrated to API, measured using a spectoral gamma array tool
 CGR_API    .API                       : GammaRay    Corrected / Computed Gamma Ray - Radiation with the Uranium component removed. Also known as a 'carbonate gamma ray'
 TH_PPM     .ppm                       : Spectral    Thorium Abundance (SGR) - The quantitative elemental abundace of Thorium derived from the Spectral Gamma Ray Log
 K_per        .PC                        :             Potassium Abundance (SGR) - The quantitative elemental abundace of Potassium derived from the Spectral Gamma Ray Log. Also wt_%
 U_PPM      .ppm                       :             Uranium Abundance (SGR) - The quantitative elemental abundace of Uranium derived from the Spectral Gamma Ray Log
 ThK        .PPM                       : Spectral    
 ThU        .PPM                       : Spectral    
 SRES       .ohmm                      :             10" array induction, two foot resistivity
 MRES       .ohm.m                     :             30" array induction, two foot resistivity
 DRES       .ohmm                      :             90" array induction, two foot resistivity log - units of ohmm
 DT_US_FT   .us/ft                     :             Interval Transit Time: Compressional Wave - Evaluates the time it takes for a compressional wave to traverse a fixed distance
 NPHI_RATIO .ratio                     :             Neutron Porosity - Measured with an neutron logging device calibrated to a given matrix (limestone, sandstone and dolomite)
 RHOB_G_CC  .g/cc                      :             Bulk Density - Measures the density of bulk material, including any void space or other materials contained in the subject volume
 DRHO_G_CC  .g/cc                      :             Density Correction - Investigates the correction to the Bulk Density log; used as an indication of hole condition to validate the Bulk Density measure
 PEF_B_E    .b/e-                      : PEF         Photoelectric Factor - A log of photoelectric absorption properties. Often expressed in an approximation unit barns/electron (b/e-)
 LITH       .                          : LITH        Lithology Curve
~A  DEPTH   DEPTH       BS     CAL_INCH   GR_API   SGR_API   CGR_API    TH_PPM     K_per      U_PPM      ThK       ThU       SRES      MRES      DRES    DT_US_FT NPHI_RAT~ RHOB_G_C~ DRHO_G_C~  PEF_B_E     LITH   
# ...
12231.4974 12231.4974   12.2500 -999.0000   94.1485 -999.0000   38.0096    8.4454    0.8200    5.9283   10.2993    2.2300    1.6797    8.1511   16.4428   91.6321    0.1951    2.4951    0.0052    2.8798   37.0000 
12233.1378 12233.1378   12.2500 -999.0000   97.4931 -999.0000   36.0926    9.8884    0.8000    6.1637   12.3605    2.9295    1.6873    8.6484   17.0352   92.7944    0.2405    2.5026    0.0013    2.7475   37.0000 
12234.7782 12234.7782   12.2500 -999.0000   89.2273 -999.0000   35.1865    9.2914    0.8100    5.8046   11.4709    3.0385    1.6191    7.7969   13.7670   91.5514    0.1928    2.4987   -0.0003    2.7079   37.0000 
12236.4186 12236.4186   12.2500 -999.0000   94.4714 -999.0000   38.5707   10.8186    0.9200    5.4724   11.7593    3.4737    1.6318    8.8177   16.5907   88.9576    0.1840    2.5277    0.0041    2.8566   37.0000 
12238.0591 12238.0591   12.2500 -999.0000  109.2660 -999.0000   39.8565   11.2709    0.8500    5.9499   13.2599    3.2036    1.6639   11.3278   23.7530   88.1391    0.1732    2.5210    0.0083    2.9810   37.0000 
12239.6995 12239.6995   12.2500 -999.0000  111.2867 -999.0000   34.0712   10.2793    0.7300    5.7436   14.0812    3.9238    1.7052   11.7005   25.4920   88.4999    0.1959    2.5412    0.0198    2.9357   37.0000 
12241.3399 12241.3399   12.2500 -999.0000   78.5818 -999.0000   32.1973    6.6235    0.6100    5.2338   10.8582    3.2928    1.7878   11.4173   23.6285   85.8284    0.2235    2.5554    0.0403    2.9707   37.0000 
12242.9803 12242.9803   12.2500 -999.0000   62.1907 -999.0000   23.1839    5.0086    0.5200    3.3182    9.6319    3.4193    1.7449   12.5589   28.4481   74.3395    0.1119    2.6352    0.0337    3.5347   22.0000 
12244.6207 12244.6207   12.2500 -999.0000   68.5628 -999.0000   25.7697    5.6649    0.6500    4.4575    8.7152    2.6558    1.6414    8.9178   16.2017   77.5038    0.1467    2.6623    0.0845    3.3977   22.0000 
12246.2612 12246.2612   12.2500 -999.0000   85.2954 -999.0000   34.3650    8.2171    0.8200    4.7786   10.0209    3.0427    1.6489    9.3127   15.6103   88.9214    0.2060    2.5365    0.0363    2.9913   37.0000 
12247.9016 12247.9016   12.2500 -999.0000  104.8563 -999.0000   37.8149   10.9803    0.8700    5.7829   12.6210    3.3948    1.6673   11.9314   29.8438   90.8265    0.2453    2.5568    0.0860    2.8667   37.0000 
12249.5420 12249.5420   12.2500 -999.0000  104.4063 -999.0000   34.7637   12.4180    0.8300    5.6195   14.9614    4.5794    1.6635   11.9567   27.1571   88.5512    0.2168    2.5394    0.0292    2.9722   37.0000 
12251.1824 12251.1824   12.2500 -999.0000   90.2617 -999.0000   35.5665   10.0197    0.8800    4.5998   11.3860    3.7880    1.7041    9.6490   24.0082   87.9616    0.1487    2.5374    0.0212    2.8615   37.0000 
12252.8228 12252.8228   12.2500 -999.0000   89.7250 -999.0000   32.9181   11.0603    0.8600    4.5535   12.8608    3.9345    1.7070   10.0106   20.0577   88.8212    0.1970    2.5281    0.0097    3.0136   37.0000 
12254.4633 12254.4633   12.2500 -999.0000   80.8446 -999.0000   33.5153    9.1564    0.8500    4.8307   10.7722    3.0075    1.6715   10.3583   24.4766   88.3309    0.1901    2.5694    0.0412    2.8698   37.0000 
12256.1037 12256.1037   12.2500 -999.0000   96.3407 -999.0000   33.7315    8.0105    0.7600    5.0401   10.5401    3.1711    1.6804    9.4805   20.8894   83.2114    0.2040    2.5272    0.0012    3.0515   37.0000 
12257.7441 12257.7441   12.2500 -999.0000   82.7978 -999.0000   32.2206    7.4723    0.7600    4.9556    9.8320    3.0267    1.7063    9.5335   24.3250   81.7768    0.1703    2.6080    0.0340    3.1402   37.0000 
12259.3845 12259.3845   12.2500 -999.0000   79.5537 -999.0000   30.4751    7.6687    0.7400    5.4819   10.3631    3.8920    1.6912   11.0036   25.1967   87.1391    0.2015    2.5297    0.0162    3.0052   37.0000 
12261.0249 12261.0249   12.2500 -999.0000   93.2119 -999.0000   35.0015    9.1369    0.9300    5.5781    9.8246    3.4322    1.6669    9.7673   16.8686   89.4823    0.2108    2.4815   -0.0018    2.8361   37.0000 
12262.6654 12262.6654   12.2500 -999.0000   90.1111 -999.0000   34.3800   10.8860    0.9400    5.9519   11.5809    4.1370    1.7134    9.8071   18.1158   94.2261    0.2551    2.4947    0.0019    2.8212   37.0000 
12264.3058 12264.3058   12.2500 -999.0000   86.8038 -999.0000   34.6494   10.0681    0.9800    4.2606   10.2736    3.7943    1.7334    9.4284   19.0650   90.0070    0.1934    2.5074   -0.0042    3.0773   37.0000 
12265.9462 12265.9462   12.2500 -999.0000  102.5850 -999.0000   30.0791   10.3830    0.7600    4.8492   13.6618    3.8259    1.7461   10.9554   25.0622   95.3186    0.2355    2.5038    0.0048    2.8811   37.0000 
12267.5866 12267.5866   12.2500 -999.0000  100.1836 -999.0000   34.2932    9.8979    0.8500    5.6997   11.6446    3.6272    1.8001   15.1230   49.3466   92.3634    0.2252    2.5087    0.0238    2.7655   37.0000 
12269.2270 12269.2270   12.2500 -999.0000   95.7393 -999.0000   36.9347    7.0631    0.8000    7.1006    8.8289    2.5384    1.7400   15.9814   50.7257   94.3366    0.2358    2.4779    0.0011    2.7068   37.0000 
12270.8675 12270.8675   12.2500 -999.0000  101.3839 -999.0000   32.5220    5.9484    0.7400    8.0830    8.0384    1.8254    1.7363   14.1201   55.1949   90.4387    0.2293    2.5105    0.0021    2.7268   37.0000 
12272.5079 12272.5079   12.2500 -999.0000   92.5505 -999.0000   37.6038    6.0376    0.8300    7.7524    7.2742    2.0104    1.7325   14.0154   58.9010   91.1620    0.1995    2.4912    0.0057    2.9057   37.0000 
12274.1483 12274.1483   12.2500 -999.0000  100.7602 -999.0000   39.1506    5.8907    0.8900    6.1979    6.6188    1.9701    1.7154   14.2511   42.4497   88.9561    0.1732    2.4954    0.0069    2.8999   37.0000 
12275.7887 12275.7887   12.2500 -999.0000   96.6306 -999.0000   26.4686    6.6112    0.6600    7.8579   10.0170    2.6172    1.6844   11.4787   22.1534   86.3868    0.1504    2.5375    0.0288    2.8970   37.0000 
12277.4291 12277.4291   12.2500 -999.0000  103.4192 -999.0000   37.2674    7.1380    0.9300    7.4462    7.6753    1.9610    1.7045   13.1672   38.7218   91.0093    0.1863    2.5085    0.0022    2.8111   37.0000 
12279.0696 12279.0696   12.2500 -999.0000   95.6347 -999.0000   28.9252    6.9300    0.8400    7.8840    8.2500    1.5476    1.6851   13.1915   43.3024   94.0544    0.2269    2.4733   -0.0030    2.8954   37.0000 
12280.7100 12280.7100   12.2500 -999.0000   90.7079 -999.0000   25.6855    6.9726    0.6900    8.2864   10.1052    2.1314    1.6645   16.0246   80.9675   79.0133    0.2014    2.5049    0.0060    3.2136   37.0000 
12282.3504 12282.3504   12.2500 -999.0000   56.9407 -999.0000   19.6876    7.0598    0.5200    8.6571   13.5765    1.8441    1.6813   14.5595   49.0004   81.5721    0.1283    2.5083    0.0183    3.1906   37.0000 
12283.9908 12283.9908   12.2500 -999.0000   93.6449 -999.0000   20.5855    7.2797    0.5500    8.2210   13.2358    2.1765    1.7408   15.5050   54.3513   74.2842    0.1723    2.5943    0.0750    3.5981   22.0000 
12285.6312 12285.6312   12.2500 -999.0000  117.9622 -999.0000   17.5955    6.9955    0.4100    8.5696   17.0622    2.7441    1.7923   19.2639   59.3795   72.3416    0.1935    2.6855    0.0824    3.6321   37.0000 
12287.2717 12287.2717   12.2500 -999.0000  125.1500 -999.0000   35.6057    7.1988    0.8600    8.9695    8.3707    2.0775    1.7687   12.9623   28.7624   88.5908    0.1963    2.5357    0.0362    2.8667   37.0000 
12288.9121 12288.9121   12.2500 -999.0000  122.4947 -999.0000   33.9802    7.6376    0.8600    8.8084    8.8809    2.0732    1.7796   14.1587   33.3844   90.4783    0.1812    2.4795    0.0101    2.7831   37.0000 
12290.5525 12290.5525   12.2500 -999.0000  121.1175 -999.0000   36.7646    9.2069    0.9400    8.4387    9.7946    3.2054    1.7588   14.4857   34.8342   89.3566    0.1862    2.4654    0.0044    2.7663   37.0000 
12292.1929 12292.1929   12.2500 -999.0000  123.2595 -999.0000   31.9140   11.4749    0.8300    7.7543   13.8252    4.2699    1.7645   11.0780   19.0886   90.6875    0.1978    2.5669    0.0664    2.6821   37.0000 
