~VERSION INFORMATION
 VERS.                 2.0:   CWLS LOG ASCII STANDARD - VERSION 2.0
 WRAP.                  NO:   SINGLE LINE PER DEPTH STEP
 CREA.                 20/03/2018 14:41:29
#CREATED USING DSPetro VERSION 5000.10.1.3 BY H191660 ON 20/03/2018 14:41:29
~WELL INFORMATION
#MNEM.UNIT       DATA                          DESCRIPTION MNEMONIC
#---------      ---------------------------   --------------------------
 STRT    .FT        325.3294                  : START DEPTH
 STOP    .FT        12308.5971                : STOP DEPTH
 STEP    .FT        1.6404                    : STEP VALUE
 NULL    .      -999.0000                     : NULL VALUE
 DATE    .      20/03/2018                    : LAS file Creation Date
 WELL .      UNIVERSITY_19-5             : Well Name
 COMP .      Neftex Exploration Insights : Company
 FLD  .      PHANTOM (WOLFCAMP)          : Field
 UWI  .      208                         : Unique Well Identifier (UWI)
 LOC  .                                  : Location
 RWS  .      -999                        : Def_Rw
 WST  .      -999                        : Def_Rwt
 SRVC .                                  : Contractor
~CURVE INFORMATION
#MNEM              UNIT       API CODE   Curve Type Comments
#----------  --------------- ----------  ---------- -----------
 DEPTH      .FT                        : Depth       
 DEPTH      .FT                        : Depth       
 BS         .inch                      : BitSize     
 CAL_INCH   .inch                      :             Caliper Log - A representation of the measured diameter of a borehole along its depth
 GR_API     .API                       : GammaRay    Gamma Ray (API) - Measures the intensity of natural gamma-ray radiation emitted from formations containing radioactive elements, such as K, Th and U
 SGR_API    .API                       : GammaRay    Spectral Gamma Ray - Total gamma calibrated to API, measured using a spectoral gamma array tool
 CGR_API    .API                       : GammaRay    Corrected / Computed Gamma Ray - Radiation with the Uranium component removed. Also known as a 'carbonate gamma ray'
 TH_PPM     .ppm                       : Spectral    Thorium Abundance (SGR) - The quantitative elemental abundace of Thorium derived from the Spectral Gamma Ray Log
 K_per        .PC                        :             Potassium Abundance (SGR) - The quantitative elemental abundace of Potassium derived from the Spectral Gamma Ray Log. Also wt_%
 U_PPM      .ppm                       :             Uranium Abundance (SGR) - The quantitative elemental abundace of Uranium derived from the Spectral Gamma Ray Log
 ThK        .PPM                       : Spectral    
 ThU        .PPM                       : Spectral    
 SRES       .ohmm                      :             10" array induction, two foot resistivity
 MRES       .ohm.m                     :             30" array induction, two foot resistivity
 DRES       .ohmm                      :             90" array induction, two foot resistivity log - units of ohmm
 DT_US_FT   .us/ft                     :             Interval Transit Time: Compressional Wave - Evaluates the time it takes for a compressional wave to traverse a fixed distance
 NPHI_RATIO .ratio                     :             Neutron Porosity - Measured with an neutron logging device calibrated to a given matrix (limestone, sandstone and dolomite)
 RHOB_G_CC  .g/cc                      :             Bulk Density - Measures the density of bulk material, including any void space or other materials contained in the subject volume
 DRHO_G_CC  .g/cc                      :             Density Correction - Investigates the correction to the Bulk Density log; used as an indication of hole condition to validate the Bulk Density measure
 PEF_B_E    .b/e-                      : PEF         Photoelectric Factor - A log of photoelectric absorption properties. Often expressed in an approximation unit barns/electron (b/e-)
 LITH       .                          : LITH        Lithology Curve
~A  DEPTH   DEPTH       BS     CAL_INCH   GR_API   SGR_API   CGR_API    TH_PPM     K_per      U_PPM      ThK       ThU       SRES      MRES      DRES    DT_US_FT NPHI_RAT~ RHOB_G_C~ DRHO_G_C~  PEF_B_E     LITH   
# ...
6371.9173 6371.9173   12.2500 -999.0000   82.6293 -999.0000 -999.0000    9.4511 -999.0000    3.0219 -999.0000 -999.0000    2.5345    7.2909    9.3580   69.1248    0.1308    2.5261   -0.0059    2.9004   36.0000 
6373.5577 6373.5577   12.2500 -999.0000   92.9014 -999.0000 -999.0000   11.4391 -999.0000    3.0675 -999.0000 -999.0000    2.6089    9.7686   13.6207   69.8778    0.1270    2.5602    0.0040    2.7760   36.0000 
6375.1982 6375.1982   12.2500 -999.0000   57.7088 -999.0000 -999.0000    7.3086 -999.0000    2.3689 -999.0000 -999.0000    2.0301    4.0358    4.2794   69.8299    0.1228    2.4951   -0.0023    2.6539   36.0000 
6376.8386 6376.8386   12.2500 -999.0000   63.9024 -999.0000 -999.0000    6.8546 -999.0000    1.9830 -999.0000 -999.0000    1.9436    3.6486    3.8178   70.6462    0.1425    2.4900    0.0004    2.4832   36.0000 
6378.4790 6378.4790   12.2500 -999.0000   64.2030 -999.0000 -999.0000    6.9682 -999.0000    2.6467 -999.0000 -999.0000    1.9928    3.8028    4.2225   70.3225    0.1467    2.4974   -0.0007    2.5317   36.0000 
6380.1194 6380.1194   12.2500 -999.0000   86.7740 -999.0000 -999.0000    9.5791 -999.0000    3.1428 -999.0000 -999.0000    2.3468    5.6247    7.5257   69.7340    0.1349    2.5358   -0.0006    2.6216   36.0000 
6381.7598 6381.7598   12.2500 -999.0000   62.4201 -999.0000 -999.0000    6.1566 -999.0000    2.2302 -999.0000 -999.0000    1.5132    2.2554    2.6812   72.5187    0.1775    2.4390   -0.0048    2.4663   36.0000 
6383.4003 6383.4003   12.2500 -999.0000   49.7868 -999.0000 -999.0000    5.2724 -999.0000    1.4712 -999.0000 -999.0000    1.3389    2.1034    2.4582   71.3417    0.1142    2.4547   -0.0004    2.4250   36.0000 
6385.0407 6385.0407   12.2500 -999.0000   52.1754 -999.0000 -999.0000    5.3908 -999.0000    1.3916 -999.0000 -999.0000    1.1577    1.7772    2.0930   74.4465    0.1689    2.3991   -0.0009    2.3605   36.0000 
6386.6811 6386.6811   12.2500 -999.0000   58.2290 -999.0000 -999.0000    5.4628 -999.0000    1.5523 -999.0000 -999.0000    1.0794    1.6569    1.9282   76.2208    0.1811    2.4091   -0.0010    2.3182   36.0000 
6388.3215 6388.3215   12.2500 -999.0000   49.2470 -999.0000 -999.0000    3.9072 -999.0000    1.7374 -999.0000 -999.0000    0.9456    1.3796    1.5540   78.7682    0.1872    2.3652   -0.0033    2.2843   36.0000 
6389.9619 6389.9619   12.2500 -999.0000   47.0037 -999.0000 -999.0000    3.4709 -999.0000    1.1634 -999.0000 -999.0000    0.9212    1.2685    1.4587   78.0957    0.1965    2.3740   -0.0013    2.2284   36.0000 
6391.6024 6391.6024   12.2500 -999.0000   46.0191 -999.0000 -999.0000    2.8516 -999.0000    1.8369 -999.0000 -999.0000    0.9880    1.3851    1.6535   77.0680    0.1873    2.3867   -0.0018    2.3229   27.0000 
6393.2428 6393.2428   12.2500 -999.0000   44.5073 -999.0000 -999.0000    4.4164 -999.0000    1.0593 -999.0000 -999.0000    0.9602    1.3358    1.6589   75.6835    0.1303    2.3938   -0.0030    2.3814   27.0000 
6394.8832 6394.8832   12.2500 -999.0000   42.4893 -999.0000 -999.0000    3.4367 -999.0000    1.3190 -999.0000 -999.0000    0.8841    1.2270    1.4579   81.6905    0.1887    2.3292   -0.0016    2.2151   27.0000 
6396.5236 6396.5236   12.2500 -999.0000   49.1909 -999.0000 -999.0000    3.6218 -999.0000    1.4826 -999.0000 -999.0000    0.8931    1.3166    1.5699   81.0823    0.2072    2.3482    0.0006    2.1964   27.0000 
6398.1640 6398.1640   12.2500 -999.0000   46.3864 -999.0000 -999.0000    4.0736 -999.0000    1.5421 -999.0000 -999.0000    0.8931    1.2607    1.5614   81.6788    0.2475    2.3237   -0.0012    2.2485   27.0000 
6399.8045 6399.8045   12.2500 -999.0000   45.3497 -999.0000 -999.0000    3.4980 -999.0000    1.6168 -999.0000 -999.0000    0.9107    1.2636    1.5717   81.4354    0.2201    2.3252   -0.0015    2.2367   27.0000 
6401.4449 6401.4449   12.2500 -999.0000   46.3251 -999.0000 -999.0000    4.3676 -999.0000    1.1271 -999.0000 -999.0000    0.8426    1.1344    1.3938   82.4699    0.2527    2.3359    0.0001    2.1489   27.0000 
6403.0853 6403.0853   12.2500 -999.0000   43.0336 -999.0000 -999.0000    4.4448 -999.0000    0.9492 -999.0000 -999.0000    0.8300    1.1012    1.3420   82.7739    0.2356    2.3232   -0.0006    2.1972   27.0000 
6404.7257 6404.7257   12.2500 -999.0000   48.9328 -999.0000 -999.0000    4.9781 -999.0000    1.2527 -999.0000 -999.0000    0.8371    1.1394    1.3748   80.5643    0.2265    2.3546   -0.0004    2.1938   36.0000 
6406.3661 6406.3661   12.2500 -999.0000   56.0642 -999.0000 -999.0000    4.8185 -999.0000    1.6035 -999.0000 -999.0000    0.9406    1.2766    1.5019   80.0932    0.2138    2.3555   -0.0020    2.2205   36.0000 
6408.0066 6408.0066   12.2500 -999.0000   49.2769 -999.0000 -999.0000    4.4674 -999.0000    1.4776 -999.0000 -999.0000    0.9140    1.2743    1.4719   80.9137    0.1891    2.3470   -0.0015    2.1937   36.0000 
6409.6470 6409.6470   12.2500 -999.0000   39.7676 -999.0000 -999.0000    3.8446 -999.0000    1.0371 -999.0000 -999.0000    0.9205    1.2835    1.4629   82.3782    0.1983    2.3356    0.0002    2.1691   27.0000 
6411.2874 6411.2874   12.2500 -999.0000   45.7773 -999.0000 -999.0000    4.2351 -999.0000    1.2196 -999.0000 -999.0000    0.9333    1.3530    1.5141   85.9076    0.2463    2.3406   -0.0011    2.2033   27.0000 
6412.9278 6412.9278   12.2500 -999.0000   46.3111 -999.0000 -999.0000    4.9557 -999.0000    1.5801 -999.0000 -999.0000    0.8390    1.1150    1.2282   81.5434    0.2194    2.3161   -0.0040    2.2559   36.0000 
6414.5682 6414.5682   12.2500 -999.0000   63.2349 -999.0000 -999.0000    6.3774 -999.0000    1.7837 -999.0000 -999.0000    1.0220    1.5094    1.7325   78.9954    0.2023    2.3725   -0.0013    2.2891   36.0000 
6416.2087 6416.2087   12.2500 -999.0000   58.4224 -999.0000 -999.0000    6.0185 -999.0000    1.6745 -999.0000 -999.0000    0.9990    1.4484    1.6442   79.6120    0.2245    2.3726    0.0009    2.3039   36.0000 
6417.8491 6417.8491   12.2500 -999.0000   49.6292 -999.0000 -999.0000    5.2522 -999.0000    1.3536 -999.0000 -999.0000    0.9357    1.3428    1.4793   80.5877    0.2116    2.3700    0.0013    2.2509   27.0000 
6419.4895 6419.4895   12.2500 -999.0000   45.0011 -999.0000 -999.0000    5.2666 -999.0000    1.0790 -999.0000 -999.0000    0.8429    1.2182    1.3009   82.2759    0.2154    2.3473    0.0000    2.1526   27.0000 
6421.1299 6421.1299   12.2500 -999.0000   48.4729 -999.0000 -999.0000    6.1846 -999.0000    1.1617 -999.0000 -999.0000    0.9180    1.3195    1.4452   81.8567    0.2306    2.3339   -0.0010    2.2564   36.0000 
6422.7703 6422.7703   12.2500 -999.0000   59.1148 -999.0000 -999.0000    6.7832 -999.0000    1.3559 -999.0000 -999.0000    1.1337    1.7739    2.0771   78.9361    0.2140    2.3810   -0.0018    2.3250   36.0000 
6424.4108 6424.4108   12.2500 -999.0000   53.9092 -999.0000 -999.0000    6.6340 -999.0000    1.4544 -999.0000 -999.0000    1.0647    1.4943    1.6270   80.6333    0.2074    2.3657    0.0006    2.2444   36.0000 
6426.0512 6426.0512   12.2500 -999.0000   57.6124 -999.0000 -999.0000    7.7997 -999.0000    1.3255 -999.0000 -999.0000    1.0334    1.5124    1.6392   80.1536    0.2298    2.3679    0.0036    2.2865   36.0000 
6427.6916 6427.6916   12.2500 -999.0000   52.6698 -999.0000 -999.0000    7.9780 -999.0000    1.1550 -999.0000 -999.0000    0.9810    1.3478    1.5145   78.6548    0.2166    2.3835    0.0009    2.3178   36.0000 
6429.3320 6429.3320   12.2500 -999.0000   48.3528 -999.0000 -999.0000    6.6369 -999.0000    0.9352 -999.0000 -999.0000    1.0086    1.4144    1.5952   75.9249    0.1691    2.4099    0.0028    2.3238   36.0000 
6430.9724 6430.9724   12.2500 -999.0000   49.0148 -999.0000 -999.0000    5.1659 -999.0000    1.3766 -999.0000 -999.0000    0.9891    1.4415    1.5806   77.5893    0.2053    2.3723   -0.0016    2.2425   36.0000 
6432.6129 6432.6129   12.2500 -999.0000   45.6393 -999.0000 -999.0000    5.5353 -999.0000    1.2886 -999.0000 -999.0000    1.0268    1.5110    1.6932   75.9537    0.1771    2.3775   -0.0012    2.2802   36.0000 
