~VERSION INFORMATION
 VERS.                 2.0:   CWLS LOG ASCII STANDARD - VERSION 2.0
 WRAP.                  NO:   SINGLE LINE PER DEPTH STEP
 CREA.                 20/03/2018 14:58:23
#CREATED USING DSPetro VERSION 5000.10.1.3 BY H191660 ON 20/03/2018 14:58:23
~WELL INFORMATION
#MNEM.UNIT       DATA                          DESCRIPTION MNEMONIC
#---------      ---------------------------   --------------------------
 STRT    .FT        128.0000                  : START DEPTH
 STOP    .FT        12500.0000                : STOP DEPTH
 STEP    .FT        0.5000                    : STEP VALUE
 NULL    .      -999.0000                     : NULL VALUE
 DATE    .      20/03/2018                    : LAS file Creation Date
 WELL  .      UNIVERSITY_40_16_4247536999  : Well Name
 COMP  .      Neftex Exploration Insights  : Company
 FLD   .      PHANTOM (WOLFCAMP)           : Field
 STATE .      Texas                        : State
 COUNT .      USA                          : Country
 API   .      42475369990000               : API Number
 UWI   .      222                          : Unique Well Identifier (UWI)
 LOC   .      1980FNL x 1757FWL            : Location
 TOWN  .      16                           : Township
 SCT   .      40                           : Section
 RANG  .      U39                          : Range
 LATI  .      -6470541.88                  : Latitude/Northing
 LONG  .      783810.27                    : Longitude/Easting
 PDAT  .      GL                           : Permanent Datum
 EPDAT .      2604.000000                  : Reference Elevation
 LGMEA .      KB                           : Log Measured from
 DRMEA .      KB                           : Drill Measured From
 APDAT .      25.000000                    : Elevation Above Permanent Datum
 KB    .      2629.00000                   : KB Elevation
 GL    .      2604.00000                   : GL Elevation
 RWS   .      -999                         : Def_Rw
 WST   .      -999                         : Def_Rwt
 CNTY  .      WARD                         : County
 SRVC  .      Diversified Well Logging LLC : Contractor
~CURVE INFORMATION
#MNEM              UNIT       API CODE   Curve Type Comments
#----------  --------------- ----------  ---------- -----------
 DEPTH      .FT                        : Depth       
 BS         .inch                      : BitSize     
 DCAL_INCH  .inch                      :             Differential Caliper - Evaluates the difference between the actual borehole diameter and bit size
 GR         .GAPI                      : GammaRay    Gamma Ray {F11.4}
 LLD_OHMM   .ohmm                      :             Laterlog Deep Resistivity - Measurement made several feet into the formation; generally considered a measurement of the undisturbed formation
 LLM_OHMM   .ohm.m                     :             Laterlog Medium Resistivity - Measurement made approximately two to three feet into the formation - units of ohmm
 LLS_OHMM   .ohmm                      :             Laterlog Shallow Resistivity - one to two feet into the formation; generally considered to measure the formation
 NPHI_RATIO .ratio                     :             Neutron Porosity - Measured with an neutron logging device calibrated to a given matrix (limestone, sandstone and dolomite)
 PEF_B_E    .b/e-                      : PEF         Photoelectric Factor - A log of photoelectric absorption properties. Often expressed in an approximation unit barns/electron (b/e-)
 RHOZ_G_CC  .g/cc                      :             Formation Density - Measures the density of formation, including any void space or other materials contained in the subject volume
 LITH       .                          : LITH        Lithology Curve
~A  DEPTH     BS    DCAL_INC~     GR     LLD_OHMM  LLM_OHMM  LLS_OHMM NPHI_RAT~  PEF_B_E  RHOZ_G_C~    LITH   
# ...
7957.5000    8.7500    0.1950   69.3726   38.7568   26.9290    6.7953    0.0885    3.7542    2.5576   37.0000 
7958.0000    8.7500    0.1838   61.2790   38.7904   27.0315    6.6070    0.0516    3.8372    2.4910   36.0000 
7958.5000    8.7500    0.4953   58.5392   39.8281   28.6458    6.3789    0.0470    3.9159    2.4272   36.0000 
7959.0000    8.7500    2.0763   62.1131   38.2439   28.0689    6.6930    0.0405    3.3126    2.4119   36.0000 
7959.5000    8.7500    2.0837   70.7321   38.5321   28.3078    8.3758    0.0603    3.0675    2.4032   36.0000 
7960.0000    8.7500    2.1393   77.3469   43.7881   32.3710   12.7947    0.0731    3.7506    2.3927   36.0000 
7960.5000    8.7500    2.4392   75.1395   56.1872   40.0204   13.1408    0.0632    3.7755    2.3882   36.0000 
7961.0000    8.7500    2.6096   75.0341   60.5955   42.4429   13.2275    0.0467    3.7287    2.3873   36.0000 
7961.5000    8.7500    2.5948   79.9883   61.3881   41.1822   12.4437    0.0905    3.6859    2.3884   36.0000 
7962.0000    8.7500    2.6096   94.4936   28.3195   19.1787    9.1284    0.1199    3.5466    2.4271   37.0000 
7962.5000    8.7500    2.6170   94.4938   28.5083   20.3311    8.5122    0.1356    3.2627    2.4922   37.0000 
7963.0000    8.7500    4.2095   92.7068   56.9298   38.7086    9.3745    0.0908    3.1286    2.5535   37.0000 
7963.5000    8.7500    4.6835   84.3122   53.0977   39.1914    8.1156    0.0750    3.0785    2.5780   37.0000 
7964.0000    8.7500    5.8982   81.8946   50.4493   47.8781    6.9219    0.0713    3.4485    2.5837   37.0000 
7964.5000    8.7500    5.9871   75.3637   47.3622   64.9481    6.5800    0.0692    3.6145    2.6128   36.0000 
7965.0000    8.7500    7.4315   71.4605   50.5623   76.6620    6.8668    0.0551    3.9628    2.6366   36.0000 
7965.5000    8.7500    5.8390   73.6679   61.2163   93.8827    7.0473    0.0562    3.4960    2.6530   36.0000 
7966.0000    8.7500    5.9390   83.8777   57.2451   88.9936    7.4819    0.0652    3.5489    2.6418   36.0000 
7966.5000    8.7500    6.1427   96.0775   56.2560   85.2674    7.7645    0.0863    3.3531    2.6079   36.0000 
7967.0000    8.7500    5.9575   97.9693   62.8288   96.2268    8.8561    0.1097    3.3927    2.5699   37.0000 
7967.5000    8.7500    4.8687   97.7592   49.7584   80.8180   10.0054    0.1162    3.5686    2.5863   37.0000 
7968.0000    8.7500    1.9948   89.4482   56.3357   51.2176   12.5869    0.1106    3.4094    2.6255   37.0000 
7968.5000    8.7500    0.9208   80.3039   78.7892   57.6550   16.0724    0.0899    3.6940    2.6540   36.0000 
7969.0000    8.7500    0.8060   74.9015   68.1353   46.6528   17.7328    0.0713    2.9469    2.6273   36.0000 
7969.5000    8.7500    1.3726   72.6943   57.7355   40.0294   18.6771    0.0616    2.8959    2.6029   36.0000 
7970.0000    8.7500    1.6097   78.2647   56.2192   40.2513   19.1949    0.0729    3.0595    2.5995   36.0000 
7970.5000    8.7500    1.7060   77.3606   66.6632   47.9599   19.7764    0.0815    3.2108    2.6083   36.0000 
7971.0000    8.7500    0.7727   81.3758   64.7956   47.0378   19.1672    0.1077    3.0174    2.6001   36.0000 
7971.5000    8.7500    0.8764   91.0461   66.2393   47.9705   19.7626    0.1281    3.0631    2.5582   37.0000 
7972.0000    8.7500    1.1060   94.7250   77.4601   55.5193   22.2814    0.1277    3.2165    2.5400   37.0000 
7972.5000    8.7500    1.3652   94.1783   77.3147   56.5155   22.0130    0.1204    3.7350    2.5485   37.0000 
7973.0000    8.7500    0.9208   88.7126   57.9528   43.4579   21.5168    0.1293    3.4187    2.5920   22.0000 
7973.5000    8.7500    1.0690   88.2920   36.9827   28.4120   19.8449    0.1350    3.7336    2.6295   22.0000 
7974.0000    8.7500    0.7727   83.7935   51.3960   38.7465   22.0897    0.1351    3.9130    2.6498   22.0000 
7974.5000    8.7500    0.4098   80.7457   62.1760   46.6508   22.3283    0.1103    3.6865    2.6622   22.0000 
7975.0000    8.7500    0.4542   91.5719   83.8975   61.8048   20.8258    0.1339    3.5734    2.6385   22.0000 
7975.5000    8.7500    0.1727  107.4225   63.7372   47.3083   16.1481    0.1471    3.6507    2.6142   37.0000 
7976.0000    8.7500    0.1283  111.6265   75.6954   55.2231   16.2678    0.1487    3.7454    2.5922   37.0000 
7976.5000    8.7500    0.2764   97.1004   80.7354   58.0506   16.6504    0.1006    3.3461    2.5867   37.0000 
7977.0000    8.7500    0.4246   81.5440   85.7370   61.7735   16.6172    0.0798    3.2952    2.5748   36.0000 
7977.5000    8.7500    0.5505   78.6009  121.6745   84.3837   19.1761    0.0853    3.1217    2.5647   36.0000 
7978.0000    8.7500    0.3875   80.8432   90.3549   63.2721   20.2206    0.1088    3.5639    2.5424   36.0000 
7978.5000    8.7500    0.3949   80.0025   77.0028   52.8659   23.2488    0.1126    3.6029    2.5487   18.0000 
7979.0000    8.7500    0.8394   63.1850  122.5734   83.1928   27.7734    0.0810    4.2811    2.5723   18.0000 
7979.5000    8.7500    0.8764   44.9871  159.9638  106.2728   29.0419    0.0502    5.2148    2.6133   18.0000 
7980.0000    8.7500    0.4764   37.0126  144.8449   97.4960   28.9632    0.0451    5.1783    2.6464   18.0000 
7980.5000    8.7500    0.6394   47.2083   89.6353   59.8243   27.3487    0.0555    4.0577    2.6674   18.0000 
7981.0000    8.7500    0.3172   60.9776   70.5937   46.7327   20.7919    0.0838    4.1677    2.6794   37.0000 
7981.5000    8.7500    0.2764   70.0031   99.5066   64.2432   22.3051    0.0954    3.7163    2.6740   37.0000 
7982.0000    8.7500    0.3653   75.8894  111.5054   69.8156   21.0699    0.0998    3.2708    2.6542   37.0000 
7982.5000    8.7500    0.5949   79.0848  118.4450   71.8609   19.6255    0.0885    3.4518    2.6425   37.0000 
7983.0000    8.7500    0.5172   82.8688  107.0274   65.4817   19.9797    0.0957    3.2157    2.6276   37.0000 
7983.5000    8.7500    0.3727   83.9198  115.8598   72.7108   23.1100    0.1038    3.3066    2.6247   37.0000 
7984.0000    8.7500    0.4616   83.6675  127.4061   77.2130   21.7817    0.1108    3.0283    2.6070   37.0000 
7984.5000    8.7500    0.1135   85.9799  105.9843   66.4655   18.7443    0.1210    2.9933    2.6071   37.0000 
7985.0000    8.7500    0.1135   86.0639  109.2073   65.6896   19.5087    0.1201    3.1546    2.6056   37.0000 
7985.5000    8.7500    0.1135   88.0608  108.0991   66.3877   17.9459    0.1215    3.0625    2.5901   37.0000 
7986.0000    8.7500    0.1172   87.1149  112.5440   69.2810   18.3815    0.1181    3.0113    2.5594   37.0000 
7986.5000    8.7500    0.1394   92.7067   88.4173   55.9908   17.5835    0.1276    2.8827    2.5451   37.0000 
7987.0000    8.7500    0.1727   94.9141   52.6458   35.1183   15.0760    0.1420    3.4988    2.5667   37.0000 
7987.5000    8.7500    0.1653   99.7490   75.0966   50.2919   16.4670    0.1361    3.9463    2.5925   37.0000 
7988.0000    8.7500    0.1283   94.2692   76.6314   51.7112   16.2965    0.1280    3.2763    2.5966   37.0000 
7988.5000    8.7500    0.1135   89.7495   64.5532   46.5593   13.8835    0.1018    3.0567    2.5923   37.0000 
7989.0000    8.7500    0.2394   83.5484   59.1557   45.1791   13.3656    0.1173    2.9628    2.5860   37.0000 
7989.5000    8.7500    0.1838   77.4662   46.7917   37.9836   13.3885    0.1190    2.9069    2.5603   36.0000 
7990.0000    8.7500    0.5949   75.0065   23.6661   20.5984   10.1688    0.1199    2.9122    2.5314   36.0000 
7990.5000    8.7500    0.4690   66.7026   15.8695   14.6157    8.4600    0.1059    2.6109    2.5277   36.0000 
7991.0000    8.7500    0.4838   64.2847   13.8362   13.1913    8.4286    0.0983    2.8191    2.5410   36.0000 
7991.5000    8.7500    0.5060   60.0176   15.3976   14.8657    9.1701    0.0963    2.7976    2.5403   36.0000 
7992.0000    8.7500    0.4505   57.4180   15.1149   14.7554    8.9156    0.0852    2.6736    2.5241   36.0000 
7992.5000    8.7500    0.4394   57.1027   13.9766   13.7106    8.3067    0.0825    2.6007    2.5260   36.0000 
7993.0000    8.7500    0.3727   56.5769   13.9499   13.7004    7.9663    0.0743    2.7171    2.5514   36.0000 
7993.5000    8.7500    0.3505   59.0713   17.2301   16.7307    9.0817    0.0729    2.8018    2.5767   36.0000 
