~VERSION INFORMATION
 VERS.                 2.0:   CWLS LOG ASCII STANDARD - VERSION 2.0
 WRAP.                  NO:   SINGLE LINE PER DEPTH STEP
 CREA.                 20/03/2018 14:41:29
#CREATED USING DSPetro VERSION 5000.10.1.3 BY H191660 ON 20/03/2018 14:41:29
~WELL INFORMATION
#MNEM.UNIT       DATA                          DESCRIPTION MNEMONIC
#---------      ---------------------------   --------------------------
 STRT    .FT        325.3294                  : START DEPTH
 STOP    .FT        12308.5971                : STOP DEPTH
 STEP    .FT        1.6404                    : STEP VALUE
 NULL    .      -999.0000                     : NULL VALUE
 DATE    .      20/03/2018                    : LAS file Creation Date
 WELL .      UNIVERSITY_19-5             : Well Name
 COMP .      Neftex Exploration Insights : Company
 FLD  .      PHANTOM (WOLFCAMP)          : Field
 UWI  .      208                         : Unique Well Identifier (UWI)
 LOC  .                                  : Location
 RWS  .      -999                        : Def_Rw
 WST  .      -999                        : Def_Rwt
 SRVC .                                  : Contractor
~CURVE INFORMATION
#MNEM              UNIT       API CODE   Curve Type Comments
#----------  --------------- ----------  ---------- -----------
 DEPTH      .FT                        : Depth       
 DEPTH      .FT                        : Depth       
 BS         .inch                      : BitSize     
 CAL_INCH   .inch                      :             Caliper Log - A representation of the measured diameter of a borehole along its depth
 GR_API     .API                       : GammaRay    Gamma Ray (API) - Measures the intensity of natural gamma-ray radiation emitted from formations containing radioactive elements, such as K, Th and U
 SGR_API    .API                       : GammaRay    Spectral Gamma Ray - Total gamma calibrated to API, measured using a spectoral gamma array tool
 CGR_API    .API                       : GammaRay    Corrected / Computed Gamma Ray - Radiation with the Uranium component removed. Also known as a 'carbonate gamma ray'
 TH_PPM     .ppm                       : Spectral    Thorium Abundance (SGR) - The quantitative elemental abundace of Thorium derived from the Spectral Gamma Ray Log
 K_per        .PC                        :             Potassium Abundance (SGR) - The quantitative elemental abundace of Potassium derived from the Spectral Gamma Ray Log. Also wt_%
 U_PPM      .ppm                       :             Uranium Abundance (SGR) - The quantitative elemental abundace of Uranium derived from the Spectral Gamma Ray Log
 ThK        .PPM                       : Spectral    
 ThU        .PPM                       : Spectral    
 SRES       .ohmm                      :             10" array induction, two foot resistivity
 MRES       .ohm.m                     :             30" array induction, two foot resistivity
 DRES       .ohmm                      :             90" array induction, two foot resistivity log - units of ohmm
 DT_US_FT   .us/ft                     :             Interval Transit Time: Compressional Wave - Evaluates the time it takes for a compressional wave to traverse a fixed distance
 NPHI_RATIO .ratio                     :             Neutron Porosity - Measured with an neutron logging device calibrated to a given matrix (limestone, sandstone and dolomite)
 RHOB_G_CC  .g/cc                      :             Bulk Density - Measures the density of bulk material, including any void space or other materials contained in the subject volume
 DRHO_G_CC  .g/cc                      :             Density Correction - Investigates the correction to the Bulk Density log; used as an indication of hole condition to validate the Bulk Density measure
 PEF_B_E    .b/e-                      : PEF         Photoelectric Factor - A log of photoelectric absorption properties. Often expressed in an approximation unit barns/electron (b/e-)
 LITH       .                          : LITH        Lithology Curve
~A  DEPTH   DEPTH       BS     CAL_INCH   GR_API   SGR_API   CGR_API    TH_PPM     K_per      U_PPM      ThK       ThU       SRES      MRES      DRES    DT_US_FT NPHI_RAT~ RHOB_G_C~ DRHO_G_C~  PEF_B_E     LITH   
# ...
11732.8097 11732.8097   12.2500 -999.0000  105.8509 -999.0000 -999.0000   19.9835 -999.0000    5.9617 -999.0000 -999.0000    1.7071    8.8429   19.6420   90.0092    0.2379    2.4380   -0.0006    2.8453   37.0000 
11734.4501 11734.4501   12.2500 -999.0000  119.4168 -999.0000 -999.0000   24.5856 -999.0000    6.8173 -999.0000 -999.0000    1.3018    4.9844    9.6396   90.2295    0.2021    1.8699    0.0714    2.4360   11.0000 
11736.0906 11736.0906   12.2500 -999.0000  175.1263 -999.0000 -999.0000   37.1070 -999.0000    9.9283 -999.0000 -999.0000 100000.0000 100000.0000 100000.0000  112.4366    0.3891    2.0502    0.2361    2.4324   11.0000 
11737.7310 11737.7310   12.2500 -999.0000  252.1061 -999.0000 -999.0000   50.5272 -999.0000   13.0916 -999.0000 -999.0000    1.3225    6.2383   12.6228   87.2354    0.2421    2.5342    0.0895    3.6300   11.0000 
11739.3714 11739.3714   12.2500 -999.0000  292.9196 -999.0000 -999.0000   52.9890 -999.0000   15.0628 -999.0000 -999.0000    0.9517    4.9779   11.2910   91.4990    0.2026    2.1560    0.0165    3.1861   11.0000 
11741.0118 11741.0118   12.2500 -999.0000  263.9825 -999.0000 -999.0000   48.4953 -999.0000   13.2333 -999.0000 -999.0000 100000.0000 100000.0000 100000.0000  113.5427    0.5843    1.4726   -0.1368    3.5120   11.0000 
11742.6522 11742.6522   12.2500 -999.0000  141.2661 -999.0000 -999.0000   32.4690 -999.0000    9.1015 -999.0000 -999.0000    0.9243   11.4846    8.5738  126.1745    0.6881    1.6037   -0.2702    6.6287   11.0000 
11744.2927 11744.2927   12.2500 -999.0000   89.5899 -999.0000 -999.0000   12.9982 -999.0000    3.7375 -999.0000 -999.0000    1.7641    9.0240   20.8178   87.5768    0.2172    2.4940   -0.0093    2.8133   11.0000 
11745.9331 11745.9331   12.2500 -999.0000   83.5674 -999.0000 -999.0000   10.0020 -999.0000    3.9397 -999.0000 -999.0000    1.7674    7.9773   21.7342   87.2452    0.1986    2.5066    0.0070    2.9220   11.0000 
11747.5735 11747.5735   12.2500 -999.0000   74.7276 -999.0000 -999.0000   10.1984 -999.0000    3.7366 -999.0000 -999.0000    1.7089    7.8656   16.2528   84.3662    0.1794    2.5461    0.1670    2.9778   11.0000 
11749.2139 11749.2139   12.2500 -999.0000   76.7745 -999.0000 -999.0000    9.4659 -999.0000    4.0384 -999.0000 -999.0000    1.6592    7.0217   10.6317   89.2754    0.2422    2.5579    0.1413    2.9620   11.0000 
11750.8543 11750.8543   12.2500 -999.0000   92.2052 -999.0000 -999.0000   10.1422 -999.0000    3.9812 -999.0000 -999.0000    1.7650    7.7704   11.5790   91.4401    0.2404    2.4843    0.0207    2.8847   11.0000 
11752.4948 11752.4948   12.2500 -999.0000   88.4278 -999.0000 -999.0000    8.3930 -999.0000    4.3218 -999.0000 -999.0000    1.7606    7.3439   10.5106   92.9379    0.2676    2.4840    0.0241    2.8587   37.0000 
11754.1352 11754.1352   12.2500 -999.0000   83.8929 -999.0000 -999.0000    9.0896 -999.0000    4.0492 -999.0000 -999.0000    1.8397    7.8962   10.5214   92.1007    0.2329    2.4600    0.0022    2.7707   37.0000 
11755.7756 11755.7756   12.2500 -999.0000   93.7170 -999.0000 -999.0000    8.4813 -999.0000    5.5245 -999.0000 -999.0000    1.8822    9.6999   14.2916   84.1008    0.2085    2.5096    0.0224    3.1024   37.0000 
11757.4160 11757.4160   12.2500 -999.0000   61.5394 -999.0000 -999.0000    6.5685 -999.0000    4.3447 -999.0000 -999.0000    1.8204   11.5772   19.6578   76.0307    0.2125    2.5098   -0.0003    3.7441   22.0000 
11759.0564 11759.0564   12.2500 -999.0000   44.5668 -999.0000 -999.0000    4.7507 -999.0000    3.4331 -999.0000 -999.0000    1.9008   14.9945   34.3426   75.5813    0.1337    2.5259    0.0005    3.8498   22.0000 
11760.6969 11760.6969   12.2500 -999.0000   77.5228 -999.0000 -999.0000    7.3850 -999.0000    4.1476 -999.0000 -999.0000    1.7896    9.2525   13.6792   89.2715    0.2436    2.4844    0.0306    2.7734   37.0000 
11762.3373 11762.3373   12.2500 -999.0000   69.6410 -999.0000 -999.0000    5.9295 -999.0000    3.8649 -999.0000 -999.0000    1.8681   11.0685   16.2043   78.0407    0.1982    2.5168    0.0183    3.4134   37.0000 
11763.9777 11763.9777   12.2500 -999.0000   53.9848 -999.0000 -999.0000    4.9370 -999.0000    3.0872 -999.0000 -999.0000    1.8005   11.0150   18.7512   77.7257    0.1463    2.5733    0.0004    4.0778   22.0000 
11765.6181 11765.6181   12.2500 -999.0000   60.6766 -999.0000 -999.0000    5.6960 -999.0000    3.2356 -999.0000 -999.0000    1.7858    9.2065   16.0121   86.6933    0.1707    2.5551   -0.0021    3.9380   22.0000 
11767.2585 11767.2585   12.2500 -999.0000   88.3059 -999.0000 -999.0000    8.9745 -999.0000    4.2014 -999.0000 -999.0000    1.6445    7.7653   14.3546   89.1330    0.2033    2.5269    0.0428    2.8111   37.0000 
11768.8990 11768.8990   12.2500 -999.0000   82.3817 -999.0000 -999.0000    8.7805 -999.0000    4.2480 -999.0000 -999.0000    1.5591    8.0463   15.4468   90.9884    0.2283    2.4408    0.0017    2.6681   37.0000 
11770.5394 11770.5394   12.2500 -999.0000   79.8030 -999.0000 -999.0000    9.7162 -999.0000    4.1508 -999.0000 -999.0000    1.5932    8.3046   16.1147   92.5366    0.2242    2.4378   -0.0032    2.5710   37.0000 
11772.1798 11772.1798   12.2500 -999.0000   80.0044 -999.0000 -999.0000    9.6035 -999.0000    3.1181 -999.0000 -999.0000    1.5683    8.3004   17.8299   89.2177    0.1824    2.4621    0.0051    2.6130   37.0000 
11773.8202 11773.8202   12.2500 -999.0000   76.4425 -999.0000 -999.0000   10.2893 -999.0000    3.0221 -999.0000 -999.0000    1.6026    7.2196   13.5593   89.3150    0.2062    2.4608    0.0086    2.6281   37.0000 
11775.4606 11775.4606   12.2500 -999.0000   71.9068 -999.0000 -999.0000    9.7254 -999.0000    3.0526 -999.0000 -999.0000    1.6497    7.9081   14.9831   89.5254    0.1893    2.4729    0.0067    2.7501   37.0000 
11777.1010 11777.1010   12.2500 -999.0000   69.9654 -999.0000 -999.0000    9.5307 -999.0000    3.0517 -999.0000 -999.0000    1.6733    6.7676   10.7777   90.4061    0.1931    2.4540    0.0169    2.6695   37.0000 
11778.7415 11778.7415   12.2500 -999.0000   69.1004 -999.0000 -999.0000    9.7817 -999.0000    4.1811 -999.0000 -999.0000    1.7449    8.6859   15.4022   85.0156    0.2161    2.5281    0.0032    3.3145   37.0000 
11780.3819 11780.3819   12.2500 -999.0000   66.4389 -999.0000 -999.0000    6.7988 -999.0000    3.5259 -999.0000 -999.0000    1.8174   11.0620   21.1499   83.0002    0.2076    2.5380    0.0008    3.8364   22.0000 
11782.0223 11782.0223   12.2500 -999.0000   70.6529 -999.0000 -999.0000    7.8435 -999.0000    5.5185 -999.0000 -999.0000    1.8295   11.1621   22.1094   91.1293    0.1859    2.5282    0.0021    3.2991   37.0000 
11783.6627 11783.6627   12.2500 -999.0000   84.9733 -999.0000 -999.0000    8.8970 -999.0000    6.0091 -999.0000 -999.0000    1.7723    8.5180   13.9318   90.5989    0.1979    2.4788    0.0005    2.9350   37.0000 
11785.3031 11785.3031   12.2500 -999.0000   82.7483 -999.0000 -999.0000    7.3620 -999.0000    4.6086 -999.0000 -999.0000    1.7859    8.8820   13.9941   90.4111    0.2042    2.4885   -0.0034    3.1086   37.0000 
11786.9436 11786.9436   12.2500 -999.0000   84.9725 -999.0000 -999.0000    9.6817 -999.0000    4.5608 -999.0000 -999.0000    1.6828    7.5381   10.4721   91.4464    0.2485    2.4741   -0.0028    3.3427   37.0000 
11788.5840 11788.5840   12.2500 -999.0000   76.6479 -999.0000 -999.0000    8.8496 -999.0000    3.7938 -999.0000 -999.0000    1.6538    7.2212    9.7255   88.1358    0.2120    2.5134    0.0078    3.0557   37.0000 
11790.2244 11790.2244   12.2500 -999.0000   76.2267 -999.0000 -999.0000    7.7775 -999.0000    4.0694 -999.0000 -999.0000    1.7478    9.5768   14.7192   87.1334    0.2385    2.4922    0.0025    3.2145   37.0000 
11791.8648 11791.8648   12.2500 -999.0000   84.4324 -999.0000 -999.0000    8.1847 -999.0000    3.9928 -999.0000 -999.0000    1.7481    8.3227   12.4674   88.6285    0.2135    2.4968    0.0093    2.8689   37.0000 
11793.5052 11793.5052   12.2500 -999.0000   81.6388 -999.0000 -999.0000    8.3594 -999.0000    4.4632 -999.0000 -999.0000    1.7649    9.9716   18.0115   83.8497    0.2261    2.4994    0.0192    2.9281   37.0000 
