~VERSION INFORMATION
 VERS.                 2.0:   CWLS LOG ASCII STANDARD - VERSION 2.0
 WRAP.                  NO:   SINGLE LINE PER DEPTH STEP
 CREA.                 20/03/2018 14:41:29
#CREATED USING DSPetro VERSION 5000.10.1.3 BY H191660 ON 20/03/2018 14:41:29
~WELL INFORMATION
#MNEM.UNIT       DATA                          DESCRIPTION MNEMONIC
#---------      ---------------------------   --------------------------
 STRT    .FT        325.3294                  : START DEPTH
 STOP    .FT        12308.5971                : STOP DEPTH
 STEP    .FT        1.6404                    : STEP VALUE
 NULL    .      -999.0000                     : NULL VALUE
 DATE    .      20/03/2018                    : LAS file Creation Date
 WELL .      UNIVERSITY_19-5             : Well Name
 COMP .      Neftex Exploration Insights : Company
 FLD  .      PHANTOM (WOLFCAMP)          : Field
 UWI  .      208                         : Unique Well Identifier (UWI)
 LOC  .                                  : Location
 RWS  .      -999                        : Def_Rw
 WST  .      -999                        : Def_Rwt
 SRVC .                                  : Contractor
~CURVE INFORMATION
#MNEM              UNIT       API CODE   Curve Type Comments
#----------  --------------- ----------  ---------- -----------
 DEPTH      .FT                        : Depth       
 DEPTH      .FT                        : Depth       
 BS         .inch                      : BitSize     
 CAL_INCH   .inch                      :             Caliper Log - A representation of the measured diameter of a borehole along its depth
 GR_API     .API                       : GammaRay    Gamma Ray (API) - Measures the intensity of natural gamma-ray radiation emitted from formations containing radioactive elements, such as K, Th and U
 SGR_API    .API                       : GammaRay    Spectral Gamma Ray - Total gamma calibrated to API, measured using a spectoral gamma array tool
 CGR_API    .API                       : GammaRay    Corrected / Computed Gamma Ray - Radiation with the Uranium component removed. Also known as a 'carbonate gamma ray'
 TH_PPM     .ppm                       : Spectral    Thorium Abundance (SGR) - The quantitative elemental abundace of Thorium derived from the Spectral Gamma Ray Log
 K_per        .PC                        :             Potassium Abundance (SGR) - The quantitative elemental abundace of Potassium derived from the Spectral Gamma Ray Log. Also wt_%
 U_PPM      .ppm                       :             Uranium Abundance (SGR) - The quantitative elemental abundace of Uranium derived from the Spectral Gamma Ray Log
 ThK        .PPM                       : Spectral    
 ThU        .PPM                       : Spectral    
 SRES       .ohmm                      :             10" array induction, two foot resistivity
 MRES       .ohm.m                     :             30" array induction, two foot resistivity
 DRES       .ohmm                      :             90" array induction, two foot resistivity log - units of ohmm
 DT_US_FT   .us/ft                     :             Interval Transit Time: Compressional Wave - Evaluates the time it takes for a compressional wave to traverse a fixed distance
 NPHI_RATIO .ratio                     :             Neutron Porosity - Measured with an neutron logging device calibrated to a given matrix (limestone, sandstone and dolomite)
 RHOB_G_CC  .g/cc                      :             Bulk Density - Measures the density of bulk material, including any void space or other materials contained in the subject volume
 DRHO_G_CC  .g/cc                      :             Density Correction - Investigates the correction to the Bulk Density log; used as an indication of hole condition to validate the Bulk Density measure
 PEF_B_E    .b/e-                      : PEF         Photoelectric Factor - A log of photoelectric absorption properties. Often expressed in an approximation unit barns/electron (b/e-)
 LITH       .                          : LITH        Lithology Curve
~A  DEPTH   DEPTH       BS     CAL_INCH   GR_API   SGR_API   CGR_API    TH_PPM     K_per      U_PPM      ThK       ThU       SRES      MRES      DRES    DT_US_FT NPHI_RAT~ RHOB_G_C~ DRHO_G_C~  PEF_B_E     LITH   
# ...
9800.3950 9800.3950   12.2500 -999.0000   85.6561 -999.0000 -999.0000    7.0811 -999.0000    6.6453 -999.0000 -999.0000    2.3126   11.1998   21.4046   80.1730    0.2110    2.3853    0.0024    2.3194   37.0000 
9802.0354 9802.0354   12.2500 -999.0000   46.4524 -999.0000 -999.0000    4.7177 -999.0000    3.2460 -999.0000 -999.0000    2.2467    9.2760   17.0041   74.5139    0.1569    2.3965    0.0009    2.1221   27.0000 
9803.6759 9803.6759   12.2500 -999.0000   47.3771 -999.0000 -999.0000    6.2535 -999.0000    2.1308 -999.0000 -999.0000    2.1704    8.3200   15.1346   74.2181    0.1722    2.4206   -0.0006    2.2423   36.0000 
9805.3163 9805.3163   12.2500 -999.0000   50.5918 -999.0000 -999.0000    6.9716 -999.0000    1.4481 -999.0000 -999.0000    2.1680    7.5414   13.9351   75.4273    0.1494    2.4313   -0.0006    2.2287   36.0000 
9806.9567 9806.9567   12.2500 -999.0000   49.4854 -999.0000 -999.0000    6.7177 -999.0000    1.5097 -999.0000 -999.0000    2.2053    7.3508   13.3985   75.7766    0.1318    2.4234    0.0000    2.1993   36.0000 
9808.5971 9808.5971   12.2500 -999.0000   54.2477 -999.0000 -999.0000    6.5423 -999.0000    1.6846 -999.0000 -999.0000    2.1946    7.3516   13.3583   76.4151    0.1401    2.4061    0.0046    2.2428   36.0000 
9810.2375 9810.2375   12.2500 -999.0000   57.0284 -999.0000 -999.0000    6.0168 -999.0000    1.9069 -999.0000 -999.0000    2.1443    7.4647   13.4058   76.0666    0.1682    2.4329    0.0082    2.2826   36.0000 
9811.8780 9811.8780   12.2500 -999.0000   54.1661 -999.0000 -999.0000    7.0381 -999.0000    1.6500 -999.0000 -999.0000    2.1215    7.4405   12.9129   75.9432    0.1574    2.4319    0.0017    2.2485   36.0000 
9813.5184 9813.5184   12.2500 -999.0000   54.0984 -999.0000 -999.0000    7.5555 -999.0000    2.1700 -999.0000 -999.0000    2.1273    7.1117   12.0572   75.9196    0.1573    2.4322    0.0041    2.2820   36.0000 
9815.1588 9815.1588   12.2500 -999.0000   58.2917 -999.0000 -999.0000    6.0931 -999.0000    2.3248 -999.0000 -999.0000    2.1691    7.5987   11.9618   75.0174    0.1568    2.4474    0.0014    2.3012   36.0000 
9816.7992 9816.7992   12.2500 -999.0000   52.8960 -999.0000 -999.0000    5.0930 -999.0000    2.6718 -999.0000 -999.0000    2.2520    8.5979   13.5543   73.4163    0.1391    2.4532   -0.0028    2.4202   36.0000 
9818.4396 9818.4396   12.2500 -999.0000   47.2690 -999.0000 -999.0000    3.6504 -999.0000    2.8635 -999.0000 -999.0000    2.2518   11.0599   19.5238   62.8608    0.0750    2.5879    0.0037    2.8459   27.0000 
9820.0801 9820.0801   12.2500 -999.0000   58.2096 -999.0000 -999.0000    4.3817 -999.0000    4.9112 -999.0000 -999.0000    2.2828   13.5868   25.3367   63.5962    0.0448    2.5755   -0.0045    3.2849   27.0000 
9821.7205 9821.7205   12.2500 -999.0000  122.4049 -999.0000 -999.0000    6.8509 -999.0000    8.6660 -999.0000 -999.0000    2.2655   11.2549   15.6782   84.2321    0.1976    2.5227   -0.0096    2.7617   37.0000 
9823.3609 9823.3609   12.2500 -999.0000   92.2573 -999.0000 -999.0000    5.3474 -999.0000    7.0983 -999.0000 -999.0000    2.3721   19.4204   40.8461   74.6320    0.1516    2.4990   -0.0022    2.7291   37.0000 
9825.0013 9825.0013   12.2500 -999.0000   74.3804 -999.0000 -999.0000    4.6355 -999.0000    5.3812 -999.0000 -999.0000    2.4204   20.1629   51.0378   71.7386    0.0930    2.5618    0.0020    2.9566   37.0000 
9826.6417 9826.6417   12.2500 -999.0000   83.9067 -999.0000 -999.0000    5.4925 -999.0000    5.0973 -999.0000 -999.0000    2.4176   20.2381   49.6004   68.0037    0.1231    2.5298   -0.0021    3.1291   37.0000 
9828.2822 9828.2822   12.2500 -999.0000   53.9558 -999.0000 -999.0000    2.9832 -999.0000    3.9449 -999.0000 -999.0000    2.5072   27.9645  154.0724   66.2264    0.0472    2.5665   -0.0056    3.5894   22.0000 
9829.9226 9829.9226   12.2500 -999.0000  104.9092 -999.0000 -999.0000    6.6900 -999.0000   10.7579 -999.0000 -999.0000    2.4923   26.6834  100.0276   80.7725    0.1977    2.4615    0.0009    2.4359   37.0000 
9831.5630 9831.5630   12.2500 -999.0000  112.6319 -999.0000 -999.0000    6.0419 -999.0000   10.5593 -999.0000 -999.0000    2.5207   28.1136  110.1933   78.3201    0.1522    2.4803   -0.0001    2.3649   37.0000 
9833.2034 9833.2034   12.2500 -999.0000   91.4245 -999.0000 -999.0000    5.5110 -999.0000    7.9246 -999.0000 -999.0000    2.5106   26.3537   81.0049   79.4855    0.1560    2.4793    0.0023    2.4817   37.0000 
9834.8438 9834.8438   12.2500 -999.0000  102.2996 -999.0000 -999.0000    5.5932 -999.0000    7.8666 -999.0000 -999.0000    2.4722   21.7329   56.3466   78.5393    0.1444    2.4854   -0.0026    2.4462   37.0000 
9836.4843 9836.4843   12.2500 -999.0000   95.1071 -999.0000 -999.0000    5.3368 -999.0000    7.2649 -999.0000 -999.0000    2.4618   19.2440   40.5285   78.9178    0.1647    2.5103   -0.0021    2.6277   37.0000 
9838.1247 9838.1247   12.2500 -999.0000   68.5423 -999.0000 -999.0000    3.0290 -999.0000    4.8349 -999.0000 -999.0000    2.4465   27.9507  150.1115   70.5341    0.0954    2.5392   -0.0083    3.6834   22.0000 
9839.7651 9839.7651   12.2500 -999.0000   96.9520 -999.0000 -999.0000    4.8411 -999.0000    8.0766 -999.0000 -999.0000    2.4421   22.8710   64.1776   79.2610    0.1572    2.5122    0.0042    2.6853   37.0000 
9841.4055 9841.4055   12.2500 -999.0000   98.0373 -999.0000 -999.0000    5.7092 -999.0000    8.2474 -999.0000 -999.0000    2.4514   23.8628   76.9557   81.0844    0.1684    2.4845    0.0016    2.3555   37.0000 
9843.0459 9843.0459   12.2500 -999.0000  103.2652 -999.0000 -999.0000    5.7673 -999.0000    7.1825 -999.0000 -999.0000    2.4206   23.2055   73.7552   76.2387    0.2222    2.5072   -0.0005    2.6319   37.0000 
9844.6864 9844.6864   12.2500 -999.0000   42.8250 -999.0000 -999.0000    3.2684 -999.0000    3.8551 -999.0000 -999.0000    2.4460   29.6403  275.0674   63.4563    0.0381    2.6516    0.0255    3.6029   22.0000 
9846.3268 9846.3268   12.2500 -999.0000   77.1664 -999.0000 -999.0000    5.8360 -999.0000    7.1489 -999.0000 -999.0000    2.4074   23.6780   80.0192   78.0973    0.1388    2.5313    0.0109    2.7708   37.0000 
9847.9672 9847.9672   12.2500 -999.0000   85.7600 -999.0000 -999.0000    5.1830 -999.0000    5.0846 -999.0000 -999.0000    2.4861   22.6359   69.5357   72.4100    0.1872    2.5214   -0.0022    2.8595   37.0000 
9849.6076 9849.6076   12.2500 -999.0000   84.5818 -999.0000 -999.0000    5.9021 -999.0000    5.7220 -999.0000 -999.0000    2.4775   23.7609   82.5609   74.3320    0.1202    2.5434   -0.0061    2.9172   37.0000 
9851.2480 9851.2480   12.2500 -999.0000  101.3608 -999.0000 -999.0000    6.9987 -999.0000    7.1445 -999.0000 -999.0000    2.4850   22.7524   67.0161   78.9461    0.1813    2.4870   -0.0067    2.4910   37.0000 
9852.8885 9852.8885   12.2500 -999.0000  106.7208 -999.0000 -999.0000    7.2937 -999.0000    8.3330 -999.0000 -999.0000    2.4548   20.9690   44.3348   78.6280    0.2008    2.5014    0.0015    2.4686   37.0000 
9854.5289 9854.5289   12.2500 -999.0000   92.6683 -999.0000 -999.0000    6.0518 -999.0000    7.4619 -999.0000 -999.0000    2.4815   25.3472   74.4902   75.4441    0.1797    2.5038   -0.0015    2.6513   37.0000 
9856.1693 9856.1693   12.2500 -999.0000   82.6937 -999.0000 -999.0000    5.3113 -999.0000    7.6068 -999.0000 -999.0000    2.5260   22.5934   52.7860   77.3670    0.1229    2.5036    0.0004    3.0569   37.0000 
9857.8097 9857.8097   12.2500 -999.0000   45.4520 -999.0000 -999.0000    2.9822 -999.0000    3.8816 -999.0000 -999.0000    2.5710   34.4540  123.9761   60.4615    0.0645    2.6295    0.0102    3.5746   22.0000 
9859.4501 9859.4501   12.2500 -999.0000   56.6449 -999.0000 -999.0000    3.8150 -999.0000    4.6243 -999.0000 -999.0000    2.6108   27.2725   66.9964   68.8221    0.0843    2.5814   -0.0055    3.5126   22.0000 
9861.0906 9861.0906   12.2500 -999.0000   92.1218 -999.0000 -999.0000    6.5190 -999.0000    6.9793 -999.0000 -999.0000    2.5932   29.2259   69.1929   73.7330    0.1524    2.4902   -0.0144    3.6287   22.0000 
