~VERSION INFORMATION
 VERS.                 2.0:   CWLS LOG ASCII STANDARD - VERSION 2.0
 WRAP.                  NO:   SINGLE LINE PER DEPTH STEP
 CREA.                 20/03/2018 14:55:32
#CREATED USING DSPetro VERSION 5000.10.1.3 BY H191660 ON 20/03/2018 14:55:32
~WELL INFORMATION
#MNEM.UNIT       DATA                          DESCRIPTION MNEMONIC
#---------      ---------------------------   --------------------------
 STRT    .FT        10799.4984                : START DEPTH
 STOP    .FT        13010.9983                : STOP DEPTH
 STEP    .FT        0.5000                    : STEP VALUE
 NULL    .      -999.0000                     : NULL VALUE
 DATE    .      20/03/2018                    : LAS file Creation Date
 WELL  .      UNIVERSITY_21-17             : Well Name
 COMP  .      Neftex Exploration Insights  : Company
 FLD   .                                   : Field
 STATE .      Texas                        : State
 API   .      42475370100000               : API Number
 UWI   .      213                          : Unique Well Identifier (UWI)
 LOC   .                                   : Location
 LATI  .      -6235758.22                  : Latitude/Northing
 LONG  .      777123.41                    : Longitude/Easting
 RWS   .      -999                         : Def_Rw
 WST   .      -999                         : Def_Rwt
 CNTY  .      WARD                         : County
 SRVC  .      Diversified Well Logging LLC : Contractor
~CURVE INFORMATION
#MNEM              UNIT       API CODE   Curve Type Comments
#----------  --------------- ----------  ---------- -----------
 DEPTH      .FT                        : Depth       
 DCAL_INCH  .inch                      :             Differential Caliper - Evaluates the difference between the actual borehole diameter and bit size
 GR_API     .API                       : GammaRay    Gamma Ray (API) - Measures the intensity of natural gamma-ray radiation emitted from formations containing radioactive elements, such as K, Th and U
 CGR_API    .API                       : GammaRay    Corrected / Computed Gamma Ray - Radiation with the Uranium component removed. Also known as a 'carbonate gamma ray'
 K_per        .PC                        :             Potassium Abundance (SGR) - The quantitative elemental abundace of Potassium derived from the Spectral Gamma Ray Log. Also wt_%
 TH_PPM     .ppm                       : Spectral    Thorium Abundance (SGR) - The quantitative elemental abundace of Thorium derived from the Spectral Gamma Ray Log
 U_PPM      .ppm                       :             Uranium Abundance (SGR) - The quantitative elemental abundace of Uranium derived from the Spectral Gamma Ray Log
 RD_OHMM    .ohmm                      :             Unspecified Deep Resistivity - No accroynm or method of attainment is specified - units of ohmm
 RM_OHMM    .ohm.m                     :             Unspecified Medium Resistivity - No accroynm or method of attainment is specified
 MSFL_OHMM  .ohmm                      :             Micro-Spherically Focused Log - Measurement involves only the first few inches of the formation immediately adjacent to the borehole
 NPHI_RATIO .ratio                     :             Neutron Porosity - Measured with an neutron logging device calibrated to a given matrix (limestone, sandstone and dolomite)
 RHOZ_G_CC  .g/cc                      :             Formation Density - Measures the density of formation, including any void space or other materials contained in the subject volume
 PEF_B_E    .b/e-                      : PEF         Photoelectric Factor - A log of photoelectric absorption properties. Often expressed in an approximation unit barns/electron (b/e-)
 LITH       .                          : LITH        Lithology Curve
~A  DEPTH DCAL_INC~   GR_API   CGR_API     K_per      TH_PPM    U_PPM    RD_OHMM   RM_OHMM  MSFL_OHM~ NPHI_RAT~ RHOZ_G_C~  PEF_B_E     LITH   
# ...
12053.4984    0.0207   38.0713   25.6393    0.7319    3.9186    1.4664   31.1532   31.6964   10.8223    0.0721    2.7053    6.1837   18.0000 
12053.9984    0.1104   39.4227   24.9063    0.7200    3.7540    1.7191   19.9439   20.5454    0.9307    0.0721    2.6772    6.0130   18.0000 
12054.4984   -0.0008   42.2389   21.9211    0.6446    3.2403    2.1614   32.0253   33.3899   10.4897    0.0728    2.6565    5.8483   18.0000 
12054.9984   -0.0116   45.5855   18.8752    0.5652    2.7304    2.5237   33.6671   34.2171   22.3756    0.0734    2.6634    5.7578   22.0000 
12055.4984   -0.0116   44.6845   19.1409    0.5520    2.8923    2.4311   20.0974   19.6448   22.4997    0.0774    2.6690    5.7448   22.0000 
12055.9984   -0.0008   42.6569   20.1932    0.6010    2.9421    2.1289   31.7349   30.7593   25.3841    0.0758    2.6793    5.7181   22.0000 
12056.4984   -0.0224   43.8791   19.3492    0.5644    2.8867    2.2554   32.4638   31.8850   19.8069    0.0750    2.6763    5.7747   22.0000 
12056.9984    0.1822   43.3160   20.9410    0.6065    3.1496    2.0403   22.6579   22.1981   24.6564    0.0761    2.6697    5.8317   22.0000 
12057.4984    0.2145   44.3296   23.1569    0.6412    3.6555    1.9158   22.3828   21.9820   29.9652    0.0832    2.6674    6.3836   22.0000 
12057.9984    0.1750   45.9559   25.0901    0.6657    4.1306    2.2516   26.7880   26.0970    1.4812    0.0849    2.5959    7.4677   22.0000 
12058.4984    0.1607   48.0156   26.2501    0.7037    4.2792    2.5750   19.1718   18.6703    0.4095    0.0853    2.4425    8.8152   22.0000 
12058.9984    0.1284   53.6473   30.5699    0.7470    5.4081    2.7749   10.0389    9.7419    0.1717    0.1050    2.2673    9.6869   22.0000 
12059.4984    0.2037   57.3008   31.7570    0.7591    5.7163    2.7752   10.1366    9.7876    0.1314    0.1297    2.2790    9.9346   22.0000 
12059.9984    0.3007   59.9720   32.2634    0.7750    5.7856    2.6580   10.1984   10.1741    0.1227    0.1415    2.4404    9.2914   22.0000 
12060.4984    0.1714   55.5150   31.3800    0.7577    5.6048    2.4474   19.4340   19.6628    0.4930    0.1330    2.6034    8.3802   22.0000 
12060.9984    0.2325   51.9739   29.5519    0.7286    5.1904    2.4906   21.1737   21.2986    0.5874    0.1175    2.6331    7.6401   22.0000 
12061.4984    0.2468   46.3422   26.8739    0.6304    4.9091    2.3454   33.8697   33.6146    0.2577    0.0998    2.5933    7.6302   22.0000 
12061.9984    0.1104   43.5904   26.4935    0.6203    4.8461    1.6610   31.2827   30.6475    0.3799    0.0874    2.5968    7.8188   18.0000 
12062.4984    0.0961   39.5356   23.0737    0.5184    4.3486    1.4894   40.0900   39.4540    0.1860    0.0696    2.6366    7.7698   18.0000 
12062.9984    0.1930   40.6617   21.3114    0.4790    4.0150    1.7006   44.2863   42.9801    8.9466    0.0615    2.6511    7.5300   18.0000 
12063.4984    0.4335   41.2251   23.4195    0.5542    4.2502    1.8645    7.8180    7.5388    0.6540    0.1070    2.6526    7.3320   18.0000 
12063.9984    0.7206   44.1535   25.5312    0.6214    4.5332    1.8927    6.8955    6.7241    0.1849    0.1668    2.6431    7.1060   22.0000 
12064.4984    0.2109   46.3499   26.0690    0.6467    4.5573    2.2223   22.5657   22.3191    0.4835    0.1990    2.6750    6.6556   22.0000 
12064.9984    0.1248   46.0121   23.7356    0.6171    3.9840    2.1375   30.4083   29.8387   14.8246    0.1571    2.6789    6.0804   22.0000 
12065.4984    0.0638   41.9574   24.0857    0.6508    3.8988    1.9116   37.5972   36.6499   11.8603    0.0980    2.6740    5.7894   18.0000 
12065.9984    0.0817   39.7609   26.0476    0.6769    4.3738    1.8971   37.4085   36.4404   19.0337    0.0731    2.6613    6.0465   18.0000 
12066.4984    0.0961   46.9695   29.7603    0.8082    4.7931    2.0342   17.6462   17.0819    0.7641    0.0808    2.6263    6.6513   18.0000 
12066.9984    0.1104   52.8268   32.0642    0.9027    4.9770    2.6010    8.4303    8.1380    0.5104    0.1121    2.6192    7.0918   22.0000 
12067.4984    0.0673   59.4723   29.3037    0.8356    4.4866    2.8975    7.2411    6.9297    0.2578    0.1437    2.6328    6.9959   22.0000 
12067.9984    0.1607   55.4176   26.1498    0.7069    4.2304    2.7431   26.8184   24.9031   10.9475    0.1368    2.6829    6.4440   22.0000 
12068.4984    0.0961   53.3900   24.5899    0.6610    3.9993    2.2110   30.2663   28.5886   16.2188    0.1073    2.6880    5.7958   22.0000 
12068.9984    0.1176   49.2224   23.6982    0.6420    3.8248    2.1981   23.7587   22.9106   15.0913    0.0819    2.6692    5.4672   22.0000 
12069.4984    0.0745   49.7855   24.9865    0.6916    3.9466    2.5022   18.1058   17.7086   23.8577    0.0817    2.6427    5.5785   22.0000 
12069.9984    0.1320   50.4612   27.2467    0.7833    4.1326    2.4688   15.7774   15.6435    0.8024    0.0941    2.6494    5.9467   22.0000 
12070.4984    0.0961   53.1646   29.0153    0.8377    4.3797    2.4449   16.0953   16.0543    0.3878    0.1026    2.6617    6.2358   22.0000 
12070.9984    0.1284   54.6288   27.1588    0.7682    4.1927    2.4299   19.9970   19.3165    0.7922    0.1082    2.6625    6.2558   22.0000 
12071.4984    0.1607   54.1782   24.2238    0.7491    3.3656    2.5027   11.9163   11.3009    0.9051    0.1070    2.6725    6.1847   22.0000 
12071.9984    0.0207   51.4748   24.0264    0.7169    3.4902    2.5311   26.4749   25.7106    0.7070    0.0978    2.6554    6.1319   22.0000 
12072.4984   -0.0008   48.9405   26.9469    0.7717    4.1038    2.4665   24.7324   24.4293    0.9447    0.0901    2.6757    6.2764   22.0000 
12072.9984    0.1391   48.0113   29.9715    0.8202    4.7877    2.3207   15.5717   15.4279    0.8505    0.0828    2.6517    6.4844   22.0000 
12073.4984    0.1750   48.8162   29.1280    0.8300    4.4602    2.2247   16.3401   16.1578    0.7662    0.0912    2.6597    6.7368   22.0000 
12073.9984    0.1391   51.7726   27.2204    0.7850    4.1138    2.4399   16.8728   16.7198    0.3652    0.0972    2.6538    6.8236   22.0000 
12074.4984    0.2683   52.8145   26.6361    0.7518    4.1209    2.2236   20.7008   20.4945    0.4659    0.0915    2.6740    6.6648   22.0000 
12074.9984    0.1607   52.2349   26.8436    0.7185    4.3822    2.1747   24.0600   24.0342    0.7687    0.0811    2.6771    6.3030   22.0000 
12075.4984    0.1248   49.3347   27.6008    0.7227    4.5999    2.1217   23.1222   23.3011    3.6328    0.0820    2.6735    5.9871   22.0000 
12075.9984    0.1750   47.8703   26.0673    0.6341    4.6277    2.1286   13.5909   13.5710    1.0249    0.0910    2.6786    5.9445   22.0000 
12076.4984    0.1535   45.8432   23.3924    0.5428    4.3061    1.9420   25.9784   26.0543    0.8653    0.0854    2.6902    6.1275   22.0000 
12076.9984    0.0602   43.2526   20.3334    0.4297    3.9894    1.5075   40.3241   41.1026    0.8326    0.0624    2.7002    6.3537   22.0000 
12077.4984    0.0315   38.4094   18.1677    0.3752    3.6155    1.3197   46.9866   47.6339    0.8654    0.0381    2.6971    6.4272   22.0000 
12077.9984    0.0853   36.4449   15.7939    0.3264    3.1421    1.3820   44.1838   44.1706    2.5848    0.0372    2.7059    6.3561   22.0000 
12078.4984    0.0745   33.9669   13.8610    0.2980    2.6905    1.3737   27.8613   27.7079    0.8486    0.0452    2.7133    6.1795   22.0000 
12078.9984    0.0745   33.2911   12.8318    0.2589    2.5902    1.2838   44.9040   45.1845   15.1940    0.0504    2.7132    5.9508   22.0000 
12079.4984    0.0027   28.4973   12.5103    0.2525    2.5242    1.1436   65.0953   65.8700   37.3706    0.0459    2.6959    5.7888   22.0000 
12079.9984   -0.0044   27.1455   14.6123    0.2938    2.9552    1.3108   60.1928   59.7189   18.4428    0.0440    2.6787    5.7436   22.0000 
12080.4984    0.0673   30.2992   14.6392    0.3115    2.8598    1.5847   32.3320   31.7386   10.2676    0.0554    2.6753    5.7288   22.0000 
12080.9984    0.1714   30.9751   13.1290    0.2886    2.5112    1.5385   24.9704   24.8060   20.0751    0.0576    2.6804    5.7762   22.0000 
12081.4984   -0.0332   27.4832    9.8506    0.2112    1.9156    1.3047   76.7101   77.8454   30.0097    0.0500    2.6856    5.8312   22.0000 
