~VERSION INFORMATION
 VERS.                 2.0:   CWLS LOG ASCII STANDARD - VERSION 2.0
 WRAP.                  NO:   SINGLE LINE PER DEPTH STEP
 CREA.                 20/03/2018 14:55:32
#CREATED USING DSPetro VERSION 5000.10.1.3 BY H191660 ON 20/03/2018 14:55:32
~WELL INFORMATION
#MNEM.UNIT       DATA                          DESCRIPTION MNEMONIC
#---------      ---------------------------   --------------------------
 STRT    .FT        10799.4984                : START DEPTH
 STOP    .FT        13010.9983                : STOP DEPTH
 STEP    .FT        0.5000                    : STEP VALUE
 NULL    .      -999.0000                     : NULL VALUE
 DATE    .      20/03/2018                    : LAS file Creation Date
 WELL  .      UNIVERSITY_21-17             : Well Name
 COMP  .      Neftex Exploration Insights  : Company
 FLD   .                                   : Field
 STATE .      Texas                        : State
 API   .      42475370100000               : API Number
 UWI   .      213                          : Unique Well Identifier (UWI)
 LOC   .                                   : Location
 LATI  .      -6235758.22                  : Latitude/Northing
 LONG  .      777123.41                    : Longitude/Easting
 RWS   .      -999                         : Def_Rw
 WST   .      -999                         : Def_Rwt
 CNTY  .      WARD                         : County
 SRVC  .      Diversified Well Logging LLC : Contractor
~CURVE INFORMATION
#MNEM              UNIT       API CODE   Curve Type Comments
#----------  --------------- ----------  ---------- -----------
 DEPTH      .FT                        : Depth       
 DCAL_INCH  .inch                      :             Differential Caliper - Evaluates the difference between the actual borehole diameter and bit size
 GR_API     .API                       : GammaRay    Gamma Ray (API) - Measures the intensity of natural gamma-ray radiation emitted from formations containing radioactive elements, such as K, Th and U
 CGR_API    .API                       : GammaRay    Corrected / Computed Gamma Ray - Radiation with the Uranium component removed. Also known as a 'carbonate gamma ray'
 K_per        .PC                        :             Potassium Abundance (SGR) - The quantitative elemental abundace of Potassium derived from the Spectral Gamma Ray Log. Also wt_%
 TH_PPM     .ppm                       : Spectral    Thorium Abundance (SGR) - The quantitative elemental abundace of Thorium derived from the Spectral Gamma Ray Log
 U_PPM      .ppm                       :             Uranium Abundance (SGR) - The quantitative elemental abundace of Uranium derived from the Spectral Gamma Ray Log
 RD_OHMM    .ohmm                      :             Unspecified Deep Resistivity - No accroynm or method of attainment is specified - units of ohmm
 RM_OHMM    .ohm.m                     :             Unspecified Medium Resistivity - No accroynm or method of attainment is specified
 MSFL_OHMM  .ohmm                      :             Micro-Spherically Focused Log - Measurement involves only the first few inches of the formation immediately adjacent to the borehole
 NPHI_RATIO .ratio                     :             Neutron Porosity - Measured with an neutron logging device calibrated to a given matrix (limestone, sandstone and dolomite)
 RHOZ_G_CC  .g/cc                      :             Formation Density - Measures the density of formation, including any void space or other materials contained in the subject volume
 PEF_B_E    .b/e-                      : PEF         Photoelectric Factor - A log of photoelectric absorption properties. Often expressed in an approximation unit barns/electron (b/e-)
 LITH       .                          : LITH        Lithology Curve
~A  DEPTH DCAL_INC~   GR_API   CGR_API     K_per      TH_PPM    U_PPM    RD_OHMM   RM_OHMM  MSFL_OHM~ NPHI_RAT~ RHOZ_G_C~  PEF_B_E     LITH   
# ...
12908.4984    0.0961  117.0862   25.1371    0.5987    4.5404    2.2235    6.2999    5.7189    3.6506    0.2179    2.5869    4.0685 -999.0000 
12908.9984    0.1032  117.0862   25.1371    0.5987    4.5404    2.2235    6.3305    5.7716    3.0255    0.2179    2.5901    4.2833 -999.0000 
12909.4984    0.1176  117.0862   25.1371    0.5987    4.5404    2.2235    6.3339    5.7804    2.9379    0.2179    2.6006    4.6473 -999.0000 
12909.9984   -0.0008  117.0862   25.1371    0.5987    4.5404    2.2235    6.4991    5.9605    3.4060    0.2179    2.6076    5.0245 -999.0000 
12910.4984    0.0602  117.0862   25.1371    0.5987    4.5404    2.2235    6.2279    5.7161    3.2700    0.2179    2.6100    5.2496 -999.0000 
12910.9984    0.0602  117.0862   25.1371    0.5987    4.5404    2.2235    6.0940    5.5903    3.3770    0.2179    2.6071    5.2724 -999.0000 
12911.4984    0.0530  117.0862   25.1371    0.5987    4.5404    2.2235    5.9231    5.4074    3.6561    0.2179    2.6044    5.2271 -999.0000 
12911.9984    0.0602  117.0862   25.1371    0.5987    4.5404    2.2235   15.3814   13.9867    3.6106    0.2179    2.6020    5.2154 -999.0000 
12912.4984    0.0673  117.0862   25.1371    0.5987    4.5404    2.2235   16.2005   14.7895    3.7606    0.2179    2.6080    5.1510 -999.0000 
12912.9984    0.0530  117.0862   25.1371    0.5987    4.5404    2.2235   17.5965   16.2563    3.6413    0.2179    2.6216    5.0215 -999.0000 
12913.4984    0.0315  117.0862   25.1371    0.5987    4.5404    2.2235   17.4147   16.7337    3.8705    0.2179    2.6221    4.8903 -999.0000 
12913.9984    0.0673  117.0862   25.1371    0.5987    4.5404    2.2235    9.8967   10.2453    3.3260    0.2179    2.6138    5.1548 -999.0000 
12914.4984    0.1068  117.0862   25.1371    0.5987    4.5404    2.2235    5.2938    5.6002    2.4580    0.2179    2.5961    5.8030 -999.0000 
12914.9984   -0.0547  117.0862   25.1371    0.5987    4.5404    2.2235    4.9311    5.2162    0.6159    0.2179    2.5921    6.7556 -999.0000 
12915.4984   -0.0475  117.0862   25.1371    0.5987    4.5404    2.2235    4.9669    5.2520    0.4300    0.2179    2.5840    7.5797 -999.0000 
12915.9984   -0.0332  117.0862   25.1371    0.5987    4.5404    2.2235    6.2394    6.6263    0.3436    0.2179    2.5775    8.1088 -999.0000 
12916.4984    0.0171  117.0862   25.1371    0.5987    4.5404    2.2235    5.8477    6.2109    0.2582    0.2179    2.5747    8.2190 -999.0000 
12916.9984    0.0099  117.0862   25.1371    0.5987    4.5404    2.2235    5.5760    5.9337    0.2352    0.2179    2.5849    8.0619 -999.0000 
12917.4984   -0.0044  117.0862   25.1371    0.5987    4.5404    2.2235    5.5308    5.8895    0.3272    0.2179    2.6229    7.5400 -999.0000 
12917.9984   -0.0332  117.0862   25.1371    0.5987    4.5404    2.2235    5.4986    5.8541    0.3466    0.2179    2.6545    6.7993 -999.0000 
12918.4984   -0.0834  117.0862   25.1371    0.5987    4.5404    2.2235    5.4947    5.8515    2.3827    0.2179    2.6456    5.8715 -999.0000 
12918.9984    0.0243  117.0862   25.1371    0.5987    4.5404    2.2235    5.4986    5.8544    2.8768    0.2179    2.6210    5.0538 -999.0000 
12919.4984    0.0961  117.0862   25.1371    0.5987    4.5404    2.2235    5.5048    5.8642    1.6040    0.2179    2.6018    4.5050 -999.0000 
12919.9984    0.0602  117.0862   25.1371    0.5987    4.5404    2.2235    5.5104    5.8754    1.3412    0.2179    2.6097    4.2219 -999.0000 
12920.4984    0.0602  117.0862   25.1371    0.5987    4.5404    2.2235    5.4865    5.8269    3.0437    0.2179    2.6016    4.1945 -999.0000 
12920.9984    0.0458  117.0862   25.1371    0.5987    4.5404    2.2235    5.5086    5.8780    3.1706    0.2179    2.5944    4.2235 -999.0000 
12921.4984    0.0961  117.0862   25.1371    0.5987    4.5404    2.2235    5.5094    5.8699    3.1838    0.2179    2.5895    4.2707 -999.0000 
12921.9984    0.0853  117.0862   25.1371    0.5987    4.5404    2.2235    5.5165    5.8765    3.7015    0.2179    2.5944    4.2921 -999.0000 
12922.4984    0.1032  117.0862   25.1371    0.5987    4.5404    2.2235    5.4519    5.7889    3.4528    0.2179    2.6055    4.2944 -999.0000 
12922.9984    0.0817  117.0862   25.1371    0.5987    4.5404    2.2235    5.3844    5.7003    3.5679    0.2179    2.6137    4.2785 -999.0000 
12923.4984    0.1032  117.0862   25.1371    0.5987    4.5404    2.2235    5.3281    5.6251    3.3724    0.2179    2.6109    4.2610 -999.0000 
12923.9984    0.1176  117.0862   25.1371    0.5987    4.5404    2.2235    5.2814    5.5613    3.3255    0.2179    2.6030    4.2260 -999.0000 
12924.4984    0.1032  117.0862   25.1371    0.5987    4.5404    2.2235    5.3056    5.5811 -3228.9185    0.2179    2.6041    4.1960 -999.0000 
12924.9984    0.1032  117.0862   25.1371    0.5987    4.5404    2.2235    5.3056    5.5811 -999.0000    0.2179    2.6085    4.1597 -999.0000 
12925.4984    0.0817  117.0862   25.1371    0.5987    4.5404    2.2235    5.3056    5.5811 -999.0000    0.2179    2.6082    4.1860 -999.0000 
12925.9984    0.0889  117.0862   25.1371    0.5987    4.5404    2.2235    5.3056    5.5811 -999.0000    0.2179    2.6018    4.2418 -999.0000 
12926.4984    0.1032  117.0862   25.1371    0.5987    4.5404    2.2235    5.3056    5.5811 -999.0000    0.2179    2.6002    4.3155 -999.0000 
12926.9984    0.0961  117.0862   25.1371    0.5987    4.5404    2.2235    5.3056    5.5811 -999.0000    0.2179    2.5954    4.4046 -999.0000 
12927.4984    0.1068  117.0862   25.1371    0.5987    4.5404    2.2235    5.3056    5.5811 -999.0000    0.2179    2.5956    4.4721 -999.0000 
12927.9984    0.1607  117.0862   25.1371    0.5987    4.5404    2.2235    5.3056    5.5811 -999.0000    0.2179    2.5989    4.5517 -999.0000 
12928.4984    0.1607  117.0862   25.1371    0.5987    4.5404    2.2235    5.3056    5.5811 -999.0000    0.2179    2.6088    4.7110 -999.0000 
12928.9984    0.2325  117.0862   25.1371    0.5987    4.5404    2.2235    5.3056    5.5811 -999.0000    0.2179    2.6204    4.9272 -999.0000 
12929.4984    0.1930  117.0862   25.1371    0.5987    4.5404    2.2235    5.3056    5.5811 -999.0000    0.2179    2.6227    5.0783 -999.0000 
12929.9984    0.2109  117.0862   25.1371    0.5987    4.5404    2.2235    5.3056    5.5811 -999.0000    0.2179    2.6225    5.0264 -999.0000 
12930.4984    0.2181  117.0862   25.1371    0.5987    4.5404    2.2235    5.3056    5.5811 -999.0000    0.2179    2.6226    4.8399 -999.0000 
12930.9984    0.1248  117.0862   25.1371    0.5987    4.5404    2.2235    5.3056    5.5811 -999.0000    0.2179    2.6197    4.5856 -999.0000 
12931.4984    0.2109  117.0862   25.1371    0.5987    4.5404    2.2235    5.3056    5.5811 -999.0000    0.2179    2.6162    4.4022 -999.0000 
12931.9984    0.1894  117.0862   25.1371    0.5987    4.5404    2.2235    5.3056    5.5811 -999.0000    0.2179    2.6067    4.2685 -999.0000 
12932.4984    0.1391  117.0862   25.1371    0.5987    4.5404    2.2235    5.3056    5.5811 -999.0000    0.2179    2.6048    4.2303 -999.0000 
12932.9984    0.1348  117.0862   25.1371    0.5987    4.5404    2.2235    5.3056    5.5811 -999.0000    0.2179    2.6032    4.2145 -999.0000 
12933.4984    0.1348  117.0862   25.1371    0.5987    4.5404    2.2235    5.3056    5.5811 -999.0000    0.2179    2.5982    4.2381 -999.0000 
12933.9984    0.1650  117.0862   25.1371    0.5987    4.5404    2.2235    5.3056    5.5811 -999.0000    0.2179    2.5950    4.2593 -999.0000 
12934.4984    0.1032  117.0862   25.1371    0.5987    4.5404    2.2235    5.3056    5.5811 -999.0000    0.2179    2.5925    4.3076 -999.0000 
12934.9984    0.1068  117.0862   25.1371    0.5987    4.5404    2.2235    5.3056    5.5811 -999.0000    0.2179    2.5944    4.3645 -999.0000 
12935.4984    0.1032  117.0862   25.1371    0.5987    4.5404    2.2235    5.3056    5.5811 -999.0000    0.2179    2.5944    4.4510 -999.0000 
12935.9984    0.1361  117.0862   25.1371    0.5987    4.5404    2.2235    5.3056    5.5811 -999.0000    0.2179    2.5849    4.5505 -999.0000 
12936.4984    0.1699  117.0862   25.1371    0.5987    4.5404    2.2235    5.3056    5.5811 -999.0000    0.2179    2.5732    4.8068 -999.0000 
