~VERSION INFORMATION
 VERS.                 2.0:   CWLS LOG ASCII STANDARD - VERSION 2.0
 WRAP.                  NO:   SINGLE LINE PER DEPTH STEP
 CREA.                 20/03/2018 14:41:29
#CREATED USING DSPetro VERSION 5000.10.1.3 BY H191660 ON 20/03/2018 14:41:29
~WELL INFORMATION
#MNEM.UNIT       DATA                          DESCRIPTION MNEMONIC
#---------      ---------------------------   --------------------------
 STRT    .FT        325.3294                  : START DEPTH
 STOP    .FT        12308.5971                : STOP DEPTH
 STEP    .FT        1.6404                    : STEP VALUE
 NULL    .      -999.0000                     : NULL VALUE
 DATE    .      20/03/2018                    : LAS file Creation Date
 WELL .      UNIVERSITY_19-5             : Well Name
 COMP .      Neftex Exploration Insights : Company
 FLD  .      PHANTOM (WOLFCAMP)          : Field
 UWI  .      208                         : Unique Well Identifier (UWI)
 LOC  .                                  : Location
 RWS  .      -999                        : Def_Rw
 WST  .      -999                        : Def_Rwt
 SRVC .                                  : Contractor
~CURVE INFORMATION
#MNEM              UNIT       API CODE   Curve Type Comments
#----------  --------------- ----------  ---------- -----------
 DEPTH      .FT                        : Depth       
 DEPTH      .FT                        : Depth       
 BS         .inch                      : BitSize     
 CAL_INCH   .inch                      :             Caliper Log - A representation of the measured diameter of a borehole along its depth
 GR_API     .API                       : GammaRay    Gamma Ray (API) - Measures the intensity of natural gamma-ray radiation emitted from formations containing radioactive elements, such as K, Th and U
 SGR_API    .API                       : GammaRay    Spectral Gamma Ray - Total gamma calibrated to API, measured using a spectoral gamma array tool
 CGR_API    .API                       : GammaRay    Corrected / Computed Gamma Ray - Radiation with the Uranium component removed. Also known as a 'carbonate gamma ray'
 TH_PPM     .ppm                       : Spectral    Thorium Abundance (SGR) - The quantitative elemental abundace of Thorium derived from the Spectral Gamma Ray Log
 K_per        .PC                        :             Potassium Abundance (SGR) - The quantitative elemental abundace of Potassium derived from the Spectral Gamma Ray Log. Also wt_%
 U_PPM      .ppm                       :             Uranium Abundance (SGR) - The quantitative elemental abundace of Uranium derived from the Spectral Gamma Ray Log
 ThK        .PPM                       : Spectral    
 ThU        .PPM                       : Spectral    
 SRES       .ohmm                      :             10" array induction, two foot resistivity
 MRES       .ohm.m                     :             30" array induction, two foot resistivity
 DRES       .ohmm                      :             90" array induction, two foot resistivity log - units of ohmm
 DT_US_FT   .us/ft                     :             Interval Transit Time: Compressional Wave - Evaluates the time it takes for a compressional wave to traverse a fixed distance
 NPHI_RATIO .ratio                     :             Neutron Porosity - Measured with an neutron logging device calibrated to a given matrix (limestone, sandstone and dolomite)
 RHOB_G_CC  .g/cc                      :             Bulk Density - Measures the density of bulk material, including any void space or other materials contained in the subject volume
 DRHO_G_CC  .g/cc                      :             Density Correction - Investigates the correction to the Bulk Density log; used as an indication of hole condition to validate the Bulk Density measure
 PEF_B_E    .b/e-                      : PEF         Photoelectric Factor - A log of photoelectric absorption properties. Often expressed in an approximation unit barns/electron (b/e-)
 LITH       .                          : LITH        Lithology Curve
~A  DEPTH   DEPTH       BS     CAL_INCH   GR_API   SGR_API   CGR_API    TH_PPM     K_per      U_PPM      ThK       ThU       SRES      MRES      DRES    DT_US_FT NPHI_RAT~ RHOB_G_C~ DRHO_G_C~  PEF_B_E     LITH   
# ...
5935.5656 5935.5656   12.2500 -999.0000   57.4786 -999.0000 -999.0000    7.0191 -999.0000    1.2970 -999.0000 -999.0000    1.0813    1.4466    1.8799   80.4027    0.2172    2.3800   -0.0030    2.5057   36.0000 
5937.2060 5937.2060   12.2500 -999.0000   56.0299 -999.0000 -999.0000    7.3647 -999.0000    1.4254 -999.0000 -999.0000    0.9890    1.2991    1.6378   78.8201    0.1932    2.4063    0.0018    2.4005   36.0000 
5938.8465 5938.8465   12.2500 -999.0000   50.7045 -999.0000 -999.0000    5.9539 -999.0000    1.6322 -999.0000 -999.0000    0.8425    1.1208    1.3648   83.2264    0.2303    2.3433    0.0049    2.4265   36.0000 
5940.4869 5940.4869   12.2500 -999.0000   49.6046 -999.0000 -999.0000    5.5327 -999.0000    1.7762 -999.0000 -999.0000    0.8675    1.2226    1.4537   82.7275    0.2499    2.3399   -0.0013    2.5216   27.0000 
5942.1273 5942.1273   12.2500 -999.0000   50.9000 -999.0000 -999.0000    6.2300 -999.0000    2.3656 -999.0000 -999.0000    0.8195    1.1288    1.3559   82.6219    0.1882    2.3556    0.0043    2.4886   27.0000 
5943.7677 5943.7677   12.2500 -999.0000   55.7983 -999.0000 -999.0000    6.6982 -999.0000    2.6618 -999.0000 -999.0000    0.9268    1.2836    1.5750   81.9328    0.2609    2.3506   -0.0003    2.5572   36.0000 
5945.4081 5945.4081   12.2500 -999.0000   53.6762 -999.0000 -999.0000    5.3348 -999.0000    2.3342 -999.0000 -999.0000    0.8695    1.1925    1.4726   82.7123    0.2222    2.3565    0.0008    2.4735   36.0000 
5947.0486 5947.0486   12.2500 -999.0000   48.1735 -999.0000 -999.0000    4.7863 -999.0000    2.2397 -999.0000 -999.0000    0.8768    1.1915    1.4681   82.6090    0.2337    2.3441   -0.0032    2.4420   27.0000 
5948.6890 5948.6890   12.2500 -999.0000   50.9810 -999.0000 -999.0000    5.1430 -999.0000    2.1591 -999.0000 -999.0000    0.8310    1.0937    1.3200   82.8054    0.2504    2.3677    0.0047    2.4467   36.0000 
5950.3294 5950.3294   12.2500 -999.0000   51.3517 -999.0000 -999.0000    4.4584 -999.0000    2.6681 -999.0000 -999.0000    0.8448    1.1083    1.3198   82.4135    0.2143    2.3641    0.0016    2.3688   36.0000 
5951.9698 5951.9698   12.2500 -999.0000   50.4176 -999.0000 -999.0000    4.8633 -999.0000    2.4713 -999.0000 -999.0000    0.8572    1.1243    1.3262   83.6272    0.2783    2.3448   -0.0003    2.3979   36.0000 
5953.6102 5953.6102   12.2500 -999.0000   51.1397 -999.0000 -999.0000    5.2162 -999.0000    2.1037 -999.0000 -999.0000    0.8865    1.1594    1.3589   81.3353    0.2177    2.3448    0.0058    2.5369   27.0000 
5955.2507 5955.2507   12.2500 -999.0000   48.9374 -999.0000 -999.0000    6.2900 -999.0000    1.6355 -999.0000 -999.0000    0.8807    1.2149    1.4415   82.1107    0.2250    2.3597   -0.0008    2.4117   36.0000 
5956.8911 5956.8911   12.2500 -999.0000   52.4073 -999.0000 -999.0000    6.8648 -999.0000    1.0520 -999.0000 -999.0000    0.8316    1.1149    1.3185   80.1748    0.2385    2.3756    0.0015    2.3613   36.0000 
5958.5315 5958.5315   12.2500 -999.0000   52.2489 -999.0000 -999.0000    7.4775 -999.0000    0.4372 -999.0000 -999.0000    0.7822    1.0280    1.2066   79.8379    0.2213    2.3734    0.0009    2.3622   36.0000 
5960.1719 5960.1719   12.2500 -999.0000   47.7992 -999.0000 -999.0000    7.2450 -999.0000    0.4690 -999.0000 -999.0000    0.8852    1.2256    1.4268   79.9546    0.2215    2.3788   -0.0009    2.4195   27.0000 
5961.8123 5961.8123   12.2500 -999.0000   49.7452 -999.0000 -999.0000    7.6641 -999.0000    0.8398 -999.0000 -999.0000    0.8644    1.1515    1.3367   81.1194    0.2484    2.3653   -0.0030    2.4311   36.0000 
5963.4528 5963.4528   12.2500 -999.0000   55.9434 -999.0000 -999.0000    6.1867 -999.0000    1.4437 -999.0000 -999.0000    1.0559    1.5172    1.8060   76.9563    0.1967    2.4115   -0.0012    2.4094   36.0000 
5965.0932 5965.0932   12.2500 -999.0000   44.3399 -999.0000 -999.0000    5.0226 -999.0000    0.9493 -999.0000 -999.0000    0.8302    1.0734    1.2221   82.2272    0.2163    2.3549   -0.0011    2.4371   27.0000 
5966.7336 5966.7336   12.2500 -999.0000   44.2782 -999.0000 -999.0000    4.6635 -999.0000    1.2885 -999.0000 -999.0000    0.9257    1.2632    1.4608   80.7987    0.2238    2.3681   -0.0027    2.3906   36.0000 
5968.3740 5968.3740   12.2500 -999.0000   60.1900 -999.0000 -999.0000    5.8064 -999.0000    1.4780 -999.0000 -999.0000    0.9672    1.3522    1.6070   79.3561    0.2070    2.3712   -0.0033    2.4192   36.0000 
5970.0144 5970.0144   12.2500 -999.0000   50.6238 -999.0000 -999.0000    4.4044 -999.0000    1.8360 -999.0000 -999.0000    0.8682    1.1303    1.3569   82.7750    0.2541    2.3435   -0.0021    2.3925   27.0000 
5971.6549 5971.6549   12.2500 -999.0000   49.5083 -999.0000 -999.0000    3.7059 -999.0000    1.9021 -999.0000 -999.0000    0.8438    1.1755    1.3938   82.3796    0.2142    2.3602    0.0017    2.3536   27.0000 
5973.2953 5973.2953   12.2500 -999.0000   47.0505 -999.0000 -999.0000    3.2817 -999.0000    1.4850 -999.0000 -999.0000    0.7763    1.0574    1.2672   84.0088    0.2483    2.3286    0.0004    2.3378   27.0000 
5974.9357 5974.9357   12.2500 -999.0000   46.8723 -999.0000 -999.0000    4.6861 -999.0000    1.2660 -999.0000 -999.0000    0.8081    1.1095    1.3676   83.3433    0.2412    2.3313   -0.0028    2.3785   27.0000 
5976.5761 5976.5761   12.2500 -999.0000   50.5560 -999.0000 -999.0000    6.5408 -999.0000    0.7035 -999.0000 -999.0000    0.8810    1.2289    1.5112   79.6529    0.2247    2.3790    0.0022    2.4098   27.0000 
5978.2165 5978.2165   12.2500 -999.0000   49.9347 -999.0000 -999.0000    7.2944 -999.0000    0.8299 -999.0000 -999.0000    0.8340    1.1294    1.3421   82.2215    0.2278    2.3618    0.0008    2.3444   27.0000 
5979.8570 5979.8570   12.2500 -999.0000   52.5817 -999.0000 -999.0000    6.9692 -999.0000    0.9682 -999.0000 -999.0000    0.9758    1.4434    1.6879   79.5637    0.2289    2.4039    0.0012    2.3629   27.0000 
5981.4974 5981.4974   12.2500 -999.0000   61.0842 -999.0000 -999.0000    6.7715 -999.0000    2.0475 -999.0000 -999.0000    1.0605    1.5568    1.7332   76.8202    0.2119    2.4175    0.0002    2.4189   36.0000 
5983.1378 5983.1378   12.2500 -999.0000   56.6677 -999.0000 -999.0000    5.5183 -999.0000    2.3131 -999.0000 -999.0000    1.0975    1.6408    1.7648   78.5499    0.1858    2.4038   -0.0011    2.4195   36.0000 
5984.7782 5984.7782   12.2500 -999.0000   55.6212 -999.0000 -999.0000    5.2168 -999.0000    1.5139 -999.0000 -999.0000    1.2558    1.9121    1.9540   75.9762    0.1796    2.4339   -0.0038    2.4669   36.0000 
5986.4186 5986.4186   12.2500 -999.0000   39.5685 -999.0000 -999.0000    4.5796 -999.0000    1.1774 -999.0000 -999.0000    1.8772    3.5177    3.6784   70.5752    0.1136    2.5359    0.0151    2.6875   27.0000 
5988.0591 5988.0591   12.2500 -999.0000   44.9450 -999.0000 -999.0000    7.9747 -999.0000    0.9099 -999.0000 -999.0000    2.1776    4.1885    4.5281   68.5482    0.0964    2.5325   -0.0003    2.7924   36.0000 
5989.6995 5989.6995   12.2500 -999.0000   86.8161 -999.0000 -999.0000    9.8994 -999.0000    1.7292 -999.0000 -999.0000    3.0316   14.6643   21.2063   62.4138    0.1066    2.6243   -0.0039    3.4652   36.0000 
5991.3399 5991.3399   12.2500 -999.0000   39.2475 -999.0000 -999.0000    5.9030 -999.0000    1.0985 -999.0000 -999.0000    3.1427   29.7255   70.1358   54.7622    0.0219    2.6815   -0.0016    4.3474   18.0000 
5992.9803 5992.9803   12.2500 -999.0000   56.0590 -999.0000 -999.0000    5.9737 -999.0000    1.6155 -999.0000 -999.0000    3.1348   20.8216   36.8400   58.6318    0.0526    2.6727    0.0068    3.8857   36.0000 
5994.6207 5994.6207   12.2500 -999.0000   64.1738 -999.0000 -999.0000    7.4521 -999.0000    1.8671 -999.0000 -999.0000    3.0933   16.2814   27.2505   61.9129    0.0858    2.6556    0.0016    3.5546   36.0000 
5996.2612 5996.2612   12.2500 -999.0000   60.9225 -999.0000 -999.0000    7.0108 -999.0000    1.5589 -999.0000 -999.0000    2.9869   13.3783   23.8003   61.0922    0.0642    2.6495    0.0001    3.2132   36.0000 
