~VERSION INFORMATION
 VERS.                 2.0:   CWLS LOG ASCII STANDARD - VERSION 2.0
 WRAP.                  NO:   SINGLE LINE PER DEPTH STEP
 CREA.                 20/03/2018 14:41:29
#CREATED USING DSPetro VERSION 5000.10.1.3 BY H191660 ON 20/03/2018 14:41:29
~WELL INFORMATION
#MNEM.UNIT       DATA                          DESCRIPTION MNEMONIC
#---------      ---------------------------   --------------------------
 STRT    .FT        325.3294                  : START DEPTH
 STOP    .FT        12308.5971                : STOP DEPTH
 STEP    .FT        1.6404                    : STEP VALUE
 NULL    .      -999.0000                     : NULL VALUE
 DATE    .      20/03/2018                    : LAS file Creation Date
 WELL .      UNIVERSITY_19-5             : Well Name
 COMP .      Neftex Exploration Insights : Company
 FLD  .      PHANTOM (WOLFCAMP)          : Field
 UWI  .      208                         : Unique Well Identifier (UWI)
 LOC  .                                  : Location
 RWS  .      -999                        : Def_Rw
 WST  .      -999                        : Def_Rwt
 SRVC .                                  : Contractor
~CURVE INFORMATION
#MNEM              UNIT       API CODE   Curve Type Comments
#----------  --------------- ----------  ---------- -----------
 DEPTH      .FT                        : Depth       
 DEPTH      .FT                        : Depth       
 BS         .inch                      : BitSize     
 CAL_INCH   .inch                      :             Caliper Log - A representation of the measured diameter of a borehole along its depth
 GR_API     .API                       : GammaRay    Gamma Ray (API) - Measures the intensity of natural gamma-ray radiation emitted from formations containing radioactive elements, such as K, Th and U
 SGR_API    .API                       : GammaRay    Spectral Gamma Ray - Total gamma calibrated to API, measured using a spectoral gamma array tool
 CGR_API    .API                       : GammaRay    Corrected / Computed Gamma Ray - Radiation with the Uranium component removed. Also known as a 'carbonate gamma ray'
 TH_PPM     .ppm                       : Spectral    Thorium Abundance (SGR) - The quantitative elemental abundace of Thorium derived from the Spectral Gamma Ray Log
 K_per        .PC                        :             Potassium Abundance (SGR) - The quantitative elemental abundace of Potassium derived from the Spectral Gamma Ray Log. Also wt_%
 U_PPM      .ppm                       :             Uranium Abundance (SGR) - The quantitative elemental abundace of Uranium derived from the Spectral Gamma Ray Log
 ThK        .PPM                       : Spectral    
 ThU        .PPM                       : Spectral    
 SRES       .ohmm                      :             10" array induction, two foot resistivity
 MRES       .ohm.m                     :             30" array induction, two foot resistivity
 DRES       .ohmm                      :             90" array induction, two foot resistivity log - units of ohmm
 DT_US_FT   .us/ft                     :             Interval Transit Time: Compressional Wave - Evaluates the time it takes for a compressional wave to traverse a fixed distance
 NPHI_RATIO .ratio                     :             Neutron Porosity - Measured with an neutron logging device calibrated to a given matrix (limestone, sandstone and dolomite)
 RHOB_G_CC  .g/cc                      :             Bulk Density - Measures the density of bulk material, including any void space or other materials contained in the subject volume
 DRHO_G_CC  .g/cc                      :             Density Correction - Investigates the correction to the Bulk Density log; used as an indication of hole condition to validate the Bulk Density measure
 PEF_B_E    .b/e-                      : PEF         Photoelectric Factor - A log of photoelectric absorption properties. Often expressed in an approximation unit barns/electron (b/e-)
 LITH       .                          : LITH        Lithology Curve
~A  DEPTH   DEPTH       BS     CAL_INCH   GR_API   SGR_API   CGR_API    TH_PPM     K_per      U_PPM      ThK       ThU       SRES      MRES      DRES    DT_US_FT NPHI_RAT~ RHOB_G_C~ DRHO_G_C~  PEF_B_E     LITH   
# ...
6870.6050 6870.6050   12.2500 -999.0000   68.0347 -999.0000 -999.0000    4.7700 -999.0000    4.2914 -999.0000 -999.0000    2.7650    8.9341   10.6856   66.0164    0.1044    2.5431    0.0049    2.4248   36.0000 
6872.2454 6872.2454   12.2500 -999.0000   99.8181 -999.0000 -999.0000   10.2258 -999.0000    4.6896 -999.0000 -999.0000    2.8050   16.4991   24.1814   71.1078    0.1223    2.5323   -0.0025    2.7576   37.0000 
6873.8858 6873.8858   12.2500 -999.0000   84.0539 -999.0000 -999.0000    7.0197 -999.0000    3.7797 -999.0000 -999.0000    2.5299    6.2855    9.1880   70.2376    0.1173    2.5226   -0.0005    2.5614   36.0000 
6875.5262 6875.5262   12.2500 -999.0000   63.8374 -999.0000 -999.0000    7.0120 -999.0000    2.4364 -999.0000 -999.0000    2.4056    5.6464    7.4361   68.6106    0.1034    2.5336    0.0016    2.4146   36.0000 
6877.1667 6877.1667   12.2500 -999.0000   57.7903 -999.0000 -999.0000    6.9426 -999.0000    1.7436 -999.0000 -999.0000    2.3648    6.1870    7.5046   66.8918    0.1120    2.5132    0.0008    2.4548   36.0000 
6878.8071 6878.8071   12.2500 -999.0000   58.3670 -999.0000 -999.0000    7.3886 -999.0000    1.4986 -999.0000 -999.0000    2.2545    5.0986    5.9229   67.8791    0.1263    2.5218    0.0177    2.4916   36.0000 
6880.4475 6880.4475   12.2500 -999.0000   60.1179 -999.0000 -999.0000    7.3947 -999.0000    1.8293 -999.0000 -999.0000    2.3282    5.1680    6.5688   68.9625    0.1154    2.5080   -0.0032    2.4993   36.0000 
6882.0879 6882.0879   12.2500 -999.0000   69.9503 -999.0000 -999.0000    7.0572 -999.0000    2.5880 -999.0000 -999.0000    2.5302    6.4664    9.0491   67.0917    0.1224    2.5367    0.0016    2.4496   36.0000 
6883.7283 6883.7283   12.2500 -999.0000  104.3782 -999.0000 -999.0000   11.2039 -999.0000    4.2399 -999.0000 -999.0000    2.8587   14.2473   25.5237   70.7759    0.1607    2.5181    0.0029    2.6394   37.0000 
6885.3688 6885.3688   12.2500 -999.0000   68.1152 -999.0000 -999.0000    6.6626 -999.0000    3.1561 -999.0000 -999.0000    2.6136    7.2899    8.6760   67.1090    0.0803    2.5168   -0.0033    2.5536   36.0000 
6887.0092 6887.0092   12.2500 -999.0000   61.9412 -999.0000 -999.0000    7.1573 -999.0000    2.3753 -999.0000 -999.0000    2.6588    9.3037   10.8141   67.6824    0.0939    2.5453   -0.0021    2.5122   36.0000 
6888.6496 6888.6496   12.2500 -999.0000   71.3352 -999.0000 -999.0000    6.9541 -999.0000    2.8235 -999.0000 -999.0000    2.8719   16.6345   24.2385   66.1855    0.1252    2.5589   -0.0002    2.7249   36.0000 
6890.2900 6890.2900   12.2500 -999.0000   45.8154 -999.0000 -999.0000    5.2719 -999.0000    1.6322 -999.0000 -999.0000    2.7510    8.9377   11.1526   62.3604    0.0558    2.5540    0.0025    2.6757   27.0000 
6891.9304 6891.9304   12.2500 -999.0000   48.2403 -999.0000 -999.0000    4.3366 -999.0000    1.0533 -999.0000 -999.0000    2.9143   15.3745   24.9513   60.9865    0.0239    2.5869   -0.0056    2.8744   36.0000 
6893.5709 6893.5709   12.2500 -999.0000   49.8248 -999.0000 -999.0000    4.0751 -999.0000    1.5445 -999.0000 -999.0000    2.8897   13.3317   19.0843   62.7846    0.0414    2.5783   -0.0037    2.7579   36.0000 
6895.2113 6895.2113   12.2500 -999.0000   55.9449 -999.0000 -999.0000    4.2219 -999.0000    2.6322 -999.0000 -999.0000    2.5843    5.9921    7.0747   65.7141    0.0668    2.5601    0.0028    2.5022   36.0000 
6896.8517 6896.8517   12.2500 -999.0000   56.7942 -999.0000 -999.0000    5.5070 -999.0000    2.7503 -999.0000 -999.0000    2.6593    8.6389   11.7959   69.0347    0.1241    2.5101   -0.0027    2.4622   36.0000 
6898.4921 6898.4921   12.2500 -999.0000   53.3127 -999.0000 -999.0000    4.6069 -999.0000    2.2045 -999.0000 -999.0000    2.4950    6.7284    8.5549   66.0324    0.0882    2.5096   -0.0060    2.5057   36.0000 
6900.1325 6900.1325   12.2500 -999.0000   56.7364 -999.0000 -999.0000    5.3876 -999.0000    1.9863 -999.0000 -999.0000    2.3556    5.4484    6.8312   67.5617    0.1032    2.5130   -0.0025    2.4426   36.0000 
6901.7730 6901.7730   12.2500 -999.0000   59.2666 -999.0000 -999.0000    5.2491 -999.0000    2.0823 -999.0000 -999.0000    2.3891    5.6467    7.5172   67.7900    0.0971    2.5309   -0.0023    2.5620   36.0000 
6903.4134 6903.4134   12.2500 -999.0000   56.0853 -999.0000 -999.0000    5.4728 -999.0000    2.3793 -999.0000 -999.0000    2.3164    4.6396    6.1472   68.1776    0.1131    2.5220   -0.0002    2.4957   36.0000 
6905.0538 6905.0538   12.2500 -999.0000   58.9983 -999.0000 -999.0000    4.9462 -999.0000    2.6027 -999.0000 -999.0000    2.4152    5.5297    7.7936   67.8214    0.1087    2.5107   -0.0027    2.5223   36.0000 
6906.6942 6906.6942   12.2500 -999.0000   58.4719 -999.0000 -999.0000    4.7446 -999.0000    2.3715 -999.0000 -999.0000    2.2706    4.3919    5.8294   69.0374    0.1088    2.5176   -0.0002    2.4570   36.0000 
6908.3346 6908.3346   12.2500 -999.0000   60.9408 -999.0000 -999.0000    4.6028 -999.0000    1.9426 -999.0000 -999.0000    2.1637    3.9840    5.1635   69.9681    0.1172    2.4823   -0.0042    2.5147   36.0000 
6909.9751 6909.9751   12.2500 -999.0000   48.6903 -999.0000 -999.0000    4.3945 -999.0000    1.4938 -999.0000 -999.0000    1.9856    3.2162    4.0588   69.5951    0.1064    2.4858    0.0168    2.5363   27.0000 
6911.6155 6911.6155   12.2500 -999.0000   45.9868 -999.0000 -999.0000    4.6208 -999.0000    1.6350 -999.0000 -999.0000    2.2323    4.2105    5.4825   67.9581    0.1158    2.5604    0.0278    2.7337   27.0000 
6913.2559 6913.2559   12.2500 -999.0000   49.9010 -999.0000 -999.0000    5.2431 -999.0000    2.2107 -999.0000 -999.0000    2.1891    3.4679    4.5900   68.6137    0.1054    2.5262    0.0006    2.5613   36.0000 
6914.8963 6914.8963   12.2500 -999.0000   57.2531 -999.0000 -999.0000    6.2081 -999.0000    2.2063 -999.0000 -999.0000    2.2442    4.3424    6.1082   69.9674    0.0919    2.4910   -0.0012    2.5219   36.0000 
6916.5367 6916.5367   12.2500 -999.0000   59.0027 -999.0000 -999.0000    5.4064 -999.0000    1.9278 -999.0000 -999.0000    2.1550    3.8369    5.1779   73.0605    0.1321    2.4694    0.0121    2.3769   36.0000 
6918.1772 6918.1772   12.2500 -999.0000   60.8189 -999.0000 -999.0000    5.4476 -999.0000    2.2491 -999.0000 -999.0000    2.1174    3.8727    5.1196   73.0647    0.1183    2.4717    0.0074    2.4679   36.0000 
6919.8176 6919.8176   12.2500 -999.0000   62.2196 -999.0000 -999.0000    5.6209 -999.0000    2.4001 -999.0000 -999.0000    2.0297    3.6691    4.7707   72.0767    0.1281    2.4775   -0.0014    2.3809   36.0000 
6921.4580 6921.4580   12.2500 -999.0000   58.6643 -999.0000 -999.0000    5.5924 -999.0000    2.1688 -999.0000 -999.0000    2.1603    3.8797    4.8299   72.3469    0.1274    2.4792    0.0012    2.3297   36.0000 
6923.0984 6923.0984   12.2500 -999.0000   60.3384 -999.0000 -999.0000    5.9216 -999.0000    1.9708 -999.0000 -999.0000    2.2308    4.1044    5.0120   71.3437    0.1281    2.5145    0.0031    2.2735   36.0000 
6924.7388 6924.7388   12.2500 -999.0000   53.6008 -999.0000 -999.0000    5.1018 -999.0000    1.7455 -999.0000 -999.0000    2.1652    4.4452    5.2637   66.8941    0.1038    2.5129   -0.0015    2.4705   36.0000 
6926.3793 6926.3793   12.2500 -999.0000   48.2659 -999.0000 -999.0000    5.3146 -999.0000    1.3006 -999.0000 -999.0000    2.3367    5.4547    6.1288   63.9560    0.0825    2.5454    0.0011    2.5259   27.0000 
6928.0197 6928.0197   12.2500 -999.0000   45.3077 -999.0000 -999.0000    4.6325 -999.0000    1.2426 -999.0000 -999.0000    2.6439   10.1607   12.1903   64.3393    0.0641    2.5655    0.0102    2.4682   27.0000 
6929.6601 6929.6601   12.2500 -999.0000   63.3472 -999.0000 -999.0000    4.5747 -999.0000    4.1336 -999.0000 -999.0000    2.6297    6.5837    7.2591   67.0243    0.1065    2.5142    0.0050    2.2662   36.0000 
6931.3005 6931.3005   12.2500 -999.0000  152.9368 -999.0000 -999.0000    9.2744 -999.0000   15.1361 -999.0000 -999.0000    3.2018   34.7772   97.8678   71.7109    0.1849    2.4934   -0.0008    2.7055   37.0000 
