~VERSION INFORMATION
 VERS.                 2.0:   CWLS LOG ASCII STANDARD - VERSION 2.0
 WRAP.                  NO:   SINGLE LINE PER DEPTH STEP
 CREA.                 20/03/2018 14:55:32
#CREATED USING DSPetro VERSION 5000.10.1.3 BY H191660 ON 20/03/2018 14:55:32
~WELL INFORMATION
#MNEM.UNIT       DATA                          DESCRIPTION MNEMONIC
#---------      ---------------------------   --------------------------
 STRT    .FT        10799.4984                : START DEPTH
 STOP    .FT        13010.9983                : STOP DEPTH
 STEP    .FT        0.5000                    : STEP VALUE
 NULL    .      -999.0000                     : NULL VALUE
 DATE    .      20/03/2018                    : LAS file Creation Date
 WELL  .      UNIVERSITY_21-17             : Well Name
 COMP  .      Neftex Exploration Insights  : Company
 FLD   .                                   : Field
 STATE .      Texas                        : State
 API   .      42475370100000               : API Number
 UWI   .      213                          : Unique Well Identifier (UWI)
 LOC   .                                   : Location
 LATI  .      -6235758.22                  : Latitude/Northing
 LONG  .      777123.41                    : Longitude/Easting
 RWS   .      -999                         : Def_Rw
 WST   .      -999                         : Def_Rwt
 CNTY  .      WARD                         : County
 SRVC  .      Diversified Well Logging LLC : Contractor
~CURVE INFORMATION
#MNEM              UNIT       API CODE   Curve Type Comments
#----------  --------------- ----------  ---------- -----------
 DEPTH      .FT                        : Depth       
 DCAL_INCH  .inch                      :             Differential Caliper - Evaluates the difference between the actual borehole diameter and bit size
 GR_API     .API                       : GammaRay    Gamma Ray (API) - Measures the intensity of natural gamma-ray radiation emitted from formations containing radioactive elements, such as K, Th and U
 CGR_API    .API                       : GammaRay    Corrected / Computed Gamma Ray - Radiation with the Uranium component removed. Also known as a 'carbonate gamma ray'
 K_per        .PC                        :             Potassium Abundance (SGR) - The quantitative elemental abundace of Potassium derived from the Spectral Gamma Ray Log. Also wt_%
 TH_PPM     .ppm                       : Spectral    Thorium Abundance (SGR) - The quantitative elemental abundace of Thorium derived from the Spectral Gamma Ray Log
 U_PPM      .ppm                       :             Uranium Abundance (SGR) - The quantitative elemental abundace of Uranium derived from the Spectral Gamma Ray Log
 RD_OHMM    .ohmm                      :             Unspecified Deep Resistivity - No accroynm or method of attainment is specified - units of ohmm
 RM_OHMM    .ohm.m                     :             Unspecified Medium Resistivity - No accroynm or method of attainment is specified
 MSFL_OHMM  .ohmm                      :             Micro-Spherically Focused Log - Measurement involves only the first few inches of the formation immediately adjacent to the borehole
 NPHI_RATIO .ratio                     :             Neutron Porosity - Measured with an neutron logging device calibrated to a given matrix (limestone, sandstone and dolomite)
 RHOZ_G_CC  .g/cc                      :             Formation Density - Measures the density of formation, including any void space or other materials contained in the subject volume
 PEF_B_E    .b/e-                      : PEF         Photoelectric Factor - A log of photoelectric absorption properties. Often expressed in an approximation unit barns/electron (b/e-)
 LITH       .                          : LITH        Lithology Curve
~A  DEPTH DCAL_INC~   GR_API   CGR_API     K_per      TH_PPM    U_PPM    RD_OHMM   RM_OHMM  MSFL_OHM~ NPHI_RAT~ RHOZ_G_C~  PEF_B_E     LITH   
# ...
11084.4984    0.0099   55.8396   46.7314    1.1364    8.3940    2.4521    0.0251    0.0070    0.0191    0.2021    4.6109   10.0000   11.0000 
11084.9984    0.0315   57.2333   43.4958    1.0339    7.9528    2.5572    0.0243    0.0065    0.0202    0.2106    4.6273   10.0000   11.0000 
11085.4984    0.0099   57.3388   43.5457    1.0563    7.8375    2.3891    0.0247    0.0072    0.0236    0.2218    4.6288   10.0000   11.0000 
11085.9984    0.0315   62.5132   45.5820    1.1461    7.9678    2.2439    0.0239    0.0069    0.0199    0.2342    4.6288   10.0000   11.0000 
11086.4984    0.0315   58.8174   44.2623    1.1228    7.6791    2.5073    0.0248    0.0075    0.0203    0.2302    4.6288   10.0000   11.0000 
11086.9984    0.0207   56.1773   48.3090    1.2326    8.3394    2.1468    0.0258    0.0060    0.0218    0.2118    4.6149   10.0000   11.0000 
11087.4984    0.0315   53.1149   47.0670    1.2131    8.0538    2.1500    0.0258    0.0049    0.0209    0.2067    4.5932   10.0000   11.0000 
11087.9984    0.0315   53.3263   47.9478    1.1901    8.4715    1.8571    0.0263    0.0056    0.0225    0.2092    4.5902   10.0000   11.0000 
11088.4984    0.0099   57.2024   45.1888    1.1702    7.6998    2.0003    0.0269    0.0061    0.0202    0.2099    4.6040   10.0000   11.0000 
11088.9984    0.0386   58.6804   44.8909    1.2017    7.4200    2.2982    0.0260    0.0061    0.0247    0.1924    4.6257   10.0000   11.0000 
11089.4984    0.0315   58.6805   46.5314    1.2588    7.6143    2.2884    0.0261    0.0061    0.0222    0.1859    4.6288   10.0000   11.0000 
11089.9984    0.0386   57.6557   46.7148    1.2723    7.5943    2.2399    0.0254    0.0054    0.0196    0.1824    4.6288   10.0000   11.0000 
11090.4984    0.0171   55.6498   48.0540    1.3683    7.4636    1.9656    0.0254    0.0062    0.0205    0.1869    4.6288   10.0000   11.0000 
11090.9984    0.0315   58.7119   48.4179    1.4298    7.2198    2.1078    0.0256    0.0058    0.0224    0.1864    4.6285   10.0000   11.0000 
11091.4984    0.0530   58.8175   48.7292    1.4324    7.3055    2.3679    0.0255    0.0055    0.0193    0.2162    4.6175   10.0000   11.0000 
11091.9984    0.0386   62.5134   50.7346    1.5053    7.5243    2.2348    0.0247    0.0061    0.0209    0.2277    4.5850   10.0000   11.0000 
11092.4984    0.0243   63.5694   50.7512    1.5151    7.4722    2.2570    0.0253    0.0062    0.0223    0.2432    4.5231   10.0000   11.0000 
11092.9984    0.0207   64.9420   49.0106    1.4213    7.4609    1.9121    0.0248    0.0062    0.0206    0.2160    4.4498   10.0000   11.0000 
11093.4984    0.0207   59.3453   44.5809    1.2553    7.0062    2.1887    0.0248    0.0065    0.0236    0.2122    4.3975   10.0000   11.0000 
11093.9984   -0.0008   51.5311   39.1812    1.0798    6.2946    1.8382    0.0253    0.0054    0.0200    0.1778    4.3890   10.0000   11.0000 
11094.4984    0.0207   43.0834   31.8557    0.8906    5.0434    1.8705    0.0252    0.0059    0.0211    0.1387    4.4140   10.0000   11.0000 
11094.9984    0.0243   42.4500   28.2333    0.7858    4.4905    1.8700    0.0255    0.0057    0.0219    0.1055    4.4360   10.0000   11.0000 
11095.4984    0.0386   51.0033   32.3013    0.9061    5.0964    2.4086    0.0246    0.0063    0.0232    0.1214    4.4369   10.0000   11.0000 
11095.9984    0.0243   61.8796   40.6496    1.1026    6.6343    2.9546    0.0246    0.0061    0.0236    0.1575    4.4282   10.0000   11.0000 
11096.4984    0.0207   68.2150   47.3570    1.1931    8.2651    3.4329    0.0250    0.0059    0.0197    0.2137    4.4292   10.0000   11.0000 
11096.9984    0.0386   69.4823   46.8612    1.2213    7.9402    3.8953    0.0256    0.0060    0.0199    0.2309    4.4462   10.0000   11.0000 
11097.4984    0.0422   70.1582   43.2239    1.1251    7.3320    3.8652    0.0263    0.0061    0.0208    0.2537    4.4724   10.0000   11.0000 
11097.9984    0.0315   69.2079   39.6448    0.9934    6.9504    3.5410    0.0275    0.0061    0.0215    0.2291    4.5054   10.0000   11.0000 
11098.4984    0.0386   65.3009   36.5497    0.9580    6.1611    3.4143    0.0309    0.0055    0.0242    0.2199    4.5402   10.0000   11.0000 
11098.9984    0.0207   63.3579   40.7561    1.0994    6.6882    3.5618    0.0364    0.0059    0.0208    0.2258    4.5682   10.0000   11.0000 
11099.4984    0.0458   67.7930   41.3379    1.1391    6.6432    4.0281    0.0361    0.0052    0.0224    0.2427    4.5842   10.0000   11.0000 
11099.9984    0.0099   69.2714   46.1053    1.2181    7.7163    3.9045    0.0386    0.0054    0.0234    0.2486    4.5771   10.0000   11.0000 
11100.4984    0.0243   73.3896   44.9529    1.2377    7.2302    3.8115    0.0434    0.0055    0.0216    0.2643    4.5753   10.0000   11.0000 
11100.9984    0.0315   69.9050   45.0184    1.2400    7.2379    3.9701    0.0439    0.0050    0.0263    0.2534    4.5577   10.0000   11.0000 
11101.4984    0.0171   74.5512   44.5411    1.2141    7.2354    4.2289    0.0452    0.0049    0.0204    0.2468    4.5697   10.0000   11.0000 
11101.9984    0.0530   68.6378   42.5331    1.1794    6.7921    4.5138    0.0439    0.0050    0.0218    0.2126    4.5853   10.0000   11.0000 
11102.4984    0.0315   65.5757   42.6993    1.1420    7.0650    4.3060    0.0440    0.0044    0.0219    0.2075    4.6157   10.0000   11.0000 
11102.9984    0.0458   62.0909   42.5996    1.1851    6.7806    4.1837    0.0433    0.0049    0.0203    0.2120    4.6288   10.0000   11.0000 
11103.4984    0.0386   67.9361   41.7618    1.2248    6.2785    4.3601    0.0429    0.0054    0.0227    0.2114    4.6201   10.0000   11.0000 
11103.9984    0.0422   71.8922   40.1667    1.1702    6.0787    4.5453    0.0409    0.0054    0.0206    0.2050    4.6099   10.0000   11.0000 
11104.4984    0.0458   71.3519   36.9451    1.0579    5.6939    4.4911    0.0398    0.0051    0.0218    0.1953    4.6023   10.0000   11.0000 
11104.9984    0.0243   63.7118   38.6050    1.0714    6.1403    3.9756    0.0358    0.0055    0.0225    0.1960    4.6109   10.0000   11.0000 
11105.4984    0.0530   64.9296   38.8464    1.0715    6.2083    3.7297    0.0331    0.0057    0.0211    0.2017    4.6212   10.0000   11.0000 
11105.9984    0.0458   63.4636   39.2745    1.0390    6.5299    3.4671    0.0339    0.0064    0.0218    0.2089    4.6288   10.0000   11.0000 
11106.4984    0.0171   62.4639   37.0850    0.9629    6.2660    2.9333    0.0319    0.0057    0.0210    0.1933    4.6288   10.0000   11.0000 
11106.9984    0.0315   53.1718   32.0595    0.8553    5.2770    2.4714    0.0298    0.0061    0.0200    0.1758    4.6288   10.0000   11.0000 
11107.4984    0.0422   48.5255   31.2373    0.8154    5.2423    2.0865    0.0276    0.0079    0.0227    0.1656    4.6255   10.0000   11.0000 
11107.9984    0.0386   49.1029   31.1124    0.8356    5.0785    1.9797    0.0272    0.0076    0.0355    0.1870    4.6255   10.0000   11.0000 
11108.4984    0.0530   48.2579   30.0222    0.7626    5.1499    1.9828    0.0209    0.0071    0.0353    0.1793    4.5942   10.0000   11.0000 
11108.9984    0.0171   41.3309   24.5368    0.6040    4.3172    1.6927    0.0207    0.0069    0.0241    0.2207    4.2022   10.0000   11.0000 
11109.4984   -0.0188   31.2990   21.5827    0.5412    3.7403    1.3609    0.0165    0.0054    0.0308    0.1739    3.4893   10.0000   11.0000 
11109.9984    0.4047   30.3487   23.8982    0.6231    4.0025    1.3283    0.0164    0.0056    0.0601    0.1725    2.7493   10.0000   11.0000 
11110.4984    1.7974   37.3321   28.8996    0.7960    4.5919    2.0275    0.0228    0.0069    0.0573    0.1944    2.3820   10.0000   11.0000 
11110.9984    2.0451   53.2773   37.1973    1.0352    5.8490    2.9971    0.0129    0.0052    0.0562    0.2514    2.3651    9.7255   11.0000 
11111.4984    2.2138   70.1304   47.1735    1.3395    7.2624    4.5327    0.0322    0.0180    0.0563    0.2814    2.4177    8.9437   11.0000 
11111.9984    2.2712   87.6031   55.5403    1.5669    8.6120    5.4608    0.2695    0.1408    0.1000    0.2946    2.4555    7.8688   11.0000 
11112.4984    2.2855   98.2678   61.3775    1.7251    9.5567    5.9642    2.0164    2.0498    0.9955    0.2817    2.4552    6.7544   11.0000 
