~VERSION INFORMATION
 VERS.                 2.0:   CWLS LOG ASCII STANDARD - VERSION 2.0
 WRAP.                  NO:   SINGLE LINE PER DEPTH STEP
 CREA.                 20/03/2018 14:44:45
#CREATED USING DSPetro VERSION 5000.10.1.3 BY H191660 ON 20/03/2018 14:44:45
~WELL INFORMATION
#MNEM.UNIT       DATA                          DESCRIPTION MNEMONIC
#---------      ---------------------------   --------------------------
 STRT    .FT        300.0092                  : START DEPTH
 STOP    .FT        12601.0092                : STOP DEPTH
 STEP    .FT        0.5000                    : STEP VALUE
 NULL    .      -999.0000                     : NULL VALUE
 DATE    .      20/03/2018                    : LAS file Creation Date
 WELL  .      UNIVERSITY_20_3_1_4230131346 : Well Name
 COMP  .      Chesapeake Operating, Inc.   : Company
 FLD   .      Haley                        : Field
 STATE .      Texas                        : State
 API   .      42-301-31346                 : API Number
 UWI   .      507                          : Unique Well Identifier (UWI)
 LOC   .      1320' FNL & 1320' FWL        : Location
 TOWN  .      20                           : Township
 SCT   .      3                            : Section
 RANG  .      University Lands             : Range
 PDAT  .      GROUND LEVEL                 : Permanent Datum
 EPDAT .      2800.000000                  : Reference Elevation
 LGMEA .      KELLY BUSHING                : Log Measured from
 DRMEA .      KELLY BUSHING                : Drill Measured From
 APDAT .      26.000000                    : Elevation Above Permanent Datum
 KB    .      2826.00000                   : KB Elevation
 GL    .      2800.00000                   : GL Elevation
 RWS   .      -999                         : Def_Rw
 WST   .      -999                         : Def_Rwt
 CNTY  .      Loving                       : County
 SRVC  .      Schlumberger                 : Contractor
~CURVE INFORMATION
#MNEM              UNIT       API CODE   Curve Type Comments
#----------  --------------- ----------  ---------- -----------
 DEPTH      .FT                        : Depth       
 BS         .inch                      : BitSize     
 CAL        .inch                      :             
 GR         .API                       : GammaRay    
 SP_MV      .mv                        : SP          Spontaneous Potential - Records the electrical potential produced by the interaction of formation water, conductive drilling mud, and certain ion-sele
 DRES       .OHMM                      :             
 MRES       .OHMM                      : MedRes      
 SRES       .OHMM                      : ShalRes     
 DRHO       .G/C3                      : Drho        
 NPHI       .CFCF                      : Neutron     
 PEF        .B/E                       : PEF         
 RHOB       .G/C3                      : Density     
 LITH       .                          : LITH        Lithology Curve
~A  DEPTH     BS       CAL        GR      SP_MV      DRES      MRES      SRES      DRHO      NPHI      PEF       RHOB      LITH   
# ...
1126.0092 -999.0000    4.1163   31.9230 -999.0000    0.0035    0.0044    0.0074    0.2037    1.2306   10.0000    2.2697    3.0000 
1126.5092 -999.0000    4.0931   22.5348 -999.0000    0.0049    0.0061    0.0095    0.1976    1.0569   10.0000    2.2743    3.0000 
1127.0092 -999.0000    4.0931   24.2489 -999.0000    0.0044    0.0053    0.0084    0.1967    1.0363   10.0000    2.2757    3.0000 
1127.5092 -999.0000    4.0931   22.4959 -999.0000    0.0061    0.0075    0.0116    0.2028    0.5425   10.0000    2.2518    3.0000 
1128.0092 -999.0000    4.0931   19.9327 -999.0000    0.0043    0.0052    0.0084    0.2098    0.5965   10.0000    2.2826    3.0000 
1128.5092 -999.0000    4.0931    8.6456 -999.0000    0.0040    0.0049    0.0080    0.2179    0.3754   10.0000    2.2697    3.0000 
1129.0092 -999.0000    4.0931   30.3892 -999.0000    0.0047    0.0060    0.0095    0.2275    0.3908   10.0000    2.2553    3.0000 
1129.5092 -999.0000    4.1163   32.9074 -999.0000    0.0045    0.0056    0.0090    0.2357    0.4055   10.0000    2.2570    3.0000 
1130.0092 -999.0000    4.0931   35.3925 -999.0000    0.0050    0.0061    0.0098    0.2390    0.6930   10.0000    2.2705    3.0000 
1130.5092 -999.0000    4.0931   33.0121 -999.0000    0.0057    0.0070    0.0108    0.2351    1.2901   10.0000    2.2561    3.0000 
1131.0092 -999.0000    4.0931   33.6661 -999.0000    0.0045    0.0052    0.0083    0.2257    1.8827   10.0000    2.2507    3.0000 
1131.5092 -999.0000    4.0931   38.3746 -999.0000    0.0053    0.0064    0.0101    0.2161    2.2652   10.0000    2.2362    3.0000 
1132.0092 -999.0000    4.0931   39.7931 -999.0000    0.0050    0.0059    0.0093    0.2111    1.3447   10.0000    2.2075    3.0000 
1132.5092 -999.0000    4.0931   30.2348 -999.0000    0.0051    0.0060    0.0094    0.2078    1.1960   10.0000    2.2500    3.0000 
1133.0092 -999.0000    4.1163   43.4233 -999.0000    0.0041    0.0048    0.0078    0.2055    0.6882   10.0000    2.2421    3.0000 
1133.5092 -999.0000    4.1163   28.4867 -999.0000    0.0053    0.0063    0.0098    0.2058    0.6899   10.0000    2.2385    3.0000 
1134.0092 -999.0000    4.0931   29.6114 -999.0000    0.0043    0.0053    0.0085    0.2113    0.5318   10.0000    2.2347    3.0000 
1134.5092 -999.0000    4.0931   15.5381 -999.0000    0.0035    0.0041    0.0070    0.2109    0.5741    9.9950    2.2305    3.0000 
1135.0092 -999.0000    4.1163   32.9335 -999.0000    0.0048    0.0061    0.0096    0.2044    0.5250    9.9453    2.2211    3.0000 
1135.5092 -999.0000    4.0931   26.0800 -999.0000    0.0050    0.0062    0.0097    0.1978    0.6009    9.8761    2.2116    3.0000 
1136.0092 -999.0000    4.0931   37.9620 -999.0000    0.0038    0.0049    0.0079    0.2030    0.4656    9.8035    2.2502    3.0000 
1136.5092 -999.0000    4.0931   46.6990 -999.0000    0.0049    0.0061    0.0096    0.2152    0.5136    9.7796    2.2534    3.0000 
1137.0092 -999.0000    4.0931   34.4554 -999.0000    0.0050    0.0063    0.0096    0.2242    0.4940    9.7886    2.1959    3.0000 
1137.5092 -999.0000    4.1163   24.3274 -999.0000    0.0048    0.0061    0.0097    0.2268    0.5528    9.8249    2.2121    3.0000 
1138.0092 -999.0000    4.1163   41.3246 -999.0000    0.0042    0.0053    0.0084    0.2269    0.4243    9.8772    2.2218    3.0000 
1138.5092 -999.0000    4.1163   25.1122 -999.0000    0.0049    0.0063    0.0100    0.2273    0.3728    9.9207    2.2209    3.0000 
1139.0092 -999.0000    4.0931   31.0763 -999.0000    0.0049    0.0063    0.0099    0.2314    0.2910    9.9540    2.2303    3.0000 
1139.5092 -999.0000    4.0931   33.7569 -999.0000    0.0044    0.0055    0.0091    0.2268    0.2855    9.9753    2.2354    3.0000 
1140.0092 -999.0000    4.0931   47.7132 -999.0000    0.0033    0.0042    0.0070    0.2215    0.3244    9.9612    2.2452    3.0000 
1140.5092 -999.0000    4.0931   29.2637 -999.0000    0.0031    0.0041    0.0068    0.2139    0.4128    9.9521    2.2026    3.0000 
1141.0092 -999.0000    4.0931   27.7803 -999.0000    0.0035    0.0046    0.0076    0.2177    0.6463    9.9521    2.2491    3.0000 
1141.5092 -999.0000    4.0931   27.6757 -999.0000    0.0030    0.0039    0.0065    0.2272    1.2385    9.9820    2.2845    3.0000 
1142.0092 -999.0000    4.0931   29.3499 -999.0000    0.0049    0.0064    0.0100    0.2319    1.8609    9.9992    2.2700    3.0000 
1142.5092 -999.0000    4.1163   43.4493 -999.0000    0.0034    0.0044    0.0075    0.2329    1.6734    9.9992    2.2457    3.0000 
1143.0092 -999.0000    4.0931   27.5637 -999.0000    0.0044    0.0057    0.0090    0.2318    0.8734   10.0000    2.2640    3.0000 
1143.5092 -999.0000    4.0931   43.3186 -999.0000    0.0042    0.0054    0.0088    0.2361    0.6504   10.0000    2.2997    3.0000 
1144.0092 -999.0000    4.0931   33.5597 -999.0000    0.0043    0.0055    0.0088    0.2365    0.3861   10.0000    2.2930    3.0000 
1144.5092 -999.0000    4.0931   33.8814 -999.0000    0.0045    0.0056    0.0090    0.2376    0.3144    9.9947    2.2969    3.0000 
1145.0092 -999.0000    4.1163   30.2131 -999.0000    0.0046    0.0056    0.0090    0.2474    0.3051    9.9697    2.3754    3.0000 
1145.5092 -999.0000    4.1163   23.3656 -999.0000    0.0049    0.0058    0.0092    0.2600    0.2947    9.9489    2.4588    3.0000 
1146.0092 -999.0000    4.0931   20.7698 -999.0000    0.0054    0.0065    0.0100    0.2705    0.3632    9.9128    2.4488    3.0000 
1146.5092 -999.0000    4.0931   16.4013 -999.0000    0.0051    0.0062    0.0098    0.2646    0.3902    9.9187    2.3823    3.0000 
1147.0092 -999.0000    4.0931   26.1846 -999.0000    0.0055    0.0065    0.0104    0.2532    0.5037    9.9395    2.3299    3.0000 
1147.5092 -999.0000    4.0931   12.9938 -999.0000    0.0057    0.0069    0.0106    0.2412    0.5058    9.9790    2.3268    3.0000 
1148.0092 -999.0000    4.0931   29.3142 -999.0000    0.0051    0.0059    0.0092    0.2393    0.3803    9.9891    2.3099    3.0000 
1148.5092 -999.0000    4.1163   22.4959 -999.0000    0.0064    0.0064    0.0099    0.2419    0.3162    9.9891    2.2979    3.0000 
1149.0092 -999.0000    4.1163   31.0763 -999.0000    0.0057    0.0054    0.0084    0.2418    0.3418    9.9911    2.3353    3.0000 
1149.5092 -999.0000    4.1163   21.7900 -999.0000    0.0057    0.0047    0.0076    0.2423    0.5311   10.0000    2.3236    3.0000 
1150.0092 -999.0000    4.0931   34.5293 -999.0000    0.0085    0.0077    0.0115    0.2495    0.8346    9.9996    2.3548    3.0000 
1150.5092 -999.0000    4.0931   22.4963 -999.0000    0.0066    0.0056    0.0087    0.2535    0.9148    9.9996    2.3446    3.0000 
1151.0092 -999.0000    4.0931   33.0121 -999.0000    0.0074    0.0060    0.0093    0.2481    0.6699    9.9979    2.3517    3.0000 
1151.5092 -999.0000    4.0931   25.2429 -999.0000    0.0075    0.0058    0.0090    0.2312    0.4591    9.9983    2.3064    3.0000 
1152.0092 -999.0000    4.0931   38.0861 -999.0000    0.0079    0.0066    0.0099    0.2156    0.4798    9.9982    2.2954    3.0000 
1152.5092 -999.0000    4.0931   34.4424 -999.0000    0.0082    0.0070    0.0107    0.2117    0.4429    9.9965    2.2833    3.0000 
1153.0092 -999.0000    4.0931   17.3954 -999.0000    0.0072    0.0050    0.0079    0.2195    0.4042    9.9936    2.3085    3.0000 
1153.5092 -999.0000    4.0931   26.7311 -999.0000    0.0076    0.0057    0.0090    0.2280    0.4043    9.9937    2.3154    3.0000 
1154.0092 -999.0000    4.0931   22.5224 -999.0000    0.0076    0.0058    0.0091    0.2325    0.3709    9.9972    2.3365    3.0000 
1154.5092 -999.0000    4.0931   31.9396 -999.0000    0.0057    0.0050    0.0079    0.2339    0.5043   10.0000    2.3089    3.0000 
1155.0092 -999.0000    4.0931   20.7959 -999.0000    0.0079    0.0064    0.0100    0.2300    0.4200   10.0000    2.2915    3.0000 
1155.5092 -999.0000    4.0931   30.3700 -999.0000    0.0069    0.0053    0.0084    0.2250    0.3798   10.0000    2.2668    3.0000 
1156.0092 -999.0000    4.0931   22.4592 -999.0000    0.0069    0.0060    0.0094    0.2166    0.3405   10.0000    2.3083    3.0000 
1156.5092 -999.0000    4.1163   39.1331 -999.0000    0.0052    0.0041    0.0067    0.2137    0.3395   10.0000    2.2919    3.0000 
