~VERSION INFORMATION
 VERS.                 2.0:   CWLS LOG ASCII STANDARD - VERSION 2.0
 WRAP.                  NO:   SINGLE LINE PER DEPTH STEP
 CREA.                 20/03/2018 14:58:23
#CREATED USING DSPetro VERSION 5000.10.1.3 BY H191660 ON 20/03/2018 14:58:23
~WELL INFORMATION
#MNEM.UNIT       DATA                          DESCRIPTION MNEMONIC
#---------      ---------------------------   --------------------------
 STRT    .FT        128.0000                  : START DEPTH
 STOP    .FT        12500.0000                : STOP DEPTH
 STEP    .FT        0.5000                    : STEP VALUE
 NULL    .      -999.0000                     : NULL VALUE
 DATE    .      20/03/2018                    : LAS file Creation Date
 WELL  .      UNIVERSITY_40_16_4247536999  : Well Name
 COMP  .      Neftex Exploration Insights  : Company
 FLD   .      PHANTOM (WOLFCAMP)           : Field
 STATE .      Texas                        : State
 COUNT .      USA                          : Country
 API   .      42475369990000               : API Number
 UWI   .      222                          : Unique Well Identifier (UWI)
 LOC   .      1980FNL x 1757FWL            : Location
 TOWN  .      16                           : Township
 SCT   .      40                           : Section
 RANG  .      U39                          : Range
 LATI  .      -6470541.88                  : Latitude/Northing
 LONG  .      783810.27                    : Longitude/Easting
 PDAT  .      GL                           : Permanent Datum
 EPDAT .      2604.000000                  : Reference Elevation
 LGMEA .      KB                           : Log Measured from
 DRMEA .      KB                           : Drill Measured From
 APDAT .      25.000000                    : Elevation Above Permanent Datum
 KB    .      2629.00000                   : KB Elevation
 GL    .      2604.00000                   : GL Elevation
 RWS   .      -999                         : Def_Rw
 WST   .      -999                         : Def_Rwt
 CNTY  .      WARD                         : County
 SRVC  .      Diversified Well Logging LLC : Contractor
~CURVE INFORMATION
#MNEM              UNIT       API CODE   Curve Type Comments
#----------  --------------- ----------  ---------- -----------
 DEPTH      .FT                        : Depth       
 BS         .inch                      : BitSize     
 DCAL_INCH  .inch                      :             Differential Caliper - Evaluates the difference between the actual borehole diameter and bit size
 GR         .GAPI                      : GammaRay    Gamma Ray {F11.4}
 LLD_OHMM   .ohmm                      :             Laterlog Deep Resistivity - Measurement made several feet into the formation; generally considered a measurement of the undisturbed formation
 LLM_OHMM   .ohm.m                     :             Laterlog Medium Resistivity - Measurement made approximately two to three feet into the formation - units of ohmm
 LLS_OHMM   .ohmm                      :             Laterlog Shallow Resistivity - one to two feet into the formation; generally considered to measure the formation
 NPHI_RATIO .ratio                     :             Neutron Porosity - Measured with an neutron logging device calibrated to a given matrix (limestone, sandstone and dolomite)
 PEF_B_E    .b/e-                      : PEF         Photoelectric Factor - A log of photoelectric absorption properties. Often expressed in an approximation unit barns/electron (b/e-)
 RHOZ_G_CC  .g/cc                      :             Formation Density - Measures the density of formation, including any void space or other materials contained in the subject volume
 LITH       .                          : LITH        Lithology Curve
~A  DEPTH     BS    DCAL_INC~     GR     LLD_OHMM  LLM_OHMM  LLS_OHMM NPHI_RAT~  PEF_B_E  RHOZ_G_C~    LITH   
# ...
5877.0000    8.7500    1.6763   67.1585    9.0511    7.2470    8.8853    0.1417    2.7096    2.5591   27.0000 
5877.5000    8.7500    1.6393   70.1858    9.1082    7.3166    9.1761    0.1326    2.7729    2.5570   36.0000 
5878.0000    8.7500    1.6615   70.1155    7.1369    5.7949    6.6105    0.1350    2.6976    2.5314   36.0000 
5878.5000    8.7500    1.6985   62.6036    4.5256    3.7250    4.2339    0.1421    2.6719    2.5047   36.0000 
5879.0000    8.7500    1.7393   62.6035    3.6684    3.0630    3.5061    0.1528    2.5091    2.4897   27.0000 
5879.5000    8.7500    1.7578   58.8616    3.0312    2.5521    2.9762    0.1575    2.4905    2.4871   27.0000 
5880.0000    8.7500    1.7874   59.6674    3.0990    2.6432    2.9839    0.1665    2.4288    2.4759   27.0000 
5880.5000    8.7500    1.7652   55.5191    3.1322    2.7249    3.0139    0.1561    2.5028    2.4761   27.0000 
5881.0000    8.7500    1.7726   48.9042    3.7122    3.3049    3.5638    0.1377    2.6218    2.4865   27.0000 
5881.5000    8.7500    1.7726   44.3845    4.5639    4.1672    4.2347    0.1239    2.8069    2.4968   27.0000 
5882.0000    8.7500    1.7874   41.5816    3.8332    3.5338    3.6542    0.1259    2.5834    2.5046   27.0000 
5882.5000    8.7500    1.8022   43.1514    4.0546    3.7152    3.9515    0.1187    2.6464    2.5155   27.0000 
5883.0000    8.7500    1.8171   43.6139    5.3550    4.8247    5.2415    0.1128    2.7220    2.5239   27.0000 
5883.5000    8.7500    1.7282   42.7590    3.4873    3.1167    3.7388    0.1076    2.6744    2.5140   27.0000 
5884.0000    8.7500    1.7430   48.8132    2.8124    2.4849    3.0028    0.1264    2.5228    2.4975   27.0000 
5884.5000    8.7500    1.7282   55.8766    3.3330    2.8993    3.4980    0.1346    2.5839    2.5082   27.0000 
5885.0000    8.7500    1.7282   67.7190    4.6634    4.0423    5.0455    0.1421    2.7085    2.5475   27.0000 
5885.5000    8.7500    1.7652   75.5672    9.0586    7.7181    9.6120    0.1365    3.0173    2.5825   36.0000 
5886.0000    8.7500    1.7615   81.0749    9.7059    8.2211    9.9323    0.1250    2.8573    2.5960   36.0000 
5886.5000    8.7500    1.7726   78.2720   11.8472    9.8217   10.7195    0.1129    3.0297    2.5918   36.0000 
5887.0000    8.7500    1.8171   74.0116    9.4142    7.8025    9.3758    0.1052    2.7769    2.5914   36.0000 
5887.5000    8.7500    1.8615   70.2278   10.7685    8.7454    9.5844    0.1084    3.0207    2.5786   36.0000 
5888.0000    8.7500    1.9059   65.6310    5.7275    4.6754    5.1601    0.1213    2.7941    2.5420   27.0000 
5888.5000    8.7500    2.0504   56.7737    2.3377    1.9346    2.1222    0.1317    2.5942    2.4935   27.0000 
5889.0000    8.7500    2.1874   45.5268    1.8275    1.5177    1.6412    0.1441    2.7011    2.4418   27.0000 
5889.5000    8.7500    2.2615   38.9118    1.5372    1.2832    1.3989    0.1492    2.5257    2.4082   27.0000 
5890.0000    8.7500    2.3392   36.6694    1.4021    1.1834    1.2689    0.1627    2.4165    2.3824   27.0000 
5890.5000    8.7500    2.4170   36.2140    1.3960    1.1880    1.2339    0.1728    2.4218    2.3740   27.0000 
5891.0000    8.7500    2.4540   37.2230    1.4325    1.2268    1.2435    0.1903    2.3816    2.3693   27.0000 
5891.5000    8.7500    2.4948   37.7977    1.4948    1.2831    1.2624    0.1891    2.3845    2.3766   27.0000 
5892.0000    8.7500    2.5059   38.3583    1.5348    1.3065    1.2618    0.2036    2.4361    2.3833   27.0000 
5892.5000    8.7500    2.4911   37.6856    1.7016    1.4093    1.3777    0.1860    2.4334    2.3963   27.0000 
5893.0000    8.7500    2.4837   36.1018    1.7223    1.3884    1.4126    0.1939    2.4828    2.3927   27.0000 
5893.5000    8.7500    2.4615   35.8777    1.7455    1.3646    1.3807    0.1813    2.4914    2.3958   27.0000 
5894.0000    8.7500    2.4615   34.6655    1.3382    1.0580    1.1276    0.2041    2.4302    2.3932   27.0000 
5894.5000    8.7500    2.4615   36.6836    1.8861    1.4176    1.4986    0.1945    2.4320    2.4045   27.0000 
5895.0000    8.7500    2.4615   36.5713    2.3331    1.7239    1.8172    0.1865    2.5817    2.4076   27.0000 
5895.5000    8.7500    2.4318   38.3441    2.2721    1.6694    1.7446    0.1759    2.4368    2.4194   27.0000 
5896.0000    8.7500    2.4244   37.4472    2.1545    1.5703    1.6130    0.1762    2.4640    2.4235   27.0000 
5896.5000    8.7500    2.3837   37.5733    2.2226    1.6185    1.6308    0.1686    2.4492    2.4236   27.0000 
5897.0000    8.7500    2.4096   33.9856    2.1843    1.5944    1.5893    0.1820    2.5721    2.4126   27.0000 
5897.5000    8.7500    2.4392   33.2008    2.0114    1.4719    1.4497    0.1963    2.4335    2.4060   27.0000 
5898.0000    8.7500    2.4837   36.5503    1.9985    1.4691    1.4117    0.2134    2.4377    2.4048   27.0000 
5898.5000    8.7500    2.5059   38.7927    1.8699    1.3865    1.3516    0.1951    2.4758    2.4016   27.0000 
5899.0000    8.7500    2.5355   38.2322    1.8100    1.3554    1.3227    0.1936    2.4570    2.3859   27.0000 
5899.5000    8.7500    2.5614   34.4201    1.6951    1.2904    1.2807    0.2194    2.4664    2.3757   27.0000 
5900.0000    8.7500    2.5874   34.4131    1.5753    1.2236    1.2210    0.2332    2.4413    2.3762   27.0000 
5900.5000    8.7500    2.5948   35.5342    1.5442    1.2213    1.2175    0.2537    2.4396    2.3805   27.0000 
5901.0000    8.7500    2.5726   38.6736    1.7188    1.3893    1.3596    0.2508    2.6501    2.3951   27.0000 
5901.5000    8.7500    2.5059   41.3714    2.0455    1.6941    1.6674    0.2400    2.3758    2.4153   27.0000 
5902.0000    8.7500    2.5170   45.1833    2.5339    2.1320    2.0638    0.2241    2.5269    2.4402   27.0000 
5902.5000    8.7500    2.5503   45.9752    2.1703    1.8687    1.8760    0.1914    2.4778    2.4440   27.0000 
5903.0000    8.7500    2.5651   47.3207    2.2561    1.9693    2.0033    0.1946    2.5761    2.4470   27.0000 
5903.5000    8.7500    2.5614   45.7511    2.4958    2.2103    2.2869    0.1994    2.5550    2.4525   27.0000 
5904.0000    8.7500    2.5874   49.1075    2.6609    2.3847    2.5327    0.2127    2.6124    2.4581   27.0000 
5904.5000    8.7500    2.5800   49.7943    2.9137    2.6415    2.8375    0.2124    2.6680    2.4626   27.0000 
5905.0000    8.7500    2.5059   52.9335    3.3176    3.0326    3.2860    0.1881    2.7998    2.4750   27.0000 
5905.5000    8.7500    2.3948   54.3911    4.1255    3.8056    4.0386    0.1624    2.9443    2.4931   27.0000 
5906.0000    8.7500    2.1652   57.8526    4.0804    3.8099    4.1190    0.1626    2.7919    2.5043   27.0000 
5906.5000    8.7500    2.0393   61.8889    3.8732    3.6246    4.0427    0.1579    2.8797    2.5036   27.0000 
5907.0000    8.7500    1.9726   62.6738    3.9337    3.6694    4.0630    0.1686    2.8143    2.5017   27.0000 
5907.5000    8.7500    1.8837   63.2063    3.5618    3.3253    3.7166    0.1644    2.7715    2.4932   27.0000 
5908.0000    8.7500    1.7874   60.9640    3.7802    3.5151    3.8936    0.1593    2.7519    2.5043   12.0000 
5908.5000    8.7500    1.6726   58.9458    6.4804    5.9883    6.0062    0.1536    2.9358    2.5412   12.0000 
5909.0000    8.7500    1.3838   58.8405   12.0432   11.1280    9.7768    0.1409    3.0516    2.6026   12.0000 
5909.5000    8.7500    1.1430   57.1588   15.8427   14.7410   11.7428    0.1416    3.3570    2.6502   12.0000 
5910.0000    8.7500    1.0690   53.3469   18.0260   16.9296   12.1123    0.1258    3.4027    2.6857   12.0000 
5910.5000    8.7500    1.0542   47.0894   17.9597   17.1339   11.9781    0.1101    3.3288    2.7036   37.0000 
5911.0000    8.7500    1.0171   47.7621   14.7052   14.2198   10.8194    0.1009    3.2228    2.7078   12.0000 
5911.5000    8.7500    1.0393   55.7716   15.1986   14.7970   11.1632    0.1001    3.1400    2.6895   12.0000 
5912.0000    8.7500    1.0319   64.7408   15.4768   15.2429   11.3184    0.1033    2.9877    2.6638   12.0000 
5912.5000    8.7500    1.0393   66.8710   12.3170   12.3781   10.1750    0.1005    2.9680    2.6444   12.0000 
5913.0000    8.7500    1.0282   63.2340   11.0523   11.3305    9.5695    0.0913    2.9145    2.6310   36.0000 
