~VERSION INFORMATION
 VERS.                 2.0:   CWLS LOG ASCII STANDARD - VERSION 2.0
 WRAP.                  NO:   SINGLE LINE PER DEPTH STEP
 CREA.                 20/03/2018 14:55:32
#CREATED USING DSPetro VERSION 5000.10.1.3 BY H191660 ON 20/03/2018 14:55:32
~WELL INFORMATION
#MNEM.UNIT       DATA                          DESCRIPTION MNEMONIC
#---------      ---------------------------   --------------------------
 STRT    .FT        10799.4984                : START DEPTH
 STOP    .FT        13010.9983                : STOP DEPTH
 STEP    .FT        0.5000                    : STEP VALUE
 NULL    .      -999.0000                     : NULL VALUE
 DATE    .      20/03/2018                    : LAS file Creation Date
 WELL  .      UNIVERSITY_21-17             : Well Name
 COMP  .      Neftex Exploration Insights  : Company
 FLD   .                                   : Field
 STATE .      Texas                        : State
 API   .      42475370100000               : API Number
 UWI   .      213                          : Unique Well Identifier (UWI)
 LOC   .                                   : Location
 LATI  .      -6235758.22                  : Latitude/Northing
 LONG  .      777123.41                    : Longitude/Easting
 RWS   .      -999                         : Def_Rw
 WST   .      -999                         : Def_Rwt
 CNTY  .      WARD                         : County
 SRVC  .      Diversified Well Logging LLC : Contractor
~CURVE INFORMATION
#MNEM              UNIT       API CODE   Curve Type Comments
#----------  --------------- ----------  ---------- -----------
 DEPTH      .FT                        : Depth       
 DCAL_INCH  .inch                      :             Differential Caliper - Evaluates the difference between the actual borehole diameter and bit size
 GR_API     .API                       : GammaRay    Gamma Ray (API) - Measures the intensity of natural gamma-ray radiation emitted from formations containing radioactive elements, such as K, Th and U
 CGR_API    .API                       : GammaRay    Corrected / Computed Gamma Ray - Radiation with the Uranium component removed. Also known as a 'carbonate gamma ray'
 K_per        .PC                        :             Potassium Abundance (SGR) - The quantitative elemental abundace of Potassium derived from the Spectral Gamma Ray Log. Also wt_%
 TH_PPM     .ppm                       : Spectral    Thorium Abundance (SGR) - The quantitative elemental abundace of Thorium derived from the Spectral Gamma Ray Log
 U_PPM      .ppm                       :             Uranium Abundance (SGR) - The quantitative elemental abundace of Uranium derived from the Spectral Gamma Ray Log
 RD_OHMM    .ohmm                      :             Unspecified Deep Resistivity - No accroynm or method of attainment is specified - units of ohmm
 RM_OHMM    .ohm.m                     :             Unspecified Medium Resistivity - No accroynm or method of attainment is specified
 MSFL_OHMM  .ohmm                      :             Micro-Spherically Focused Log - Measurement involves only the first few inches of the formation immediately adjacent to the borehole
 NPHI_RATIO .ratio                     :             Neutron Porosity - Measured with an neutron logging device calibrated to a given matrix (limestone, sandstone and dolomite)
 RHOZ_G_CC  .g/cc                      :             Formation Density - Measures the density of formation, including any void space or other materials contained in the subject volume
 PEF_B_E    .b/e-                      : PEF         Photoelectric Factor - A log of photoelectric absorption properties. Often expressed in an approximation unit barns/electron (b/e-)
 LITH       .                          : LITH        Lithology Curve
~A  DEPTH DCAL_INC~   GR_API   CGR_API     K_per      TH_PPM    U_PPM    RD_OHMM   RM_OHMM  MSFL_OHM~ NPHI_RAT~ RHOZ_G_C~  PEF_B_E     LITH   
# ...
12480.9984   -0.0619   54.1572   41.5104    1.2214    6.1333    1.1024   27.3842   29.4638    0.3933    0.0716    2.7051    5.2648   22.0000 
12481.4984   -0.0547   73.5160   57.6686    1.7072    8.4607    1.8043    9.9676   10.7536    3.7154    0.1194    2.6605    4.7637   22.0000 
12481.9984   -0.0116   98.9927   74.1456    2.1770   10.9833    2.7221    8.8086    9.5752    3.6135    0.1763    2.6099    4.3976   37.0000 
12482.4984   -0.0475  109.2433   79.4600    2.3546   11.6441    3.1547   12.1199   13.1502    3.9210    0.2053    2.5788    4.3630   37.0000 
12482.9984   -0.0475  107.7935   78.7590    2.3590   11.3936    3.3667   10.7426   11.6311    2.0647    0.2134    2.5673    4.5194   37.0000 
12483.4984   -0.1193  104.6399   77.8024    2.3211   11.3097    3.0409    8.5322    9.2428    0.4538    0.1975    2.5813    4.6772   37.0000 
12483.9984   -0.1049  104.9284   76.4989    2.3106   10.9542    2.7453    8.0835    8.7218    0.4477    0.1746    2.6067    4.7448   37.0000 
12484.4984   -0.1301  102.9008   76.4926    2.3396   10.7820    2.8968   11.5431   12.4542    3.2587    0.1616    2.6128    4.6757   37.0000 
12484.9984   -0.0690  104.6536   80.8850    2.4151   11.7459    2.8837    7.9406    8.7024    3.2855    0.1875    2.5942    4.6537   37.0000 
12485.4984   -0.0403  103.5772   79.1330    2.3968   11.2925    2.7483   12.3624   13.5937    3.3220    0.2025    2.5889    4.6654   37.0000 
12485.9984   -0.0260   92.6515   69.6902    2.1093    9.9532    2.4367    9.0501    9.9847    4.3517    0.1793    2.6049    4.7841   37.0000 
12486.4984   -0.1480   80.5361   65.1663    2.0406    8.9086    2.2099    7.5242    8.3352    1.8745    0.1611    2.6095    4.8718   37.0000 
12486.9984   -0.0332   84.1466   68.6249    2.1403    9.4319    2.0851    7.5207    8.3330    2.8235    0.1641    2.5996    4.8986   22.0000 
12487.4984   -0.0762   92.9533   77.0324    2.3471   10.9116    1.8533    7.5273    8.3294    0.4377    0.1833    2.5864    4.9341   22.0000 
12487.9984   -0.0906  102.5274   87.4443    2.6146   12.6774    1.7608    7.5436    8.3407    1.4945    0.1899    2.5774    5.0075   37.0000 
12488.4984   -0.0834  104.2173   91.1616    2.7064   13.3301    1.9025    7.5343    8.3292    2.2890    0.1904    2.5697    5.2232   37.0000 
12488.9984   -0.0762  107.9126   93.4309    2.7711   13.6778    2.1205    8.3435    9.1899    0.3339    0.1999    2.5842    5.5098   37.0000 
12489.4984   -0.0978  104.8718   85.8680    2.5100   12.7860    2.2392    9.3073   10.2811    0.2400    0.1987    2.6104    5.7391   37.0000 
12489.9984   -0.1552  100.9222   84.3018    2.3738   13.0826    1.8588    8.2020    9.0501    0.2406    0.2089    2.6269    5.8053   37.0000 
12490.4984   -0.0439   93.8477   78.6784    2.2556   11.9747    1.9183    9.5943   10.6580    0.2483    0.2084    2.6331    5.8261   22.0000 
12490.9984   -0.0475   94.5231   78.6667    2.2070   12.2555    1.4974    9.9936   11.1297    0.3736    0.2079    2.6357    5.8596   22.0000 
12491.4984   -0.0188   84.8369   72.3597    2.0588   11.1048    1.2919    8.5191    9.4386    0.3767    0.1780    2.6505    5.8994   22.0000 
12491.9984   -0.0547   85.2663   71.5175    1.9833   11.2771    1.2611   13.3535   14.3351    0.3617    0.1554    2.6334    5.7957   22.0000 
12492.4984   -0.1121   80.9862   76.9677    2.0965   12.3584    1.2782    6.5678    5.6794    0.4174    0.1432    2.6027    5.7365   22.0000 
12492.9984   -0.0332   91.8764   86.8317    2.3572   13.9892    1.6334    6.9460    6.2452    0.3028    0.1819    2.5595    5.8352   22.0000 
12493.4984    0.0099   95.4810   93.3387    2.5081   15.1881    2.0768    7.5991    6.2222    0.1843    0.2242    2.5469    5.8954   22.0000 
12493.9984    0.0171  104.6676   97.7716    2.6401   15.8338    1.8010    7.4870    6.0861    0.2164    0.2495    2.5723    5.6552   22.0000 
12494.4984    0.0530  104.0342   95.4669    2.5410   15.6761    1.7869    7.4738    6.0666    1.7639    0.2248    2.6038    5.0527   37.0000 
12494.9984    0.0530  109.8908   96.8582    2.6256   15.6263    1.5519    7.4308    6.0276    3.7002    0.2044    2.6257    4.4489   37.0000 
12495.4984    0.0673  114.2204   96.1860    2.5942   15.5950    1.7679    7.3216    5.9505    3.6790    0.1953    2.6125    4.0620   37.0000 
12495.9984    0.0673  121.7176  101.8933    2.7388   16.5748    1.8230    6.7818    5.6743    3.2382    0.1989    2.5944    3.9247   37.0000 
12496.4984    0.0673  125.7731  101.7489    2.7424   16.5075    1.9346    6.5829    5.6666    3.1909    0.2050    2.5746    3.9219   37.0000 
12496.9984    0.0386  123.8723  103.6131    2.7298   17.1780    2.0057    6.8134    5.9516    3.1894    0.2207    2.5719    3.9045   37.0000 
12497.4984    0.0530  121.8871  102.6374    2.6882   17.1088    2.3897    6.4962    5.7468    2.9300    0.2359    2.5793    3.8844   37.0000 
12497.9984    0.0458  122.9357  102.0259    2.6485   17.1457    2.1720    6.6110    5.8900    2.9901    0.2457    2.5915    3.8664   37.0000 
12498.4984    0.0638  122.6967  100.0510    2.6619   16.4347    2.0762    6.5940    5.9268    2.7154    0.2356    2.5979    3.8872   37.0000 
12498.9984    0.0530  122.0418   98.3889    2.6270   16.1071    1.8532    6.5595    5.9335    2.3389    0.2362    2.6074    3.8633   37.0000 
12499.4984    0.0530  117.2762   96.4418    2.5380   16.0048    2.0181    6.2011    5.5452    3.0725    0.2289    2.6094    3.8395   37.0000 
12499.9984    0.0207  118.0643   96.1129    2.5477   15.8419    1.9567    6.6190    5.8309    3.2760    0.2327    2.6120    3.8173   37.0000 
12500.4984    0.0315  122.2886   99.8010    2.6699   16.3065    2.0541    6.3633    5.5559    3.0753    0.2320    2.6023    3.9159   37.0000 
12500.9984    0.0386  120.2609  101.9715    2.7858   16.3229    1.9243    5.9095    5.0319    2.7094    0.2288    2.6022    4.0430   37.0000 
12501.4984    0.0386  113.2775   97.3851    2.7252   15.2099    1.9981    6.3765    5.2212    2.3592    0.2035    2.6011    4.2157   37.0000 
12501.9984    0.0315  108.5255   91.7815    2.5785   14.2755    2.0830    8.8352    7.2516    2.8870    0.1916    2.6031    4.3435   37.0000 
12502.4984    0.0458  111.9044   88.9103    2.5295   13.6434    2.2766    6.4226    5.2770    2.3889    0.1960    2.5951    4.4430   37.0000 
12502.9984    0.0207  116.8606   92.6346    2.5984   14.4317    1.9115    6.8266    5.4399    2.4321    0.2169    2.5865    4.4931   37.0000 
12503.4984   -0.0044  117.7054   87.6412    2.5195   13.2961    2.3228    7.2864    5.8039    3.4534    0.2326    2.5766    4.5978   37.0000 
12503.9984   -0.0044  109.9268   74.8584    2.1188   11.5511    2.1912    7.2467    5.6659    3.4252    0.2228    2.5842    4.8134   37.0000 
12504.4984   -0.0008   89.9902   58.3591    1.7012    8.7157    1.7041    8.9524    6.9714    1.0914    0.1768    2.6137    5.0318   37.0000 
12504.9984   -0.0870   74.3335   55.7108    1.6402    8.2258    1.4739   58.9135   46.5693    5.8887    0.1241    2.6656    5.1216   22.0000 
12505.4984   -0.0834   80.1411   67.8303    2.0054    9.9662    1.8669   10.7942    9.6291   21.2275    0.1256    2.6940    4.9326   22.0000 
12505.9984   -0.0044   96.8112   85.9712    2.5063   12.8394    2.6824    5.1449    4.6235    4.5669    0.1743    2.6700    4.6229   37.0000 
12506.4984    0.0315  112.4678   90.8722    2.7161   13.1796    3.0795    5.1171    4.6421    3.1249    0.2142    2.6199    4.3373   37.0000 
12506.9984    0.0386  115.4524   92.2085    2.7369   13.4854    2.7941    5.9468    5.4446    3.2321    0.2160    2.5802    4.1628   37.0000 
12507.4984   -0.0116  116.8041   94.2427    2.8489   13.4809    2.7317    5.7497    5.3500    3.2739    0.2162    2.5748    4.0475   37.0000 
12507.9984    0.0386  114.2699   94.8948    2.9112   13.3253    2.5260    5.3527    5.0808    3.3173    0.2226    2.5732    3.9630   37.0000 
12508.4984    0.0602  112.1298   94.3793    2.8882   13.2955    2.6788    5.9662    5.7056    2.8336    0.2170    2.5713    3.9383   37.0000 
12508.9984    0.0638  117.0011   93.8167    2.8337   13.4354    2.3457    6.2533    5.9658    2.7515    0.2137    2.5641    3.9785   37.0000 
