~VERSION INFORMATION
 VERS.                 2.0:   CWLS LOG ASCII STANDARD - VERSION 2.0
 WRAP.                  NO:   SINGLE LINE PER DEPTH STEP
 CREA.                 20/03/2018 14:58:23
#CREATED USING DSPetro VERSION 5000.10.1.3 BY H191660 ON 20/03/2018 14:58:23
~WELL INFORMATION
#MNEM.UNIT       DATA                          DESCRIPTION MNEMONIC
#---------      ---------------------------   --------------------------
 STRT    .FT        128.0000                  : START DEPTH
 STOP    .FT        12500.0000                : STOP DEPTH
 STEP    .FT        0.5000                    : STEP VALUE
 NULL    .      -999.0000                     : NULL VALUE
 DATE    .      20/03/2018                    : LAS file Creation Date
 WELL  .      UNIVERSITY_40_16_4247536999  : Well Name
 COMP  .      Neftex Exploration Insights  : Company
 FLD   .      PHANTOM (WOLFCAMP)           : Field
 STATE .      Texas                        : State
 COUNT .      USA                          : Country
 API   .      42475369990000               : API Number
 UWI   .      222                          : Unique Well Identifier (UWI)
 LOC   .      1980FNL x 1757FWL            : Location
 TOWN  .      16                           : Township
 SCT   .      40                           : Section
 RANG  .      U39                          : Range
 LATI  .      -6470541.88                  : Latitude/Northing
 LONG  .      783810.27                    : Longitude/Easting
 PDAT  .      GL                           : Permanent Datum
 EPDAT .      2604.000000                  : Reference Elevation
 LGMEA .      KB                           : Log Measured from
 DRMEA .      KB                           : Drill Measured From
 APDAT .      25.000000                    : Elevation Above Permanent Datum
 KB    .      2629.00000                   : KB Elevation
 GL    .      2604.00000                   : GL Elevation
 RWS   .      -999                         : Def_Rw
 WST   .      -999                         : Def_Rwt
 CNTY  .      WARD                         : County
 SRVC  .      Diversified Well Logging LLC : Contractor
~CURVE INFORMATION
#MNEM              UNIT       API CODE   Curve Type Comments
#----------  --------------- ----------  ---------- -----------
 DEPTH      .FT                        : Depth       
 BS         .inch                      : BitSize     
 DCAL_INCH  .inch                      :             Differential Caliper - Evaluates the difference between the actual borehole diameter and bit size
 GR         .GAPI                      : GammaRay    Gamma Ray {F11.4}
 LLD_OHMM   .ohmm                      :             Laterlog Deep Resistivity - Measurement made several feet into the formation; generally considered a measurement of the undisturbed formation
 LLM_OHMM   .ohm.m                     :             Laterlog Medium Resistivity - Measurement made approximately two to three feet into the formation - units of ohmm
 LLS_OHMM   .ohmm                      :             Laterlog Shallow Resistivity - one to two feet into the formation; generally considered to measure the formation
 NPHI_RATIO .ratio                     :             Neutron Porosity - Measured with an neutron logging device calibrated to a given matrix (limestone, sandstone and dolomite)
 PEF_B_E    .b/e-                      : PEF         Photoelectric Factor - A log of photoelectric absorption properties. Often expressed in an approximation unit barns/electron (b/e-)
 RHOZ_G_CC  .g/cc                      :             Formation Density - Measures the density of formation, including any void space or other materials contained in the subject volume
 LITH       .                          : LITH        Lithology Curve
~A  DEPTH     BS    DCAL_INC~     GR     LLD_OHMM  LLM_OHMM  LLS_OHMM NPHI_RAT~  PEF_B_E  RHOZ_G_C~    LITH   
# ...
 631.0000 -999.0000   -6.0268   15.6465    0.0078    0.0082    0.0092    0.7756    9.8688    2.0866    3.0000 
 631.5000 -999.0000   -6.0268   16.6977    0.0070    0.0075    0.0083    0.7001   10.0000    2.0331    3.0000 
 632.0000 -999.0000   -6.0268   16.4274    0.0073    0.0078    0.0086    0.6815   10.0000    1.9869    3.0000 
 632.5000 -999.0000   -6.0268   17.3884    0.0074    0.0082    0.0092    0.6610    9.9263    1.9745    3.0000 
 633.0000 -999.0000   -6.0268   18.0190    0.0071    0.0073    0.0080    0.6382    9.9855    1.9726    3.0000 
 633.5000 -999.0000   -6.0157   18.4995    0.0074    0.0076    0.0082    0.6629    9.8978    1.9777    3.0000 
 634.0000 -999.0000   -6.0046   18.2593    0.0066    0.0070    0.0073    0.5926   10.0000    1.9839    3.0000 
 634.5000 -999.0000   -6.0268   17.2082    0.0079    0.0085    0.0095    0.5994   10.0000    1.9859    3.0000 
 635.0000 -999.0000   -6.0268   18.4094    0.0074    0.0078    0.0086    0.5898    9.9264    1.9838    3.0000 
 635.5000 -999.0000   -6.0157   14.6554    0.0080    0.0085    0.0095    0.7286   10.0000    1.9872    3.0000 
 636.0000 -999.0000   -6.0268   13.0638    0.0079    0.0084    0.0094    0.7128    9.9611    1.9890    3.0000 
 636.5000 -999.0000   -6.0157    9.7602    0.0076    0.0077    0.0083    0.7837   10.0000    1.9931    3.0000 
 637.0000 -999.0000   -6.0268   11.2318    0.0070    0.0074    0.0080    0.7323    9.9556    1.9935    3.0000 
 637.5000 -999.0000   -6.0046   11.9527    0.0069    0.0073    0.0081    0.7522    9.9527    1.9974    3.0000 
 638.0000 -999.0000   -6.0046   14.0549    0.0068    0.0070    0.0075    0.7967   10.0000    1.9928    3.0000 
 638.5000 -999.0000   -6.0268   15.3763    0.0076    0.0076    0.0084    0.7524   10.0000    1.9900    3.0000 
 639.0000 -999.0000   -6.0046   14.5654    0.0075    0.0073    0.0077    0.8141    9.9579    1.9890    3.0000 
 639.5000 -999.0000   -6.0046   15.5264    0.0082    0.0080    0.0088    0.7828   10.0000    1.9969    3.0000 
 640.0000 -999.0000   -6.0268   16.5174    0.0077    0.0072    0.0078    0.8245   10.0000    2.0032    3.0000 
 640.5000 -999.0000   -6.0268   17.5685    0.0059    0.0050    0.0048    0.7387    9.9292    2.0053    3.0000 
 641.0000 -999.0000   -6.0046   16.6075    0.0089    0.0086    0.0097    0.6831    9.9901    2.0060    3.0000 
 641.5000 -999.0000   -6.0268   15.7666    0.0079    0.0078    0.0085    0.6487    9.9827    2.0079    3.0000 
 642.0000 -999.0000   -6.0157   16.7276    0.0080    0.0073    0.0080    0.7686    9.9920    2.0072    3.0000 
 642.5000 -999.0000   -6.0268   17.3582    0.0085    0.0086    0.0098    0.7671   10.0000    2.0104    3.0000 
 643.0000 -999.0000   -6.0268   19.1300    0.0095    0.0087    0.0095    0.7440   10.0000    2.0070    3.0000 
 643.5000 -999.0000   -6.0268   19.6406    0.0095    0.0083    0.0091    0.6561    9.9733    2.0053    3.0000 
 644.0000 -999.0000   -6.0268   20.6917    0.0091    0.0083    0.0092    0.6145   10.0000    1.9994    3.0000 
 644.5000 -999.0000   -6.0268   19.3404    0.0088    0.0077    0.0082    0.6225    9.9656    1.9975    3.0000 
 645.0000 -999.0000   -6.0157   20.0312    0.0075    0.0071    0.0077    0.5957    9.9273    1.9915    3.0000 
 645.5000 -999.0000   -6.0268   18.3493    0.0084    0.0089    0.0103    0.6512   10.0000    1.9916    3.0000 
 646.0000 -999.0000   -6.0046   18.0190    0.0075    0.0074    0.0079    0.6827   10.0000    1.9913    3.0000 
 646.5000 -999.0000   -6.0046   16.4874    0.0069    0.0070    0.0074    0.6570    9.9197    2.0041    3.0000 
 647.0000 -999.0000   -6.0268   18.8901    0.0082    0.0066    0.0067    0.6435   10.0000    2.0096    3.0000 
 647.5000 -999.0000   -6.0268   18.7999    0.0080    0.0083    0.0097    0.7535    9.9325    2.0154    3.0000 
 648.0000 -999.0000   -6.0046   19.1301    0.0077    0.0077    0.0086    0.7752   10.0000    2.0190    3.0000 
 648.5000 -999.0000   -6.0268   16.3071    0.0092    0.0088    0.0099    0.7334    9.8606    2.0264    3.0000 
 649.0000 -999.0000   -6.0046   13.7845    0.0089    0.0093    0.0107    0.6301   10.0000    2.0332    3.0000 
 649.5000 -999.0000   -6.0046   13.0638    0.0084    0.0082    0.0091    0.5979    9.9581    2.0379    3.0000 
 650.0000 -999.0000   -6.0268   15.4063    0.0072    0.0067    0.0070    0.6219   10.0000    2.0436    3.0000 
 650.5000 -999.0000   -6.0268   17.7187    0.0079    0.0078    0.0087    0.6493    9.9420    2.0477    3.0000 
 651.0000 -999.0000   -6.0268   17.4785    0.0081    0.0075    0.0082    0.7350   10.0000    2.0435    3.0000 
 651.5000 -999.0000   -6.0268   13.8746    0.0072    0.0069    0.0074    0.6804    9.9555    2.0362    3.0000 
 652.0000 -999.0000   -6.0268   15.6165    0.0100    0.0081    0.0087    0.6464    9.9394    2.0315    3.0000 
 652.5000 -999.0000   -6.0046   15.8267    0.0094    0.0088    0.0098    0.6452   10.0000    2.0381    3.0000 
 653.0000 -999.0000   -6.0046   16.6676    0.0064    0.0069    0.0076    0.7078    9.9371    2.0441    3.0000 
 653.5000 -999.0000   -6.0157   14.2651    0.0070    0.0073    0.0080    0.7487    9.9682    2.0486    3.0000 
 654.0000 -999.0000   -6.0268   11.5322    0.0073    0.0075    0.0083    0.7302   10.0000    2.0534    3.0000 
 654.5000 -999.0000   -6.0268   12.3731    0.0080    0.0083    0.0094    0.7349    9.9260    2.0701    3.0000 
 655.0000 -999.0000   -6.0268   13.4542    0.0104    0.0090    0.0099    0.6758   10.0000    2.0860    3.0000 
 655.5000 -999.0000   -6.0268   17.4186    0.0070    0.0070    0.0074    0.5806   10.0000    2.0865    3.0000 
 656.0000 -999.0000   -6.0268   18.6799    0.0069    0.0073    0.0080    0.5883   10.0000    2.0735    3.0000 
 656.5000 -999.0000   -6.0046   17.5986    0.0072    0.0071    0.0078    0.5097    9.9979    2.0633    3.0000 
 657.0000 -999.0000   -6.0268   16.7877    0.0074    0.0079    0.0088    0.5935    9.8907    2.0640    3.0000 
 657.5000 -999.0000   -6.0046   15.0458    0.0076    0.0079    0.0088    0.5543   10.0000    2.0722    3.0000 
 658.0000 -999.0000   -6.0268   14.6555    0.0076    0.0074    0.0081    0.6931    9.9663    2.0792    3.0000 
 658.5000 -999.0000   -6.0268   15.7066    0.0076    0.0076    0.0083    0.6971   10.0000    2.0835    3.0000 
 659.0000 -999.0000   -6.0268   16.3973    0.0101    0.0095    0.0108    0.8400   10.0000    2.0824    3.0000 
 659.5000 -999.0000   -6.0268   17.9890    0.0091    0.0070    0.0069    0.7473   10.0000    2.0802    3.0000 
 660.0000 -999.0000   -6.0157   16.3073    0.0063    0.0068    0.0074    0.7266    9.9100    2.0820    3.0000 
 660.5000 -999.0000   -6.0046   16.5775    0.0061    0.0067    0.0073    0.5429   10.0000    2.0911    3.0000 
 661.0000 -999.0000   -6.0157   13.9348    0.0068    0.0078    0.0088    0.5534   10.0000    2.0934    3.0000 
 661.5000 -999.0000   -6.0046   13.7244    0.0077    0.0085    0.0099    0.6002   10.0000    2.1005    3.0000 
 662.0000 -999.0000   -6.0046   13.7245    0.0068    0.0070    0.0078    0.6857    9.9221    2.0973    3.0000 
 662.5000 -999.0000   -6.0046   17.7187    0.0069    0.0072    0.0078    0.7264   10.0000    2.0965    3.0000 
 663.0000 -999.0000   -6.0046   18.4094    0.0076    0.0078    0.0086    0.7171    9.9455    2.0987    3.0000 
 663.5000 -999.0000   -6.0268   20.2413    0.0085    0.0088    0.0102    0.7326   10.0000    2.1076    3.0000 
 664.0000 -999.0000   -6.0268   20.0912    0.0064    0.0058    0.0062    0.7687    9.9746    2.1276    3.0000 
 664.5000 -999.0000   -6.0046   19.1902    0.0075    0.0075    0.0083    0.7760    9.9892    2.1285    3.0000 
 665.0000 -999.0000   -6.0046   18.3194    0.0076    0.0074    0.0082    0.7402   10.0000    2.1202    3.0000 
 665.5000 -999.0000   -6.0268   19.1002    0.0069    0.0066    0.0072    0.6989   10.0000    2.1068    3.0000 
 666.0000 -999.0000   -6.0268   20.2414    0.0087    0.0086    0.0098    0.6706    9.9754    2.0958    3.0000 
 666.5000 -999.0000   -6.0046   19.2203    0.0069    0.0065    0.0070    0.7546    9.9708    2.1056    3.0000 
 667.0000 -999.0000   -6.0046   17.7186    0.0081    0.0083    0.0093    0.7045   10.0000    2.1256    3.0000 
