~VERSION INFORMATION
 VERS.                 2.0:   CWLS LOG ASCII STANDARD - VERSION 2.0
 WRAP.                  NO:   SINGLE LINE PER DEPTH STEP
 CREA.                 20/03/2018 14:55:32
#CREATED USING DSPetro VERSION 5000.10.1.3 BY H191660 ON 20/03/2018 14:55:32
~WELL INFORMATION
#MNEM.UNIT       DATA                          DESCRIPTION MNEMONIC
#---------      ---------------------------   --------------------------
 STRT    .FT        10799.4984                : START DEPTH
 STOP    .FT        13010.9983                : STOP DEPTH
 STEP    .FT        0.5000                    : STEP VALUE
 NULL    .      -999.0000                     : NULL VALUE
 DATE    .      20/03/2018                    : LAS file Creation Date
 WELL  .      UNIVERSITY_21-17             : Well Name
 COMP  .      Neftex Exploration Insights  : Company
 FLD   .                                   : Field
 STATE .      Texas                        : State
 API   .      42475370100000               : API Number
 UWI   .      213                          : Unique Well Identifier (UWI)
 LOC   .                                   : Location
 LATI  .      -6235758.22                  : Latitude/Northing
 LONG  .      777123.41                    : Longitude/Easting
 RWS   .      -999                         : Def_Rw
 WST   .      -999                         : Def_Rwt
 CNTY  .      WARD                         : County
 SRVC  .      Diversified Well Logging LLC : Contractor
~CURVE INFORMATION
#MNEM              UNIT       API CODE   Curve Type Comments
#----------  --------------- ----------  ---------- -----------
 DEPTH      .FT                        : Depth       
 DCAL_INCH  .inch                      :             Differential Caliper - Evaluates the difference between the actual borehole diameter and bit size
 GR_API     .API                       : GammaRay    Gamma Ray (API) - Measures the intensity of natural gamma-ray radiation emitted from formations containing radioactive elements, such as K, Th and U
 CGR_API    .API                       : GammaRay    Corrected / Computed Gamma Ray - Radiation with the Uranium component removed. Also known as a 'carbonate gamma ray'
 K_per        .PC                        :             Potassium Abundance (SGR) - The quantitative elemental abundace of Potassium derived from the Spectral Gamma Ray Log. Also wt_%
 TH_PPM     .ppm                       : Spectral    Thorium Abundance (SGR) - The quantitative elemental abundace of Thorium derived from the Spectral Gamma Ray Log
 U_PPM      .ppm                       :             Uranium Abundance (SGR) - The quantitative elemental abundace of Uranium derived from the Spectral Gamma Ray Log
 RD_OHMM    .ohmm                      :             Unspecified Deep Resistivity - No accroynm or method of attainment is specified - units of ohmm
 RM_OHMM    .ohm.m                     :             Unspecified Medium Resistivity - No accroynm or method of attainment is specified
 MSFL_OHMM  .ohmm                      :             Micro-Spherically Focused Log - Measurement involves only the first few inches of the formation immediately adjacent to the borehole
 NPHI_RATIO .ratio                     :             Neutron Porosity - Measured with an neutron logging device calibrated to a given matrix (limestone, sandstone and dolomite)
 RHOZ_G_CC  .g/cc                      :             Formation Density - Measures the density of formation, including any void space or other materials contained in the subject volume
 PEF_B_E    .b/e-                      : PEF         Photoelectric Factor - A log of photoelectric absorption properties. Often expressed in an approximation unit barns/electron (b/e-)
 LITH       .                          : LITH        Lithology Curve
~A  DEPTH DCAL_INC~   GR_API   CGR_API     K_per      TH_PPM    U_PPM    RD_OHMM   RM_OHMM  MSFL_OHM~ NPHI_RAT~ RHOZ_G_C~  PEF_B_E     LITH   
# ...
11511.9984   -0.0260   89.4406   55.2057    1.5260    8.7327    3.8749   17.0513   14.8517    7.6177    0.1921    2.5264    3.4415   37.0000 
11512.4984   -0.0439   94.7203   55.8686    1.5639    8.7226    4.0577   16.1444   14.2181    7.3206    0.2037    2.5101    3.5465   37.0000 
11512.9984   -0.0547   95.0368   54.6330    1.4706    8.8733    3.7070   26.3828   23.6069    7.8876    0.1975    2.5011    3.7057   37.0000 
11513.4984   -0.0475   92.5659   56.4281    1.5033    9.2561    4.0510   34.7120   31.4747   12.7490    0.1813    2.5156    3.8114   37.0000 
11513.9984   -0.0332   98.0569   58.8059    1.5580    9.6972    4.4405   13.4412   12.2219   10.8391    0.1839    2.5164    3.8313   37.0000 
11514.4984    0.0243  106.8218   63.3079    1.6713   10.4748    4.9297   12.9827   12.0119    6.3356    0.1934    2.5043    3.7391   37.0000 
11514.9984    0.0099  120.7160   66.7419    1.7393   11.1757    5.2434   16.5941   15.6617    7.6713    0.2155    2.4839    3.6501   37.0000 
11515.4984    0.0027  130.9583   71.6629    1.9056   11.7763    5.4923   10.6433   10.0916    5.6658    0.2304    2.4724    3.5975   37.0000 
11515.9984    0.0207  133.2815   73.2778    2.0282   11.5751    5.6080   10.0874    9.5694    4.9836    0.2509    2.4718    3.6377   37.0000 
11516.4984    0.0099  124.9205   72.6001    1.9178   12.0049    4.9300   10.1473    9.6883    4.9201    0.2291    2.4863    3.7861   37.0000 
11516.9984    0.0315  108.4109   66.5131    1.6893   11.3945    4.1440   18.3021   17.5744    7.1754    0.2060    2.5080    4.0044   37.0000 
11517.4984   -0.0116  101.5470   61.4150    1.5284   10.7050    3.9700   29.5491   30.2512   15.9726    0.1834    2.5288    4.1075   37.0000 
11517.9984   -0.0008   98.1683   61.0380    1.4292   11.1653    3.7922   12.5245   13.0717   10.9723    0.2094    2.5276    4.0759   37.0000 
11518.4984   -0.0188   99.8577   58.1357    1.3602   10.6408    4.0634   11.4106   11.5965    5.6539    0.2134    2.5232    3.9953   37.0000 
11518.9984   -0.0224   92.5718   52.6194    1.2369    9.5972    3.7613   32.2913   32.7939    9.2693    0.2091    2.5236    4.0048   37.0000 
11519.4984   -0.0260   89.6149   51.4300    1.1733    9.5887    3.4647   12.4004   12.4255    6.3207    0.2054    2.5282    4.1090   37.0000 
11519.9984   -0.0224   85.3223   50.5440    1.1171    9.6342    3.1312    8.7829    8.6163    3.0340    0.2016    2.5418    4.2878   37.0000 
11520.4984   -0.0260   81.3095   46.5784    1.0482    8.7683    2.8596   16.1503   15.7202    4.9469    0.1589    2.5853    4.5536   37.0000 
11520.9984   -0.0260   64.3086   35.0820    0.7332    6.9336    2.2735  473.6434  446.4397   23.4960    0.0871    2.6532    4.8437   37.0000 
11521.4984    0.0099   54.1716   31.4943    0.6147    6.4789    2.2792 3853.1526 4203.8960   24.4854    0.0505    2.6955    4.9040   37.0000 
11521.9984   -0.0224   65.6812   34.3423    0.6797    7.0098    3.3071   31.3915   34.9200   23.4657    0.0964    2.6753    4.6907   22.0000 
11522.4984    0.0099   81.2036   45.0370    0.9028    9.1262    4.3931   13.6190   14.9484    5.2971    0.1700    2.6039    4.3112   22.0000 
11522.9984    0.0315   89.0177   48.6844    0.9197   10.1947    4.6474   16.1327   17.6613    6.7713    0.1992    2.5563    4.2032   22.0000 
11523.4984   -0.0403   76.1351   45.1363    0.8780    9.3034    3.8587   16.2763   17.9357    7.8370    0.1591    2.5590    4.4597   22.0000 
11523.9984   -0.0439   67.8987   41.9156    0.8388    8.5023    3.1536   49.8904   55.2081   18.7492    0.0944    2.6246    4.9447   22.0000 
11524.4984   -0.0619   73.4671   46.4801    1.0186    8.9104    3.2934  122.6598  136.9112   18.1091    0.0639    2.6754    5.2918   22.0000 
11524.9984   -0.0547   88.9899   54.0142    1.2093   10.2053    4.1472   23.6451   25.1739    6.5245    0.0693    2.6949    5.3426   22.0000 
11525.4984   -0.0403  105.9912   60.9299    1.3966   11.3218    4.8133   25.2054   27.3884    3.0735    0.0815    2.6721    5.0769   22.0000 
11525.9984   -0.0116  119.5358   65.9271    1.5437   12.0599    5.0955   29.8736   29.6047   20.8057    0.1146    2.6456    4.6557   37.0000 
11526.4984    0.0530  124.6042   71.5750    1.7520   12.6483    5.1729   10.1848   10.3523    7.5647    0.1500    2.6040    4.1402   37.0000 
11526.9984    0.0961  130.6228   74.0695    1.9074   12.5371    5.3158   11.7090   12.1135    6.4728    0.1960    2.5671    3.7561   37.0000 
11527.4984    0.2145  123.3366   72.2744    1.9187   11.8966    4.6095   16.0345   16.7731    7.7172    0.2081    2.5340    3.5331   37.0000 
11527.9984    0.1248  123.0203   70.2041    1.9358   11.1341    4.3442   17.5689   18.4459    8.4482    0.2099    2.5199    3.5078   37.0000 
11528.4984    0.0530  120.7679   68.0249    1.9680   10.2478    4.5891   15.2343   15.9443    7.0278    0.2104    2.5040    3.5564   37.0000 
11528.9984    0.1104  122.9852   69.4430    2.0281   10.3503    5.1335   12.2532   12.6627    6.0213    0.2111    2.4838    3.6690   37.0000 
11529.4984    0.2109  118.6556   68.0672    2.0233    9.9383    5.2732    8.9308    9.2735    4.4866    0.2339    2.4635    3.8360   37.0000 
11529.9984    0.2468  112.3610   67.4753    1.9585   10.1281    5.2649   10.0288   10.5567    1.6556    0.2525    2.4608    4.0281   37.0000 
11530.4984    0.2253  107.8206   64.1590    1.8225    9.8624    4.8145   12.9542   13.4740    2.9866    0.2598    2.4830    4.2071   37.0000 
11530.9984    0.0386  101.9072   58.8784    1.5573    9.7250    4.3059   17.0620   16.8767    4.9842    0.2295    2.5284    4.3895   37.0000 
11531.4984   -0.0224   93.5586   50.4710    1.2821    8.6454    4.0046   37.2443   36.1961   11.3558    0.1984    2.5819    4.5797   22.0000 
11531.9984   -0.0224   81.8375   43.2539    1.0636    7.6147    3.2798   30.5219   29.4275    9.9439    0.1586    2.6198    4.7076   22.0000 
11532.4984   -0.0188   70.3278   42.9386    1.0405    7.6491    3.0872   66.4082   62.4023   18.8770    0.1286    2.6352    4.6992   22.0000 
11532.9984   -0.0044   88.0672   56.1272    1.3215   10.2243    4.0602   53.7138   46.4799   25.8703    0.1260    2.6120    4.5295   22.0000 
11533.4984    0.0315  119.0071   76.0552    1.8073   13.7572    5.8262   14.2806   12.1211    7.9177    0.1630    2.5722    4.2194   22.0000 
11533.9984    0.0530  134.2130   88.6909    1.9259   17.1057    5.7819   11.7879   10.0045    4.3340    0.1991    2.5442    3.8650   37.0000 
11534.4984    0.0207  124.8155   80.1045    1.5994   16.2690    5.0127   16.5152   14.0243    4.5128    0.2102    2.5362    3.6100   37.0000 
11534.9984    0.0171  102.1124   65.3403    1.2043   13.8574    4.3337   24.7900   20.3463    7.3311    0.1990    2.5387    3.5324   37.0000 
11535.4984   -0.0116  102.8513   61.4734    1.1276   13.0695    4.3391   27.5229   21.9669    9.4219    0.2016    2.5306    3.5378   37.0000 
11535.9984   -0.0116  112.4609   77.1257    1.4947   15.9292    5.2557   27.4974   21.4251    9.1895    0.1938    2.5162    3.5377   37.0000 
11536.4984   -0.0116  158.5008  118.2503    2.3630   24.0060    8.5479   18.7481   14.2585    5.7583    0.1856    2.5123    3.5341   37.0000 
11536.9984   -0.0116  246.2507  150.6368    3.0850   30.1428   10.9552   15.2176   11.7888    4.3099    0.2067    2.5058    3.6130   37.0000 
11537.4984   -0.0044  282.6815  143.7248    3.0169   28.3299   11.1356   14.7739   11.3986    2.5562    0.2223    2.5076    3.6987   37.0000 
11537.9984   -0.0008  249.7075  106.2692    2.1661   21.3245    7.8979   17.3801   13.1732    2.6682    0.2404    2.5085    3.6857   37.0000 
11538.4984    0.0243  163.4365   75.4153    1.5581   15.0110    5.3757   25.8955   19.4412    5.2219    0.2181    2.5125    3.5620   37.0000 
11538.9984    0.0530  120.6699   65.6883    1.3533   13.0968    4.7016   29.0491   21.6820    7.2083    0.2132    2.5198    3.4249   37.0000 
11539.4984    0.0315  113.5736   63.3540    1.3991   12.0821    4.7975   20.3235   14.9762    6.6260    0.2097    2.5218    3.4016   37.0000 
11539.9984    0.0207  116.1073   63.9626    1.5480   11.4054    4.9453   16.3112   12.1216    4.3421    0.2209    2.5240    3.4483   37.0000 
