~VERSION INFORMATION
 VERS.                 2.0:   CWLS LOG ASCII STANDARD - VERSION 2.0
 WRAP.                  NO:   SINGLE LINE PER DEPTH STEP
 CREA.                 20/03/2018 14:44:45
#CREATED USING DSPetro VERSION 5000.10.1.3 BY H191660 ON 20/03/2018 14:44:45
~WELL INFORMATION
#MNEM.UNIT       DATA                          DESCRIPTION MNEMONIC
#---------      ---------------------------   --------------------------
 STRT    .FT        300.0092                  : START DEPTH
 STOP    .FT        12601.0092                : STOP DEPTH
 STEP    .FT        0.5000                    : STEP VALUE
 NULL    .      -999.0000                     : NULL VALUE
 DATE    .      20/03/2018                    : LAS file Creation Date
 WELL  .      UNIVERSITY_20_3_1_4230131346 : Well Name
 COMP  .      Chesapeake Operating, Inc.   : Company
 FLD   .      Haley                        : Field
 STATE .      Texas                        : State
 API   .      42-301-31346                 : API Number
 UWI   .      507                          : Unique Well Identifier (UWI)
 LOC   .      1320' FNL & 1320' FWL        : Location
 TOWN  .      20                           : Township
 SCT   .      3                            : Section
 RANG  .      University Lands             : Range
 PDAT  .      GROUND LEVEL                 : Permanent Datum
 EPDAT .      2800.000000                  : Reference Elevation
 LGMEA .      KELLY BUSHING                : Log Measured from
 DRMEA .      KELLY BUSHING                : Drill Measured From
 APDAT .      26.000000                    : Elevation Above Permanent Datum
 KB    .      2826.00000                   : KB Elevation
 GL    .      2800.00000                   : GL Elevation
 RWS   .      -999                         : Def_Rw
 WST   .      -999                         : Def_Rwt
 CNTY  .      Loving                       : County
 SRVC  .      Schlumberger                 : Contractor
~CURVE INFORMATION
#MNEM              UNIT       API CODE   Curve Type Comments
#----------  --------------- ----------  ---------- -----------
 DEPTH      .FT                        : Depth       
 BS         .inch                      : BitSize     
 CAL        .inch                      :             
 GR         .API                       : GammaRay    
 SP_MV      .mv                        : SP          Spontaneous Potential - Records the electrical potential produced by the interaction of formation water, conductive drilling mud, and certain ion-sele
 DRES       .OHMM                      :             
 MRES       .OHMM                      : MedRes      
 SRES       .OHMM                      : ShalRes     
 DRHO       .G/C3                      : Drho        
 NPHI       .CFCF                      : Neutron     
 PEF        .B/E                       : PEF         
 RHOB       .G/C3                      : Density     
 LITH       .                          : LITH        Lithology Curve
~A  DEPTH     BS       CAL        GR      SP_MV      DRES      MRES      SRES      DRHO      NPHI      PEF       RHOB      LITH   
# ...
6849.5092   12.2500   15.1585   58.2597 -999.0000    1.5651    1.3096    1.1359   -0.0028    0.1617    2.6559    2.4204   36.0000 
6850.0092   12.2500   15.1469   51.6564 -999.0000    1.6681    1.4031    1.1838   -0.0034    0.1647    2.6677    2.4068   36.0000 
6850.5092   12.2500   15.0656   61.3673 -999.0000    1.6991    1.4596    1.2127   -0.0036    0.1667    2.6739    2.4048   36.0000 
6851.0092   12.2500   14.8796   55.1180 -999.0000    1.7221    1.4875    1.2283   -0.0059    0.1886    2.6975    2.4131   36.0000 
6851.5092   12.2500   14.8331   50.7797 -999.0000    1.5753    1.3799    1.2004   -0.0072    0.2142    2.7404    2.4364   36.0000 
6852.0092   12.2500   14.7866   52.5385 -999.0000    1.5036    1.3218    1.1844   -0.0073    0.2168    2.7392    2.3756   36.0000 
6852.5092   12.2500   14.7633   51.4914 -999.0000    1.4651    1.2867    1.1540   -0.0045    0.2106    2.7426    2.4263   36.0000 
6853.0092   12.2500   14.7401   45.8180 -999.0000    1.5298    1.3495    1.1817   -0.0016    0.1842    2.7393    2.3832   36.0000 
6853.5092   12.2500   14.7285   44.7499 -999.0000    1.8417    1.6138    1.2630    0.0000    0.1854    2.7430    2.4754   36.0000 
6854.0092   12.2500   14.7169   52.0537 -999.0000    1.5287    1.3494    1.1605   -0.0023    0.1764    2.7588    2.4665   36.0000 
6854.5092   12.2500   14.7401   44.9924 -999.0000    1.3063    1.1675    1.0457   -0.0077    0.1854    2.7672    2.3906   36.0000 
6855.0092   12.2500   14.7633   69.4383 -999.0000    1.2867    1.1498    1.0152   -0.0104    0.2094    2.7440    2.3384   36.0000 
6855.5092   12.2500   14.7633   51.2972 -999.0000    1.2215    1.1075    0.9849   -0.0085    0.2277    2.6793    2.3566   36.0000 
6856.0092   12.2500   14.7866   45.6457 -999.0000    1.2294    1.1036    0.9761   -0.0063    0.2525    2.6316    2.3699   27.0000 
6856.5092   12.2500   14.7866   38.9303 -999.0000    1.2554    1.1401    0.9757   -0.0072    0.2237    2.6269    2.3828   27.0000 
6857.0092   12.2500   14.7982   48.1767 -999.0000    1.1677    1.0759    0.9318   -0.0081    0.2077    2.6225    2.3702   27.0000 
6857.5092   12.2500   14.7633   40.1149 -999.0000    1.2722    1.1515    1.0093   -0.0069    0.2057    2.6157    2.3627   27.0000 
6858.0092   12.2500   14.7633   46.1140 -999.0000    1.2969    1.1678    1.0085   -0.0025    0.1999    2.5789    2.3914   27.0000 
6858.5092   12.2500   14.7401   43.6380 -999.0000    1.1635    1.0459    0.9263   -0.0002    0.2014    2.5716    2.3810   27.0000 
6859.0092   12.2500   14.6936   64.5581 -999.0000    1.1817    1.0525    0.9398   -0.0034    0.2082    2.5927    2.3768   27.0000 
6859.5092   12.2500   14.6936   46.9865 -999.0000    1.3365    1.1786    1.0480   -0.0048    0.2018    2.6426    2.3954   36.0000 
6860.0092   12.2500   14.7169   51.0863 -999.0000    1.4221    1.2204    1.0677   -0.0045    0.1900    2.6673    2.4391   36.0000 
6860.5092   12.2500   14.4844   49.0148 -999.0000    1.2614    1.0924    0.9937   -0.0010    0.1880    2.6923    2.3827   36.0000 
6861.0092   12.2500   14.4844   51.9496 -999.0000    1.3927    1.2004    1.1093    0.0001    0.1906    2.7033    2.3926   36.0000 
6861.5092   12.2500   14.4844   57.6555 -999.0000    1.6868    1.4284    1.2236   -0.0007    0.1623    2.7401    2.4315   36.0000 
6862.0092   12.2500   14.4844   50.4306 -999.0000    1.4153    1.2275    1.0642   -0.0009    0.1390    2.7205    2.4472   36.0000 
6862.5092   12.2500   14.2752   48.5313 -999.0000    1.3226    1.1603    1.0352   -0.0035    0.1509    2.7093    2.4027   36.0000 
6863.0092   12.2500   14.2752   50.1282 -999.0000    1.5356    1.3438    1.1775   -0.0038    0.1602    2.6560    2.4488   27.0000 
6863.5092   12.2500   14.2752   44.4741 -999.0000    1.4345    1.2595    1.1264   -0.0043    0.1444    2.6377    2.4393   27.0000 
6864.0092   12.2500   14.2868   51.0172 -999.0000    1.2359    1.0902    0.9909   -0.0066    0.1463    2.6310    2.3961   27.0000 
6864.5092   12.2500   14.2984   47.3573 -999.0000    1.3139    1.1574    1.0507   -0.0082    0.1358    2.6616    2.3689   27.0000 
6865.0092   12.2500   14.2752   52.1654 -999.0000    1.7331    1.5036    1.3126   -0.0094    0.1349    2.7252    2.3963   27.0000 
6865.5092   12.2500   14.2519   48.7040 -999.0000    1.8902    1.6467    1.3986   -0.0071    0.1191    2.7926    2.5208   27.0000 
6866.0092   12.2500   14.1124   43.5850 -999.0000    1.5124    1.3408    1.2574   -0.0061    0.1106    2.8306    2.4211   27.0000 
6866.5092   12.2500   14.1124   44.3618 -999.0000    1.9179    1.6601    1.3997   -0.0048    0.1108    2.8200    2.4893   27.0000 
6867.0092   12.2500   14.0892   46.9831 -999.0000    1.6719    1.4540    1.3602   -0.0055    0.1094    2.7806    2.4388   27.0000 
6867.5092   12.2500   14.1589   43.6639 -999.0000    1.5181    1.3482    1.3001   -0.0057    0.1245    2.7312    2.4172   27.0000 
6868.0092   12.2500   14.1589   37.2038 -999.0000    1.8439    1.6089    1.3808   -0.0036    0.1336    2.6781    2.4493   27.0000 
6868.5092   12.2500   14.1822   44.8044 -999.0000    1.4993    1.3461    1.2456   -0.0038    0.1576    2.6552    2.4099   27.0000 
6869.0092   12.2500   14.2519   58.5484 -999.0000    1.4444    1.3304    1.2060   -0.0042    0.1761    2.6365    2.3978   27.0000 
6869.5092   12.2500   14.2984   55.0829 -999.0000    1.6170    1.5124    1.2857   -0.0051    0.2070    2.6126    2.4257   36.0000 
6870.0092   12.2500   14.3217   50.5958 -999.0000    1.4105    1.3400    1.1588   -0.0028    0.1959    2.5834    2.4328   36.0000 
6870.5092   12.2500   14.2984   42.9847 -999.0000    1.2463    1.2093    1.0690   -0.0041    0.2051    2.5671    2.3814   36.0000 
6871.0092   12.2500   14.3217   47.8826 -999.0000    1.2253    1.2020    1.0559   -0.0052    0.1963    2.5685    2.3712   36.0000 
6871.5092   12.2500   14.2752   44.6721 -999.0000    1.2482    1.2339    1.0687   -0.0043    0.2209    2.5768    2.3609   36.0000 
6872.0092   12.2500   14.2868   47.7181 -999.0000    1.4360    1.4140    1.2087    0.0002    0.2129    2.6159    2.3762   36.0000 
6872.5092   12.2500   14.2287   48.4452 -999.0000    1.6113    1.5720    1.2960    0.0027    0.1915    2.6793    2.4205   36.0000 
6873.0092   12.2500   14.1822   48.1769 -999.0000    1.5398    1.5043    1.2824    0.0047    0.1824    2.7226    2.4325   36.0000 
6873.5092   12.2500   14.1589   54.7018 -999.0000    1.8250    1.7705    1.4060   -0.0075    0.1810    2.7309    2.4252   36.0000 
6874.0092   12.2500   14.1589   50.7602 -999.0000    2.1013    2.0318    1.5171   -0.0115    0.1850    2.7443    2.4506   36.0000 
6874.5092   12.2500   14.0892   54.4942 -999.0000    2.1114    2.0577    1.5459   -0.0130    0.1662    2.7558    2.4454   36.0000 
6875.0092   12.2500   14.1124   46.4901 -999.0000    1.9308    1.9158    1.5132   -0.0010    0.1607    2.8006    2.4594   36.0000 
6875.5092   12.2500   14.0892   40.9233 -999.0000    2.6107    2.5615    1.7406   -0.0095    0.1401    2.8256    2.4462   36.0000 
6876.0092   12.2500   14.0427   47.7050 -999.0000    4.0316    3.8847    1.9603   -0.0186    0.1107    2.8544    2.5397   36.0000 
6876.5092   12.2500   13.9032   46.0911 -999.0000    2.6025    2.6901    1.7824   -0.0198    0.1012    2.8847    2.4986   27.0000 
6877.0092   12.2500   13.7637   53.0285 -999.0000    2.6601    2.7781    1.8673   -0.0077    0.1122    2.8937    2.4606   27.0000 
6877.5092   12.2500   13.6824   40.7020 -999.0000    2.6907    2.7735    1.9072    0.0017    0.1253    2.9011    2.4839   27.0000 
6878.0092   12.2500   13.6940   54.4613 -999.0000    2.3230    2.4023    1.8812   -0.0007    0.1283    2.9166    2.4628   27.0000 
6878.5092   12.2500   13.6475   58.6052 -999.0000    2.4815    2.5629    1.9095   -0.0046    0.1300    2.9715    2.4482   27.0000 
6879.0092   12.2500   13.6243   81.5409 -999.0000    5.2934    5.2097    2.3562   -0.0090    0.1310    3.0949    2.4992   36.0000 
6879.5092   12.2500   13.6010   98.1671 -999.0000   14.0056   12.7097    2.7487   -0.0096    0.1528    3.2520    2.5215   37.0000 
6880.0092   12.2500   13.4848  107.8096 -999.0000   23.3540   20.1242    2.9971   -0.0103    0.1543    3.4452    2.5519   37.0000 
