~VERSION INFORMATION
 VERS.                 2.0:   CWLS LOG ASCII STANDARD - VERSION 2.0
 WRAP.                  NO:   SINGLE LINE PER DEPTH STEP
 CREA.                 20/03/2018 14:55:32
#CREATED USING DSPetro VERSION 5000.10.1.3 BY H191660 ON 20/03/2018 14:55:32
~WELL INFORMATION
#MNEM.UNIT       DATA                          DESCRIPTION MNEMONIC
#---------      ---------------------------   --------------------------
 STRT    .FT        10799.4984                : START DEPTH
 STOP    .FT        13010.9983                : STOP DEPTH
 STEP    .FT        0.5000                    : STEP VALUE
 NULL    .      -999.0000                     : NULL VALUE
 DATE    .      20/03/2018                    : LAS file Creation Date
 WELL  .      UNIVERSITY_21-17             : Well Name
 COMP  .      Neftex Exploration Insights  : Company
 FLD   .                                   : Field
 STATE .      Texas                        : State
 API   .      42475370100000               : API Number
 UWI   .      213                          : Unique Well Identifier (UWI)
 LOC   .                                   : Location
 LATI  .      -6235758.22                  : Latitude/Northing
 LONG  .      777123.41                    : Longitude/Easting
 RWS   .      -999                         : Def_Rw
 WST   .      -999                         : Def_Rwt
 CNTY  .      WARD                         : County
 SRVC  .      Diversified Well Logging LLC : Contractor
~CURVE INFORMATION
#MNEM              UNIT       API CODE   Curve Type Comments
#----------  --------------- ----------  ---------- -----------
 DEPTH      .FT                        : Depth       
 DCAL_INCH  .inch                      :             Differential Caliper - Evaluates the difference between the actual borehole diameter and bit size
 GR_API     .API                       : GammaRay    Gamma Ray (API) - Measures the intensity of natural gamma-ray radiation emitted from formations containing radioactive elements, such as K, Th and U
 CGR_API    .API                       : GammaRay    Corrected / Computed Gamma Ray - Radiation with the Uranium component removed. Also known as a 'carbonate gamma ray'
 K_per        .PC                        :             Potassium Abundance (SGR) - The quantitative elemental abundace of Potassium derived from the Spectral Gamma Ray Log. Also wt_%
 TH_PPM     .ppm                       : Spectral    Thorium Abundance (SGR) - The quantitative elemental abundace of Thorium derived from the Spectral Gamma Ray Log
 U_PPM      .ppm                       :             Uranium Abundance (SGR) - The quantitative elemental abundace of Uranium derived from the Spectral Gamma Ray Log
 RD_OHMM    .ohmm                      :             Unspecified Deep Resistivity - No accroynm or method of attainment is specified - units of ohmm
 RM_OHMM    .ohm.m                     :             Unspecified Medium Resistivity - No accroynm or method of attainment is specified
 MSFL_OHMM  .ohmm                      :             Micro-Spherically Focused Log - Measurement involves only the first few inches of the formation immediately adjacent to the borehole
 NPHI_RATIO .ratio                     :             Neutron Porosity - Measured with an neutron logging device calibrated to a given matrix (limestone, sandstone and dolomite)
 RHOZ_G_CC  .g/cc                      :             Formation Density - Measures the density of formation, including any void space or other materials contained in the subject volume
 PEF_B_E    .b/e-                      : PEF         Photoelectric Factor - A log of photoelectric absorption properties. Often expressed in an approximation unit barns/electron (b/e-)
 LITH       .                          : LITH        Lithology Curve
~A  DEPTH DCAL_INC~   GR_API   CGR_API     K_per      TH_PPM    U_PPM    RD_OHMM   RM_OHMM  MSFL_OHM~ NPHI_RAT~ RHOZ_G_C~  PEF_B_E     LITH   
# ...
12765.9984    0.0315  104.9934   81.1030    2.3246   12.3470    2.8745    4.8721    4.7537    4.4745    0.2130    2.6721    4.5089   37.0000 
12766.4984    0.0458  111.7110   83.9382    2.4297   12.6391    3.0528    5.0021    4.8872    3.3799    0.2283    2.6594    4.3288   37.0000 
12766.9984    0.0530  116.4261   89.6330    2.6016   13.4548    2.9507    4.9607    4.8892    3.4518    0.2226    2.6324    4.1529   37.0000 
12767.4984    0.0530  117.5525   88.5874    2.5910   13.1826    3.1953    4.7758    4.7417    3.3479    0.2334    2.6045    4.0157   37.0000 
12767.9984    0.0458  118.6066   90.7309    2.6031   13.7976    2.9372    4.4838    4.5002    3.3976    0.2278    2.5830    4.0592   37.0000 
12768.4984    0.0745  117.1420   91.3506    2.6477   13.7353    2.7838    4.6921    4.7453    2.5618    0.2263    2.5727    4.2269   37.0000 
12768.9984    0.0745  117.8179   91.9656    2.5984   14.2202    2.5180    4.8824    4.9038    2.9988    0.2122    2.5650    4.4219   37.0000 
12769.4984   -0.0332  117.5928   92.1335    2.6742   13.8306    2.4733    4.9853    4.9454    3.3480    0.2142    2.5735    4.4638   37.0000 
12769.9984    0.0315  118.4938   91.7773    2.7194   13.4518    2.5056    4.7189    4.6646    3.3624    0.2183    2.5844    4.3365   37.0000 
12770.4984    0.0530  117.3676   92.8853    2.7119   13.8507    2.6598    4.5403    4.4853    3.3470    0.2194    2.5915    4.1724   37.0000 
12770.9984    0.0315  117.7456   92.3977    2.7064   13.7268    2.9076    4.4404    4.3767    3.3214    0.2254    2.6008    4.0343   37.0000 
12771.4984    0.0530  118.1962   91.5191    2.7079   13.4366    2.9844    4.3462    4.2651    3.3144    0.2192    2.6047    4.0161   37.0000 
12771.9984    0.0530  117.7451   87.4099    2.5051   13.3090    2.3517    4.4621    4.3549    3.1374    0.2159    2.6080    4.0756   37.0000 
12772.4984    0.0745  110.8343   81.8374    2.3241   12.5849    2.1807    8.1754    7.9575    3.9686    0.1913    2.6116    4.1596   37.0000 
12772.9984   -0.0116  104.1889   84.4429    2.3753   13.1194    2.1146    6.2121    6.0703    5.6138    0.1914    2.6223    4.1516   37.0000 
12773.4984    0.0386  106.9002   87.2154    2.5234   13.1395    2.5860    4.8510    4.7493    3.5692    0.1964    2.6200    4.0847   37.0000 
12773.9984    0.0171  111.1803   91.6630    2.6495   13.8245    3.0279    4.5508    4.4676    3.1989    0.2153    2.6054    4.0100   37.0000 
12774.4984    0.0458  116.6993   91.7859    2.6592   13.8074    2.8808    4.5342    4.4563    3.2738    0.2143    2.5838    3.9929   37.0000 
12774.9984    0.0638  111.8482   91.7643    2.6593   13.7994    3.2089    4.5569    4.4941    3.5214    0.2191    2.5787    3.9741   37.0000 
12775.4984    0.0673  117.8178   91.8327    2.6821   13.6879    3.1457    4.5369    4.4712    3.2883    0.2180    2.5806    3.9628   37.0000 
12775.9984    0.0602  119.8455   94.8368    2.7721   14.1227    3.0402    4.5844    4.5168    3.6052    0.2250    2.5849    3.9502   37.0000 
12776.4984    0.0530  123.7316   95.0708    2.7770   14.1688    2.9507    4.7047    4.6377    3.4329    0.2229    2.5864    3.9463   37.0000 
12776.9984    0.0745  113.9322   93.8902    2.7170   14.1424    2.8078    4.8408    4.7869    3.4671    0.2280    2.5928    3.9301   37.0000 
12777.4984    0.0745  112.4676   91.3251    2.7405   13.1840    3.2068    4.8305    4.7764    3.5512    0.2357    2.5958    3.9301   37.0000 
12777.9984    0.0853  113.5536   87.9291    2.6746   12.4835    3.4313    4.9689    4.8907    3.3823    0.2371    2.5936    3.9558   37.0000 
12778.4984    0.1104  115.8065   89.0289    2.6966   12.7068    3.5177    4.9726    4.8610    3.4124    0.2333    2.5891    3.9859   37.0000 
12778.9984    0.0961  114.1171   88.4556    2.6956   12.5288    3.2345    5.4683    5.3274    3.7961    0.2314    2.5873    4.0020   37.0000 
12779.4984    0.0745  114.5514   89.1504    2.6979   12.7378    3.2423    5.2930    5.1475    3.6502    0.2294    2.5870    3.9948   37.0000 
12779.9984    0.0961  114.1004   86.3848    2.6604   12.0723    3.3708    5.1956    5.0523    3.6303    0.2361    2.5809    3.9938   37.0000 
12780.4984    0.1104  119.1127   90.1524    2.7958   12.4854    3.3601    5.1369    4.9862    3.7363    0.2306    2.5809    3.9578   37.0000 
12780.9984    0.0961  117.9870   89.6385    2.7173   12.7801    3.4300    4.8734    4.7334    3.6444    0.2304    2.5836    3.9136   37.0000 
12781.4984    0.1032  119.7894   89.9737    2.7499   12.6963    3.4645    4.8086    4.6677    3.4375    0.2148    2.5902    3.8660   37.0000 
12781.9984    0.0817  112.5245   89.9651    2.7557   12.6599    2.9965    4.8492    4.6983    3.3803    0.2179    2.5969    3.8329   37.0000 
12782.4984    0.0889  111.0432   89.8799    2.8096   12.3173    2.9615    4.8661    4.7191    3.4244    0.2207    2.5984    3.8384   37.0000 
12782.9984    0.1068  109.9167   91.2728    2.7985   12.8279    2.6102    4.9014    4.7575    3.4361    0.2324    2.5989    3.8663   37.0000 
12783.4984    0.0961  111.8317   92.7702    2.7549   13.5619    2.4047    5.0356    4.8796    3.3624    0.2272    2.5950    3.9211   37.0000 
12783.9984    0.0961  114.6076   92.3440    2.7703   13.3356    2.3587    5.0090    4.8479    3.7300    0.2305    2.5956    3.9333   37.0000 
12784.4984    0.1104  120.2396   92.3605    2.7466   13.4793    2.5809    4.6574    4.4857    3.9845    0.2275    2.5987    3.9063   37.0000 
12784.9984    0.1176  122.4925   92.6460    2.7593   13.4967    2.5664    4.6755    4.5004    3.8666    0.2433    2.6050    3.8794   37.0000 
12785.4984    0.0853  120.3202   90.8247    2.6984   13.2700    2.7211    4.8892    4.7218    3.8466    0.2409    2.6052    3.8761   37.0000 
12785.9984    0.0853  118.1726   89.6237    2.5888   13.5276    2.8353    5.4253    5.2585    3.8765    0.2363    2.6038    3.8960   37.0000 
12786.4984    0.0745  122.4767   92.1904    2.7055   13.6661    2.7062    5.2405    5.0961    3.7734    0.2326    2.6040    3.8781   37.0000 
12786.9984    0.1176  126.8455   93.1497    2.7663   13.6173    2.6066    5.0720    4.9460    3.6452    0.2350    2.6094    3.8536   37.0000 
12787.4984    0.0961  125.7268   90.1709    2.6750   13.1987    2.7384    5.0303    4.9178    3.5898    0.2518    2.6113    3.8421   37.0000 
12787.9984    0.1176  120.7467   91.6986    2.6386   13.9004    2.5806    5.0527    4.9480    3.6648    0.2537    2.6055    3.8647   37.0000 
12788.4984    0.1176  119.6357   94.1201    2.8131   13.6545    2.7929    4.8090    4.7287    3.6453    0.2394    2.5974    3.8910   37.0000 
12788.9984    0.0853  120.6496   95.0487    2.9142   13.3598    2.8417    4.5280    4.4698    3.4324    0.2347    2.5963    3.8802   37.0000 
12789.4984    0.0817  126.2330   97.4332    2.9557   13.8794    2.7574    4.3859    4.3424    3.2606    0.2354    2.6033    3.8153   37.0000 
12789.9984    0.0961  129.0334   98.2136    2.9911   13.9219    2.9078    4.3906    4.3637    3.2161    0.2397    2.6080    3.7471   37.0000 
12790.4984    0.0889  126.4427  100.0499    2.9874   14.5315    2.7166    4.4555    4.4489    3.2703    0.2305    2.6004    3.7353   37.0000 
12790.9984    0.1176  124.3509  100.4108    3.0113   14.5069    2.7589    4.5529    4.5658    3.3344    0.2179    2.5935    3.7555   37.0000 
12791.4984    0.0961  121.5352   98.4665    2.9554   14.2118    2.4557    4.5527    4.6011    3.2684    0.2162    2.5918    3.7788   37.0000 
12791.9984    0.1032  124.6888   98.9250    2.9105   14.6212    2.4468    4.4986    4.5885    3.1442    0.2202    2.6008    3.7771   37.0000 
12792.4984    0.1104  121.7603   98.6856    2.8494   14.9024    2.6215    4.2990    4.3886    3.1825    0.2372    2.5983    3.8252   37.0000 
12792.9984    0.0745  120.6339   98.0958    2.8409   14.7635    2.7731    4.4055    4.4994    3.3896    0.2403    2.5931    3.8876   37.0000 
12793.4984    0.0745  120.5208   95.6259    2.7876   14.2852    3.2213    4.9852    5.0883    3.5732    0.2448    2.5822    3.9532   37.0000 
12793.9984    0.0853  119.1456   92.6210    2.6314   14.2377    3.1739    5.0705    5.1662    3.5501    0.2252    2.5762    3.9876   37.0000 
