~VERSION INFORMATION
 VERS.                 2.0:   CWLS LOG ASCII STANDARD - VERSION 2.0
 WRAP.                  NO:   SINGLE LINE PER DEPTH STEP
 CREA.                 20/03/2018 14:58:23
#CREATED USING DSPetro VERSION 5000.10.1.3 BY H191660 ON 20/03/2018 14:58:23
~WELL INFORMATION
#MNEM.UNIT       DATA                          DESCRIPTION MNEMONIC
#---------      ---------------------------   --------------------------
 STRT    .FT        128.0000                  : START DEPTH
 STOP    .FT        12500.0000                : STOP DEPTH
 STEP    .FT        0.5000                    : STEP VALUE
 NULL    .      -999.0000                     : NULL VALUE
 DATE    .      20/03/2018                    : LAS file Creation Date
 WELL  .      UNIVERSITY_40_16_4247536999  : Well Name
 COMP  .      Neftex Exploration Insights  : Company
 FLD   .      PHANTOM (WOLFCAMP)           : Field
 STATE .      Texas                        : State
 COUNT .      USA                          : Country
 API   .      42475369990000               : API Number
 UWI   .      222                          : Unique Well Identifier (UWI)
 LOC   .      1980FNL x 1757FWL            : Location
 TOWN  .      16                           : Township
 SCT   .      40                           : Section
 RANG  .      U39                          : Range
 LATI  .      -6470541.88                  : Latitude/Northing
 LONG  .      783810.27                    : Longitude/Easting
 PDAT  .      GL                           : Permanent Datum
 EPDAT .      2604.000000                  : Reference Elevation
 LGMEA .      KB                           : Log Measured from
 DRMEA .      KB                           : Drill Measured From
 APDAT .      25.000000                    : Elevation Above Permanent Datum
 KB    .      2629.00000                   : KB Elevation
 GL    .      2604.00000                   : GL Elevation
 RWS   .      -999                         : Def_Rw
 WST   .      -999                         : Def_Rwt
 CNTY  .      WARD                         : County
 SRVC  .      Diversified Well Logging LLC : Contractor
~CURVE INFORMATION
#MNEM              UNIT       API CODE   Curve Type Comments
#----------  --------------- ----------  ---------- -----------
 DEPTH      .FT                        : Depth       
 BS         .inch                      : BitSize     
 DCAL_INCH  .inch                      :             Differential Caliper - Evaluates the difference between the actual borehole diameter and bit size
 GR         .GAPI                      : GammaRay    Gamma Ray {F11.4}
 LLD_OHMM   .ohmm                      :             Laterlog Deep Resistivity - Measurement made several feet into the formation; generally considered a measurement of the undisturbed formation
 LLM_OHMM   .ohm.m                     :             Laterlog Medium Resistivity - Measurement made approximately two to three feet into the formation - units of ohmm
 LLS_OHMM   .ohmm                      :             Laterlog Shallow Resistivity - one to two feet into the formation; generally considered to measure the formation
 NPHI_RATIO .ratio                     :             Neutron Porosity - Measured with an neutron logging device calibrated to a given matrix (limestone, sandstone and dolomite)
 PEF_B_E    .b/e-                      : PEF         Photoelectric Factor - A log of photoelectric absorption properties. Often expressed in an approximation unit barns/electron (b/e-)
 RHOZ_G_CC  .g/cc                      :             Formation Density - Measures the density of formation, including any void space or other materials contained in the subject volume
 LITH       .                          : LITH        Lithology Curve
~A  DEPTH     BS    DCAL_INC~     GR     LLD_OHMM  LLM_OHMM  LLS_OHMM NPHI_RAT~  PEF_B_E  RHOZ_G_C~    LITH   
# ...
7446.5000    8.7500    0.1616   98.8034  251.6979  236.1326   33.9567    0.1441    3.2387    2.5736   37.0000 
7447.0000    8.7500    0.1616  117.4077  199.4524  189.5513   33.2003    0.1917    3.4855    2.5592   37.0000 
7447.5000    8.7500    0.1505  138.7099  295.9447  269.4066   34.9029    0.2304    3.1738    2.5370   37.0000 
7448.0000    8.7500    0.1505  142.7460  362.0010  325.7901   36.4353    0.2338    3.1503    2.5245   37.0000 
7448.5000    8.7500    0.1505  136.5443  338.6613  300.7224   37.5569    0.2232    3.2109    2.5227   37.0000 
7449.0000    8.7500    0.1505  127.1266  270.2184  252.4244   37.7060    0.2062    3.1852    2.5311   37.0000 
7449.5000    8.7500    0.1505  131.2328  360.6773  323.3391   39.4002    0.2147    3.3068    2.5346   37.0000 
7450.0000    8.7500    0.1394  143.9163  466.8669  411.9742   41.1527    0.1982    3.9138    2.5429   37.0000 
7450.5000    8.7500    0.1505  144.0279  381.5522  342.4449   41.1027    0.1863    3.2729    2.5561   37.0000 
7451.0000    8.7500    0.1579  134.5685  359.3133  334.9640   39.8122    0.1894    3.5094    2.5715   37.0000 
7451.5000    8.7500    0.1394  116.2934  280.7143  263.0110   38.3439    0.1995    3.0554    2.5692   37.0000 
7452.0000    8.7500    0.1505  112.6569  211.1512  209.1731   36.3425    0.2080    3.1290    2.5731   37.0000 
7452.5000    8.7500    0.1431  112.0682  215.4277  213.5173   34.7495    0.1794    3.1458    2.5817   37.0000 
7453.0000    8.7500    0.1505  108.0319  223.8945  226.5497   33.3685    0.1635    3.4446    2.5943   37.0000 
7453.5000    8.7500    0.1505  110.8699  168.3811  172.9767   31.0400    0.1583    3.3421    2.5900   37.0000 
7454.0000    8.7500    0.1357  109.3002  224.5022  227.8708   31.2516    0.1716    3.1895    2.5817   37.0000 
7454.5000    8.7500    0.1394  111.7811  261.4003  259.2384   30.7027    0.1681    3.1725    2.5862   37.0000 
7455.0000    8.7500    0.1283  104.2832  249.1015  250.0670   30.5972    0.1597    3.2687    2.6023   37.0000 
7455.5000    8.7500    0.1283  105.6284  251.7951  249.4071   31.1731    0.1623    3.0812    2.6031   37.0000 
7456.0000    8.7500    0.1172  104.6823   89.7887   95.9742   27.4042    0.1870    3.3775    2.5926   37.0000 
7456.5000    8.7500    0.1135  105.4670  109.8875  118.5732   28.6129    0.1960    3.3972    2.5829   37.0000 
7457.0000    8.7500    0.0839   95.6009  203.4014  209.7009   30.9792    0.1710    3.2073    2.5898   37.0000 
7457.5000    8.7500    0.0616   82.4621  254.5532  252.7959   30.5010    0.1085    2.9273    2.6006   36.0000 
7458.0000    8.7500    0.0690   69.2324  297.9411  290.3182   29.8268    0.0715    2.8755    2.6089   36.0000 
7458.5000    8.7500    0.0616   64.0400  246.7687  242.0621   28.5662    0.0558    2.7917    2.6022   36.0000 
7459.0000    8.7500    0.0616   60.7326  232.8241  229.9036   27.5538    0.0512    2.8070    2.5936   36.0000 
7459.5000    8.7500    0.0690   61.5175  270.0969  257.7310   27.6302    0.0422    2.8206    2.5934   36.0000 
7460.0000    8.7500    0.0616   65.0913  312.4906  286.4426   27.9546    0.0510    2.7813    2.5908   36.0000 
7460.5000    8.7500    0.0764   70.1364  458.5107  381.5622   28.7118    0.0896    2.9244    2.5860   36.0000 
7461.0000    8.7500    0.0727   70.7952  860.8568  663.1337   29.9226    0.1042    3.6308    2.5760   36.0000 
7461.5000    8.7500    0.0690   71.8532 1075.8810  802.4366   31.1590    0.1100    3.8166    2.5715   36.0000 
7462.0000    8.7500    0.0764   73.1635  705.5070  580.7658   32.0706    0.1047    3.3605    2.5714   36.0000 
7462.5000    8.7500    0.0616   74.4108  625.8336  524.7880   33.7676    0.1310    3.0258    2.5705   36.0000 
7463.0000    8.7500    0.0839   77.2137  669.7312  541.4624   37.1249    0.1399    3.3908    2.5721   36.0000 
7463.5000    8.7500    0.0727   88.7759  568.2977  483.4346   39.4702    0.1490    3.3700    2.5647   36.0000 
7464.0000    8.7500    0.0727  102.3418  213.3309  196.5459   38.4180    0.1558    3.0133    2.5620   36.0000 
7464.5000    8.7500    0.0839  104.6963  104.6146  100.7061   35.0605    0.1427    2.9151    2.5724   37.0000 
7465.0000    8.7500    0.0616   95.2364  120.0798  117.4214   36.0013    0.1035    2.9664    2.5957   37.0000 
7465.5000    8.7500    0.0616   82.9039  157.2591  151.4020   39.6688    0.0592    2.6422    2.6065   36.0000 
7466.0000    8.7500    0.0542   76.0576  160.5836  154.5151   39.7534    0.0621    2.8117    2.5971   36.0000 
7466.5000    8.7500    0.0616   76.1206  113.5405  109.8901   38.1151    0.0865    3.0423    2.5842   36.0000 
7467.0000    8.7500    0.0839   75.1114  130.9161  127.3273   40.3553    0.1020    3.1084    2.5908   36.0000 
7467.5000    8.7500    0.1135   74.3759  173.2305  167.4126   42.2804    0.0878    3.3861    2.6179   36.0000 
7468.0000    8.7500    0.1283   75.8336  129.7732  125.9409   39.6730    0.0838    3.5917    2.6391   36.0000 
7468.5000    8.7500    0.1283   78.7486  105.1195  102.8885   38.2771    0.0860    3.5384    2.6455   36.0000 
7469.0000    8.7500    0.1505   79.9045  126.2667  121.5151   41.6981    0.0846    3.4865    2.6533   36.0000 
7469.5000    8.7500    0.1727   69.4776  177.5467  169.2349   45.7506    0.0714    3.4390    2.6596   36.0000 
7470.0000    8.7500    0.1727   61.3070  183.5634  176.7242   46.0048    0.0670    3.5739    2.6602   36.0000 
7470.5000    8.7500    0.1876   61.4543  148.0643  142.5035   44.0206    0.0757    3.3003    2.6486   36.0000 
7471.0000    8.7500    0.1950   65.9389   99.1109   96.4167   38.8514    0.0779    3.0910    2.6514   36.0000 
7471.5000    8.7500    0.2246   69.4076   87.9981   85.0556   36.7806    0.0781    3.3322    2.6576   36.0000 
7472.0000    8.7500    0.2394   67.8380  112.8479  108.1505   38.6269    0.0822    3.5468    2.6579   36.0000 
7472.5000    8.7500    0.2394   63.0098  105.4195  101.6392   37.2412    0.0777    3.3296    2.6432   36.0000 
7473.0000    8.7500    0.2542   64.7966   95.8792   93.5619   34.3696    0.0792    3.2053    2.6334   36.0000 
7473.5000    8.7500    0.2394   64.6845   60.9990   60.3064   27.6740    0.0820    3.0563    2.6258   22.0000 
7474.0000    8.7500    0.2394   65.4204   70.1699   69.0429   27.8506    0.0791    3.1879    2.6309   22.0000 
7474.5000    8.7500    0.2098   60.3754  115.5491  111.1403   32.0447    0.0631    3.8185    2.6384   22.0000 
7475.0000    8.7500    0.1727   54.2369  138.6874  128.4845   32.4385    0.0377    4.0135    2.6590   18.0000 
7475.5000    8.7500    0.2098   49.9203  131.3771  120.9024   29.5625    0.0272    3.9591    2.6637   18.0000 
7476.0000    8.7500    0.2320   47.8177  119.2942  108.0990   26.8323    0.0227    4.0044    2.6671   18.0000 
7476.5000    8.7500    0.2616   46.4443  108.1945   96.9285   27.4562    0.0208    4.1026    2.6711   18.0000 
7477.0000    8.7500    0.3061   42.0368  155.2793  134.7010   30.5225    0.0155    4.2002    2.6857   18.0000 
7477.5000    8.7500    0.2616   37.0758  471.2303  357.3643   35.5118    0.0125    4.6461    2.6975   18.0000 
7478.0000    8.7500    0.2616   33.4880  376.3860  291.4656   36.4199    0.0149    4.5929    2.6960   18.0000 
7478.5000    8.7500    0.2320   38.1127  202.3627  159.4580   33.3352    0.0306    4.5907    2.6856   18.0000 
7479.0000    8.7500    0.2616   43.4944  150.6027  118.2497   30.8715    0.0462    4.3970    2.6829   18.0000 
7479.5000    8.7500    0.2468   48.0914  123.3036   96.1957   28.4167    0.0464    4.1159    2.6846   18.0000 
7480.0000    8.7500    0.2542   50.5089  127.9288   96.1424   27.0069    0.0344    4.1930    2.6878   18.0000 
7480.5000    8.7500    0.2505   50.8453  108.1411   79.0026   24.4296    0.0289    3.9467    2.6702   22.0000 
7481.0000    8.7500    0.2468   53.6273   98.4271   69.4634   22.3346    0.0374    3.9068    2.6445   22.0000 
7481.5000    8.7500    0.2394   55.5893   66.7653   46.8843   19.0038    0.0487    3.6568    2.6250   22.0000 
7482.0000    8.7500    0.2468   57.8807   63.8452   44.6195   17.9624    0.0510    3.6866    2.6181   22.0000 
7482.5000    8.7500    0.2616   58.3499   78.5091   53.8019   18.7357    0.0521    4.1130    2.6256   22.0000 
