~VERSION INFORMATION
 VERS.                 2.0:   CWLS LOG ASCII STANDARD - VERSION 2.0
 WRAP.                  NO:   SINGLE LINE PER DEPTH STEP
 CREA.                 20/03/2018 14:44:45
#CREATED USING DSPetro VERSION 5000.10.1.3 BY H191660 ON 20/03/2018 14:44:45
~WELL INFORMATION
#MNEM.UNIT       DATA                          DESCRIPTION MNEMONIC
#---------      ---------------------------   --------------------------
 STRT    .FT        300.0092                  : START DEPTH
 STOP    .FT        12601.0092                : STOP DEPTH
 STEP    .FT        0.5000                    : STEP VALUE
 NULL    .      -999.0000                     : NULL VALUE
 DATE    .      20/03/2018                    : LAS file Creation Date
 WELL  .      UNIVERSITY_20_3_1_4230131346 : Well Name
 COMP  .      Chesapeake Operating, Inc.   : Company
 FLD   .      Haley                        : Field
 STATE .      Texas                        : State
 API   .      42-301-31346                 : API Number
 UWI   .      507                          : Unique Well Identifier (UWI)
 LOC   .      1320' FNL & 1320' FWL        : Location
 TOWN  .      20                           : Township
 SCT   .      3                            : Section
 RANG  .      University Lands             : Range
 PDAT  .      GROUND LEVEL                 : Permanent Datum
 EPDAT .      2800.000000                  : Reference Elevation
 LGMEA .      KELLY BUSHING                : Log Measured from
 DRMEA .      KELLY BUSHING                : Drill Measured From
 APDAT .      26.000000                    : Elevation Above Permanent Datum
 KB    .      2826.00000                   : KB Elevation
 GL    .      2800.00000                   : GL Elevation
 RWS   .      -999                         : Def_Rw
 WST   .      -999                         : Def_Rwt
 CNTY  .      Loving                       : County
 SRVC  .      Schlumberger                 : Contractor
~CURVE INFORMATION
#MNEM              UNIT       API CODE   Curve Type Comments
#----------  --------------- ----------  ---------- -----------
 DEPTH      .FT                        : Depth       
 BS         .inch                      : BitSize     
 CAL        .inch                      :             
 GR         .API                       : GammaRay    
 SP_MV      .mv                        : SP          Spontaneous Potential - Records the electrical potential produced by the interaction of formation water, conductive drilling mud, and certain ion-sele
 DRES       .OHMM                      :             
 MRES       .OHMM                      : MedRes      
 SRES       .OHMM                      : ShalRes     
 DRHO       .G/C3                      : Drho        
 NPHI       .CFCF                      : Neutron     
 PEF        .B/E                       : PEF         
 RHOB       .G/C3                      : Density     
 LITH       .                          : LITH        Lithology Curve
~A  DEPTH     BS       CAL        GR      SP_MV      DRES      MRES      SRES      DRHO      NPHI      PEF       RHOB      LITH   
# ...
1925.5092 -999.0000    4.0931   31.2594 -999.0000    0.0029    0.0016    0.0032    0.2194    0.0612    9.4763    2.2252    3.0000 
1926.0092 -999.0000    4.0931   44.2603 -999.0000    0.0090    0.0081    0.0115    0.2337    0.1505    9.3806    2.2584    3.0000 
1926.5092 -999.0000    4.0931   51.9195 -999.0000    0.0079    0.0076    0.0111    0.2423    0.2233    9.2897    2.2474    3.0000 
1927.0092 -999.0000    4.1163   39.8920 -999.0000    0.0074    0.0070    0.0103    0.2373    0.1502    9.2588    2.2373    3.0000 
1927.5092 -999.0000    4.0931   26.7603 -999.0000    0.0078    0.0075    0.0112    0.2218    0.0698    9.2504    2.2409    3.0000 
1928.0092 -999.0000    4.0931   15.6031 -999.0000    0.0080    0.0075    0.0113    0.2076    0.0320    9.2806    2.1952    3.0000 
1928.5092 -999.0000    4.0931   15.5642 -999.0000    0.0067    0.0060    0.0088    0.1916    0.0124    9.2904    2.1818    3.0000 
1929.0092 -999.0000    4.1163   14.7084 -999.0000    0.0069    0.0060    0.0089    0.1796    0.0089    9.2807    2.1381    3.0000 
1929.5092 -999.0000    4.0931   15.5904 -999.0000    0.0085    0.0082    0.0119    0.1703    0.0211    9.2306    2.1303    3.0000 
1930.0092 -999.0000    4.0931    9.5477 -999.0000    0.0071    0.0062    0.0096    0.1703    0.0306    9.1716    2.1646    3.0000 
1930.5092 -999.0000    4.1163   12.9483 -999.0000    0.0073    0.0069    0.0102    0.1734    0.0529    9.1535    2.1855    3.0000 
1931.0092 -999.0000    4.0931   17.3165 -999.0000    0.0080    0.0077    0.0114    0.1738    0.0625    9.1732    2.1630    3.0000 
1931.5092 -999.0000    4.0931   12.9306 -999.0000    0.0071    0.0067    0.0101    0.1775    0.0478    9.2133    2.1878    3.0000 
1932.0092 -999.0000    4.0931   18.1801 -999.0000    0.0068    0.0064    0.0097    0.1789    0.0393    9.2415    2.1785    3.0000 
1932.5092 -999.0000    4.1163   16.5059 -999.0000    0.0076    0.0074    0.0110    0.1838    0.0335    9.2535    2.1633    3.0000 
1933.0092 -999.0000    4.0931    6.0620 -999.0000    0.0062    0.0055    0.0081    0.1865    0.0425    9.2672    2.1743    3.0000 
1933.5092 -999.0000    4.1163   19.0493 -999.0000    0.0085    0.0085    0.0125    0.1878    0.0318    9.2402    2.1676    3.0000 
1934.0092 -999.0000    4.0931   12.1636 -999.0000    0.0055    0.0043    0.0067    0.1897    0.0261    9.2009    2.1817    3.0000 
1934.5092 -999.0000    4.0931   10.3981 -999.0000    0.0078    0.0074    0.0111    0.1972    0.0124    9.1737    2.2007    3.0000 
1935.0092 -999.0000    4.0931    8.6845 -999.0000    0.0075    0.0066    0.0097    0.2122    0.0023    9.1979    2.1866    3.0000 
1935.5092 -999.0000    4.1163   12.0733 -999.0000    0.0092    0.0089    0.0130    0.2226   -0.0103    9.2489    2.2085    3.0000 
1936.0092 -999.0000    4.0931    6.0879 -999.0000    0.0060    0.0045    0.0068    0.2223   -0.0150    9.2434    2.1932    3.0000 
1936.5092 -999.0000    4.0931   13.0007 -999.0000    0.0040    0.0023    0.0041    0.2121   -0.0188    9.1747    2.1793    3.0000 
1937.0092 -999.0000    4.0931    7.7951 -999.0000    0.0076    0.0070    0.0103    0.2047   -0.0105    9.0394    2.1751    3.0000 
1937.5092 -999.0000    4.0931   19.0956 -999.0000    0.0087    0.0075    0.0110    0.2042   -0.0024    8.9165    2.1778    3.0000 
1938.0092 -999.0000    4.0931   15.6427 -999.0000    0.0068    0.0070    0.0100    0.2119    0.0141    8.8343    2.2219    3.0000 
1938.5092 -999.0000    4.0931   15.4754 -999.0000    0.0134    0.0151    0.0214    0.2115    0.0224    8.8131    2.2122    3.0000 
1939.0092 -999.0000    4.0931    7.8475 -999.0000    0.0093    0.0098    0.0142    0.2081    0.0210    8.8453    2.2069    3.0000 
1939.5092 -999.0000    4.0931   12.0851 -999.0000    0.0081    0.0078    0.0114    0.2059    0.0215    8.8915    2.2133    3.0000 
1940.0092 -999.0000    4.0931   21.6591 -999.0000    0.0096    0.0106    0.0152    0.2123    0.0089    8.9515    2.1987    3.0000 
1940.5092 -999.0000    4.0931   12.1375 -999.0000    0.0175    0.0204    0.0284    0.2182    0.0080    9.0008    2.2165    3.0000 
1941.0092 -999.0000    4.1163    8.6073 -999.0000    0.0050    0.0035    0.0052    0.2198   -0.0055    9.0692    2.2246    3.0000 
1941.5092 -999.0000    4.0931   18.1666 -999.0000    0.0058    0.0038    0.0061    0.2199   -0.0072    9.1411    2.2271    3.0000 
1942.0092 -999.0000    4.0931    9.6001 -999.0000    0.0064    0.0052    0.0082    0.2219   -0.0147    9.2003    2.2046    3.0000 
1942.5092 -999.0000    4.1163   20.7174 -999.0000    0.0082    0.0077    0.0115    0.2255   -0.0127    9.2232    2.2329    3.0000 
1943.0092 -999.0000    4.0931   18.2847 -999.0000    0.0127    0.0136    0.0189    0.2298   -0.0051    9.2694    2.2352    3.0000 
1943.5092 -999.0000    4.0931   14.5927 -999.0000    0.0027    0.0006    0.0020    0.2320   -0.0089    9.3398    2.2272    3.0000 
1944.0092 -999.0000    4.0931    9.5408 -999.0000    0.0059    0.0050    0.0075    0.2319   -0.0198    9.4305    2.2363    3.0000 
1944.5092 -999.0000    4.1163   13.1053 -999.0000    0.0128    0.0111    0.0158    0.2333   -0.0264    9.4754    2.2211    3.0000 
1945.0092 -999.0000    4.1163   16.4013 -999.0000    0.0173    0.0192    0.0270    0.2276   -0.0272    9.4984    2.2353    3.0000 
1945.5092 -999.0000    4.0931   22.4829 -999.0000    0.0088    0.0073    0.0109    0.2226   -0.0301    9.5211    2.2382    3.0000 
1946.0092 -999.0000    4.1163    9.4955 -999.0000    0.0081    0.0068    0.0101    0.2216   -0.0311    9.5233    2.2669    3.0000 
1946.5092 -999.0000    4.0931   12.9424 -999.0000    0.0101    0.0087    0.0127    0.2351   -0.0297    9.4964    2.2775    3.0000 
1947.0092 -999.0000    4.1163    8.6451 -999.0000    0.0086    0.0071    0.0106    0.2494   -0.0168    9.4515    2.2934    3.0000 
1947.5092 -999.0000    4.0931    9.5477 -999.0000    0.0078    0.0052    0.0077    0.2641   -0.0044    9.4051    2.3835    3.0000 
1948.0092 -999.0000    4.0931   14.6748 -999.0000    0.0080    0.0051    0.0076    0.2805    0.0224    9.3540    2.4295    3.0000 
1948.5092 -999.0000    4.0931   43.2654 -999.0000    0.0092    0.0067    0.0098    0.2987    0.0563    9.3242    2.4061    3.0000 
1949.0092 -999.0000    4.1163   56.0310 -999.0000    0.0070    0.0040    0.0061    0.3088    0.1147    9.3001    2.4182    3.0000 
1949.5092 -999.0000    4.0931   52.0018 -999.0000    0.0081    0.0048    0.0073    0.3158    0.1580    9.3074    2.4504    3.0000 
1950.0092 -999.0000    4.0931   43.6065 -999.0000    0.0098    0.0065    0.0095    0.3169    0.1771    9.3111    2.4605    3.0000 
1950.5092 -999.0000    4.0931   77.9183 -999.0000    0.0113    0.0087    0.0126    0.3188    0.1910    9.3558    2.4072    3.0000 
1951.0092 -999.0000    4.0931   92.0349 -999.0000    0.0104    0.0070    0.0104    0.3092    0.1777    9.4214    2.3751    3.0000 
1951.5092 -999.0000    4.0931   64.2983 -999.0000    0.0093    0.0064    0.0094    0.2852    0.1367    9.5209    2.3321    3.0000 
1952.0092 -999.0000    4.0931   26.7605 -999.0000    0.0089    0.0063    0.0092    0.2535    0.0850    9.6065    2.2666    3.0000 
1952.5092 -999.0000    4.0931   20.0374 -999.0000    0.0086    0.0059    0.0085    0.2256    0.0289    9.6506    2.2423    3.0000 
1953.0092 -999.0000    4.1163   10.3912 -999.0000    0.0101    0.0076    0.0114    0.2161    0.0011    9.6469    2.2166    3.0000 
1953.5092 -999.0000    4.0931   12.0095 -999.0000    0.0197    0.0211    0.0291    0.2177   -0.0145    9.6196    2.1867    3.0000 
1954.0092 -999.0000    4.0931   12.1113 -999.0000    0.0112    0.0107    0.0154    0.2182   -0.0151    9.5939    2.2089    3.0000 
1954.5092 -999.0000    4.0931   12.1241 -999.0000    0.0034 100000.0000 100000.0000    0.2140   -0.0218    9.5710    2.2236    3.0000 
1955.0092 -999.0000    4.0931    5.1792 -999.0000    0.0124    0.0106    0.0152    0.2073   -0.0241    9.5636    2.2007    3.0000 
1955.5092 -999.0000    4.0931   18.1537 -999.0000    0.0133    0.0114    0.0169    0.1999   -0.0266    9.5623    2.2149    3.0000 
1956.0092 -999.0000    4.1163    9.4642 -999.0000    0.0105    0.0090    0.0130    0.2045   -0.0241    9.5416    2.2168    3.0000 
