~VERSION INFORMATION
 VERS.                 2.0:   CWLS LOG ASCII STANDARD - VERSION 2.0
 WRAP.                  NO:   SINGLE LINE PER DEPTH STEP
 CREA.                 20/03/2018 14:44:45
#CREATED USING DSPetro VERSION 5000.10.1.3 BY H191660 ON 20/03/2018 14:44:45
~WELL INFORMATION
#MNEM.UNIT       DATA                          DESCRIPTION MNEMONIC
#---------      ---------------------------   --------------------------
 STRT    .FT        300.0092                  : START DEPTH
 STOP    .FT        12601.0092                : STOP DEPTH
 STEP    .FT        0.5000                    : STEP VALUE
 NULL    .      -999.0000                     : NULL VALUE
 DATE    .      20/03/2018                    : LAS file Creation Date
 WELL  .      UNIVERSITY_20_3_1_4230131346 : Well Name
 COMP  .      Chesapeake Operating, Inc.   : Company
 FLD   .      Haley                        : Field
 STATE .      Texas                        : State
 API   .      42-301-31346                 : API Number
 UWI   .      507                          : Unique Well Identifier (UWI)
 LOC   .      1320' FNL & 1320' FWL        : Location
 TOWN  .      20                           : Township
 SCT   .      3                            : Section
 RANG  .      University Lands             : Range
 PDAT  .      GROUND LEVEL                 : Permanent Datum
 EPDAT .      2800.000000                  : Reference Elevation
 LGMEA .      KELLY BUSHING                : Log Measured from
 DRMEA .      KELLY BUSHING                : Drill Measured From
 APDAT .      26.000000                    : Elevation Above Permanent Datum
 KB    .      2826.00000                   : KB Elevation
 GL    .      2800.00000                   : GL Elevation
 RWS   .      -999                         : Def_Rw
 WST   .      -999                         : Def_Rwt
 CNTY  .      Loving                       : County
 SRVC  .      Schlumberger                 : Contractor
~CURVE INFORMATION
#MNEM              UNIT       API CODE   Curve Type Comments
#----------  --------------- ----------  ---------- -----------
 DEPTH      .FT                        : Depth       
 BS         .inch                      : BitSize     
 CAL        .inch                      :             
 GR         .API                       : GammaRay    
 SP_MV      .mv                        : SP          Spontaneous Potential - Records the electrical potential produced by the interaction of formation water, conductive drilling mud, and certain ion-sele
 DRES       .OHMM                      :             
 MRES       .OHMM                      : MedRes      
 SRES       .OHMM                      : ShalRes     
 DRHO       .G/C3                      : Drho        
 NPHI       .CFCF                      : Neutron     
 PEF        .B/E                       : PEF         
 RHOB       .G/C3                      : Density     
 LITH       .                          : LITH        Lithology Curve
~A  DEPTH     BS       CAL        GR      SP_MV      DRES      MRES      SRES      DRHO      NPHI      PEF       RHOB      LITH   
# ...
10956.5092   12.2500   13.5080   34.3248 -999.0000 1328.6603  287.8986    7.6775   -0.0019    0.0540    4.7111    2.5852   18.0000 
10957.0092   12.2500   13.5313   35.2230 -999.0000 1258.8802  281.1897    7.4524   -0.0050    0.0432    4.7575    2.5898   18.0000 
10957.5092   12.2500   13.5196   41.2837 -999.0000 1154.1168  265.3669    7.4943   -0.0053    0.0495    4.6829    2.5726   27.0000 
10958.0092   12.2500   13.5313   45.5717 -999.0000  905.3784  265.7653    7.5313   -0.0043    0.0486    4.5781    2.5230   27.0000 
10958.5092   12.2500   13.5545   40.9440 -999.0000 1024.1489  271.3478    7.3373    0.0012    0.0531    4.5418    2.5786   37.0000 
10959.0092   12.2500   13.5545   36.6644 -999.0000 1183.1207  280.3167    7.4618    0.0028    0.0525    4.6609    2.5535   27.0000 
10959.5092   12.2500   13.5313   29.1149 -999.0000 1644.5548  286.0251    7.4695    0.0039    0.0483    4.8468    2.6142   18.0000 
10960.0092   12.2500   13.5429   33.7642 -999.0000 1462.6704  271.4939    7.5392    0.0012    0.0419    4.9522    2.5998   18.0000 
10960.5092   12.2500   13.5545   29.1557 -999.0000  895.2477  260.5954    7.4310   -0.0020    0.0448    4.9240    2.5477   27.0000 
10961.0092   12.2500   13.5545   49.2944 -999.0000  731.6240  252.3450    7.4025   -0.0055    0.0518    4.8369    2.5346   27.0000 
10961.5092   12.2500   13.5545   47.0598 -999.0000  848.9348  260.8881    7.4668   -0.0064    0.0587    4.7086    2.5674   18.0000 
10962.0092   12.2500   13.5661   37.8206 -999.0000  661.7754  247.0182    7.5922   -0.0028    0.0569    4.5313    2.5949   37.0000 
10962.5092   12.2500   13.5545   43.2502 -999.0000  444.4963  221.7930    7.4663   -0.0005    0.0668    4.3789    2.5371   27.0000 
10963.0092   12.2500   13.5545   44.4430 -999.0000  330.9345  208.1392    7.4319    0.0013    0.0766    4.2496    2.5305   27.0000 
10963.5092   12.2500   13.5545   54.2763 -999.0000  209.6132  175.4732    7.1949   -0.0001    0.0963    4.2263    2.4902   22.0000 
10964.0092   12.2500   13.5545   63.4219 -999.0000  154.8758  132.2198    7.0129   -0.0002    0.0987    4.1855    2.5089   22.0000 
10964.5092   12.2500   13.5545   68.7106 -999.0000  115.2459  105.8377    7.0765    0.0002    0.1183    4.1430    2.5136   37.0000 
10965.0092   12.2500   13.5429   72.3604 -999.0000   80.1546   78.0122    7.0656    0.0014    0.1320    4.0792    2.5015   37.0000 
10965.5092   12.2500   13.5778   71.2618 -999.0000   67.3982   68.4886    7.0048    0.0004    0.1429    4.0798    2.4823   37.0000 
10966.0092   12.2500   13.5080   77.3730 -999.0000   74.8504   76.0979    7.0263   -0.0026    0.1534    4.1311    2.5044   37.0000 
10966.5092   12.2500   13.5080   75.3509 -999.0000   76.7582   80.4379    7.2383   -0.0035    0.1599    4.1379    2.4867   37.0000 
10967.0092   12.2500   13.5196   88.5324 -999.0000   71.1972   74.8062    7.0713   -0.0025    0.1745    4.0772    2.4639   37.0000 
10967.5092   12.2500   13.5080   84.2664 -999.0000   64.1415   68.0675    6.9834   -0.0021    0.1719    4.0038    2.4768   37.0000 
10968.0092   12.2500   13.5080   89.7847 -999.0000   60.7491   63.0284    6.7911   -0.0045    0.1535    3.9588    2.4412   37.0000 
10968.5092   12.2500   13.4383   68.3380 -999.0000   60.7925   61.0505    6.8571    0.0027    0.1528    3.8764    2.4350   37.0000 
10969.0092   12.2500   13.4615   99.0209 -999.0000   59.9586   58.2880    6.7205    0.0149    0.1462    3.8585    2.4396   37.0000 
10969.5092   12.2500   13.4383   79.1158 -999.0000   63.3648   58.1318    6.8614    0.0180    0.1644    4.1378    2.4248   37.0000 
10970.0092   12.2500   13.4615   85.0484 -999.0000   67.8985   60.6836    6.8705    0.0356    0.1569    4.8993    2.4519   18.0000 
10970.5092   12.2500   13.4615   62.0501 -999.0000   74.7322   64.4309    6.8195    0.0477    0.1499    5.6969    2.3028   18.0000 
10971.0092   12.2500   13.4383   63.5161 -999.0000   70.3466   61.2929    6.9253    0.0667    0.1371    6.0077    2.4413   18.0000 
10971.5092   12.2500   13.3453   64.5445 -999.0000   74.9085   64.8090    7.0147    0.0484    0.1238    5.6098    2.5255   18.0000 
10972.0092   12.2500   13.2988   60.0484 -999.0000  110.5534   85.2563    7.0421    0.0255    0.1126    4.9566    2.5702   22.0000 
10972.5092   12.2500   13.2756   58.5316 -999.0000  150.0654  115.0684    7.6456    0.0061    0.0947    4.4481    2.5221   22.0000 
10973.0092   12.2500   13.2291   46.4586 -999.0000  232.3959  129.3863    7.1469   -0.0007    0.0856    4.2148    2.5415   22.0000 
10973.5092   12.2500   13.2523   49.3716 -999.0000  178.2716  112.5369    6.9856   -0.0018    0.0965    4.1784    2.5459   22.0000 
10974.0092   12.2500   13.2523   55.1430 -999.0000  264.7479  157.1855    7.3186   -0.0041    0.1103    4.2897    2.5010   22.0000 
10974.5092   12.2500   13.2058   47.8618 -999.0000  416.8180  171.4168    7.3758   -0.0036    0.0992    4.4412    2.5758   22.0000 
10975.0092   12.2500   13.2291   43.5767 -999.0000  302.4644  150.5869    7.5668   -0.0034    0.0838    4.6435    2.5785   22.0000 
10975.5092   12.2500   13.2058   44.4603 -999.0000  286.2552  138.5188    7.4820   -0.0007    0.0830    4.7354    2.5890   22.0000 
10976.0092   12.2500   13.2058   52.4928 -999.0000  183.1897  101.7265    7.0411    0.0095    0.0879    4.8262    2.5941   22.0000 
10976.5092   12.2500   13.2058   36.3775 -999.0000  144.9089   91.9877    7.4142    0.0127    0.0894    4.8233    2.5026   18.0000 
10977.0092   12.2500   13.2058   51.0394 -999.0000  180.9554  109.9659    7.1642    0.0087    0.0983    4.8576    2.5166   18.0000 
10977.5092   12.2500   13.2291   42.4189 -999.0000  216.2233  126.5279    7.2874   -0.0114    0.0910    4.8686    2.6331   18.0000 
10978.0092   12.2500   13.1826   44.4494 -999.0000  237.2881  144.3389    7.2582   -0.0141    0.0827    4.8742    2.6120   18.0000 
10978.5092   12.2500   13.2058   37.5016 -999.0000  285.3292  170.5717    7.2639   -0.0096    0.0720    4.8025    2.5604   18.0000 
10979.0092   12.2500   13.1709   32.0112 -999.0000  311.2783  170.7223    7.2337   -0.0004    0.0750    4.6504    2.5495   22.0000 
10979.5092   12.2500   13.1709   35.7932 -999.0000  191.3627  131.7723    7.2115   -0.0005    0.0818    4.4353    2.5700   22.0000 
10980.0092   12.2500   13.1709   62.2729 -999.0000  114.8168   89.9979    7.1489   -0.0020    0.0901    4.1914    2.5466   37.0000 
10980.5092   12.2500   13.1593   67.8203 -999.0000   81.3273   69.4652    7.1037   -0.0026    0.1048    3.9562    2.5001   37.0000 
10981.0092   12.2500   13.1361   66.9735 -999.0000   75.3029   65.0263    7.2181   -0.0023    0.1255    3.8410    2.4829   37.0000 
10981.5092   12.2500   13.1361   67.1962 -999.0000  143.6251  117.2290    8.5556   -0.0026    0.1449    4.0443    2.5176   37.0000 
10982.0092   12.2500   13.1477   53.9822 -999.0000  340.7549  177.2311    7.5436    0.0016    0.1126    4.5262    2.5720   37.0000 
10982.5092   12.2500   13.1593   39.2512 -999.0000  571.7746  233.6559    7.5422    0.0061    0.0641    5.0627    2.6084   18.0000 
10983.0092   12.2500   13.1128   39.5267 -999.0000  769.7262  266.9474    7.7454    0.0048    0.0414    5.3888    2.5975   18.0000 
10983.5092   12.2500   13.1128   35.7710 -999.0000  871.6406  270.8121    7.6318   -0.0009    0.0401    5.3829    2.6063   18.0000 
10984.0092   12.2500   13.0896   40.4151 -999.0000  769.6940  262.4673    7.8355   -0.0001    0.0424    5.1683    2.5569   18.0000 
10984.5092   12.2500   13.0896   39.7920 -999.0000  730.2939  261.5801    7.7794    0.0006    0.0480    4.8701    2.5154   18.0000 
10985.0092   12.2500   13.0663   45.3244 -999.0000  870.0891  258.8374    7.4806    0.0029    0.0447    4.6368    2.5819   18.0000 
10985.5092   12.2500   13.0896   35.4934 -999.0000  806.0153  248.5399    7.7536   -0.0026    0.0464    4.5519    2.5435   27.0000 
10986.0092   12.2500   13.0663   44.9948 -999.0000  709.1953  262.3489    8.0278   -0.0003    0.0428    4.5514    2.5858   27.0000 
10986.5092   12.2500   13.0896   44.1686 -999.0000  866.4186  275.7657    7.7895   -0.0016    0.0424    4.6745    2.5977   27.0000 
