~VERSION INFORMATION
 VERS.                 2.0:   CWLS LOG ASCII STANDARD - VERSION 2.0
 WRAP.                  NO:   SINGLE LINE PER DEPTH STEP
 CREA.                 20/03/2018 14:41:29
#CREATED USING DSPetro VERSION 5000.10.1.3 BY H191660 ON 20/03/2018 14:41:29
~WELL INFORMATION
#MNEM.UNIT       DATA                          DESCRIPTION MNEMONIC
#---------      ---------------------------   --------------------------
 STRT    .FT        325.3294                  : START DEPTH
 STOP    .FT        12308.5971                : STOP DEPTH
 STEP    .FT        1.6404                    : STEP VALUE
 NULL    .      -999.0000                     : NULL VALUE
 DATE    .      20/03/2018                    : LAS file Creation Date
 WELL .      UNIVERSITY_19-5             : Well Name
 COMP .      Neftex Exploration Insights : Company
 FLD  .      PHANTOM (WOLFCAMP)          : Field
 UWI  .      208                         : Unique Well Identifier (UWI)
 LOC  .                                  : Location
 RWS  .      -999                        : Def_Rw
 WST  .      -999                        : Def_Rwt
 SRVC .                                  : Contractor
~CURVE INFORMATION
#MNEM              UNIT       API CODE   Curve Type Comments
#----------  --------------- ----------  ---------- -----------
 DEPTH      .FT                        : Depth       
 DEPTH      .FT                        : Depth       
 BS         .inch                      : BitSize     
 CAL_INCH   .inch                      :             Caliper Log - A representation of the measured diameter of a borehole along its depth
 GR_API     .API                       : GammaRay    Gamma Ray (API) - Measures the intensity of natural gamma-ray radiation emitted from formations containing radioactive elements, such as K, Th and U
 SGR_API    .API                       : GammaRay    Spectral Gamma Ray - Total gamma calibrated to API, measured using a spectoral gamma array tool
 CGR_API    .API                       : GammaRay    Corrected / Computed Gamma Ray - Radiation with the Uranium component removed. Also known as a 'carbonate gamma ray'
 TH_PPM     .ppm                       : Spectral    Thorium Abundance (SGR) - The quantitative elemental abundace of Thorium derived from the Spectral Gamma Ray Log
 K_per        .PC                        :             Potassium Abundance (SGR) - The quantitative elemental abundace of Potassium derived from the Spectral Gamma Ray Log. Also wt_%
 U_PPM      .ppm                       :             Uranium Abundance (SGR) - The quantitative elemental abundace of Uranium derived from the Spectral Gamma Ray Log
 ThK        .PPM                       : Spectral    
 ThU        .PPM                       : Spectral    
 SRES       .ohmm                      :             10" array induction, two foot resistivity
 MRES       .ohm.m                     :             30" array induction, two foot resistivity
 DRES       .ohmm                      :             90" array induction, two foot resistivity log - units of ohmm
 DT_US_FT   .us/ft                     :             Interval Transit Time: Compressional Wave - Evaluates the time it takes for a compressional wave to traverse a fixed distance
 NPHI_RATIO .ratio                     :             Neutron Porosity - Measured with an neutron logging device calibrated to a given matrix (limestone, sandstone and dolomite)
 RHOB_G_CC  .g/cc                      :             Bulk Density - Measures the density of bulk material, including any void space or other materials contained in the subject volume
 DRHO_G_CC  .g/cc                      :             Density Correction - Investigates the correction to the Bulk Density log; used as an indication of hole condition to validate the Bulk Density measure
 PEF_B_E    .b/e-                      : PEF         Photoelectric Factor - A log of photoelectric absorption properties. Often expressed in an approximation unit barns/electron (b/e-)
 LITH       .                          : LITH        Lithology Curve
~A  DEPTH   DEPTH       BS     CAL_INCH   GR_API   SGR_API   CGR_API    TH_PPM     K_per      U_PPM      ThK       ThU       SRES      MRES      DRES    DT_US_FT NPHI_RAT~ RHOB_G_C~ DRHO_G_C~  PEF_B_E     LITH   
# ...
11234.1220 11234.1220   12.2500 -999.0000   97.8661 -999.0000 -999.0000    7.5256 -999.0000    6.2029 -999.0000 -999.0000    1.8380    7.4030   10.1608   83.9924    0.2206    2.4996   -0.0029    2.9924   37.0000 
11235.7625 11235.7625   12.2500 -999.0000   94.5089 -999.0000 -999.0000    8.5374 -999.0000    5.5081 -999.0000 -999.0000    1.8315    8.0074   11.2500   80.1839    0.1550    2.5426    0.0007    2.8914   37.0000 
11237.4029 11237.4029   12.2500 -999.0000  105.8475 -999.0000 -999.0000    9.4205 -999.0000    5.4820 -999.0000 -999.0000    1.8025    7.1053    9.0022   84.5936    0.2009    2.5318   -0.0012    2.7814   37.0000 
11239.0433 11239.0433   12.2500 -999.0000  106.3864 -999.0000 -999.0000    9.7758 -999.0000    5.1356 -999.0000 -999.0000    1.8094    7.3119    9.1558   84.9545    0.1979    2.5292   -0.0052    3.1227   37.0000 
11240.6837 11240.6837   12.2500 -999.0000   90.2768 -999.0000 -999.0000    9.9314 -999.0000    4.5076 -999.0000 -999.0000    1.8297    7.6529    9.6705   78.3078    0.1900    2.5628    0.0009    2.8959   37.0000 
11242.3241 11242.3241   12.2500 -999.0000   62.6935 -999.0000 -999.0000    6.0847 -999.0000    2.7611 -999.0000 -999.0000    1.8947    8.4204   11.1810   76.4263    0.1515    2.5740    0.0065    2.5562   37.0000 
11243.9646 11243.9646   12.2500 -999.0000   45.3037 -999.0000 -999.0000    5.2850 -999.0000    2.0030 -999.0000 -999.0000    2.0364   17.6446   50.0990   57.6612    0.0636    2.6787    0.0238    2.9360   37.0000 
11245.6050 11245.6050   12.2500 -999.0000   59.4593 -999.0000 -999.0000    7.2309 -999.0000    3.4322 -999.0000 -999.0000    2.0127   13.7279   29.3950   62.2893    0.0648    2.5418   -0.0028    2.7518   27.0000 
11247.2454 11247.2454   12.2500 -999.0000   96.0385 -999.0000 -999.0000    9.1589 -999.0000    4.4320 -999.0000 -999.0000    1.8045    7.2528    9.5035   82.2083    0.1524    2.5419    0.0051    2.6989   37.0000 
11248.8858 11248.8858   12.2500 -999.0000   92.1804 -999.0000 -999.0000    8.8094 -999.0000    4.8303 -999.0000 -999.0000    1.7781    6.9861    9.1970   82.5084    0.2015    2.5386    0.0028    2.6923   37.0000 
11250.5262 11250.5262   12.2500 -999.0000   83.0114 -999.0000 -999.0000    6.7838 -999.0000    3.4402 -999.0000 -999.0000    1.8223    7.8210   11.8076   71.8797    0.1766    2.5378   -0.0021    2.8599   37.0000 
11252.1667 11252.1667   12.2500 -999.0000   38.5462 -999.0000 -999.0000    3.4543 -999.0000    1.8121 -999.0000 -999.0000    1.9183   10.7865   20.4279   64.3742    0.0587    2.6195    0.0000    3.2179   27.0000 
11253.8071 11253.8071   12.2500 -999.0000   57.6839 -999.0000 -999.0000    8.4741 -999.0000    3.8456 -999.0000 -999.0000    1.9327   11.6287   24.5119   72.0671    0.0995    2.5564    0.0007    2.6850   36.0000 
11255.4475 11255.4475   12.2500 -999.0000   95.3588 -999.0000 -999.0000   11.9641 -999.0000    4.3884 -999.0000 -999.0000    1.7889    6.0169    9.1317   83.6670    0.2031    2.5463   -0.0019    2.9025   37.0000 
11257.0879 11257.0879   12.2500 -999.0000   73.5458 -999.0000 -999.0000    6.7225 -999.0000    2.6372 -999.0000 -999.0000    1.8052    6.7585   10.1970   75.5678    0.1219    2.5123   -0.0038    2.7790   37.0000 
11258.7283 11258.7283   12.2500 -999.0000   70.9945 -999.0000 -999.0000    6.9997 -999.0000    2.6109 -999.0000 -999.0000    1.7565    6.8460    9.9917   73.7992    0.1276    2.6200   -0.0079    4.0757   37.0000 
11260.3688 11260.3688   12.2500 -999.0000   90.5864 -999.0000 -999.0000    8.2941 -999.0000    3.7393 -999.0000 -999.0000    1.7429    6.7328    9.2730   82.3176    0.1950    2.5584   -0.0005    2.9150   37.0000 
11262.0092 11262.0092   12.2500 -999.0000   88.3199 -999.0000 -999.0000    8.4567 -999.0000    3.9503 -999.0000 -999.0000    1.7063    6.6962    8.6681   83.1120    0.1961    2.5390    0.0025    2.5626   37.0000 
11263.6496 11263.6496   12.2500 -999.0000   83.0346 -999.0000 -999.0000    5.9937 -999.0000    3.3060 -999.0000 -999.0000    1.7501    7.1585    9.8352   77.5798    0.1301    2.6344    0.0252    2.9229   37.0000 
11265.2900 11265.2900   12.2500 -999.0000   58.3538 -999.0000 -999.0000    5.7127 -999.0000    3.2616 -999.0000 -999.0000    1.8283    7.8704   12.7061   74.4491    0.0907    2.6817    0.0742    2.8329   37.0000 
11266.9304 11266.9304   12.2500 -999.0000   86.9352 -999.0000 -999.0000    8.3721 -999.0000    4.4826 -999.0000 -999.0000    1.7977    7.0654    9.9935   80.6997    0.1881    2.5694    0.0026    2.6164   37.0000 
11268.5709 11268.5709   12.2500 -999.0000   70.5271 -999.0000 -999.0000    7.0191 -999.0000    3.7939 -999.0000 -999.0000    1.7433    7.1566    9.2099   76.9635    0.1539    2.5689    0.0085    2.5100   36.0000 
11270.2113 11270.2113   12.2500 -999.0000   76.6273 -999.0000 -999.0000    7.9568 -999.0000    2.9980 -999.0000 -999.0000    1.7352    6.9130    8.7336   78.3984    0.1739    2.5326   -0.0047    2.5852   36.0000 
11271.8517 11271.8517   12.2500 -999.0000   71.8047 -999.0000 -999.0000    7.6660 -999.0000    2.9386 -999.0000 -999.0000    1.8428    8.5773   12.6581   72.3985    0.1468    2.5811    0.0107    2.6361   36.0000 
11273.4921 11273.4921   12.2500 -999.0000   47.0766 -999.0000 -999.0000    5.4526 -999.0000    1.4571 -999.0000 -999.0000    1.8341    7.1689    9.8956   64.6762    0.1179    2.6596   -0.0083    3.1807   36.0000 
11275.1325 11275.1325   12.2500 -999.0000   36.1803 -999.0000 -999.0000    4.5305 -999.0000    1.0008 -999.0000 -999.0000    1.9012    7.4592   10.5995   66.7172    0.1016    2.6129    0.0214    2.9173   36.0000 
11276.7730 11276.7730   12.2500 -999.0000   48.6507 -999.0000 -999.0000    6.0163 -999.0000    1.2196 -999.0000 -999.0000    1.8615    7.2723    9.9134   77.2980    0.1242    2.4759    0.0036    2.4937   27.0000 
11278.4134 11278.4134   12.2500 -999.0000   61.9558 -999.0000 -999.0000    9.6909 -999.0000    2.7591 -999.0000 -999.0000    1.8363    6.9127    9.8875   77.7741    0.1471    2.5347    0.0112    2.4957   27.0000 
11280.0538 11280.0538   12.2500 -999.0000   80.4461 -999.0000 -999.0000   10.1878 -999.0000    2.7530 -999.0000 -999.0000    1.8012    6.4432    9.3720   78.9885    0.2167    2.6009    0.0406    2.5400   36.0000 
11281.6942 11281.6942   12.2500 -999.0000   42.1344 -999.0000 -999.0000    4.5015 -999.0000    1.0186 -999.0000 -999.0000    1.8494    7.1115   11.3253   76.0581    0.1236    2.4816    0.0019    2.2668   36.0000 
11283.3346 11283.3346   12.2500 -999.0000   41.6792 -999.0000 -999.0000    4.1611 -999.0000    1.2040 -999.0000 -999.0000    1.8361    6.7771   10.9008   76.3228    0.1054    2.4546   -0.0023    2.3956   27.0000 
11284.9751 11284.9751   12.2500 -999.0000   46.8473 -999.0000 -999.0000    5.1516 -999.0000    1.4183 -999.0000 -999.0000    1.8185    6.2435   10.1977   76.5659    0.1226    2.4654    0.0004    2.3572   27.0000 
11286.6155 11286.6155   12.2500 -999.0000   51.6089 -999.0000 -999.0000    6.2059 -999.0000    1.7199 -999.0000 -999.0000    1.7909    6.1698   10.1114   77.4740    0.1417    2.4693    0.0005    2.2928   27.0000 
11288.2559 11288.2559   12.2500 -999.0000   57.9147 -999.0000 -999.0000    7.2708 -999.0000    2.1118 -999.0000 -999.0000    1.7836    6.0358    8.9833   78.0856    0.1230    2.4425   -0.0013    2.3500   27.0000 
11289.8963 11289.8963   12.2500 -999.0000   57.5753 -999.0000 -999.0000    7.9379 -999.0000    2.1567 -999.0000 -999.0000    1.7655    5.8563    8.3014   77.6841    0.1221    2.4581    0.0004    2.3808   27.0000 
11291.5367 11291.5367   12.2500 -999.0000   77.2524 -999.0000 -999.0000   10.9804 -999.0000    2.6160 -999.0000 -999.0000    1.7962    6.1496    8.6206   77.2071    0.1725    2.5560    0.0027    2.4341   27.0000 
11293.1772 11293.1772   12.2500 -999.0000   77.4498 -999.0000 -999.0000    9.5553 -999.0000    1.9475 -999.0000 -999.0000    1.9094    8.7449   13.2748   71.1197    0.1577    2.6016    0.0125    2.7442   36.0000 
11294.8176 11294.8176   12.2500 -999.0000   52.6550 -999.0000 -999.0000    4.9899 -999.0000    1.7454 -999.0000 -999.0000    1.8139    6.7947    9.4325   72.9370    0.0753    2.5265   -0.0034    2.4465   36.0000 
