~VERSION INFORMATION
 VERS.                 2.0:   CWLS LOG ASCII STANDARD - VERSION 2.0
 WRAP.                  NO:   SINGLE LINE PER DEPTH STEP
 CREA.                 20/03/2018 14:55:32
#CREATED USING DSPetro VERSION 5000.10.1.3 BY H191660 ON 20/03/2018 14:55:32
~WELL INFORMATION
#MNEM.UNIT       DATA                          DESCRIPTION MNEMONIC
#---------      ---------------------------   --------------------------
 STRT    .FT        10799.4984                : START DEPTH
 STOP    .FT        13010.9983                : STOP DEPTH
 STEP    .FT        0.5000                    : STEP VALUE
 NULL    .      -999.0000                     : NULL VALUE
 DATE    .      20/03/2018                    : LAS file Creation Date
 WELL  .      UNIVERSITY_21-17             : Well Name
 COMP  .      Neftex Exploration Insights  : Company
 FLD   .                                   : Field
 STATE .      Texas                        : State
 API   .      42475370100000               : API Number
 UWI   .      213                          : Unique Well Identifier (UWI)
 LOC   .                                   : Location
 LATI  .      -6235758.22                  : Latitude/Northing
 LONG  .      777123.41                    : Longitude/Easting
 RWS   .      -999                         : Def_Rw
 WST   .      -999                         : Def_Rwt
 CNTY  .      WARD                         : County
 SRVC  .      Diversified Well Logging LLC : Contractor
~CURVE INFORMATION
#MNEM              UNIT       API CODE   Curve Type Comments
#----------  --------------- ----------  ---------- -----------
 DEPTH      .FT                        : Depth       
 DCAL_INCH  .inch                      :             Differential Caliper - Evaluates the difference between the actual borehole diameter and bit size
 GR_API     .API                       : GammaRay    Gamma Ray (API) - Measures the intensity of natural gamma-ray radiation emitted from formations containing radioactive elements, such as K, Th and U
 CGR_API    .API                       : GammaRay    Corrected / Computed Gamma Ray - Radiation with the Uranium component removed. Also known as a 'carbonate gamma ray'
 K_per        .PC                        :             Potassium Abundance (SGR) - The quantitative elemental abundace of Potassium derived from the Spectral Gamma Ray Log. Also wt_%
 TH_PPM     .ppm                       : Spectral    Thorium Abundance (SGR) - The quantitative elemental abundace of Thorium derived from the Spectral Gamma Ray Log
 U_PPM      .ppm                       :             Uranium Abundance (SGR) - The quantitative elemental abundace of Uranium derived from the Spectral Gamma Ray Log
 RD_OHMM    .ohmm                      :             Unspecified Deep Resistivity - No accroynm or method of attainment is specified - units of ohmm
 RM_OHMM    .ohm.m                     :             Unspecified Medium Resistivity - No accroynm or method of attainment is specified
 MSFL_OHMM  .ohmm                      :             Micro-Spherically Focused Log - Measurement involves only the first few inches of the formation immediately adjacent to the borehole
 NPHI_RATIO .ratio                     :             Neutron Porosity - Measured with an neutron logging device calibrated to a given matrix (limestone, sandstone and dolomite)
 RHOZ_G_CC  .g/cc                      :             Formation Density - Measures the density of formation, including any void space or other materials contained in the subject volume
 PEF_B_E    .b/e-                      : PEF         Photoelectric Factor - A log of photoelectric absorption properties. Often expressed in an approximation unit barns/electron (b/e-)
 LITH       .                          : LITH        Lithology Curve
~A  DEPTH DCAL_INC~   GR_API   CGR_API     K_per      TH_PPM    U_PPM    RD_OHMM   RM_OHMM  MSFL_OHM~ NPHI_RAT~ RHOZ_G_C~  PEF_B_E     LITH   
# ...
11226.9984    2.8203   78.8670   40.8007    1.2072    6.0030    5.2975   77.9657   70.8828   28.8491    0.1857    2.5490    4.1981   37.0000 
11227.4984    2.8096   76.8324   41.4942    1.2826    5.7833    5.4481   71.6520   65.1873   28.9000    0.1850    2.5303    4.1071   37.0000 
11227.9984    2.8203   88.2087   49.1855    1.5993    6.3932    6.0617   39.9272   36.3352   15.3968    0.2332    2.4965    3.9112   37.0000 
11228.4984    2.8203   99.5709   57.6989    1.8254    7.7975    6.8239   40.1194   36.7269   14.3045    0.2717    2.4711    3.6973   37.0000 
11228.9984    2.8168  101.6048   57.1312    1.8010    7.7583    7.5070   34.5633   32.5307   11.2487    0.2726    2.4722    3.5574   37.0000 
11229.4984    2.8096   96.4236   57.0108    1.7496    8.0209    7.1588   22.8712   21.7640    6.0042    0.2384    2.4870    3.5380   37.0000 
11229.9984    2.8168   97.2053   53.9632    1.6571    7.5856    7.0582   29.9676   28.0063    7.6316    0.2128    2.4908    3.6086   37.0000 
11230.4984    2.8096  103.7312   56.8084    1.7095    8.1911    7.4379   35.7569   34.4088   15.2609    0.2267    2.4713    3.7237   37.0000 
11230.9984    2.8096  118.9865   59.1258    1.7914    8.4540    8.3598   43.7981   42.9125   19.1838    0.2565    2.4488    3.7726   37.0000 
11231.4984    2.8203  122.9989   61.2174    1.8714    8.6555    8.7110   35.7090   35.9659   16.7746    0.2944    2.4402    3.7375   37.0000 
11231.9984    2.8239  120.9721   60.6762    1.8275    8.7390    8.9119   19.2062   19.5730    7.8260    0.3048    2.4470    3.6702   37.0000 
11232.4984    2.7952  126.5545   62.1472    1.8576    9.0342    9.5346   14.8182   15.2029    4.8689    0.2889    2.4565    3.6915   37.0000 
11232.9984    2.8168  138.5430   65.2555    1.9481    9.4998   10.3215   39.8143   40.4579   11.7841    0.2604    2.4626    3.8092   37.0000 
11233.4984    2.8239  145.6598   64.3355    1.9395    9.2558   10.3027   39.0869   40.6396   17.0423    0.2374    2.4732    3.9016   37.0000 
11233.9984    2.8096  138.0011   66.4209    2.0127    9.4949    9.1214   20.0243   21.0423    7.7590    0.2342    2.4712    3.9538   37.0000 
11234.4984    2.8096  133.4960   67.7355    2.0249    9.8449    8.3018   25.9687   27.0547    8.1871    0.2618    2.4335    4.2011   37.0000 
11234.9984    2.8203  128.0683   67.3514    2.0364    9.6545    8.5229   29.6922   31.0931    1.5916    0.2911    2.4019    4.6429   18.0000 
11235.4984    2.8203  124.1257   65.5016    2.0294    9.1027    8.8518   27.4611   28.9762    0.1953    0.3120    2.4072    5.0709   37.0000 
11235.9984    2.8096  119.3945   64.7040    2.0355    8.8112    8.8238   32.1003   33.6125    1.6046    0.3100    2.4278    5.1302   37.0000 
11236.4984    2.8096  115.3186   65.0581    2.0492    8.8445    7.9086   34.8106   35.1335   16.4296    0.3250    2.4464    4.9854   37.0000 
11236.9984    2.8311  114.3681   65.0733    1.9906    9.1920    7.0661   29.7129   29.6031    0.4107    0.3023    2.4549    4.8006   37.0000 
11237.4984    2.8168  109.9755   59.7802    1.8292    8.4413    6.4850   51.9786   50.5824    0.5211    0.2655    2.4891    4.6325   37.0000 
11237.9984    2.7988  108.8701   59.0241    1.7704    8.5433    6.1061   93.9538   87.5278   29.7780    0.2104    2.5001    4.3817   37.0000 
11238.4984    2.8024  104.0125   58.8416    1.7378    8.6754    5.8744   67.4094   60.2257   31.0029    0.2184    2.4855    4.1613   37.0000 
11238.9984    2.8203   97.7050   56.0349    1.5925    8.6270    6.0316   27.4835   22.0921    9.1684    0.2385    2.4822    4.0577   37.0000 
11239.4984    2.8311   82.2742   46.3139    1.2907    7.2799    5.5342   15.0772   11.7632    4.5043    0.2129    2.5207    4.1273   37.0000 
11239.9984    2.8168   64.9566   35.5661    1.0082    5.4906    4.4628   41.5194   33.2110   10.5868    0.1480    2.5865    4.2336   37.0000 
11240.4984    2.7988   55.5864   33.6411    0.9823    5.0252    3.9336  110.7990   79.3314   28.1798    0.1019    2.6195    4.2750   22.0000 
11240.9984    2.8024   63.8084   41.6297    1.1643    6.5194    3.7889   42.8658   30.7594   17.0668    0.1211    2.6069    4.1433   22.0000 
11241.4984    2.8203   76.4798   51.3069    1.4407    8.0010    4.1082   34.0605   24.8040   10.9765    0.1693    2.5738    3.9211   22.0000 
11241.9984    2.8527   82.8087   53.4632    1.5006    8.3413    4.5300   31.3570   23.2446    8.7209    0.1936    2.5575    3.7859   22.0000 
11242.4984    2.8455   79.0848   52.3329    1.4654    8.1856    4.5352   47.6104   35.1961   11.8364    0.1820    2.5694    3.7847   22.0000 
11242.9984    2.8311   79.7396   51.4409    1.4381    8.0594    4.9255   60.8074   41.9066   17.6784    0.1799    2.5880    3.8342   22.0000 
11243.4984    2.8527   86.5048   53.4520    1.5307    8.1616    5.2303   26.3039   18.0704    9.2623    0.1867    2.5830    3.7716   22.0000 
11243.9984    2.8742   93.4741   59.9409    1.6863    9.3293    5.3528   16.3153   11.8277    4.7464    0.2240    2.5568    3.6703   22.0000 
11244.4984    2.8957   94.8259   61.7868    1.8041    9.2312    5.1717   21.2002   16.1500    5.6886    0.2412    2.5419    3.5407   22.0000 
11244.9984    2.8885   88.8490   63.3396    1.8604    9.3996    4.7069   27.1491   21.1368    7.4632    0.2246    2.5598    3.4984   22.0000 
11245.4984    2.9388   84.0974   58.3472    1.7191    8.6273    4.4900   30.9511   24.3443    8.1678    0.1957    2.5948    3.4916   22.0000 
11245.9984    2.8742   82.2949   54.0851    1.5812    8.0697    4.6200   36.2002   28.4799    9.5599    0.1697    2.6119    3.5265   22.0000 
11246.4984    2.8814   85.4205   51.8815    1.5514    7.5385    4.7595   38.1607   30.6973    9.1384    0.1944    2.6044    3.5533   22.0000 
11246.9984    2.8742   89.0107   53.4543    1.5826    7.8596    5.3603   32.5042   27.2002   11.1268    0.2143    2.5773    3.5528   22.0000 
11247.4984    2.8957   92.2910   58.7461    1.6603    9.1004    5.5825   18.3390   15.3073    6.0424    0.2432    2.5565    3.5092   22.0000 
11247.9984    2.9101   93.4456   57.6136    1.6204    8.9711    6.1664   18.0040   14.2470    4.5804    0.2222    2.5505    3.4377   37.0000 
11248.4984    2.8850   96.6136   59.0330    1.6516    9.2433    6.0662   27.1063   20.3996    6.0755    0.2184    2.5417    3.4169   37.0000 
11248.9984    2.8814   99.1484   60.5707    1.7073    9.4100    6.0790   31.4901   23.1368    7.8475    0.2200    2.5218    3.4660   37.0000 
11249.4984    2.8527  102.8511   61.9072    1.7450    9.6171    6.6700   38.7443   28.5119   10.7799    0.2559    2.4874    3.5564   37.0000 
11249.9984    2.8527  107.1733   61.3049    1.6446   10.0124    7.2046   27.3978   21.8222   10.9734    0.2802    2.4684    3.5846   37.0000 
11250.4984    2.8168  109.8133   59.0214    1.5341    9.9274    8.2362   21.9420   17.8741    7.5318    0.2894    2.4532    3.5664   37.0000 
11250.9984    2.8203  110.8697   58.5835    1.4983    9.9965    8.1796   34.2843   28.9197   12.6982    0.3063    2.4430    3.5540   37.0000 
11251.4984    2.8311  112.1440   57.7362    1.4780    9.8438    8.1058   45.6367   39.5981   13.3042    0.3054    2.4437    3.5517   37.0000 
11251.9984    2.8311  111.7991   54.5707    1.4018    9.2758    8.1676   35.3762   30.5032    8.1826    0.2871    2.4533    3.5855   37.0000 
11252.4984    2.8203  112.3266   52.7078    1.3761    8.8294    8.3099   48.7274   44.5453   16.0741    0.2487    2.4576    3.6490   37.0000 
11252.9984    2.7988  111.7283   52.3542    1.4412    8.3346    8.2102   56.7931   57.5158   28.0741    0.2564    2.4482    3.7108   37.0000 
11253.4984    2.8239  115.4521   52.7345    1.4062    8.6610    8.0027   25.7931   27.4912   12.9983    0.2594    2.4455    3.7265   37.0000 
11253.9984    2.7952  111.9680   52.4410    1.3767    8.7399    7.9778   36.3416   39.1721   10.2846    0.2449    2.4566    3.7297   37.0000 
11254.4984    2.7880  117.1491   53.7969    1.3628    9.2560    8.6742   79.3044   84.7980   27.9449    0.2108    2.4733    3.7506   37.0000 
11254.9984    2.8168  113.8754   56.7702    1.4877    9.4770    8.6519   97.3650  103.3191   32.2137    0.2118    2.4766    3.7439   37.0000 
