~VERSION INFORMATION
 VERS.                 2.0:   CWLS LOG ASCII STANDARD - VERSION 2.0
 WRAP.                  NO:   SINGLE LINE PER DEPTH STEP
 CREA.                 20/03/2018 14:58:23
#CREATED USING DSPetro VERSION 5000.10.1.3 BY H191660 ON 20/03/2018 14:58:23
~WELL INFORMATION
#MNEM.UNIT       DATA                          DESCRIPTION MNEMONIC
#---------      ---------------------------   --------------------------
 STRT    .FT        128.0000                  : START DEPTH
 STOP    .FT        12500.0000                : STOP DEPTH
 STEP    .FT        0.5000                    : STEP VALUE
 NULL    .      -999.0000                     : NULL VALUE
 DATE    .      20/03/2018                    : LAS file Creation Date
 WELL  .      UNIVERSITY_40_16_4247536999  : Well Name
 COMP  .      Neftex Exploration Insights  : Company
 FLD   .      PHANTOM (WOLFCAMP)           : Field
 STATE .      Texas                        : State
 COUNT .      USA                          : Country
 API   .      42475369990000               : API Number
 UWI   .      222                          : Unique Well Identifier (UWI)
 LOC   .      1980FNL x 1757FWL            : Location
 TOWN  .      16                           : Township
 SCT   .      40                           : Section
 RANG  .      U39                          : Range
 LATI  .      -6470541.88                  : Latitude/Northing
 LONG  .      783810.27                    : Longitude/Easting
 PDAT  .      GL                           : Permanent Datum
 EPDAT .      2604.000000                  : Reference Elevation
 LGMEA .      KB                           : Log Measured from
 DRMEA .      KB                           : Drill Measured From
 APDAT .      25.000000                    : Elevation Above Permanent Datum
 KB    .      2629.00000                   : KB Elevation
 GL    .      2604.00000                   : GL Elevation
 RWS   .      -999                         : Def_Rw
 WST   .      -999                         : Def_Rwt
 CNTY  .      WARD                         : County
 SRVC  .      Diversified Well Logging LLC : Contractor
~CURVE INFORMATION
#MNEM              UNIT       API CODE   Curve Type Comments
#----------  --------------- ----------  ---------- -----------
 DEPTH      .FT                        : Depth       
 BS         .inch                      : BitSize     
 DCAL_INCH  .inch                      :             Differential Caliper - Evaluates the difference between the actual borehole diameter and bit size
 GR         .GAPI                      : GammaRay    Gamma Ray {F11.4}
 LLD_OHMM   .ohmm                      :             Laterlog Deep Resistivity - Measurement made several feet into the formation; generally considered a measurement of the undisturbed formation
 LLM_OHMM   .ohm.m                     :             Laterlog Medium Resistivity - Measurement made approximately two to three feet into the formation - units of ohmm
 LLS_OHMM   .ohmm                      :             Laterlog Shallow Resistivity - one to two feet into the formation; generally considered to measure the formation
 NPHI_RATIO .ratio                     :             Neutron Porosity - Measured with an neutron logging device calibrated to a given matrix (limestone, sandstone and dolomite)
 PEF_B_E    .b/e-                      : PEF         Photoelectric Factor - A log of photoelectric absorption properties. Often expressed in an approximation unit barns/electron (b/e-)
 RHOZ_G_CC  .g/cc                      :             Formation Density - Measures the density of formation, including any void space or other materials contained in the subject volume
 LITH       .                          : LITH        Lithology Curve
~A  DEPTH     BS    DCAL_INC~     GR     LLD_OHMM  LLM_OHMM  LLS_OHMM NPHI_RAT~  PEF_B_E  RHOZ_G_C~    LITH   
# ...
1688.5000 -999.0000   -6.0046   29.5814    0.0073    0.0065    0.0070    0.5026   10.0000    2.7625    3.0000 
1689.0000 -999.0000   -6.0046   29.3412    0.0076    0.0074    0.0084    0.5444   10.0000    3.0279    3.0000 
1689.5000 -999.0000   -6.0268   28.2901    0.0082    0.0082    0.0095    0.5624   10.0000    3.4445    3.0000 
1690.0000 -999.0000   -6.0268   28.0498    0.0069    0.0063    0.0070    0.5504   10.0000    3.8993    3.0000 
1690.5000 -999.0000   -6.0157   30.1520    0.0066    0.0057    0.0060    0.5242   10.0000    4.0332    3.0000 
1691.0000 -999.0000   -6.0268   32.1340    0.0077    0.0072    0.0081    0.5856    9.8928    3.7335    3.0000 
1691.5000 -999.0000   -6.0046   32.3743    0.0075    0.0069    0.0078    0.5434    9.6720    3.1619    3.0000 
1692.0000 -999.0000   -6.0046   36.1583    0.0069    0.0063    0.0069    0.5523    9.8065    2.6445    3.0000 
1692.5000 -999.0000   -6.0268   38.0801    0.0061    0.0053    0.0054    0.4665    9.9386    2.2407    3.0000 
1693.0000 -999.0000   -6.0268   39.2813    0.0078    0.0071    0.0075    0.4972    9.8924    1.9109    3.0000 
1693.5000 -999.0000   -6.0268   36.5484    0.0056    0.0053    0.0050    0.5637    9.8760    1.6978    3.0000 
1694.0000 -999.0000   -6.0268   39.4314    0.0072    0.0067    0.0070    0.6165   10.0000    1.5980    3.0000 
1694.5000 -999.0000   -6.0268   43.5759    0.0072    0.0062    0.0063    0.6043    9.9910    1.5842    3.0000 
1695.0000 -999.0000   -6.0046   47.3900    0.0086    0.0077    0.0083    0.6513   10.0000    1.5885    3.0000 
1695.5000 -999.0000   -6.0268   45.0177    0.0071    0.0069    0.0076    0.6455    9.9312    1.6057    3.0000 
1696.0000 -999.0000   -6.0268   44.2368    0.0061    0.0076    0.0088    0.6234   10.0000    1.6226    3.0000 
1696.5000 -999.0000   -6.0268   43.2755    0.0050    0.0081    0.0094    0.4982   10.0000    1.6393    3.0000 
1697.0000 -999.0000   -6.0268   41.8039    0.0018    0.0065    0.0074    0.4990   10.0000    1.6566    3.0000 
1697.5000 -999.0000   -6.0268   37.7197    0.0004    0.0067    0.0074    0.5912   10.0000    1.6748    3.0000 
1698.0000 -999.0000   -6.0268   34.1159    0.0013    0.0078    0.0090    0.6927   10.0000    1.6891    3.0000 
1698.5000 -999.0000   -6.0268   31.8037    0.0010    0.0074    0.0090    0.6527    9.9743    1.7030    3.0000 
1699.0000 -999.0000   -6.0268   28.6803    0.0009    0.0075    0.0090    0.6383   10.0000    1.7169    3.0000 
1699.5000 -999.0000   -6.0268   30.4822    0.0010    0.0074    0.0091    0.5150    9.9412    1.7253    3.0000 
1700.0000 -999.0000   -6.0046   32.3139    0.0007    0.0072    0.0085    0.5344    9.9974    1.7274    3.0000 
1700.5000 -999.0000   -6.0157   36.8788    0.0007    0.0071    0.0084    0.5364    9.9878    1.7277    3.0000 
1701.0000 -999.0000   -6.0268   35.4073    0.0001    0.0063    0.0070    0.5272   10.0000    1.7303    3.0000 
1701.5000 -999.0000   -6.0157   35.4074    0.0013    0.0076    0.0086    0.4979   10.0000    1.7316    3.0000 
1702.0000 -999.0000   -6.0268   35.6476    0.0010    0.0070    0.0081    0.4309    9.9032    1.7412    3.0000 
1702.5000 -999.0000   -6.0268   37.1190    0.0018    0.0076    0.0091    0.5322   10.0000    1.7531    3.0000 
1703.0000 -999.0000   -6.0268   34.7164    0.0023    0.0085    0.0101    0.5467    9.9995    1.7624    3.0000 
1703.5000 -999.0000   -6.0046   29.9115    0.0016    0.0075    0.0087    0.5961   10.0000    1.7668    3.0000 
1704.0000 -999.0000   -6.0046   28.2298    0.0017    0.0080    0.0089    0.6004    9.9636    1.7707    3.0000 
1704.5000 -999.0000   -6.0268   31.5934    0.0012    0.0074    0.0081    0.6061    9.9481    1.7780    3.0000 
1705.0000 -999.0000   -6.0268   35.3774    0.0014    0.0071    0.0077    0.6270   10.0000    1.7865    3.0000 
1705.5000 -999.0000   -6.0268   35.4973    0.0012    0.0070    0.0076    0.5077    9.9580    1.7952    3.0000 
1706.0000 -999.0000   -6.0268   33.8156    0.0016    0.0076    0.0083    0.4717   10.0000    1.8047    3.0000 
1706.5000 -999.0000   -6.0046   32.3439    0.0021    0.0078    0.0087    0.3850   10.0000    1.8148    3.0000 
1707.0000 -999.0000   -6.0046   36.6686    0.0016    0.0071    0.0077    0.3493    9.9101    1.8293    3.0000 
1707.5000 -999.0000   -6.0157   37.6295    0.0020    0.0069    0.0078    0.2912    9.9715    1.8458    3.0000 
1708.0000 -999.0000   -6.0268   38.2603    0.0022    0.0067    0.0073    0.2722   10.0000    1.8620    3.0000 
1708.5000 -999.0000   -6.0268   37.5396    0.0024    0.0067    0.0077    0.2998   10.0000    1.8737    3.0000 
1709.0000 -999.0000   -6.0268   42.6150    0.0048    0.0069    0.0078    0.4358    9.8526    1.8834    3.0000 
1709.5000 -999.0000   -6.0268   47.8408    0.0057    0.0079    0.0091    0.5170    9.9410    1.8836    3.0000 
1710.0000 -999.0000   -6.0268   55.7687    0.0053    0.0076    0.0087    0.5605   10.0000    1.8692    3.0000 
1710.5000 -999.0000   -6.0046   57.2402    0.0056    0.0077    0.0090    0.5116    9.9659    1.8644    3.0000 
1711.0000 -999.0000   -6.0046   55.5581    0.0048    0.0067    0.0078    0.4657    9.9790    1.8906    3.0000 
1711.5000 -999.0000   -6.0268   48.3210    0.0048    0.0062    0.0069    0.4549   10.0000    1.9378    3.0000 
1712.0000 -999.0000   -6.0268   46.0988    0.0054    0.0075    0.0087    0.5112    9.9925    1.9849    3.0000 
1712.5000 -999.0000   -6.0046   46.5794    0.0049    0.0077    0.0089    0.5399   10.0000    2.0172    3.0000 
1713.0000 -999.0000   -6.0268   46.3692    0.0045    0.0069    0.0082    0.5717   10.0000    2.0630    3.0000 
1713.5000 -999.0000   -6.0268   44.4467    0.0042    0.0067    0.0077    0.5046   10.0000    2.1244    3.0000 
1714.0000 -999.0000   -6.0268   44.8370    0.0033    0.0069    0.0084    0.5037   10.0000    2.2061    3.0000 
1714.5000 -999.0000   -6.0046   43.8759    0.0049    0.0075    0.0090    0.4668   10.0000    2.3033    3.0000 
1715.0000 -999.0000   -6.0268   44.0264    0.0047    0.0072    0.0087    0.4595   10.0000    2.4204    3.0000 
1715.5000 -999.0000   -6.0046   39.3114    0.0046    0.0076    0.0092    0.4292   10.0000    2.5460    3.0000 
1716.0000 -999.0000   -6.0046   39.3114    0.0049    0.0078    0.0095    0.5028   10.0000    2.6770    3.0000 
1716.5000 -999.0000   -6.0268   38.0500    0.0071    0.0090    0.0109    0.5296   10.0000    2.8058    3.0000 
1717.0000 -999.0000   -6.0046   44.2966    0.0077    0.0084    0.0097    0.5272   10.0000    2.9253    3.0000 
1717.5000 -999.0000   -6.0268   45.6781    0.0069    0.0070    0.0079    0.5269    9.8381    2.9977    3.0000 
1718.0000 -999.0000   -6.0268   49.1919    0.0071    0.0074    0.0086    0.5131    9.5741    2.9711    3.0000 
1718.5000 -999.0000   -6.0268   44.6271    0.0062    0.0068    0.0079    0.5301    9.7784    2.8199    3.0000 
1719.0000 -999.0000   -6.0268   40.8428    0.0066    0.0066    0.0073    0.4627    9.8574    2.5632    3.0000 
1719.5000 -999.0000   -6.0046   38.2001    0.0061    0.0056    0.0059    0.4950    9.7885    2.2346    3.0000 
1720.0000 -999.0000   -6.0268   36.3983    0.0085    0.0085    0.0096    0.5947    9.7412    1.9078    3.0000 
1720.5000 -999.0000   -6.0157   37.1192    0.0073    0.0070    0.0077    0.6704   10.0000    1.6929    3.0000 
1721.0000 -999.0000   -6.0046   36.8792    0.0061    0.0056    0.0061    0.6187   10.0000    1.6040    3.0000 
1721.5000 -999.0000   -6.0268   39.1914    0.0072    0.0071    0.0080    0.5776    9.9835    1.6079    3.0000 
1722.0000 -999.0000   -6.0157   40.3927    0.0090    0.0078    0.0086    0.5491    9.9479    1.6149    3.0000 
1722.5000 -999.0000   -6.0046   36.8187    0.0070    0.0065    0.0070    0.5311    9.9638    1.6264    3.0000 
1723.0000 -999.0000   -6.0046   35.5875    0.0080    0.0074    0.0083    0.6258   10.0000    1.6382    3.0000 
1723.5000 -999.0000   -6.0046   30.3018    0.0070    0.0063    0.0070    0.6442    9.9675    1.6499    3.0000 
1724.0000 -999.0000   -6.0268   32.6744    0.0064    0.0064    0.0070    0.6873    9.9816    1.6655    3.0000 
1724.5000 -999.0000   -6.0046   32.1940    0.0066    0.0071    0.0082    0.6175   10.0000    1.6807    3.0000 
