~VERSION INFORMATION
 VERS.                 2.0:   CWLS LOG ASCII STANDARD - VERSION 2.0
 WRAP.                  NO:   SINGLE LINE PER DEPTH STEP
 CREA.                 20/03/2018 14:58:23
#CREATED USING DSPetro VERSION 5000.10.1.3 BY H191660 ON 20/03/2018 14:58:23
~WELL INFORMATION
#MNEM.UNIT       DATA                          DESCRIPTION MNEMONIC
#---------      ---------------------------   --------------------------
 STRT    .FT        128.0000                  : START DEPTH
 STOP    .FT        12500.0000                : STOP DEPTH
 STEP    .FT        0.5000                    : STEP VALUE
 NULL    .      -999.0000                     : NULL VALUE
 DATE    .      20/03/2018                    : LAS file Creation Date
 WELL  .      UNIVERSITY_40_16_4247536999  : Well Name
 COMP  .      Neftex Exploration Insights  : Company
 FLD   .      PHANTOM (WOLFCAMP)           : Field
 STATE .      Texas                        : State
 COUNT .      USA                          : Country
 API   .      42475369990000               : API Number
 UWI   .      222                          : Unique Well Identifier (UWI)
 LOC   .      1980FNL x 1757FWL            : Location
 TOWN  .      16                           : Township
 SCT   .      40                           : Section
 RANG  .      U39                          : Range
 LATI  .      -6470541.88                  : Latitude/Northing
 LONG  .      783810.27                    : Longitude/Easting
 PDAT  .      GL                           : Permanent Datum
 EPDAT .      2604.000000                  : Reference Elevation
 LGMEA .      KB                           : Log Measured from
 DRMEA .      KB                           : Drill Measured From
 APDAT .      25.000000                    : Elevation Above Permanent Datum
 KB    .      2629.00000                   : KB Elevation
 GL    .      2604.00000                   : GL Elevation
 RWS   .      -999                         : Def_Rw
 WST   .      -999                         : Def_Rwt
 CNTY  .      WARD                         : County
 SRVC  .      Diversified Well Logging LLC : Contractor
~CURVE INFORMATION
#MNEM              UNIT       API CODE   Curve Type Comments
#----------  --------------- ----------  ---------- -----------
 DEPTH      .FT                        : Depth       
 BS         .inch                      : BitSize     
 DCAL_INCH  .inch                      :             Differential Caliper - Evaluates the difference between the actual borehole diameter and bit size
 GR         .GAPI                      : GammaRay    Gamma Ray {F11.4}
 LLD_OHMM   .ohmm                      :             Laterlog Deep Resistivity - Measurement made several feet into the formation; generally considered a measurement of the undisturbed formation
 LLM_OHMM   .ohm.m                     :             Laterlog Medium Resistivity - Measurement made approximately two to three feet into the formation - units of ohmm
 LLS_OHMM   .ohmm                      :             Laterlog Shallow Resistivity - one to two feet into the formation; generally considered to measure the formation
 NPHI_RATIO .ratio                     :             Neutron Porosity - Measured with an neutron logging device calibrated to a given matrix (limestone, sandstone and dolomite)
 PEF_B_E    .b/e-                      : PEF         Photoelectric Factor - A log of photoelectric absorption properties. Often expressed in an approximation unit barns/electron (b/e-)
 RHOZ_G_CC  .g/cc                      :             Formation Density - Measures the density of formation, including any void space or other materials contained in the subject volume
 LITH       .                          : LITH        Lithology Curve
~A  DEPTH     BS    DCAL_INC~     GR     LLD_OHMM  LLM_OHMM  LLS_OHMM NPHI_RAT~  PEF_B_E  RHOZ_G_C~    LITH   
# ...
3762.0000 -999.0000   -5.9601    4.9252    0.0094    0.0099    0.0111    0.0520   10.0000    1.9786    3.0000 
3762.5000 -999.0000   -5.9824    5.8261    0.0077    0.0080    0.0085    0.0526   10.0000    1.9731    3.0000 
3763.0000 -999.0000   -5.9601    5.9462    0.0085    0.0085    0.0093    0.0546    9.9830    1.9713    3.0000 
3763.5000 -999.0000   -5.9824    6.8472    0.0093    0.0097    0.0108    0.0528   10.0000    1.9782    3.0000 
3764.0000 -999.0000   -5.9824    7.4178    0.0085    0.0086    0.0095    0.0486    9.9806    1.9828    3.0000 
3764.5000 -999.0000   -5.9601    6.8172    0.0091    0.0096    0.0106    0.0458    9.9827    1.9890    3.0000 
3765.0000 -999.0000   -5.9601    6.5469    0.0094    0.0099    0.0112    0.0454    9.9583    1.9906    3.0000 
3765.5000 -999.0000   -5.9824    6.4568    0.0075    0.0092    0.0105    0.0461    9.9333    1.9905    3.0000 
3766.0000 -999.0000   -5.9601    7.0575    0.0068    0.0083    0.0092    0.0453   10.0000    1.9841    3.0000 
3766.5000 -999.0000   -5.9601    8.0486    0.0074    0.0089    0.0102    0.0450   10.0000    1.9738    3.0000 
3767.0000 -999.0000   -5.9601    7.0875    0.0079    0.0097    0.0112    0.0476   10.0000    1.9629    3.0000 
3767.5000 -999.0000   -5.9824    6.2466    0.0065    0.0071    0.0076    0.0454   10.0000    1.9619    3.0000 
3768.0000 -999.0000   -5.9601    5.2555    0.0081    0.0096    0.0109    0.0479    9.9815    1.9659    3.0000 
3768.5000 -999.0000   -5.9601    5.8862    0.0070    0.0085    0.0096    0.0432    9.8941    1.9707    3.0000 
3769.0000 -999.0000   -5.9601    7.3276    0.0067    0.0079    0.0089    0.0437   10.0000    1.9703    3.0000 
3769.5000 -999.0000   -5.9601    8.3788    0.0068    0.0077    0.0085    0.0367    9.9908    1.9718    3.0000 
3770.0000 -999.0000   -5.9601   10.6310    0.0071    0.0079    0.0087    0.0356   10.0000    1.9729    3.0000 
3770.5000 -999.0000   -5.9601   10.2407    0.0084    0.0097    0.0110    0.0370   10.0000    1.9726    3.0000 
3771.0000 -999.0000   -5.9712    9.7001    0.0074    0.0088    0.0100    0.0398    9.9745    1.9697    3.0000 
3771.5000 -999.0000   -5.9601    8.9194    0.0080    0.0094    0.0108    0.0406    9.9649    1.9715    3.0000 
3772.0000 -999.0000   -5.9601    7.8683    0.0076    0.0090    0.0102    0.0366    9.9565    1.9758    3.0000 
3772.5000 -999.0000   -5.9824    7.3577    0.0073    0.0079    0.0087    0.0342   10.0000    1.9769    3.0000 
3773.0000 -999.0000   -5.9824    5.9762    0.0083    0.0095    0.0108    0.0308   10.0000    1.9749    3.0000 
3773.5000 -999.0000   -5.9601    8.7092    0.0094    0.0105    0.0120    0.0286    9.9576    1.9748    3.0000 
3774.0000 -999.0000   -5.9601    8.4990    0.0067    0.0083    0.0092    0.0300   10.0000    1.9812    3.0000 
3774.5000 -999.0000   -5.9601    9.4601    0.0084    0.0099    0.0113    0.0327   10.0000    1.9861    3.0000 
3775.0000 -999.0000   -5.9824    8.1987    0.0066    0.0083    0.0094    0.0388    9.9094    1.9846    3.0000 
3775.5000 -999.0000   -5.9601   10.1207    0.0064    0.0081    0.0093    0.0387    9.9122    1.9800    3.0000 
3776.0000 -999.0000   -5.9601   10.3309    0.0069    0.0078    0.0087    0.0394   10.0000    1.9793    3.0000 
3776.5000 -999.0000   -5.9824    9.3398    0.0071    0.0074    0.0079    0.0413    9.9763    1.9807    3.0000 
3777.0000 -999.0000   -5.9601    8.0485    0.0090    0.0093    0.0103    0.0453    9.9719    1.9801    3.0000 
3777.5000 -999.0000   -5.9601    7.3577    0.0098    0.0095    0.0102    0.0466    9.9976    1.9791    3.0000 
3778.0000 -999.0000   -5.9712    8.3488    0.0076    0.0085    0.0094    0.0483    9.9540    1.9813    3.0000 
3778.5000 -999.0000   -5.9824    8.4389    0.0083    0.0088    0.0098    0.0557   10.0000    1.9830    3.0000 
3779.0000 -999.0000   -5.9601    8.4991    0.0077    0.0083    0.0089    0.0770    9.9932    1.9821    3.0000 
3779.5000 -999.0000   -5.9601    8.2288    0.0087    0.0090    0.0097    0.0964   10.0000    1.9786    3.0000 
3780.0000 -999.0000   -5.9712    9.1897    0.0098    0.0096    0.0105    0.1184   10.0000    1.9799    3.0000 
3780.5000 -999.0000   -5.9824    9.3698    0.0082    0.0084    0.0090    0.1340    9.9928    1.9846    3.0000 
3781.0000 -999.0000   -5.9601   10.6913    0.0079    0.0083    0.0091    0.1510    9.9560    1.9894    3.0000 
3781.5000 -999.0000   -5.9601    9.2498    0.0105    0.0111    0.0126    0.1662   10.0000    1.9879    3.0000 
3782.0000 -999.0000   -5.9601    9.0697    0.0092    0.0088    0.0095    0.1738    9.9796    1.9857    3.0000 
3782.5000 -999.0000   -5.9601    8.4689    0.0096    0.0102    0.0114    0.1829    9.8825    1.9834    3.0000 
3783.0000 -999.0000   -5.9601    9.9104    0.0088    0.0090    0.0097    0.1779   10.0000    1.9800    3.0000 
3783.5000 -999.0000   -5.9601    8.4089    0.0078    0.0083    0.0088    0.1655    9.9860    1.9735    3.0000 
3784.0000 -999.0000   -5.9601   10.0605    0.0116    0.0102    0.0108    0.1687    9.9556    1.9700    3.0000 
3784.5000 -999.0000   -5.9712    9.6400    0.0114    0.0095    0.0097    0.1878    9.9778    1.9742    3.0000 
3785.0000 -999.0000   -5.9601   13.9646    0.0086    0.0081    0.0084    0.1962   10.0000    1.9823    3.0000 
3785.5000 -999.0000   -5.9490   12.4931    0.0086    0.0080    0.0085    0.1947    9.9818    1.9866    3.0000 
3786.0000 -999.0000   -5.9601   14.8357    0.0085    0.0067    0.0064    0.1846    9.9285    1.9866    3.0000 
3786.5000 -999.0000   -5.9601   14.5353    0.0051    0.0053    0.0049    0.2024   10.0000    1.9864    3.0000 
3787.0000 -999.0000   -5.9601   17.7187    0.0073    0.0086    0.0098    0.1905   10.0000    1.9869    3.0000 
3787.5000 -999.0000   -5.9601   16.0068    0.0082    0.0097    0.0111    0.1762   10.0000    1.9902    3.0000 
3788.0000 -999.0000   -5.9601   17.0280    0.0071    0.0081    0.0089    0.1589   10.0000    1.9886    3.0000 
3788.5000 -999.0000   -5.9601   14.2650    0.0077    0.0088    0.0099    0.1491    9.8773    1.9894    3.0000 
3789.0000 -999.0000   -5.9601   14.2950    0.0070    0.0079    0.0088    0.1391    9.9646    1.9895    3.0000 
3789.5000 -999.0000   -5.9824   10.7512    0.0081    0.0086    0.0097    0.1360    9.9874    1.9901    3.0000 
3790.0000 -999.0000   -5.9601   10.1507    0.0083    0.0089    0.0102    0.1343   10.0000    1.9862    3.0000 
3790.5000 -999.0000   -5.9824   11.5921    0.0074    0.0084    0.0094    0.1377   10.0000    1.9819    3.0000 
3791.0000 -999.0000   -5.9712   12.4930    0.0071    0.0077    0.0085    0.1200    9.9752    1.9808    3.0000 
3791.5000 -999.0000   -5.9601   11.2018    0.0083    0.0087    0.0099    0.1239    9.9645    1.9832    3.0000 
3792.0000 -999.0000   -5.9601    8.3188    0.0072    0.0075    0.0082    0.1176    9.9870    1.9811    3.0000 
3792.5000 -999.0000   -5.9601    6.9974    0.0080    0.0084    0.0092    0.1223    9.9817    1.9765    3.0000 
3793.0000 -999.0000   -5.9601    7.8082    0.0094    0.0104    0.0121    0.1179   10.0000    1.9710    3.0000 
3793.5000 -999.0000   -5.9824    9.2197    0.0064    0.0067    0.0071    0.1210    9.9018    1.9716    3.0000 
3794.0000 -999.0000   -5.9601   10.7814    0.0079    0.0089    0.0103    0.1259   10.0000    1.9737    3.0000 
3794.5000 -999.0000   -5.9601   11.8626    0.0085    0.0088    0.0100    0.1279    9.9623    1.9776    3.0000 
3795.0000 -999.0000   -5.9824   12.8535    0.0079    0.0090    0.0106    0.1276   10.0000    1.9803    3.0000 
3795.5000 -999.0000   -5.9601   13.8145    0.0060    0.0064    0.0068    0.1207    9.9518    1.9817    3.0000 
3796.0000 -999.0000   -5.9712   14.6553    0.0076    0.0078    0.0085    0.1143   10.0000    1.9802    3.0000 
3796.5000 -999.0000   -5.9601   11.9826    0.0064    0.0061    0.0062    0.1080   10.0000    1.9778    3.0000 
3797.0000 -999.0000   -5.9601   10.3008    0.0077    0.0082    0.0093    0.1082    9.9915    1.9780    3.0000 
3797.5000 -999.0000   -5.9824    7.4179    0.0076    0.0089    0.0103    0.1105    9.9670    1.9813    3.0000 
3798.0000 -999.0000   -5.9601    8.4090    0.0063    0.0070    0.0076    0.1110    9.9847    1.9837    3.0000 
