~VERSION INFORMATION
 VERS.                 2.0:   CWLS LOG ASCII STANDARD - VERSION 2.0
 WRAP.                  NO:   SINGLE LINE PER DEPTH STEP
 CREA.                 20/03/2018 14:41:29
#CREATED USING DSPetro VERSION 5000.10.1.3 BY H191660 ON 20/03/2018 14:41:29
~WELL INFORMATION
#MNEM.UNIT       DATA                          DESCRIPTION MNEMONIC
#---------      ---------------------------   --------------------------
 STRT    .FT        325.3294                  : START DEPTH
 STOP    .FT        12308.5971                : STOP DEPTH
 STEP    .FT        1.6404                    : STEP VALUE
 NULL    .      -999.0000                     : NULL VALUE
 DATE    .      20/03/2018                    : LAS file Creation Date
 WELL .      UNIVERSITY_19-5             : Well Name
 COMP .      Neftex Exploration Insights : Company
 FLD  .      PHANTOM (WOLFCAMP)          : Field
 UWI  .      208                         : Unique Well Identifier (UWI)
 LOC  .                                  : Location
 RWS  .      -999                        : Def_Rw
 WST  .      -999                        : Def_Rwt
 SRVC .                                  : Contractor
~CURVE INFORMATION
#MNEM              UNIT       API CODE   Curve Type Comments
#----------  --------------- ----------  ---------- -----------
 DEPTH      .FT                        : Depth       
 DEPTH      .FT                        : Depth       
 BS         .inch                      : BitSize     
 CAL_INCH   .inch                      :             Caliper Log - A representation of the measured diameter of a borehole along its depth
 GR_API     .API                       : GammaRay    Gamma Ray (API) - Measures the intensity of natural gamma-ray radiation emitted from formations containing radioactive elements, such as K, Th and U
 SGR_API    .API                       : GammaRay    Spectral Gamma Ray - Total gamma calibrated to API, measured using a spectoral gamma array tool
 CGR_API    .API                       : GammaRay    Corrected / Computed Gamma Ray - Radiation with the Uranium component removed. Also known as a 'carbonate gamma ray'
 TH_PPM     .ppm                       : Spectral    Thorium Abundance (SGR) - The quantitative elemental abundace of Thorium derived from the Spectral Gamma Ray Log
 K_per        .PC                        :             Potassium Abundance (SGR) - The quantitative elemental abundace of Potassium derived from the Spectral Gamma Ray Log. Also wt_%
 U_PPM      .ppm                       :             Uranium Abundance (SGR) - The quantitative elemental abundace of Uranium derived from the Spectral Gamma Ray Log
 ThK        .PPM                       : Spectral    
 ThU        .PPM                       : Spectral    
 SRES       .ohmm                      :             10" array induction, two foot resistivity
 MRES       .ohm.m                     :             30" array induction, two foot resistivity
 DRES       .ohmm                      :             90" array induction, two foot resistivity log - units of ohmm
 DT_US_FT   .us/ft                     :             Interval Transit Time: Compressional Wave - Evaluates the time it takes for a compressional wave to traverse a fixed distance
 NPHI_RATIO .ratio                     :             Neutron Porosity - Measured with an neutron logging device calibrated to a given matrix (limestone, sandstone and dolomite)
 RHOB_G_CC  .g/cc                      :             Bulk Density - Measures the density of bulk material, including any void space or other materials contained in the subject volume
 DRHO_G_CC  .g/cc                      :             Density Correction - Investigates the correction to the Bulk Density log; used as an indication of hole condition to validate the Bulk Density measure
 PEF_B_E    .b/e-                      : PEF         Photoelectric Factor - A log of photoelectric absorption properties. Often expressed in an approximation unit barns/electron (b/e-)
 LITH       .                          : LITH        Lithology Curve
~A  DEPTH   DEPTH       BS     CAL_INCH   GR_API   SGR_API   CGR_API    TH_PPM     K_per      U_PPM      ThK       ThU       SRES      MRES      DRES    DT_US_FT NPHI_RAT~ RHOB_G_C~ DRHO_G_C~  PEF_B_E     LITH   
# ...
5436.8780 5436.8780   12.2500 -999.0000  112.9214 -999.0000 -999.0000    9.9274 -999.0000    5.6112 -999.0000 -999.0000    2.6095   10.7058   15.1905   70.0781    0.1663    2.5423    0.0014    2.7381   37.0000 
5438.5184 5438.5184   12.2500 -999.0000   64.7803 -999.0000 -999.0000    6.7538 -999.0000    2.2254 -999.0000 -999.0000    2.4390    6.1250    7.3691   67.2263    0.1080    2.5564   -0.0026    2.6636   27.0000 
5440.1588 5440.1588   12.2500 -999.0000   56.8522 -999.0000 -999.0000    6.5185 -999.0000    1.8508 -999.0000 -999.0000    2.4393    6.5060    7.8746   65.5729    0.0642    2.6018    0.0177    2.6437   27.0000 
5441.7992 5441.7992   12.2500 -999.0000   40.5144 -999.0000 -999.0000    4.5773 -999.0000    0.6393 -999.0000 -999.0000    2.5295    9.1470   12.6207   62.6491    0.0360    2.5809    0.0008    2.9944   27.0000 
5443.4396 5443.4396   12.2500 -999.0000   38.8427 -999.0000 -999.0000    3.9880 -999.0000    0.5749 -999.0000 -999.0000    2.2455    4.8829    5.8693   65.9936    0.0690    2.5208   -0.0030    2.7616   27.0000 
5445.0801 5445.0801   12.2500 -999.0000   45.1752 -999.0000 -999.0000    3.8398 -999.0000    1.2001 -999.0000 -999.0000    2.2063    4.5946    5.4148   66.9759    0.0885    2.5308   -0.0027    2.9356   27.0000 
5446.7205 5446.7205   12.2500 -999.0000   58.1558 -999.0000 -999.0000    4.9381 -999.0000    2.4436 -999.0000 -999.0000    2.2966    5.2074    6.2658   68.4164    0.1050    2.5297   -0.0015    2.5968   27.0000 
5448.3609 5448.3609   12.2500 -999.0000   54.2685 -999.0000 -999.0000    5.7987 -999.0000    2.5762 -999.0000 -999.0000    2.3836    5.8943    7.3057   67.5384    0.0957    2.5674    0.0027    2.4530   36.0000 
5450.0013 5450.0013   12.2500 -999.0000   65.1763 -999.0000 -999.0000    6.6456 -999.0000    2.6203 -999.0000 -999.0000    2.4130    6.5157    8.3464   66.8754    0.0887    2.5713    0.0006    2.6331   36.0000 
5451.6417 5451.6417   12.2500 -999.0000   60.1136 -999.0000 -999.0000    6.6735 -999.0000    2.3029 -999.0000 -999.0000    2.1822    3.8225    4.4658   69.1259    0.1172    2.5621    0.0041    2.7309   36.0000 
5453.2822 5453.2822   12.2500 -999.0000   41.9937 -999.0000 -999.0000    5.2390 -999.0000    0.7068 -999.0000 -999.0000    2.4334    7.5772    9.8118   61.7813    0.0281    2.6363    0.0113    3.0405   27.0000 
5454.9226 5454.9226   12.2500 -999.0000   53.4473 -999.0000 -999.0000    7.1935 -999.0000    0.6640 -999.0000 -999.0000    2.4409    6.4902    7.7598   65.8700    0.0741    2.5667    0.0012    2.6292   27.0000 
5456.5630 5456.5630   12.2500 -999.0000   52.3822 -999.0000 -999.0000    7.1218 -999.0000    0.9990 -999.0000 -999.0000    2.4454    6.6994    7.8655   66.3678    0.0787    2.5747    0.0053    2.6667   27.0000 
5458.2034 5458.2034   12.2500 -999.0000   62.9543 -999.0000 -999.0000    8.0111 -999.0000    1.4378 -999.0000 -999.0000    2.4712    7.0537    8.2687   67.0528    0.0941    2.5475   -0.0019    2.6459   27.0000 
5459.8438 5459.8438   12.2500 -999.0000   78.2131 -999.0000 -999.0000    9.0183 -999.0000    3.9604 -999.0000 -999.0000    2.6263   11.5408   16.6014   68.7269    0.1154    2.5414   -0.0069    2.7504   36.0000 
5461.4843 5461.4843   12.2500 -999.0000  103.4099 -999.0000 -999.0000   11.5510 -999.0000    4.8492 -999.0000 -999.0000    2.6786   11.5251   16.0402   71.0465    0.1346    2.5602   -0.0002    2.7789   36.0000 
5463.1247 5463.1247   12.2500 -999.0000   97.4257 -999.0000 -999.0000    9.9522 -999.0000    4.9147 -999.0000 -999.0000    2.7133   14.8861   24.2363   69.9644    0.1571    2.5830    0.0002    2.9641   37.0000 
5464.7651 5464.7651   12.2500 -999.0000   73.4606 -999.0000 -999.0000    8.6183 -999.0000    3.4129 -999.0000 -999.0000    2.7610   13.5277   18.6192   66.2988    0.1141    2.6143    0.0015    2.8846   37.0000 
5466.4055 5466.4055   12.2500 -999.0000   79.7054 -999.0000 -999.0000    9.0334 -999.0000    2.7660 -999.0000 -999.0000    2.7686   16.5911   25.6276   66.2432    0.1300    2.6396    0.0017    2.8718   37.0000 
5468.0459 5468.0459   12.2500 -999.0000   81.7925 -999.0000 -999.0000   10.2827 -999.0000    3.3515 -999.0000 -999.0000    2.8253   17.2368   27.8601   65.7878    0.1359    2.6427    0.0017    2.9326   37.0000 
5469.6864 5469.6864   12.2500 -999.0000   71.4293 -999.0000 -999.0000    6.2686 -999.0000    5.9726 -999.0000 -999.0000    2.8294   16.1962   27.4881   64.6714    0.1181    2.6762    0.0042    2.9735   37.0000 
5471.3268 5471.3268   12.2500 -999.0000  115.9496 -999.0000 -999.0000    9.4401 -999.0000    9.5097 -999.0000 -999.0000    2.9196   21.5029   51.3595   73.4931    0.2276    2.6127    0.0030    3.0600   37.0000 
5472.9672 5472.9672   12.2500 -999.0000  108.9663 -999.0000 -999.0000    6.6401 -999.0000    7.2902 -999.0000 -999.0000    2.5666    8.0964   11.4467   72.0243    0.1507    2.5442    0.0001    2.9384   37.0000 
5474.6076 5474.6076   12.2500 -999.0000   39.5621 -999.0000 -999.0000    3.4137 -999.0000    2.5617 -999.0000 -999.0000    2.4102    6.2277    7.9560   65.2810    0.0612    2.5337   -0.0004    2.7222   27.0000 
5476.2480 5476.2480   12.2500 -999.0000   43.3297 -999.0000 -999.0000    4.1445 -999.0000    1.7367 -999.0000 -999.0000    2.1846    4.8697    5.3952   66.8642    0.0913    2.5104   -0.0045    2.7618   27.0000 
5477.8885 5477.8885   12.2500 -999.0000   49.4087 -999.0000 -999.0000    5.1610 -999.0000    1.8397 -999.0000 -999.0000    2.3688    5.7017    6.7819   66.4172    0.0860    2.5629    0.0044    2.6946   36.0000 
5479.5289 5479.5289   12.2500 -999.0000   83.6341 -999.0000 -999.0000    9.2771 -999.0000    2.3179 -999.0000 -999.0000    2.6521    9.2591   13.5026   68.8316    0.1282    2.5885    0.0056    2.5450   36.0000 
5481.1693 5481.1693   12.2500 -999.0000   59.5752 -999.0000 -999.0000    6.0102 -999.0000    1.6731 -999.0000 -999.0000    2.4722    6.1581    7.5146   68.4467    0.1066    2.5471    0.0004    2.5403   36.0000 
5482.8097 5482.8097   12.2500 -999.0000   56.8238 -999.0000 -999.0000    6.0650 -999.0000    2.1239 -999.0000 -999.0000    2.4954    6.3564    7.7417   68.4024    0.1123    2.5343    0.0010    2.5369   36.0000 
5484.4501 5484.4501   12.2500 -999.0000   64.3691 -999.0000 -999.0000    5.5620 -999.0000    4.1862 -999.0000 -999.0000    2.5533    6.7810    8.8322   69.1672    0.1155    2.5243   -0.0035    2.6016   36.0000 
5486.0906 5486.0906   12.2500 -999.0000  140.8718 -999.0000 -999.0000   12.7750 -999.0000    9.9636 -999.0000 -999.0000    2.9334   18.0445   34.0990   78.3822    0.2838    2.4908   -0.0062    3.1732   37.0000 
5487.7310 5487.7310   12.2500 -999.0000   92.7213 -999.0000 -999.0000    8.0212 -999.0000    5.5012 -999.0000 -999.0000    2.7308    8.6663   10.6470   70.9518    0.1315    2.6166    0.0095    2.8733   37.0000 
5489.3714 5489.3714   12.2500 -999.0000   67.2927 -999.0000 -999.0000    8.0591 -999.0000    3.9145 -999.0000 -999.0000    2.6301    8.7452   10.7719   69.7607    0.1440    2.5827    0.0053    2.8062   36.0000 
5491.0118 5491.0118   12.2500 -999.0000   62.8433 -999.0000 -999.0000    8.1942 -999.0000    2.5955 -999.0000 -999.0000    2.5331    7.4850    9.0315   68.9855    0.1271    2.5673    0.0016    2.7315   36.0000 
5492.6522 5492.6522   12.2500 -999.0000   56.6455 -999.0000 -999.0000    7.6133 -999.0000    2.2039 -999.0000 -999.0000    2.3180    4.9288    5.7669   69.6827    0.1088    2.5555   -0.0116    2.6659   36.0000 
5494.2927 5494.2927   12.2500 -999.0000   71.2121 -999.0000 -999.0000    9.4590 -999.0000    1.6232 -999.0000 -999.0000    2.1977    4.3633    5.2169   72.7570    0.1374    2.5021   -0.0028    2.5462   36.0000 
5495.9331 5495.9331   12.2500 -999.0000   58.7704 -999.0000 -999.0000    8.5316 -999.0000    1.6839 -999.0000 -999.0000    2.0805    3.6525    4.2960   73.8317    0.1764    2.4847   -0.0015    2.5000   36.0000 
5497.5735 5497.5735   12.2500 -999.0000   58.1377 -999.0000 -999.0000    7.5853 -999.0000    1.7699 -999.0000 -999.0000    1.8326    3.0842    3.6343   74.2352    0.1588    2.5144    0.0069    2.4316   36.0000 
