~VERSION INFORMATION
 VERS.                 2.0:   CWLS LOG ASCII STANDARD - VERSION 2.0
 WRAP.                  NO:   SINGLE LINE PER DEPTH STEP
 CREA.                 20/03/2018 14:41:29
#CREATED USING DSPetro VERSION 5000.10.1.3 BY H191660 ON 20/03/2018 14:41:29
~WELL INFORMATION
#MNEM.UNIT       DATA                          DESCRIPTION MNEMONIC
#---------      ---------------------------   --------------------------
 STRT    .FT        325.3294                  : START DEPTH
 STOP    .FT        12308.5971                : STOP DEPTH
 STEP    .FT        1.6404                    : STEP VALUE
 NULL    .      -999.0000                     : NULL VALUE
 DATE    .      20/03/2018                    : LAS file Creation Date
 WELL .      UNIVERSITY_19-5             : Well Name
 COMP .      Neftex Exploration Insights : Company
 FLD  .      PHANTOM (WOLFCAMP)          : Field
 UWI  .      208                         : Unique Well Identifier (UWI)
 LOC  .                                  : Location
 RWS  .      -999                        : Def_Rw
 WST  .      -999                        : Def_Rwt
 SRVC .                                  : Contractor
~CURVE INFORMATION
#MNEM              UNIT       API CODE   Curve Type Comments
#----------  --------------- ----------  ---------- -----------
 DEPTH      .FT                        : Depth       
 DEPTH      .FT                        : Depth       
 BS         .inch                      : BitSize     
 CAL_INCH   .inch                      :             Caliper Log - A representation of the measured diameter of a borehole along its depth
 GR_API     .API                       : GammaRay    Gamma Ray (API) - Measures the intensity of natural gamma-ray radiation emitted from formations containing radioactive elements, such as K, Th and U
 SGR_API    .API                       : GammaRay    Spectral Gamma Ray - Total gamma calibrated to API, measured using a spectoral gamma array tool
 CGR_API    .API                       : GammaRay    Corrected / Computed Gamma Ray - Radiation with the Uranium component removed. Also known as a 'carbonate gamma ray'
 TH_PPM     .ppm                       : Spectral    Thorium Abundance (SGR) - The quantitative elemental abundace of Thorium derived from the Spectral Gamma Ray Log
 K_per        .PC                        :             Potassium Abundance (SGR) - The quantitative elemental abundace of Potassium derived from the Spectral Gamma Ray Log. Also wt_%
 U_PPM      .ppm                       :             Uranium Abundance (SGR) - The quantitative elemental abundace of Uranium derived from the Spectral Gamma Ray Log
 ThK        .PPM                       : Spectral    
 ThU        .PPM                       : Spectral    
 SRES       .ohmm                      :             10" array induction, two foot resistivity
 MRES       .ohm.m                     :             30" array induction, two foot resistivity
 DRES       .ohmm                      :             90" array induction, two foot resistivity log - units of ohmm
 DT_US_FT   .us/ft                     :             Interval Transit Time: Compressional Wave - Evaluates the time it takes for a compressional wave to traverse a fixed distance
 NPHI_RATIO .ratio                     :             Neutron Porosity - Measured with an neutron logging device calibrated to a given matrix (limestone, sandstone and dolomite)
 RHOB_G_CC  .g/cc                      :             Bulk Density - Measures the density of bulk material, including any void space or other materials contained in the subject volume
 DRHO_G_CC  .g/cc                      :             Density Correction - Investigates the correction to the Bulk Density log; used as an indication of hole condition to validate the Bulk Density measure
 PEF_B_E    .b/e-                      : PEF         Photoelectric Factor - A log of photoelectric absorption properties. Often expressed in an approximation unit barns/electron (b/e-)
 LITH       .                          : LITH        Lithology Curve
~A  DEPTH   DEPTH       BS     CAL_INCH   GR_API   SGR_API   CGR_API    TH_PPM     K_per      U_PPM      ThK       ThU       SRES      MRES      DRES    DT_US_FT NPHI_RAT~ RHOB_G_C~ DRHO_G_C~  PEF_B_E     LITH   
# ...
8366.6680 8366.6680   12.2500 -999.0000   37.0400 -999.0000 -999.0000    2.6725 -999.0000    1.5439 -999.0000 -999.0000    2.5206   10.3753   12.0895   62.8584    0.0455    2.5803    0.0047    2.7394   27.0000 
8368.3084 8368.3084   12.2500 -999.0000   47.4068 -999.0000 -999.0000    3.8834 -999.0000    2.5279 -999.0000 -999.0000    2.6216    9.4203   10.8592   65.1178    0.0935    2.5312    0.0014    2.6523   27.0000 
8369.9488 8369.9488   12.2500 -999.0000   87.5783 -999.0000 -999.0000    7.5048 -999.0000    4.9081 -999.0000 -999.0000    2.8640   26.4178   63.7013   65.7631    0.1386    2.6142    0.0052    2.9251   37.0000 
8371.5892 8371.5892   12.2500 -999.0000   95.3182 -999.0000 -999.0000    8.0302 -999.0000    5.8980 -999.0000 -999.0000    3.0146   42.1920  374.8692   66.0630    0.1580    2.5819   -0.0065    3.1628   37.0000 
8373.2297 8373.2297   12.2500 -999.0000   75.3757 -999.0000 -999.0000    6.4474 -999.0000    4.9888 -999.0000 -999.0000    3.0341   43.2663  436.8405   62.0559    0.1090    2.6356   -0.0030    3.3815   37.0000 
8374.8701 8374.8701   12.2500 -999.0000   97.1893 -999.0000 -999.0000    8.0761 -999.0000    5.8348 -999.0000 -999.0000    2.9400   35.3863  154.5178   66.3953    0.1211    2.5900    0.0000    2.8361   37.0000 
8376.5105 8376.5105   12.2500 -999.0000   71.0824 -999.0000 -999.0000    6.1890 -999.0000    3.5830 -999.0000 -999.0000    2.9352   32.0198   96.5485   63.7808    0.0895    2.5916   -0.0009    2.6370   37.0000 
8378.1509 8378.1509   12.2500 -999.0000   45.0110 -999.0000 -999.0000    4.4077 -999.0000    2.0014 -999.0000 -999.0000    2.9620   38.0662  155.4657   58.4042    0.0265    2.6479    0.0014    3.2032   36.0000 
8379.7913 8379.7913   12.2500 -999.0000   62.4609 -999.0000 -999.0000    6.2000 -999.0000    2.2026 -999.0000 -999.0000    2.9799   33.8099   99.0206   61.1763    0.0445    2.6218   -0.0004    2.8031   36.0000 
8381.4318 8381.4318   12.2500 -999.0000   82.8014 -999.0000 -999.0000    7.2509 -999.0000    3.1579 -999.0000 -999.0000    2.8896   28.5487   65.4659   62.6083    0.0834    2.6324    0.0011    2.7850   36.0000 
8383.0722 8383.0722   12.2500 -999.0000   78.6968 -999.0000 -999.0000    6.0207 -999.0000    4.3590 -999.0000 -999.0000    2.9015   28.0532   61.4387   63.6422    0.0672    2.5927    0.0001    2.4767   36.0000 
8384.7126 8384.7126   12.2500 -999.0000  117.7686 -999.0000 -999.0000    8.1077 -999.0000    8.4570 -999.0000 -999.0000    2.9130   36.1156  160.1830   67.6656    0.1361    2.5830    0.0032    2.6597   37.0000 
8386.3530 8386.3530   12.2500 -999.0000  113.3875 -999.0000 -999.0000    6.8562 -999.0000    8.4764 -999.0000 -999.0000    2.8709   38.2524  325.6281   66.2290    0.1111    2.5655   -0.0008    2.9408   37.0000 
8387.9934 8387.9934   12.2500 -999.0000  107.6738 -999.0000 -999.0000    6.7851 -999.0000    8.1296 -999.0000 -999.0000    2.9448   37.5663  355.0808   63.9828    0.0982    2.5869   -0.0030    3.1590   37.0000 
8389.6339 8389.6339   12.2500 -999.0000  110.3146 -999.0000 -999.0000    7.5513 -999.0000    8.3675 -999.0000 -999.0000    2.8763   36.5773  308.5005   64.3266    0.0667    2.6339    0.0056    3.0598   37.0000 
8391.2743 8391.2743   12.2500 -999.0000  115.4074 -999.0000 -999.0000    8.5511 -999.0000    8.6826 -999.0000 -999.0000    2.7733   30.9325  172.1992   66.4168    0.1250    2.6132    0.0050    2.9322   37.0000 
8392.9147 8392.9147   12.2500 -999.0000   80.3242 -999.0000 -999.0000    6.2570 -999.0000    5.4011 -999.0000 -999.0000    2.7186   30.3659  159.6424   62.9315    0.0724    2.6577    0.0195    3.2587   37.0000 
8394.5551 8394.5551   12.2500 -999.0000   77.3219 -999.0000 -999.0000    6.7818 -999.0000    4.5365 -999.0000 -999.0000    2.6774   24.7638   88.2443   62.7578    0.0746    2.6365    0.0035    2.8614   36.0000 
8396.1955 8396.1955   12.2500 -999.0000   52.3550 -999.0000 -999.0000    5.0415 -999.0000    2.7821 -999.0000 -999.0000    2.6452   21.8545   63.1689   60.6911    0.0285    2.6246    0.0001    2.9464   36.0000 
8397.8360 8397.8360   12.2500 -999.0000   52.4675 -999.0000 -999.0000    5.3140 -999.0000    2.0135 -999.0000 -999.0000    2.6150   18.4708   39.9308   61.7589    0.0582    2.5909    0.0000    2.7315   36.0000 
8399.4764 8399.4764   12.2500 -999.0000   57.2957 -999.0000 -999.0000    6.4128 -999.0000    1.6778 -999.0000 -999.0000    2.6233   17.7137   35.7541   64.8498    0.0732    2.5547   -0.0017    2.6894   36.0000 
8401.1168 8401.1168   12.2500 -999.0000   49.6746 -999.0000 -999.0000    6.2937 -999.0000    2.0920 -999.0000 -999.0000    2.6502   18.7334   39.3165   63.8899    0.0739    2.5788    0.0011    2.7766   27.0000 
8402.7572 8402.7572   12.2500 -999.0000   75.4837 -999.0000 -999.0000    9.4243 -999.0000    2.9617 -999.0000 -999.0000    2.5961   14.3302   25.4226   65.2246    0.1012    2.5886   -0.0054    2.9220   36.0000 
8404.3976 8404.3976   12.2500 -999.0000   69.4141 -999.0000 -999.0000    7.6254 -999.0000    1.7826 -999.0000 -999.0000    2.5368   11.3478   16.9444   66.6027    0.0993    2.5243   -0.0070    2.6086   36.0000 
8406.0381 8406.0381   12.2500 -999.0000   59.9137 -999.0000 -999.0000    7.1009 -999.0000    1.8634 -999.0000 -999.0000    2.5157   10.9445   16.3268   66.7681    0.0998    2.5242   -0.0040    2.5935   36.0000 
8407.6785 8407.6785   12.2500 -999.0000   68.4645 -999.0000 -999.0000    8.0675 -999.0000    1.9153 -999.0000 -999.0000    2.5140   10.3830   16.0019   67.2899    0.1128    2.5180   -0.0041    2.4634   36.0000 
8409.3189 8409.3189   12.2500 -999.0000   58.8535 -999.0000 -999.0000    6.0446 -999.0000    2.4207 -999.0000 -999.0000    2.6312   13.9553   26.3347   63.6042    0.0837    2.6075    0.0125    2.6464   36.0000 
8410.9593 8410.9593   12.2500 -999.0000   51.2773 -999.0000 -999.0000    4.6256 -999.0000    2.0659 -999.0000 -999.0000    2.5802   11.8276   20.7670   64.8367    0.0606    2.5604    0.0015    2.6075   36.0000 
8412.5997 8412.5997   12.2500 -999.0000   66.3906 -999.0000 -999.0000    5.8074 -999.0000    2.5042 -999.0000 -999.0000    2.4949    9.2449   14.5174   67.4771    0.1273    2.5391    0.0051    2.3942   36.0000 
8414.2402 8414.2402   12.2500 -999.0000   55.0740 -999.0000 -999.0000    5.4124 -999.0000    1.3265 -999.0000 -999.0000    2.4554    8.4862   12.9540   65.3582    0.0768    2.5645    0.0037    2.7923   36.0000 
8415.8806 8415.8806   12.2500 -999.0000   39.3042 -999.0000 -999.0000    5.2038 -999.0000    0.9069 -999.0000 -999.0000    2.4234   13.1054   20.7152   62.2359    0.0284    2.5752   -0.0024    2.8175   27.0000 
8417.5210 8417.5210   12.2500 -999.0000   46.0030 -999.0000 -999.0000    5.3948 -999.0000    1.1870 -999.0000 -999.0000    2.2711    6.6882    8.6446   65.7853    0.0564    2.5473   -0.0013    2.6703   27.0000 
8419.1614 8419.1614   12.2500 -999.0000   63.0353 -999.0000 -999.0000    7.9367 -999.0000    2.4707 -999.0000 -999.0000    2.2272    6.7729    9.2704   68.5399    0.0955    2.5119   -0.0056    2.5435   36.0000 
8420.8018 8420.8018   12.2500 -999.0000   93.4531 -999.0000 -999.0000    8.7829 -999.0000    3.7643 -999.0000 -999.0000    2.5462   12.1970   21.6983   66.4569    0.0893    2.5527   -0.0053    2.5867   36.0000 
8422.4423 8422.4423   12.2500 -999.0000   66.7198 -999.0000 -999.0000    7.5723 -999.0000    2.9307 -999.0000 -999.0000    2.5485   12.7148   23.7808   66.1816    0.0827    2.5711    0.0000    2.5735   36.0000 
8424.0827 8424.0827   12.2500 -999.0000   58.6376 -999.0000 -999.0000    7.2182 -999.0000    2.0430 -999.0000 -999.0000    2.6093   14.7612   27.6893   63.7105    0.0641    2.5943   -0.0042    3.3770   22.0000 
8425.7231 8425.7231   12.2500 -999.0000   53.0045 -999.0000 -999.0000    6.5815 -999.0000    1.7322 -999.0000 -999.0000    2.5727   11.7394   19.4759   66.3037    0.0686    2.5253   -0.0048    2.4668   36.0000 
8427.3635 8427.3635   12.2500 -999.0000   60.7772 -999.0000 -999.0000    6.5762 -999.0000    2.1891 -999.0000 -999.0000    2.6490   13.1027   22.0747   66.8862    0.0964    2.5324   -0.0032    2.4883   36.0000 
