~VERSION INFORMATION
 VERS.                 2.0:   CWLS LOG ASCII STANDARD - VERSION 2.0
 WRAP.                  NO:   SINGLE LINE PER DEPTH STEP
 CREA.                 20/03/2018 14:55:32
#CREATED USING DSPetro VERSION 5000.10.1.3 BY H191660 ON 20/03/2018 14:55:32
~WELL INFORMATION
#MNEM.UNIT       DATA                          DESCRIPTION MNEMONIC
#---------      ---------------------------   --------------------------
 STRT    .FT        10799.4984                : START DEPTH
 STOP    .FT        13010.9983                : STOP DEPTH
 STEP    .FT        0.5000                    : STEP VALUE
 NULL    .      -999.0000                     : NULL VALUE
 DATE    .      20/03/2018                    : LAS file Creation Date
 WELL  .      UNIVERSITY_21-17             : Well Name
 COMP  .      Neftex Exploration Insights  : Company
 FLD   .                                   : Field
 STATE .      Texas                        : State
 API   .      42475370100000               : API Number
 UWI   .      213                          : Unique Well Identifier (UWI)
 LOC   .                                   : Location
 LATI  .      -6235758.22                  : Latitude/Northing
 LONG  .      777123.41                    : Longitude/Easting
 RWS   .      -999                         : Def_Rw
 WST   .      -999                         : Def_Rwt
 CNTY  .      WARD                         : County
 SRVC  .      Diversified Well Logging LLC : Contractor
~CURVE INFORMATION
#MNEM              UNIT       API CODE   Curve Type Comments
#----------  --------------- ----------  ---------- -----------
 DEPTH      .FT                        : Depth       
 DCAL_INCH  .inch                      :             Differential Caliper - Evaluates the difference between the actual borehole diameter and bit size
 GR_API     .API                       : GammaRay    Gamma Ray (API) - Measures the intensity of natural gamma-ray radiation emitted from formations containing radioactive elements, such as K, Th and U
 CGR_API    .API                       : GammaRay    Corrected / Computed Gamma Ray - Radiation with the Uranium component removed. Also known as a 'carbonate gamma ray'
 K_per        .PC                        :             Potassium Abundance (SGR) - The quantitative elemental abundace of Potassium derived from the Spectral Gamma Ray Log. Also wt_%
 TH_PPM     .ppm                       : Spectral    Thorium Abundance (SGR) - The quantitative elemental abundace of Thorium derived from the Spectral Gamma Ray Log
 U_PPM      .ppm                       :             Uranium Abundance (SGR) - The quantitative elemental abundace of Uranium derived from the Spectral Gamma Ray Log
 RD_OHMM    .ohmm                      :             Unspecified Deep Resistivity - No accroynm or method of attainment is specified - units of ohmm
 RM_OHMM    .ohm.m                     :             Unspecified Medium Resistivity - No accroynm or method of attainment is specified
 MSFL_OHMM  .ohmm                      :             Micro-Spherically Focused Log - Measurement involves only the first few inches of the formation immediately adjacent to the borehole
 NPHI_RATIO .ratio                     :             Neutron Porosity - Measured with an neutron logging device calibrated to a given matrix (limestone, sandstone and dolomite)
 RHOZ_G_CC  .g/cc                      :             Formation Density - Measures the density of formation, including any void space or other materials contained in the subject volume
 PEF_B_E    .b/e-                      : PEF         Photoelectric Factor - A log of photoelectric absorption properties. Often expressed in an approximation unit barns/electron (b/e-)
 LITH       .                          : LITH        Lithology Curve
~A  DEPTH DCAL_INC~   GR_API   CGR_API     K_per      TH_PPM    U_PPM    RD_OHMM   RM_OHMM  MSFL_OHM~ NPHI_RAT~ RHOZ_G_C~  PEF_B_E     LITH   
# ...
11910.9984    0.0099   92.7140   53.4031    1.4726    8.4689    4.2315   35.7989   29.2601   14.1441    0.1843    2.5660    4.0262   37.0000 
11911.4984   -0.0332  101.7817   58.8145    1.6451    9.1909    4.4726   31.4627   23.4920   11.6783    0.2070    2.5456    3.9746   37.0000 
11911.9984   -0.0224  106.8503   60.1259    1.7609    8.9327    4.4403   42.2439   32.7740    6.8488    0.2231    2.5142    3.8365   37.0000 
11912.4984   -0.0547  101.8805   57.5983    1.6734    8.6355    3.8753   58.9462   47.5948    6.8244    0.2130    2.5035    3.6796   37.0000 
11912.9984   -0.0403  100.9435   59.1317    1.6945    9.0026    3.6249   65.9217   55.5090    7.0344    0.1968    2.5034    3.5728   37.0000 
11913.4984   -0.0116  108.7719   63.5071    1.8423    9.5379    3.9572   79.2844   66.6816    7.3733    0.2011    2.5111    3.4968   37.0000 
11913.9984   -0.0224  119.4723   66.3118    1.9486    9.8138    4.1122   66.0113   56.7125    7.0821    0.2057    2.5045    3.4952   37.0000 
11914.4984    0.0315  122.0987   61.6601    1.7593    9.4330    4.5469   51.0513   44.4694    7.4610    0.2125    2.5059    3.4756   37.0000 
11914.9984    0.0889  112.6858   62.1873    1.8014    9.3556    4.6793   47.0881   40.3585    6.4358    0.2035    2.5092    3.4800   37.0000 
11915.4984    0.1104  105.3645   66.5942    1.9519    9.8853    4.7536   56.2339   44.9969    6.8761    0.2074    2.5192    3.4407   37.0000 
11915.9984    0.0099  108.8629   67.2302    2.0053    9.7761    5.4389   41.6401   31.1484    6.1668    0.2186    2.5135    3.4404   37.0000 
11916.4984    0.0386  116.9240   65.8184    1.9835    9.4516    5.2797   50.4448   37.2290    6.1071    0.2283    2.5027    3.4654   37.0000 
11916.9984    0.0207  124.8502   66.4079    1.9857    9.6273    5.6025   49.8904   36.6844    7.6998    0.2248    2.4878    3.5952   37.0000 
11917.4984    0.0530  122.4784   66.0122    1.9648    9.6229    6.0206   57.0227   45.3297    7.4009    0.2384    2.4796    3.7939   37.0000 
11917.9984    0.0458  113.9955   60.6683    1.8071    8.8359    5.9425   46.2387   37.9936    3.9150    0.2456    2.4855    4.0110   37.0000 
11918.4984    0.0099   95.9320   47.8765    1.4818    6.6464    4.9043   54.2352   43.8439    3.5412    0.2149    2.5179    4.1883   37.0000 
11918.9984   -0.0224   78.8108   36.6465    1.1564    4.9573    3.7281  199.2000  162.6392    2.1574    0.1541    2.5631    4.3033   22.0000 
11919.4984   -0.0116   72.1581   31.1858    0.9731    4.2829    3.3746   49.8713   41.3732   27.5838    0.1171    2.5975    4.3880   22.0000 
11919.9984    0.0458   70.6938   34.5648    1.0918    4.6693    3.5404   34.2231   27.6325   11.8361    0.1339    2.5980    4.4590   22.0000 
11920.4984    0.0027   73.0803   35.8013    1.1559    4.6893    3.6334   35.1899   27.7546   12.6562    0.1524    2.6010    4.5767   22.0000 
11920.9984    0.0530   62.5348   32.7755    1.0073    4.5908    3.3338   65.3761   50.6557   16.0091    0.1387    2.6186    4.7892   22.0000 
11921.4984    0.0386   53.6573   26.1928    0.7964    3.7191    2.7955   82.9290   61.5990   18.4319    0.1015    2.6547    5.0318   22.0000 
11921.9984    0.0638   46.7936   23.1620    0.7019    3.3024    2.4395  163.9024  115.6585   13.3932    0.0773    2.6688    5.1085   22.0000 
11922.4984    0.0745   65.4909   31.7153    0.9498    4.5882    3.5566  196.1211  191.3285   27.8076    0.0886    2.6559    4.9446   37.0000 
11922.9984    0.0315   93.5798   47.2958    1.3554    7.1998    5.1466   42.0193   42.0468    6.2864    0.1406    2.6006    4.5485   37.0000 
11923.4984    0.0099  118.0784   56.9399    1.5831    8.9528    6.4721   38.8673   39.8002    7.0284    0.2037    2.5451    4.1743   37.0000 
11923.9984    0.0207  111.6586   52.2862    1.5116    7.8818    5.8379   55.2140   57.3365    8.1034    0.2178    2.5000    3.9448   37.0000 
11924.4984    0.0099   89.6946   41.4564    1.1860    6.3223    4.3674   78.2283   80.6528    5.6625    0.1816    2.5113    3.9681   37.0000 
11924.9984    0.0673   73.3268   38.1427    1.0869    5.8420    3.9303  162.0801  168.4879    2.1958    0.1443    2.5466    4.1171   37.0000 
11925.4984    0.0171   77.6137   42.1902    1.2098    6.4175    3.9984   33.2278   35.9334   19.2395    0.1454    2.5784    4.2478   37.0000 
11925.9984    0.0530   85.5332   48.1834    1.3026    7.7927    4.4202   38.3098   41.6252   11.6420    0.1671    2.5747    4.2512   37.0000 
11926.4984    0.1032   92.9251   47.3826    1.3257    7.4008    4.5574   36.3319   38.9325   16.1918    0.1803    2.5545    4.1876   37.0000 
11926.9984    0.0386   87.7370   46.1257    1.2967    7.1683    4.0860   26.3493   28.2341   12.9327    0.1807    2.5441    4.1365   37.0000 
11927.4984    0.0386   84.6746   45.1811    1.2703    7.0206    3.8894   24.9792   26.9531    8.1706    0.1639    2.5604    4.1547   37.0000 
11927.9984    0.0530   81.1902   48.3749    1.3708    7.4541    3.8582   73.6719   54.4991   13.2507    0.1546    2.5723    4.1737   37.0000 
11928.4984   -0.0116   89.3349   49.6541    1.4199    7.5761    3.9944   92.1141   46.6785    6.7422    0.1622    2.5582    4.0586   37.0000 
11928.9984   -0.0655   92.9253   48.7338    1.4137    7.3180    3.5065  130.2829   76.8818    5.3978    0.1849    2.5320    3.8707   37.0000 
11929.4984   -0.0547   92.0805   45.1924    1.2799    6.9679    3.2584  114.2206   80.9825    7.4976    0.1818    2.5122    3.7101   37.0000 
11929.9984   -0.0403   81.4578   47.9754    1.3078    7.6954    3.5129   98.6069   84.3902    8.1158    0.1781    2.5235    3.6624   37.0000 
11930.4984   -0.0224   81.4577   54.0193    1.4801    8.6203    3.6864   80.7742   84.2514   11.0486    0.1780    2.5380    3.6524   37.0000 
11930.9984    0.0171   84.6536   57.2749    1.5947    8.9912    3.8163   62.3225   69.7826   11.7187    0.2030    2.5423    3.6364   37.0000 
11931.4984    0.0386   96.1213   58.1584    1.6457    8.9752    3.9203   39.3575   44.0076    8.2490    0.2136    2.5304    3.6152   37.0000 
11931.9984    0.0638   98.1982   57.6346    1.6150    8.9873    3.8684   32.6567   36.1097    6.3688    0.2119    2.5130    3.6080   37.0000 
11932.4984    0.0243  101.3520   60.2715    1.7012    9.3261    3.8853   39.2540   40.1206    7.5902    0.2015    2.5022    3.6065   37.0000 
11932.9984   -0.0188  100.9226   61.1710    1.7158    9.5286    4.0131   26.4345   25.0399    5.8509    0.2086    2.4926    3.6464   37.0000 
11933.4984   -0.0044  100.6409   63.4070    1.7224   10.2051    3.7329   31.5300   27.9632    6.3676    0.2194    2.4903    3.7912   37.0000 
11933.9984   -0.0008   91.6299   58.4557    1.6240    9.1968    3.2657   29.5553   24.6242    3.8638    0.1911    2.5057    4.0050   37.0000 
11934.4984   -0.0403   77.6634   52.2135    1.4267    8.3542    2.8374   61.2131   48.3933    3.2215    0.1438    2.5352    4.1552   37.0000 
11934.9984   -0.0619   81.5486   54.5948    1.5103    8.6274    2.8797   84.8757   97.5950    8.6799    0.1272    2.5404    4.1077   37.0000 
11935.4984   -0.0439   82.1122   57.1600    1.6035    8.9028    3.1032   42.6477   51.4561    4.4796    0.1637    2.5289    3.8642   37.0000 
11935.9984    0.0099   88.0816   61.8923    1.7239    9.7122    3.0959   39.8832   48.2142    5.4790    0.2016    2.5143    3.6423   37.0000 
11936.4984    0.0458   85.1535   59.1418    1.5969    9.5754    2.9298   30.7123   37.1960    5.4673    0.2123    2.5161    3.5413   37.0000 
11936.9984    0.0638   87.8244   60.9473    1.6267    9.9786    2.9965   24.9759   30.2334    6.5535    0.2073    2.5244    3.5641   37.0000 
11937.4984    0.0530   89.9646   60.1020    1.5954    9.8911    3.0621   16.2822   19.7470    5.5424    0.1979    2.5190    3.6166   37.0000 
11937.9984    0.0530   91.3167   64.1859    1.7139   10.5046    3.4970   20.1444   24.3505    6.1001    0.1905    2.5138    3.6452   37.0000 
11938.4984   -0.0332   94.0520   67.3609    1.7988   11.0233    3.2368   30.2668   35.9490   10.8359    0.1943    2.4986    3.7061   37.0000 
11938.9984   -0.0116   95.2699   65.5253    1.8009   10.4240    3.4962   24.7036   29.1698    8.4036    0.2048    2.4918    3.8461   37.0000 
