~VERSION INFORMATION
 VERS.                 2.0:   CWLS LOG ASCII STANDARD - VERSION 2.0
 WRAP.                  NO:   SINGLE LINE PER DEPTH STEP
 CREA.                 20/03/2018 14:44:45
#CREATED USING DSPetro VERSION 5000.10.1.3 BY H191660 ON 20/03/2018 14:44:45
~WELL INFORMATION
#MNEM.UNIT       DATA                          DESCRIPTION MNEMONIC
#---------      ---------------------------   --------------------------
 STRT    .FT        300.0092                  : START DEPTH
 STOP    .FT        12601.0092                : STOP DEPTH
 STEP    .FT        0.5000                    : STEP VALUE
 NULL    .      -999.0000                     : NULL VALUE
 DATE    .      20/03/2018                    : LAS file Creation Date
 WELL  .      UNIVERSITY_20_3_1_4230131346 : Well Name
 COMP  .      Chesapeake Operating, Inc.   : Company
 FLD   .      Haley                        : Field
 STATE .      Texas                        : State
 API   .      42-301-31346                 : API Number
 UWI   .      507                          : Unique Well Identifier (UWI)
 LOC   .      1320' FNL & 1320' FWL        : Location
 TOWN  .      20                           : Township
 SCT   .      3                            : Section
 RANG  .      University Lands             : Range
 PDAT  .      GROUND LEVEL                 : Permanent Datum
 EPDAT .      2800.000000                  : Reference Elevation
 LGMEA .      KELLY BUSHING                : Log Measured from
 DRMEA .      KELLY BUSHING                : Drill Measured From
 APDAT .      26.000000                    : Elevation Above Permanent Datum
 KB    .      2826.00000                   : KB Elevation
 GL    .      2800.00000                   : GL Elevation
 RWS   .      -999                         : Def_Rw
 WST   .      -999                         : Def_Rwt
 CNTY  .      Loving                       : County
 SRVC  .      Schlumberger                 : Contractor
~CURVE INFORMATION
#MNEM              UNIT       API CODE   Curve Type Comments
#----------  --------------- ----------  ---------- -----------
 DEPTH      .FT                        : Depth       
 BS         .inch                      : BitSize     
 CAL        .inch                      :             
 GR         .API                       : GammaRay    
 SP_MV      .mv                        : SP          Spontaneous Potential - Records the electrical potential produced by the interaction of formation water, conductive drilling mud, and certain ion-sele
 DRES       .OHMM                      :             
 MRES       .OHMM                      : MedRes      
 SRES       .OHMM                      : ShalRes     
 DRHO       .G/C3                      : Drho        
 NPHI       .CFCF                      : Neutron     
 PEF        .B/E                       : PEF         
 RHOB       .G/C3                      : Density     
 LITH       .                          : LITH        Lithology Curve
~A  DEPTH     BS       CAL        GR      SP_MV      DRES      MRES      SRES      DRHO      NPHI      PEF       RHOB      LITH   
# ...
5206.5092   12.2500   13.9265   70.9065 -999.0000   10.3219    5.7074    3.1250   -0.0035    0.2586    2.9446    2.4888   36.0000 
5207.0092   12.2500   13.9730   62.6367 -999.0000    6.8551    3.5699    2.7163   -0.0058    0.2957    2.8332    2.4502   12.0000 
5207.5092   12.2500   14.0194   47.5819 -999.0000    6.3983    3.3361    2.4987   -0.0071    0.3394    2.7712    2.4666   12.0000 
5208.0092   12.2500   14.0659   59.0980 -999.0000    5.3478    2.7703    2.2673   -0.0091    0.3347    2.7740    2.4311   12.0000 
5208.5092   12.2500   14.1124   50.8732 -999.0000    5.1469    2.6388    2.1782   -0.0056    0.3251    2.7479    2.4117   12.0000 
5209.0092   12.2500   14.1822   40.9509 -999.0000    5.4119    2.7754    2.1991   -0.0052    0.2780    2.7652    2.4343   12.0000 
5209.5092   12.2500   14.2287   52.6421 -999.0000    6.3170    3.2367    2.2876   -0.0030    0.2336    2.7747    2.4569   12.0000 
5210.0092   12.2500   14.2984   46.1141 -999.0000    5.5040    2.8497    2.0959   -0.0034    0.2286    2.8070    2.4173   36.0000 
5210.5092   12.2500   14.3217   51.5955 -999.0000    4.9524    2.4605    1.9442   -0.0012    0.2553    2.7761    2.3941   36.0000 
5211.0092   12.2500   14.3449   51.0259 -999.0000    6.8845    3.3101    2.2489   -0.0007    0.2939    2.7196    2.4312   12.0000 
5211.5092   12.2500   14.3449   43.5244 -999.0000    8.1778    3.9952    2.3458   -0.0010    0.2679    2.6933    2.4682   12.0000 
5212.0092   12.2500   14.3682   43.0779 -999.0000    7.1836    3.5172    2.2511   -0.0021    0.3018    2.6900    2.5014   12.0000 
5212.5092   12.2500   14.3682   61.1139 -999.0000    6.2466    2.9938    2.1292   -0.0014    0.2822    2.6960    2.4662   12.0000 
5213.0092   12.2500   14.5076   37.7989 -999.0000    4.6909    2.1704    1.8295    0.0020    0.2427    2.6444    2.3986   27.0000 
5213.5092   12.2500   14.6471   45.1217 -999.0000    3.2996    1.5151    1.5020    0.0054    0.2290    2.5844    2.3462   27.0000 
5214.0092   12.2500   14.7169   41.8270 -999.0000    3.2458    1.4893    1.4181    0.0056    0.2452    2.6102    2.3591   27.0000 
5214.5092   12.2500   14.7633   53.4728 -999.0000    2.8080    1.2930    1.2869    0.0096    0.2798    2.8059    2.3648   12.0000 
5215.0092   12.2500   14.7982   52.7265 -999.0000    3.0431    1.4186    1.3321    0.0316    0.3013    3.1355    2.2399   36.0000 
5215.5092   12.2500   14.8680   21.3396 -999.0000    2.8929    1.3614    1.2543    0.0577    0.3211    3.4797    2.2942   18.0000 
5216.0092   12.2500   15.0307   25.3530 -999.0000    2.8160    1.3279    1.2077    0.0761    0.3266    3.7092    2.2413   18.0000 
5216.5092   12.2500   15.1818   37.2311 -999.0000    2.9071    1.3655    1.1748    0.0784    0.3568    3.7972    2.2318   18.0000 
5217.0092   12.2500   15.2748   31.3959 -999.0000    3.0293    1.4023    1.1802    0.0814    0.4236    3.7703    2.2480   18.0000 
5217.5092   12.2500   15.2980   38.6356 -999.0000    3.0761    1.3734    1.1882    0.0905    0.4151    3.6640    2.3067   18.0000 
5218.0092   12.2500   15.3678   25.3737 -999.0000    2.9930    1.2767    1.1360    0.0917    0.4322    3.4811    2.2648   18.0000 
5218.5092   12.2500   15.3910   35.5547 -999.0000    2.7312    1.1436    1.0872    0.0808    0.3712    3.2775    2.2478   36.0000 
5219.0092   12.2500   15.3910   30.0683 -999.0000    2.9896    1.2515    1.1566    0.0517    0.3502    3.0859    2.2314   36.0000 
5219.5092   12.2500   15.4608   43.2718 -999.0000    3.6980    1.5788    1.2940    0.0269    0.2777    2.9910    2.3773   36.0000 
5220.0092   12.2500   15.2980   42.6438 -999.0000    3.2713    1.4488    1.2417    0.0093    0.2646    3.0002    2.3976   36.0000 
5220.5092   12.2500   15.3910   46.1312 -999.0000    2.7305    1.2177    1.1496    0.0063    0.2980    3.0386    2.2216   18.0000 
5221.0092   12.2500   15.4840   37.2056 -999.0000    3.2388    1.4744    1.2835    0.0047    0.3382    2.9914    2.3363   36.0000 
5221.5092   12.2500   15.5189   30.3255 -999.0000    3.2248    1.5109    1.2883   -0.0010    0.3633    2.8655    2.3601   36.0000 
5222.0092   12.2500   15.5537   33.7178 -999.0000    3.0598    1.4593    1.2488   -0.0015    0.3149    2.7716    2.3339   36.0000 
5222.5092   12.2500   15.6235   37.2228 -999.0000    2.7429    1.3252    1.1453    0.0054    0.3367    2.7507    2.2881   36.0000 
5223.0092   12.2500   15.7165   35.8751 -999.0000    2.5652    1.2556    1.1143    0.0089    0.3548    2.7443    2.2544   36.0000 
5223.5092   12.2500   15.6235   45.6128 -999.0000    3.2085    1.6136    1.2957    0.0038    0.3370    2.7342    2.3504   12.0000 
5224.0092   12.2500   15.5305   46.0176 -999.0000    3.1325    1.6201    1.3205   -0.0060    0.3170    2.6977    2.3559   12.0000 
5224.5092   12.2500   15.5305   41.5392 -999.0000    2.5000    1.3011    1.1831   -0.0062    0.4207    2.6919    2.3385   12.0000 
5225.0092   12.2500   15.5537   40.9701 -999.0000    2.2135    1.1713    1.1414   -0.0026    0.4832    2.6609    2.2620   12.0000 
5225.5092   12.2500   15.6235   28.8235 -999.0000    2.5208    1.3882    1.2502    0.0017    0.4943    2.6599    2.2868   12.0000 
5226.0092   12.2500   15.4608   31.4130 -999.0000    2.7713    1.5990    1.3719    0.0026    0.3472    2.6283    2.3683   12.0000 
5226.5092   12.2500   15.5421   30.6234 -999.0000    3.0826    1.8422    1.4575    0.0031    0.2900    2.6314    2.3903   12.0000 
5227.0092   12.2500   15.5305   45.8615 -999.0000    3.2331    2.0742    1.5457   -0.0065    0.3161    2.6701    2.4028   12.0000 
5227.5092   12.2500   15.3445   41.7945 -999.0000    2.0181    1.3048    1.2900   -0.0107    0.3329    2.8349    2.4402   12.0000 
5228.0092   12.2500   15.2283   42.5257 -999.0000    1.4102    0.9032    1.0866   -0.0075    0.3265    3.1031    2.3496   36.0000 
5228.5092   12.2500   15.0191   34.3457 -999.0000    1.2362    0.8056    1.0412    0.0127    0.3413    3.3371    2.0554   18.0000 
5229.0092   12.2500   14.7866   37.3072 -999.0000    1.3403    0.8918    1.1481    0.0358    0.3110    3.3986    2.1530   18.0000 
5229.5092   12.2500   14.9028   36.6184 -999.0000    2.0782    1.4176    1.4277    0.0403    0.3499    3.2349    2.3278   36.0000 
5230.0092   12.2500   14.9493   33.7180 -999.0000    3.0092    2.2172    1.6984    0.0302    0.3023    3.0002    2.4553   36.0000 
5230.5092   12.2500   15.0656   44.3874 -999.0000    3.7014    2.7903    1.8772    0.0104    0.2459    2.8300    2.4204   12.0000 
5231.0092   12.2500   15.1121   48.6950 -999.0000    3.9172    3.0438    1.9545   -0.0007    0.2138    2.7700    2.4574   36.0000 
5231.5092   12.2500   15.1353   44.1546 -999.0000    3.8343    2.9687    1.9627   -0.0077    0.2451    2.7825    2.4596   12.0000 
5232.0092   12.2500   15.0772   45.1219 -999.0000    3.7270    2.9057    1.9585   -0.0099    0.2782    2.7681    2.4203   12.0000 
5232.5092   12.2500   15.0656   46.1691 -999.0000    3.7931    2.8967    1.9935   -0.0073    0.3039    2.7177    2.4557   12.0000 
5233.0092   12.2500   15.0656   56.5537 -999.0000    4.0536    3.0290    2.0741   -0.0037    0.3133    2.6902    2.4750   12.0000 
5233.5092   12.2500   15.0423   45.0961 -999.0000    4.5098    3.4470    2.1754   -0.0011    0.2730    2.7038    2.4796   12.0000 
5234.0092   12.2500   15.0656   51.8804 -999.0000    4.5046    3.5853    2.1372   -0.0015    0.3128    2.7362    2.4888   12.0000 
5234.5092   12.2500   15.0423   66.5812 -999.0000    3.1941    2.5373    1.8396   -0.0015    0.3198    2.7248    2.4723   12.0000 
5235.0092   12.2500   15.0656   54.1942 -999.0000    2.5788    2.0841    1.7256   -0.0040    0.3835    2.6902    2.3701   12.0000 
5235.5092   12.2500   15.1004   49.5671 -999.0000    2.3091    1.8851    1.6426   -0.0054    0.3308    2.6461    2.3705   12.0000 
5236.0092   12.2500   15.1469   36.4032 -999.0000    2.1653    1.7962    1.5878   -0.0088    0.3165    2.6284    2.3249   12.0000 
5236.5092   12.2500   15.2050   40.6433 -999.0000    2.0361    1.7409    1.5401   -0.0089    0.3396    2.6330    2.3663   12.0000 
5237.0092   12.2500   15.2515   41.8074 -999.0000    1.8995    1.6891    1.4731   -0.0075    0.3343    2.6493    2.3451   12.0000 
