~VERSION INFORMATION
 VERS.                 2.0:   CWLS LOG ASCII STANDARD - VERSION 2.0
 WRAP.                  NO:   SINGLE LINE PER DEPTH STEP
 CREA.                 20/03/2018 14:58:23
#CREATED USING DSPetro VERSION 5000.10.1.3 BY H191660 ON 20/03/2018 14:58:23
~WELL INFORMATION
#MNEM.UNIT       DATA                          DESCRIPTION MNEMONIC
#---------      ---------------------------   --------------------------
 STRT    .FT        128.0000                  : START DEPTH
 STOP    .FT        12500.0000                : STOP DEPTH
 STEP    .FT        0.5000                    : STEP VALUE
 NULL    .      -999.0000                     : NULL VALUE
 DATE    .      20/03/2018                    : LAS file Creation Date
 WELL  .      UNIVERSITY_40_16_4247536999  : Well Name
 COMP  .      Neftex Exploration Insights  : Company
 FLD   .      PHANTOM (WOLFCAMP)           : Field
 STATE .      Texas                        : State
 COUNT .      USA                          : Country
 API   .      42475369990000               : API Number
 UWI   .      222                          : Unique Well Identifier (UWI)
 LOC   .      1980FNL x 1757FWL            : Location
 TOWN  .      16                           : Township
 SCT   .      40                           : Section
 RANG  .      U39                          : Range
 LATI  .      -6470541.88                  : Latitude/Northing
 LONG  .      783810.27                    : Longitude/Easting
 PDAT  .      GL                           : Permanent Datum
 EPDAT .      2604.000000                  : Reference Elevation
 LGMEA .      KB                           : Log Measured from
 DRMEA .      KB                           : Drill Measured From
 APDAT .      25.000000                    : Elevation Above Permanent Datum
 KB    .      2629.00000                   : KB Elevation
 GL    .      2604.00000                   : GL Elevation
 RWS   .      -999                         : Def_Rw
 WST   .      -999                         : Def_Rwt
 CNTY  .      WARD                         : County
 SRVC  .      Diversified Well Logging LLC : Contractor
~CURVE INFORMATION
#MNEM              UNIT       API CODE   Curve Type Comments
#----------  --------------- ----------  ---------- -----------
 DEPTH      .FT                        : Depth       
 BS         .inch                      : BitSize     
 DCAL_INCH  .inch                      :             Differential Caliper - Evaluates the difference between the actual borehole diameter and bit size
 GR         .GAPI                      : GammaRay    Gamma Ray {F11.4}
 LLD_OHMM   .ohmm                      :             Laterlog Deep Resistivity - Measurement made several feet into the formation; generally considered a measurement of the undisturbed formation
 LLM_OHMM   .ohm.m                     :             Laterlog Medium Resistivity - Measurement made approximately two to three feet into the formation - units of ohmm
 LLS_OHMM   .ohmm                      :             Laterlog Shallow Resistivity - one to two feet into the formation; generally considered to measure the formation
 NPHI_RATIO .ratio                     :             Neutron Porosity - Measured with an neutron logging device calibrated to a given matrix (limestone, sandstone and dolomite)
 PEF_B_E    .b/e-                      : PEF         Photoelectric Factor - A log of photoelectric absorption properties. Often expressed in an approximation unit barns/electron (b/e-)
 RHOZ_G_CC  .g/cc                      :             Formation Density - Measures the density of formation, including any void space or other materials contained in the subject volume
 LITH       .                          : LITH        Lithology Curve
~A  DEPTH     BS    DCAL_INC~     GR     LLD_OHMM  LLM_OHMM  LLS_OHMM NPHI_RAT~  PEF_B_E  RHOZ_G_C~    LITH   
 128.0000 -999.0000   -6.0046   92.1911 100000.0000 100000.0000 100000.0000 -999.0000    9.9932    1.2313 -999.0000 
 128.5000 -999.0000   -6.0046   92.1911 100000.0000 100000.0000 100000.0000 -999.0000    9.9932    1.2313 -999.0000 
 129.0000 -999.0000   -6.0046   92.1911 100000.0000 100000.0000 100000.0000 -999.0000    9.9932    1.2313 -999.0000 
 129.5000 -999.0000   -6.0046   92.1911 100000.0000 100000.0000 100000.0000 -999.0000    9.9932    1.2313 -999.0000 
 130.0000 -999.0000   -6.0046   92.1911 100000.0000 100000.0000 100000.0000 -999.0000    9.9932    1.2313 -999.0000 
 130.5000 -999.0000   -6.0046   92.1911 100000.0000 100000.0000 100000.0000 -999.0000    9.9932    1.2313 -999.0000 
 131.0000 -999.0000   -6.0046   92.1911 100000.0000 100000.0000 100000.0000 -999.0000    9.9932    1.2313 -999.0000 
 131.5000 -999.0000   -6.0046   92.1911 100000.0000 100000.0000 100000.0000 -999.0000    9.9932    1.2313 -999.0000 
 132.0000 -999.0000   -6.0046   92.1911 100000.0000 100000.0000 100000.0000 -999.0000    9.9932    1.2313 -999.0000 
 132.5000 -999.0000   -6.0046   92.1911 100000.0000 100000.0000 100000.0000 -999.0000    9.9932    1.2313 -999.0000 
 133.0000 -999.0000   -6.0046   92.1911 100000.0000 100000.0000 100000.0000 -999.0000    9.9932    1.2313 -999.0000 
 133.5000 -999.0000   -6.0046   92.1911 100000.0000 100000.0000 100000.0000 -999.0000    9.9932    1.2313 -999.0000 
 134.0000 -999.0000   -6.0046   92.1911 100000.0000 100000.0000 100000.0000 -999.0000    9.9932    1.2313 -999.0000 
 134.5000 -999.0000   -6.0046   92.1911 100000.0000 100000.0000 100000.0000 -999.0000    9.9932    1.2313 -999.0000 
 135.0000 -999.0000   -6.0046   92.1911 100000.0000 100000.0000 100000.0000 -999.0000    9.9932    1.2313 -999.0000 
 135.5000 -999.0000   -6.0046   92.1911 100000.0000 100000.0000 100000.0000 -999.0000    9.9932    1.2313 -999.0000 
 136.0000 -999.0000   -6.0046   92.1911 100000.0000 100000.0000 100000.0000 -999.0000    9.9932    1.2313 -999.0000 
 136.5000 -999.0000   -6.0046   92.1911 100000.0000 100000.0000 100000.0000 -999.0000    9.9932    1.2313 -999.0000 
 137.0000 -999.0000   -6.0046   92.1911 100000.0000 100000.0000 100000.0000 -999.0000    9.9932    1.2313 -999.0000 
 137.5000 -999.0000   -6.0046   92.1911 100000.0000 100000.0000 100000.0000 -999.0000    9.9932    1.2313 -999.0000 
 138.0000 -999.0000   -6.0046   92.1911 100000.0000 100000.0000 100000.0000 -999.0000    9.9932    1.2313 -999.0000 
 138.5000 -999.0000   -6.0046   92.1911 100000.0000 100000.0000 100000.0000 -999.0000    9.9932    1.2313 -999.0000 
 139.0000 -999.0000   -6.0046   92.1911 100000.0000 100000.0000 100000.0000 -999.0000    9.9932    1.2313 -999.0000 
 139.5000 -999.0000   -6.0046   92.1911 100000.0000 100000.0000 100000.0000 -999.0000    9.9932    1.2313    3.0000 
 140.0000 -999.0000   -6.0046   92.1911 100000.0000 100000.0000 100000.0000 -999.0000    9.9932    1.2313    3.0000 
 140.5000 -999.0000   -6.0046   92.1911 100000.0000 100000.0000 100000.0000 -999.0000    9.9932    1.2313    3.0000 
 141.0000 -999.0000   -6.0046   92.1911 100000.0000 100000.0000 100000.0000 -999.0000    9.9932    1.2313    3.0000 
 141.5000 -999.0000   -6.0046   92.1911 100000.0000 100000.0000 100000.0000 -999.0000    9.9932    1.2313    3.0000 
 142.0000 -999.0000   -6.0046   92.1911 100000.0000 100000.0000 100000.0000 -999.0000    9.9932    1.2313    3.0000 
 142.5000 -999.0000   -6.0046   92.1911 100000.0000 100000.0000 100000.0000 -999.0000    9.9932    1.2313    3.0000 
 143.0000 -999.0000   -6.0046   92.1911 100000.0000 100000.0000 100000.0000 -999.0000    9.9932    1.2313    3.0000 
 143.5000 -999.0000   -6.0046   92.1911 100000.0000 100000.0000 100000.0000 -999.0000    9.9932    1.2313    3.0000 
 144.0000 -999.0000   -6.0046   92.1911 100000.0000 100000.0000 100000.0000 -999.0000    9.9932    1.2313    3.0000 
 144.5000 -999.0000   -6.0046   92.1911 100000.0000 100000.0000 100000.0000 -999.0000    9.9932    1.2313    3.0000 
 145.0000 -999.0000   -6.0046   92.1911 100000.0000 100000.0000 100000.0000 -999.0000    9.9932    1.2313    3.0000 
 145.5000 -999.0000   -6.0046   92.1911 100000.0000 100000.0000 100000.0000 -999.0000    9.9932    1.2313    3.0000 
 146.0000 -999.0000   -6.0046   92.1911 100000.0000 100000.0000 100000.0000 -999.0000    9.9932    1.2313    3.0000 
 146.5000 -999.0000   -6.0046   92.1911 100000.0000 100000.0000 100000.0000 -999.0000    9.9932    1.2313    3.0000 
 147.0000 -999.0000   -6.0046   92.1911 100000.0000 100000.0000 100000.0000 -999.0000    9.9932    1.2313    3.0000 
 147.5000 -999.0000   -6.0046   92.1911 100000.0000 100000.0000 100000.0000 -999.0000    9.9932    1.2313    3.0000 
 148.0000 -999.0000   -6.0046   92.1911 100000.0000 100000.0000 100000.0000 -999.0000    9.9932    1.2313    3.0000 
 148.5000 -999.0000   -6.0046   92.1911 100000.0000 100000.0000 100000.0000 -999.0000    9.9932    1.2313    3.0000 
 149.0000 -999.0000   -6.0046   92.1911 100000.0000 100000.0000 100000.0000 -999.0000    9.9932    1.2313    3.0000 
 149.5000 -999.0000   -6.0046   92.1911 100000.0000 100000.0000 100000.0000 -999.0000    9.9932    1.2313    3.0000 
 150.0000 -999.0000   -6.0046   92.1911 100000.0000 100000.0000 100000.0000 -999.0000    9.9932    1.2313    3.0000 
 150.5000 -999.0000   -6.0046   92.1911 100000.0000 100000.0000 100000.0000 -999.0000    9.9932    1.2313    3.0000 
 151.0000 -999.0000   -6.0046   93.7206 100000.0000 100000.0000 100000.0000 -999.0000    9.9932    1.2313    3.0000 
 151.5000 -999.0000   -6.0046   93.8739 100000.0000 100000.0000 100000.0000 -999.0000    9.9932    1.2313    3.0000 
 152.0000 -999.0000   -6.0046   94.7905 100000.0000 100000.0000 100000.0000 -999.0000    9.9932    1.2313    3.0000 
 152.5000 -999.0000   -6.0046   93.5681 100000.0000 100000.0000 100000.0000 -999.0000    9.9932    1.2313    3.0000 
 153.0000 -999.0000   -6.0046   94.3322 100000.0000 100000.0000 100000.0000 -999.0000    9.9932    1.2313    3.0000 
 153.5000 -999.0000   -6.0046   95.8618 100000.0000 100000.0000 100000.0000 -999.0000    9.9932    1.2313    3.0000 
 154.0000 -999.0000   -6.0046   97.5432 100000.0000 100000.0000 100000.0000 -999.0000    9.9932    1.2313    3.0000 
 154.5000 -999.0000   -6.0046   91.2902 100000.0000 100000.0000 100000.0000 -999.0000    9.9932    1.2313    3.0000 
 155.0000 -999.0000   -6.0046   87.9260 100000.0000 100000.0000 100000.0000 -999.0000    9.9932    1.2313    3.0000 
 155.5000 -999.0000   -6.0046   86.3971 100000.0000 100000.0000 100000.0000 -999.0000    9.9932    1.2313    3.0000 
 156.0000 -999.0000   -6.0046   90.0512 100000.0000 100000.0000 100000.0000 -999.0000    9.9932    1.2313    3.0000 
 156.5000 -999.0000   -6.0046   90.9687 100000.0000 100000.0000 100000.0000 -999.0000    9.9932    1.2313    3.0000 
 157.0000 -999.0000   -6.0046   91.4276 100000.0000 100000.0000 100000.0000   -0.0049    9.9932    1.2313    3.0000 
 157.5000 -999.0000   -6.0046   94.3325 100000.0000 100000.0000 100000.0000   -0.0047    9.9932    1.2313    3.0000 
 158.0000 -999.0000   -6.0046   89.0275 100000.0000 100000.0000 100000.0000   -0.0047    9.9932    1.2313    3.0000 
 158.5000 -999.0000   -6.0046   89.6388 100000.0000 100000.0000 100000.0000   -0.0048    9.9932    1.2313    3.0000 
 159.0000 -999.0000   -6.0046   87.3452 100000.0000 100000.0000 100000.0000   -0.0055    9.9932    1.2313    3.0000 
 159.5000 -999.0000   -6.0046   91.7329 100000.0000 100000.0000 100000.0000   -0.0064    9.9932    1.2313    3.0000 
 160.0000 -999.0000   -6.0046   87.4521 100000.0000 100000.0000 100000.0000   -0.0067    9.9932    1.2313    3.0000 
 160.5000 -999.0000   -6.0046   84.2416 100000.0000 100000.0000 100000.0000   -0.0055    9.9932    1.2313    3.0000 
 161.0000 -999.0000   -6.0046   82.8659 100000.0000 100000.0000 100000.0000   -0.0041    9.9932    1.2313    3.0000 
 161.5000 -999.0000   -6.0046   86.0766 100000.0000 100000.0000 100000.0000   -0.0035    9.9932    1.2313    3.0000 
 162.0000 -999.0000   -6.0046   89.8993 100000.0000 100000.0000 100000.0000   -0.0045    9.9932    1.2313    3.0000 
