~VERSION INFORMATION
 VERS.                 2.0:   CWLS LOG ASCII STANDARD - VERSION 2.0
 WRAP.                  NO:   SINGLE LINE PER DEPTH STEP
 CREA.                 20/03/2018 14:44:45
#CREATED USING DSPetro VERSION 5000.10.1.3 BY H191660 ON 20/03/2018 14:44:45
~WELL INFORMATION
#MNEM.UNIT       DATA                          DESCRIPTION MNEMONIC
#---------      ---------------------------   --------------------------
 STRT    .FT        300.0092                  : START DEPTH
 STOP    .FT        12601.0092                : STOP DEPTH
 STEP    .FT        0.5000                    : STEP VALUE
 NULL    .      -999.0000                     : NULL VALUE
 DATE    .      20/03/2018                    : LAS file Creation Date
 WELL  .      UNIVERSITY_20_3_1_4230131346 : Well Name
 COMP  .      Chesapeake Operating, Inc.   : Company
 FLD   .      Haley                        : Field
 STATE .      Texas                        : State
 API   .      42-301-31346                 : API Number
 UWI   .      507                          : Unique Well Identifier (UWI)
 LOC   .      1320' FNL & 1320' FWL        : Location
 TOWN  .      20                           : Township
 SCT   .      3                            : Section
 RANG  .      University Lands             : Range
 PDAT  .      GROUND LEVEL                 : Permanent Datum
 EPDAT .      2800.000000                  : Reference Elevation
 LGMEA .      KELLY BUSHING                : Log Measured from
 DRMEA .      KELLY BUSHING                : Drill Measured From
 APDAT .      26.000000                    : Elevation Above Permanent Datum
 KB    .      2826.00000                   : KB Elevation
 GL    .      2800.00000                   : GL Elevation
 RWS   .      -999                         : Def_Rw
 WST   .      -999                         : Def_Rwt
 CNTY  .      Loving                       : County
 SRVC  .      Schlumberger                 : Contractor
~CURVE INFORMATION
#MNEM              UNIT       API CODE   Curve Type Comments
#----------  --------------- ----------  ---------- -----------
 DEPTH      .FT                        : Depth       
 BS         .inch                      : BitSize     
 CAL        .inch                      :             
 GR         .API                       : GammaRay    
 SP_MV      .mv                        : SP          Spontaneous Potential - Records the electrical potential produced by the interaction of formation water, conductive drilling mud, and certain ion-sele
 DRES       .OHMM                      :             
 MRES       .OHMM                      : MedRes      
 SRES       .OHMM                      : ShalRes     
 DRHO       .G/C3                      : Drho        
 NPHI       .CFCF                      : Neutron     
 PEF        .B/E                       : PEF         
 RHOB       .G/C3                      : Density     
 LITH       .                          : LITH        Lithology Curve
~A  DEPTH     BS       CAL        GR      SP_MV      DRES      MRES      SRES      DRHO      NPHI      PEF       RHOB      LITH   
# ...
3567.0092 -999.0000    4.0931    9.5408 -999.0000    0.0096    0.0079    0.0115    0.2238    0.0948    8.7847    2.2189    3.0000 
3567.5092 -999.0000    4.0931   10.0838 -999.0000    0.0067    0.0048    0.0071    0.2297    0.0792    8.8268    2.2191    3.0000 
3568.0092 -999.0000    4.0931    7.7689 -999.0000    0.0104    0.0098    0.0141    0.2348    0.0663    8.8355    2.2114    3.0000 
3568.5092 -999.0000    4.0698   10.4235 -999.0000    0.0081    0.0070    0.0104    0.2354    0.0604    8.8427    2.2237    3.0000 
3569.0092 -999.0000    4.0698   13.8570 -999.0000    0.0080    0.0064    0.0092    0.2242    0.0573    8.8368    2.2018    3.0000 
3569.5092 -999.0000    4.0931   12.9743 -999.0000    0.0065    0.0048    0.0073    0.2209    0.0479    8.8190    2.2329    3.0000 
3570.0092 -999.0000    4.0931   16.4337 -999.0000    0.0086    0.0071    0.0106    0.2259    0.0449    8.7978    2.2407    3.0000 
3570.5092 -999.0000    4.0698    6.0490 -999.0000    0.0080    0.0063    0.0095    0.2420    0.0385    8.7962    2.2674    3.0000 
3571.0092 -999.0000    4.0698   14.7396 -999.0000    0.0057    0.0035    0.0058    0.2541    0.0301    8.8175    2.2521    3.0000 
3571.5092 -999.0000    4.0931   10.6854 -999.0000    0.0086    0.0076    0.0113    0.2657    0.0237    8.8357    2.2898    3.0000 
3572.0092 -999.0000    4.0931    9.4954 -999.0000    0.0073    0.0058    0.0085    0.2659    0.0243    8.8350    2.2851    3.0000 
3572.5092 -999.0000    4.0698   14.7331 -999.0000    0.0058    0.0042    0.0065    0.2565    0.0247    8.7958    2.2648    3.0000 
3573.0092 -999.0000    4.0931   12.1305 -999.0000    0.0079    0.0066    0.0097    0.2458    0.0258    8.7609    2.2530    3.0000 
3573.5092 -999.0000    4.0931    6.9187 -999.0000    0.0080    0.0073    0.0108    0.2402    0.0197    8.7543    2.2736    3.0000 
3574.0092 -999.0000    4.0931   11.2607 -999.0000    0.0075    0.0066    0.0098    0.2500    0.0151    8.8008    2.2633    3.0000 
3574.5092 -999.0000    4.0931   11.2607 -999.0000    0.0084    0.0080    0.0120    0.2538    0.0039    8.8428    2.2696    3.0000 
3575.0092 -999.0000    4.0931    6.0425 -999.0000    0.0057    0.0047    0.0072    0.2519    0.0038    8.8540    2.2877    3.0000 
3575.5092 -999.0000    4.0698    8.6711 -999.0000    0.0043    0.0028    0.0047    0.2476    0.0109    8.8094    2.2733    3.0000 
3576.0092 -999.0000    4.0931   11.2543 -999.0000    0.0038    0.0024    0.0043    0.2521    0.0184    8.7633    2.3000    3.0000 
3576.5092 -999.0000    4.0698    8.6516 -999.0000    0.0074    0.0069    0.0101    0.2614    0.0155    8.7478    2.3051    3.0000 
3577.0092 -999.0000    4.0698   10.3781 -999.0000    0.0085    0.0085    0.0122    0.2599    0.0137    8.7672    2.2718    3.0000 
3577.5092 -999.0000    4.0931    7.8013 -999.0000    0.0091    0.0089    0.0132    0.2550    0.0166    8.7907    2.2898    3.0000 
3578.0092 -999.0000    4.0698    5.7575 -999.0000    0.0070    0.0064    0.0094    0.2528    0.0173    8.7946    2.2832    3.0000 
3578.5092 -999.0000    4.0698   12.7254 -999.0000    0.0090    0.0088    0.0127    0.2518    0.0165    8.8004    2.2795    3.0000 
3579.0092 -999.0000    4.0931    9.4954 -999.0000    0.0068    0.0061    0.0093    0.2447    0.0120    8.8133    2.2386    3.0000 
3579.5092 -999.0000    4.0698   11.2738 -999.0000    0.0063    0.0050    0.0076    0.2341    0.0126    8.8130    2.2537    3.0000 
3580.0092 -999.0000    4.0931    6.9252 -999.0000    0.0045    0.0029    0.0049    0.2304    0.0077    8.8031    2.2593    3.0000 
3580.5092 -999.0000    4.0698   10.4105 -999.0000    0.0072    0.0066    0.0097    0.2372    0.0035    8.7881    2.2791    3.0000 
3581.0092 -999.0000    4.0698    5.1922 -999.0000    0.0071    0.0063    0.0095    0.2517    0.0036    8.8062    2.3027    3.0000 
3581.5092 -999.0000    4.0698    6.0489 -999.0000    0.0094    0.0088    0.0124    0.2625    0.0078    8.8341    2.3483    3.0000 
3582.0092 -999.0000    4.0698    9.2191 -999.0000    0.0078    0.0069    0.0103    0.2663    0.0079    8.8275    2.2972    3.0000 
3582.5092 -999.0000    4.0698   11.2803 -999.0000    0.0077    0.0075    0.0110    0.2709    0.0125    8.7979    2.3383    3.0000 
3583.0092 -999.0000    4.0698   12.9483 -999.0000    0.0073    0.0068    0.0102    0.2786    0.0117    8.7606    2.3381    3.0000 
3583.5092 -999.0000    4.0931   14.7722 -999.0000    0.0075    0.0074    0.0111    0.2848    0.0118    8.7246    2.3268    3.0000 
3584.0092 -999.0000    4.0931   12.9873 -999.0000    0.0057    0.0050    0.0078    0.2811    0.0093    8.6770    2.3371    3.0000 
3584.5092 -999.0000    4.0698   16.4662 -999.0000    0.0077    0.0078    0.0115    0.2696    0.0128    8.6052    2.3059    3.0000 
3585.0092 -999.0000    4.0931   11.5327 -999.0000    0.0040    0.0029    0.0048    0.2598    0.0128    8.5614    2.2894    3.0000 
3585.5092 -999.0000    4.0931   13.0197 -999.0000    0.0081    0.0085    0.0125    0.2535    0.0152    8.5327    2.2980    3.0000 
3586.0092 -999.0000    4.0931   10.3586 -999.0000    0.0074    0.0078    0.0120    0.2612    0.0163    8.5538    2.3354    3.0000 
3586.5092 -999.0000    4.0931   15.6029 -999.0000    0.0097    0.0107    0.0154    0.2700    0.0202    8.5638    2.3059    3.0000 
3587.0092 -999.0000    4.0698   10.3587 -999.0000    0.0038    0.0035    0.0054    0.2759    0.0278    8.6028    2.3198    3.0000 
3587.5092 -999.0000    4.0698   13.8959 -999.0000    0.0073    0.0077    0.0112    0.2729    0.0210    8.6332    2.3235    3.0000 
3588.0092 -999.0000    4.0814   15.5770 -999.0000    0.0051    0.0045    0.0074    0.2697    0.0105    8.6865    2.3432    3.0000 
3588.5092 -999.0000    4.0698   10.3847 -999.0000    0.0072    0.0077    0.0113    0.2742    0.0064    8.7187    2.3584    3.0000 
3589.0092 -999.0000    4.0698   10.9629 -999.0000    0.0093    0.0097    0.0143    0.2836    0.0008    8.7378    2.3628    3.0000 
3589.5092 -999.0000    4.0698    9.5408 -999.0000    0.0059    0.0058    0.0088    0.2879   -0.0029    8.7312    2.3563    3.0000 
3590.0092 -999.0000    4.0931    7.7689 -999.0000    0.0010 100000.0000 100000.0000    0.2850   -0.0031    8.7048    2.3523    3.0000 
3590.5092 -999.0000    4.0698    7.7949 -999.0000    0.0079    0.0081    0.0117    0.2738   -0.0009    8.6612    2.3420    3.0000 
3591.0092 -999.0000    4.0698   10.3586 -999.0000    0.0050    0.0044    0.0066    0.2632    0.0025    8.6387    2.3156    3.0000 
3591.5092 -999.0000    4.0698   10.4040 -999.0000    0.0056    0.0047    0.0072    0.2530    0.0044    8.6265    2.3289    3.0000 
3592.0092 -999.0000    4.0931    5.1793 -999.0000    0.0085    0.0084    0.0124    0.2585    0.0052    8.6338    2.3503    3.0000 
3592.5092 -999.0000    4.0931   16.7537 -999.0000    0.0070    0.0066    0.0097    0.2747    0.0073    8.6548    2.3476    3.0000 
3593.0092 -999.0000    4.0931   13.8116 -999.0000    0.0033    0.0023    0.0039    0.2840    0.0038    8.7086    2.3617    3.0000 
3593.5092 -999.0000    4.0931   10.4170 -999.0000    0.0061    0.0056    0.0086    0.2835   -0.0020    8.7620    2.3606    3.0000 
3594.0092 -999.0000    4.0698    6.0425 -999.0000    0.0096    0.0100    0.0143    0.2781   -0.0066    8.7968    2.3726    3.0000 
3594.5092 -999.0000    4.0931    8.6646 -999.0000    0.0061    0.0057    0.0091    0.2865   -0.0078    8.8020    2.3715    3.0000 
3595.0092 -999.0000    4.0698    7.7819 -999.0000    0.0076    0.0075    0.0110    0.2915   -0.0030    8.8048    2.3685    3.0000 
3595.5092 -999.0000    4.0698   12.0980 -999.0000    0.0058    0.0051    0.0082    0.2969    0.0021    8.7816    2.3679    3.0000 
3596.0092 -999.0000    4.0931    8.0798 -999.0000    0.0069    0.0064    0.0097    0.2979    0.0057    8.7507    2.3736    3.0000 
3596.5092 -999.0000    4.0931   10.1297 -999.0000    0.0089    0.0089    0.0130    0.2981    0.0010    8.7063    2.3778    3.0000 
3597.0092 -999.0000    4.0698   10.3586 -999.0000    0.0042    0.0029    0.0047    0.2919    0.0010    8.6707    2.3462    3.0000 
3597.5092 -999.0000    4.0931    8.6776 -999.0000    0.0064    0.0053    0.0083    0.2833    0.0036    8.6174    2.3279    3.0000 
