~VERSION INFORMATION
 VERS.                 2.0:   CWLS LOG ASCII STANDARD - VERSION 2.0
 WRAP.                  NO:   SINGLE LINE PER DEPTH STEP
 CREA.                 20/03/2018 14:55:32
#CREATED USING DSPetro VERSION 5000.10.1.3 BY H191660 ON 20/03/2018 14:55:32
~WELL INFORMATION
#MNEM.UNIT       DATA                          DESCRIPTION MNEMONIC
#---------      ---------------------------   --------------------------
 STRT    .FT        10799.4984                : START DEPTH
 STOP    .FT        13010.9983                : STOP DEPTH
 STEP    .FT        0.5000                    : STEP VALUE
 NULL    .      -999.0000                     : NULL VALUE
 DATE    .      20/03/2018                    : LAS file Creation Date
 WELL  .      UNIVERSITY_21-17             : Well Name
 COMP  .      Neftex Exploration Insights  : Company
 FLD   .                                   : Field
 STATE .      Texas                        : State
 API   .      42475370100000               : API Number
 UWI   .      213                          : Unique Well Identifier (UWI)
 LOC   .                                   : Location
 LATI  .      -6235758.22                  : Latitude/Northing
 LONG  .      777123.41                    : Longitude/Easting
 RWS   .      -999                         : Def_Rw
 WST   .      -999                         : Def_Rwt
 CNTY  .      WARD                         : County
 SRVC  .      Diversified Well Logging LLC : Contractor
~CURVE INFORMATION
#MNEM              UNIT       API CODE   Curve Type Comments
#----------  --------------- ----------  ---------- -----------
 DEPTH      .FT                        : Depth       
 DCAL_INCH  .inch                      :             Differential Caliper - Evaluates the difference between the actual borehole diameter and bit size
 GR_API     .API                       : GammaRay    Gamma Ray (API) - Measures the intensity of natural gamma-ray radiation emitted from formations containing radioactive elements, such as K, Th and U
 CGR_API    .API                       : GammaRay    Corrected / Computed Gamma Ray - Radiation with the Uranium component removed. Also known as a 'carbonate gamma ray'
 K_per        .PC                        :             Potassium Abundance (SGR) - The quantitative elemental abundace of Potassium derived from the Spectral Gamma Ray Log. Also wt_%
 TH_PPM     .ppm                       : Spectral    Thorium Abundance (SGR) - The quantitative elemental abundace of Thorium derived from the Spectral Gamma Ray Log
 U_PPM      .ppm                       :             Uranium Abundance (SGR) - The quantitative elemental abundace of Uranium derived from the Spectral Gamma Ray Log
 RD_OHMM    .ohmm                      :             Unspecified Deep Resistivity - No accroynm or method of attainment is specified - units of ohmm
 RM_OHMM    .ohm.m                     :             Unspecified Medium Resistivity - No accroynm or method of attainment is specified
 MSFL_OHMM  .ohmm                      :             Micro-Spherically Focused Log - Measurement involves only the first few inches of the formation immediately adjacent to the borehole
 NPHI_RATIO .ratio                     :             Neutron Porosity - Measured with an neutron logging device calibrated to a given matrix (limestone, sandstone and dolomite)
 RHOZ_G_CC  .g/cc                      :             Formation Density - Measures the density of formation, including any void space or other materials contained in the subject volume
 PEF_B_E    .b/e-                      : PEF         Photoelectric Factor - A log of photoelectric absorption properties. Often expressed in an approximation unit barns/electron (b/e-)
 LITH       .                          : LITH        Lithology Curve
~A  DEPTH DCAL_INC~   GR_API   CGR_API     K_per      TH_PPM    U_PPM    RD_OHMM   RM_OHMM  MSFL_OHM~ NPHI_RAT~ RHOZ_G_C~  PEF_B_E     LITH   
# ...
12623.4984    0.0171  116.3043   94.4863    2.9453   12.9956    2.9349    4.5650    4.9173    2.7378    0.2272    2.5756    4.3257   37.0000 
12623.9984   -0.0116  114.8400   91.6258    2.9220   12.2166    2.8634    4.9567    5.3979    3.1535    0.2288    2.5775    4.1908   37.0000 
12624.4984   -0.0044  113.8897   87.2116    2.7661   11.7168    3.0459    4.7635    5.1637    3.1848    0.2325    2.5771    4.0028   37.0000 
12624.9984   -0.0008  111.0742   82.9500    2.5830   11.4246    2.9477    4.7711    5.1660    3.1864    0.2258    2.5823    3.8584   37.0000 
12625.4984   -0.0116  116.5934   81.3263    2.5314   11.2068    2.9632    4.7782    5.1747    3.2225    0.2258    2.5869    3.7898   37.0000 
12625.9984   -0.0116  118.4943   80.5552    2.4750   11.2902    2.7157    4.8072    5.2013    3.3135    0.2188    2.5836    3.8131   37.0000 
12626.4984   -0.0224  117.1424   79.5644    2.3705   11.5853    2.7939    4.9974    5.3354    3.4039    0.2279    2.5884    3.8797   37.0000 
12626.9984   -0.0116  110.1096   72.1752    2.1008   10.7992    2.7260    5.2788    5.4900    3.5426    0.2275    2.6063    3.9865   37.0000 
12627.4984   -0.0008   98.9585   70.5074    2.0565   10.5248    2.6193    8.1315    8.1682    4.4340    0.2051    2.6177    4.1342   37.0000 
12627.9984   -0.0690   96.4801   69.3649    2.0495   10.2003    2.7138    7.8281    7.9528    4.8169    0.1922    2.6229    4.1665   37.0000 
12628.4984   -0.0978  100.8095   76.6346    2.2182   11.5389    3.1109    4.5303    4.7790    3.1293    0.1912    2.6078    4.0896   37.0000 
12628.9984   -0.0690  111.9604   80.3337    2.3689   11.8407    3.3804    4.4058    4.7822    3.0243    0.2066    2.5974    3.9276   37.0000 
12629.4984   -0.0332  112.0733   81.3395    2.3454   12.3004    3.3618    4.5565    5.0001    3.0996    0.2046    2.5871    3.8553   37.0000 
12629.9984   -0.0619  114.6074   82.2874    2.3880   12.3541    3.1071    4.9153    5.4316    3.3633    0.2088    2.5788    3.9078   37.0000 
12630.4984   -0.0762  113.3686   82.3074    2.4293   12.1188    3.3268    5.0178    5.5680    3.3744    0.2234    2.5804    3.9652   37.0000 
12630.9984   -0.0403  114.9174   82.8340    2.4212   12.3345    3.3842    4.8382    5.3922    3.3383    0.2390    2.5792    4.0062   37.0000 
12631.4984    0.0243  115.0864   83.0249    2.3917   12.5687    3.2875    4.7271    5.3050    3.1824    0.2471    2.5784    4.0159   37.0000 
12631.9984    0.0422  108.8286   83.1328    2.4280   12.3906    2.9454    4.8527    5.3359    3.1234    0.2473    2.5729    4.0842   37.0000 
12632.4984    0.0027  103.0208   82.9279    2.4317   12.3034    2.2913    6.8715    7.2188    2.9338    0.2273    2.5731    4.1721   37.0000 
12632.9984   -0.0008   97.1635   82.9414    2.3898   12.5527    2.2233    7.7933    7.7499    3.4344    0.1991    2.5860    4.1559   37.0000 
12633.4984   -0.0044  102.9707   83.8949    2.4117   12.7301    2.1750    5.7526    5.7240    3.7499    0.1888    2.5818    4.0946   37.0000 
12633.9984    0.0386  110.3841   88.4269    2.6397   12.8457    2.1492    5.7158    5.7086    3.4763    0.1965    2.5762    3.9755   37.0000 
12634.4984    0.0530  114.9111   90.6826    2.7338   13.0164    1.9915    5.6029    5.6276    3.3797    0.2174    2.5566    3.9745   37.0000 
12634.9984    0.0422  111.8698   86.4025    2.6277   12.2678    2.1549    5.5500    5.6171    3.2213    0.2227    2.5574    4.0105   37.0000 
12635.4984    0.0171  106.0400   82.7370    2.5260   11.6904    1.7000    9.0469    9.2715    3.4088    0.2108    2.5645    4.1133   37.0000 
12635.9984   -0.0188  100.0492   77.4360    2.2937   11.3542    1.3496    7.5290    7.7992    4.0151    0.1928    2.5804    4.1715   37.0000 
12636.4984   -0.0547   98.5500   77.2147    2.2628   11.4638    1.3073    6.1909    6.3577    4.7361    0.1729    2.5917    4.1546   37.0000 
12636.9984    0.0099   99.9864   80.4132    2.3345   12.0683    1.5038    6.2366    6.3920    3.5033    0.1826    2.5895    4.0741   37.0000 
12637.4984    0.0027  102.5983   83.7755    2.4430   12.5087    1.8080    6.3670    6.4523    3.5100    0.1936    2.5796    3.9899   37.0000 
12637.9984    0.0315  108.1527   83.3991    2.3981   12.6516    2.2792    6.3381    6.2985    3.4559    0.2132    2.5660    3.9387   37.0000 
12638.4984    0.0315  108.2653   84.7665    2.5057   12.4593    2.3992    6.3271    6.1925    3.4298    0.2181    2.5614    3.9031   37.0000 
12638.9984    0.0530  106.9974   85.1119    2.5290   12.4332    2.4793    6.6633    6.3939    3.6336    0.2219    2.5586    3.9446   37.0000 
12639.4984    0.0422  101.8165   81.6570    2.3743   12.2330    2.5276    6.7918    6.4117    3.6524    0.2085    2.5694    4.0169   37.0000 
12639.9984   -0.0116   96.7829   76.5826    2.1708   11.8004    2.2576   10.9772   10.2605    4.7187    0.1968    2.5918    4.0895   37.0000 
12640.4984   -0.0332   95.5514   76.6706    2.0842   12.3355    2.0534    8.0535    7.6607    5.1109    0.1886    2.6090    4.0565   37.0000 
12640.9984   -0.0044   98.4796   78.2951    2.0991   12.7683    2.4682    5.5476    5.3547    3.3011    0.2068    2.6049    3.9849   37.0000 
12641.4984    0.0207  107.3497   84.2499    2.2695   13.6765    2.6589    5.3503    5.2496    3.1984    0.2179    2.5868    3.8974   37.0000 
12641.9984    0.0099  111.1797   84.2218    2.2996   13.4910    2.8360    5.7405    5.6956    3.2195    0.2370    2.5792    3.8074   37.0000 
12642.4984    0.0171  111.1795   84.0487    2.3392   13.2041    2.6861    5.9936    5.9859    3.5362    0.2350    2.5867    3.6997   37.0000 
12642.9984    0.0458  108.1174   84.6568    2.3360   13.4176    2.6212    5.9383    5.9493    3.5420    0.2261    2.5914    3.6400   37.0000 
12643.4984    0.0530  108.4550   85.9202    2.4012   13.4404    2.4961    5.8323    5.8800    3.5064    0.2128    2.5856    3.6619   37.0000 
12643.9984    0.0458  107.7789   85.1789    2.3582   13.4544    2.3988    6.1868    6.2626    3.5517    0.2003    2.5765    3.7242   37.0000 
12644.4984    0.0386  111.0591   82.7103    2.2509   13.2925    2.4293    6.3070    6.3413    3.7570    0.2110    2.5730    3.7680   37.0000 
12644.9984    0.0638  113.8260   85.0779    2.3233   13.6269    2.6168    5.7814    5.7243    3.5210    0.2090    2.5740    3.7829   37.0000 
12645.4984    0.0458  118.8037   84.3915    2.2875   13.6167    2.9520    5.6054    5.4181    3.4158    0.2195    2.5793    3.7855   37.0000 
12645.9984    0.0602  114.9743   84.8981    2.3813   13.2298    3.0046    5.6129    5.3314    3.6617    0.2149    2.5795    3.8070   37.0000 
12646.4984   -0.0008  115.5019   78.2369    2.2114   12.0921    2.9393    5.8176    5.4573    3.6831    0.2168    2.5829    3.8246   37.0000 
12646.9984    0.0171  108.8354   74.0060    2.1150   11.3027    3.0975    6.2972    5.8525    3.6722    0.2156    2.5790    3.8527   37.0000 
12647.4984    0.0422  109.3842   71.7866    2.0256   11.1155    3.3109    6.6784    6.1515    3.6857    0.2181    2.5829    3.8468   37.0000 
12647.9984    0.0386  106.7654   73.1283    2.0578   11.3568    3.5611    6.9047    6.3620    3.7356    0.2124    2.5790    3.8529   37.0000 
12648.4984    0.0422  111.4958   74.7231    2.1384   11.3952    3.7707    7.0938    6.5501    3.7516    0.2082    2.5746    3.8468   37.0000 
12648.9984    0.0458  112.6579   77.3269    2.1553   12.1291    3.8534    7.2768    6.7133    3.7892    0.2039    2.5693    3.8324   37.0000 
12649.4984    0.0422  108.5187   78.6969    2.1655   12.5083    3.9207    7.5491    6.8855    3.9065    0.2099    2.5725    3.8072   37.0000 
12649.9984    0.0386  106.3367   79.3580    2.2140   12.4358    3.8085    7.5224    6.8017    3.8745    0.2117    2.5728    3.8214   37.0000 
12650.4984    0.0422  105.9773   75.4681    2.0932   11.8976    3.7000    7.5528    6.7862    3.8911    0.2086    2.5688    3.8753   37.0000 
12650.9984    0.0386  111.5734   74.3103    2.1267   11.3312    3.7984    7.4213    6.6130    3.8846    0.2025    2.5615    3.9332   37.0000 
12651.4984    0.0458  111.2776   71.1820    2.0810   10.5977    3.8654    7.1017    6.2780    3.7323    0.2035    2.5635    3.9876   37.0000 
