~VERSION INFORMATION
 VERS.                 2.0:   CWLS LOG ASCII STANDARD - VERSION 2.0
 WRAP.                  NO:   SINGLE LINE PER DEPTH STEP
 CREA.                 20/03/2018 14:41:29
#CREATED USING DSPetro VERSION 5000.10.1.3 BY H191660 ON 20/03/2018 14:41:29
~WELL INFORMATION
#MNEM.UNIT       DATA                          DESCRIPTION MNEMONIC
#---------      ---------------------------   --------------------------
 STRT    .FT        325.3294                  : START DEPTH
 STOP    .FT        12308.5971                : STOP DEPTH
 STEP    .FT        1.6404                    : STEP VALUE
 NULL    .      -999.0000                     : NULL VALUE
 DATE    .      20/03/2018                    : LAS file Creation Date
 WELL .      UNIVERSITY_19-5             : Well Name
 COMP .      Neftex Exploration Insights : Company
 FLD  .      PHANTOM (WOLFCAMP)          : Field
 UWI  .      208                         : Unique Well Identifier (UWI)
 LOC  .                                  : Location
 RWS  .      -999                        : Def_Rw
 WST  .      -999                        : Def_Rwt
 SRVC .                                  : Contractor
~CURVE INFORMATION
#MNEM              UNIT       API CODE   Curve Type Comments
#----------  --------------- ----------  ---------- -----------
 DEPTH      .FT                        : Depth       
 DEPTH      .FT                        : Depth       
 BS         .inch                      : BitSize     
 CAL_INCH   .inch                      :             Caliper Log - A representation of the measured diameter of a borehole along its depth
 GR_API     .API                       : GammaRay    Gamma Ray (API) - Measures the intensity of natural gamma-ray radiation emitted from formations containing radioactive elements, such as K, Th and U
 SGR_API    .API                       : GammaRay    Spectral Gamma Ray - Total gamma calibrated to API, measured using a spectoral gamma array tool
 CGR_API    .API                       : GammaRay    Corrected / Computed Gamma Ray - Radiation with the Uranium component removed. Also known as a 'carbonate gamma ray'
 TH_PPM     .ppm                       : Spectral    Thorium Abundance (SGR) - The quantitative elemental abundace of Thorium derived from the Spectral Gamma Ray Log
 K_per        .PC                        :             Potassium Abundance (SGR) - The quantitative elemental abundace of Potassium derived from the Spectral Gamma Ray Log. Also wt_%
 U_PPM      .ppm                       :             Uranium Abundance (SGR) - The quantitative elemental abundace of Uranium derived from the Spectral Gamma Ray Log
 ThK        .PPM                       : Spectral    
 ThU        .PPM                       : Spectral    
 SRES       .ohmm                      :             10" array induction, two foot resistivity
 MRES       .ohm.m                     :             30" array induction, two foot resistivity
 DRES       .ohmm                      :             90" array induction, two foot resistivity log - units of ohmm
 DT_US_FT   .us/ft                     :             Interval Transit Time: Compressional Wave - Evaluates the time it takes for a compressional wave to traverse a fixed distance
 NPHI_RATIO .ratio                     :             Neutron Porosity - Measured with an neutron logging device calibrated to a given matrix (limestone, sandstone and dolomite)
 RHOB_G_CC  .g/cc                      :             Bulk Density - Measures the density of bulk material, including any void space or other materials contained in the subject volume
 DRHO_G_CC  .g/cc                      :             Density Correction - Investigates the correction to the Bulk Density log; used as an indication of hole condition to validate the Bulk Density measure
 PEF_B_E    .b/e-                      : PEF         Photoelectric Factor - A log of photoelectric absorption properties. Often expressed in an approximation unit barns/electron (b/e-)
 LITH       .                          : LITH        Lithology Curve
~A  DEPTH   DEPTH       BS     CAL_INCH   GR_API   SGR_API   CGR_API    TH_PPM     K_per      U_PPM      ThK       ThU       SRES      MRES      DRES    DT_US_FT NPHI_RAT~ RHOB_G_C~ DRHO_G_C~  PEF_B_E     LITH   
# ...
4938.1903 4938.1903 -999.0000 -999.0000   60.4719 -999.0000 -999.0000    7.2055 -999.0000    2.2182 -999.0000 -999.0000    1.7701    2.7237    3.9096   71.6769    0.1318    2.4862   -0.0015    2.6603   36.0000 
4939.8307 4939.8307 -999.0000 -999.0000   63.2126 -999.0000 -999.0000    8.1060 -999.0000    2.0696 -999.0000 -999.0000    1.9512    3.4101    5.0766   71.7668    0.1342    2.5036    0.0003    2.5864   36.0000 
4941.4711 4941.4711 -999.0000 -999.0000   66.7573 -999.0000 -999.0000    8.0015 -999.0000    1.4074 -999.0000 -999.0000    1.6774    2.7428    4.0460   73.2687    0.1442    2.4784    0.0008    2.5210   36.0000 
4943.1115 4943.1115 -999.0000 -999.0000   61.7515 -999.0000 -999.0000    8.3221 -999.0000    1.1053 -999.0000 -999.0000    1.6370    2.6698    3.9621   76.2023    0.1637    2.4436   -0.0016    2.5031   36.0000 
4944.7520 4944.7520 -999.0000 -999.0000   61.6631 -999.0000 -999.0000    7.4180 -999.0000    1.7998 -999.0000 -999.0000    1.5709    2.4336    3.5650   77.6702    0.1549    2.4545    0.0029    2.4256   36.0000 
4946.3924 4946.3924 -999.0000 -999.0000   61.1967 -999.0000 -999.0000    6.1012 -999.0000    2.5745 -999.0000 -999.0000    1.6638    2.8665    4.3271   73.0349    0.1539    2.5018    0.0038    2.5065   36.0000 
4948.0328 4948.0328 -999.0000 -999.0000   58.4070 -999.0000 -999.0000    6.6731 -999.0000    2.4723 -999.0000 -999.0000    1.6909    2.8965    4.2817   74.0840    0.1256    2.4874   -0.0010    2.5552   36.0000 
4949.6732 4949.6732 -999.0000 -999.0000   60.7715 -999.0000 -999.0000    7.2383 -999.0000    2.3652 -999.0000 -999.0000    1.5809    2.2663    3.2427   77.4425    0.1536    2.4328   -0.0045    2.4320   36.0000 
4951.3136 4951.3136 -999.0000 -999.0000   54.9877 -999.0000 -999.0000    7.3900 -999.0000    1.8403 -999.0000 -999.0000    1.5243    2.1940    3.0837   77.6017    0.1652    2.4370   -0.0011    2.4524   36.0000 
4952.9541 4952.9541 -999.0000 -999.0000   53.7813 -999.0000 -999.0000    7.0459 -999.0000    1.2902 -999.0000 -999.0000    1.5447    2.1733    3.0865   78.4868    0.1625    2.4666    0.0069    2.3649   36.0000 
4954.5945 4954.5945 -999.0000 -999.0000   49.5858 -999.0000 -999.0000    5.6391 -999.0000    1.0998 -999.0000 -999.0000    1.5438    2.0641    2.9295   83.1510    0.1801    2.3851   -0.0005    2.2522   27.0000 
4956.2349 4956.2349 -999.0000 -999.0000   42.3855 -999.0000 -999.0000    4.8558 -999.0000    0.6458 -999.0000 -999.0000    1.5345    2.0794    2.9577   87.2599    0.1912    2.3544    0.0006    2.2763   27.0000 
4957.8753 4957.8753 -999.0000 -999.0000   37.6404 -999.0000 -999.0000    4.6719 -999.0000    0.6825 -999.0000 -999.0000    1.5322    2.1259    3.0496   85.2634    0.1558    2.3618   -0.0003    2.3478   27.0000 
4959.5157 4959.5157 -999.0000 -999.0000   46.3963 -999.0000 -999.0000    5.6738 -999.0000    0.5506 -999.0000 -999.0000    1.4655    1.9585    2.7778   84.5352    0.1805    2.3800    0.0032    2.2121   27.0000 
4961.1562 4961.1562 -999.0000 -999.0000   42.9544 -999.0000 -999.0000    4.9817 -999.0000    0.6118 -999.0000 -999.0000    1.3795    1.8765    2.6670   84.4931    0.2134    2.3650    0.0009    2.2212   27.0000 
4962.7966 4962.7966 -999.0000 -999.0000   47.0205 -999.0000 -999.0000    4.4864 -999.0000    0.6666 -999.0000 -999.0000    1.3347    1.7390    2.4231   84.9858    0.1921    2.3634    0.0015    2.2052   27.0000 
4964.4370 4964.4370 -999.0000 -999.0000   50.4400 -999.0000 -999.0000    4.5448 -999.0000    1.0782 -999.0000 -999.0000    1.3443    1.8133    2.5285   83.9017    0.1886    2.3662    0.0028    2.2283   27.0000 
4966.0774 4966.0774 -999.0000 -999.0000   42.9530 -999.0000 -999.0000    3.9416 -999.0000    0.8102 -999.0000 -999.0000    1.2959    1.7066    2.3572   85.5499    0.1996    2.3699    0.0059    2.2078   27.0000 
4967.7178 4967.7178   12.2500 -999.0000   43.9010 -999.0000 -999.0000    5.1944 -999.0000    0.8802 -999.0000 -999.0000    1.2916    1.6710    2.2940   85.1201    0.1992    2.3677    0.0019    2.2484   27.0000 
4969.3583 4969.3583   12.2500 -999.0000   47.0019 -999.0000 -999.0000    5.5025 -999.0000    0.7625 -999.0000 -999.0000    1.2749    1.7241    2.3797   84.8304    0.2045    2.3699   -0.0002    2.2371   27.0000 
4970.9987 4970.9987   12.2500 -999.0000   42.9965 -999.0000 -999.0000    5.4816 -999.0000    0.8339 -999.0000 -999.0000    1.2152    1.6599    2.2282   83.0867    0.1841    2.3783    0.0014    2.2664   27.0000 
4972.6391 4972.6391   12.2500 -999.0000   39.5733 -999.0000 -999.0000    4.7604 -999.0000    0.9682 -999.0000 -999.0000    1.0987    1.5017    1.9089   83.5749    0.2003    2.3771   -0.0004    2.2375   27.0000 
4974.2795 4974.2795   12.2500 -999.0000   40.5329 -999.0000 -999.0000    4.8286 -999.0000    1.2826 -999.0000 -999.0000    1.1290    1.6237    2.0675   85.2691    0.1957    2.3792    0.0017    2.1942   27.0000 
4975.9199 4975.9199   12.2500 -999.0000   49.2139 -999.0000 -999.0000    4.8553 -999.0000    1.5443 -999.0000 -999.0000    1.1605    1.6436    2.1103   82.8077    0.1755    2.3923    0.0022    2.2618   27.0000 
4977.5604 4977.5604   12.2500 -999.0000   46.1581 -999.0000 -999.0000    4.2236 -999.0000    1.4884 -999.0000 -999.0000    1.0993    1.5091    1.9205   80.9441    0.1702    2.4018    0.0006    2.2311   27.0000 
4979.2008 4979.2008   12.2500 -999.0000   46.1275 -999.0000 -999.0000    4.4091 -999.0000    1.1187 -999.0000 -999.0000    1.1228    1.5802    1.9889   80.2974    0.1548    2.3998    0.0005    2.2526   27.0000 
4980.8412 4980.8412   12.2500 -999.0000   50.0374 -999.0000 -999.0000    4.6884 -999.0000    0.9562 -999.0000 -999.0000    1.1086    1.5468    1.9217   80.7379    0.1622    2.3997    0.0010    2.2170   27.0000 
4982.4816 4982.4816   12.2500 -999.0000   46.4757 -999.0000 -999.0000    5.9236 -999.0000    0.3602 -999.0000 -999.0000    1.1076    1.5273    1.8431   81.4497    0.1988    2.3918    0.0010    2.2481   27.0000 
4984.1220 4984.1220   12.2500 -999.0000   43.9191 -999.0000 -999.0000    6.3542 -999.0000    0.3769 -999.0000 -999.0000    1.1848    1.6662    1.9503   79.8753    0.1717    2.4058   -0.0011    2.2181   27.0000 
4985.7625 4985.7625   12.2500 -999.0000   44.9819 -999.0000 -999.0000    6.3020 -999.0000    0.0310 -999.0000 -999.0000    1.1479    1.5050    1.7188   81.2556    0.1789    2.3817   -0.0013    2.2673   27.0000 
4987.4029 4987.4029   12.2500 -999.0000   56.0416 -999.0000 -999.0000    7.3004 -999.0000    0.4249 -999.0000 -999.0000    1.3332    1.8010    2.0626   80.4189    0.1614    2.4192    0.0021    2.3971   27.0000 
4989.0433 4989.0433   12.2500 -999.0000   51.4738 -999.0000 -999.0000    6.5073 -999.0000    0.7210 -999.0000 -999.0000    1.7162    2.3626    2.7191   77.4660    0.1575    2.4554    0.0027    2.4961   27.0000 
4990.6837 4990.6837   12.2500 -999.0000   57.5416 -999.0000 -999.0000    6.3011 -999.0000    1.3927 -999.0000 -999.0000    1.7685    2.4093    2.7758   76.3522    0.1558    2.4629   -0.0003    2.5208   27.0000 
4992.3241 4992.3241   12.2500 -999.0000   60.0167 -999.0000 -999.0000    6.8784 -999.0000    1.7864 -999.0000 -999.0000    1.8088    2.6023    3.0229   75.5444    0.1448    2.4810    0.0000    2.5029   36.0000 
4993.9646 4993.9646   12.2500 -999.0000   62.1129 -999.0000 -999.0000    6.6749 -999.0000    1.9493 -999.0000 -999.0000    1.8539    2.8956    3.3846   75.4636    0.1367    2.4806   -0.0010    2.5202   36.0000 
4995.6050 4995.6050   12.2500 -999.0000   60.6706 -999.0000 -999.0000    6.7050 -999.0000    2.2090 -999.0000 -999.0000    1.7480    2.5355    2.9276   76.4254    0.1451    2.4696    0.0009    2.4646   36.0000 
4997.2454 4997.2454   12.2500 -999.0000   53.8989 -999.0000 -999.0000    6.3811 -999.0000    2.1634 -999.0000 -999.0000    1.7033    2.4700    2.8229   76.7893    0.1675    2.4464    0.0000    2.4836   36.0000 
4998.8858 4998.8858   12.2500 -999.0000   65.3110 -999.0000 -999.0000    6.6041 -999.0000    2.2246 -999.0000 -999.0000    1.7140    2.4912    2.7726   76.1065    0.1643    2.4673    0.0009    2.5256   36.0000 
