~VERSION INFORMATION
 VERS.                 2.0:   CWLS LOG ASCII STANDARD - VERSION 2.0
 WRAP.                  NO:   SINGLE LINE PER DEPTH STEP
 CREA.                 20/03/2018 14:41:29
#CREATED USING DSPetro VERSION 5000.10.1.3 BY H191660 ON 20/03/2018 14:41:29
~WELL INFORMATION
#MNEM.UNIT       DATA                          DESCRIPTION MNEMONIC
#---------      ---------------------------   --------------------------
 STRT    .FT        325.3294                  : START DEPTH
 STOP    .FT        12308.5971                : STOP DEPTH
 STEP    .FT        1.6404                    : STEP VALUE
 NULL    .      -999.0000                     : NULL VALUE
 DATE    .      20/03/2018                    : LAS file Creation Date
 WELL .      UNIVERSITY_19-5             : Well Name
 COMP .      Neftex Exploration Insights : Company
 FLD  .      PHANTOM (WOLFCAMP)          : Field
 UWI  .      208                         : Unique Well Identifier (UWI)
 LOC  .                                  : Location
 RWS  .      -999                        : Def_Rw
 WST  .      -999                        : Def_Rwt
 SRVC .                                  : Contractor
~CURVE INFORMATION
#MNEM              UNIT       API CODE   Curve Type Comments
#----------  --------------- ----------  ---------- -----------
 DEPTH      .FT                        : Depth       
 DEPTH      .FT                        : Depth       
 BS         .inch                      : BitSize     
 CAL_INCH   .inch                      :             Caliper Log - A representation of the measured diameter of a borehole along its depth
 GR_API     .API                       : GammaRay    Gamma Ray (API) - Measures the intensity of natural gamma-ray radiation emitted from formations containing radioactive elements, such as K, Th and U
 SGR_API    .API                       : GammaRay    Spectral Gamma Ray - Total gamma calibrated to API, measured using a spectoral gamma array tool
 CGR_API    .API                       : GammaRay    Corrected / Computed Gamma Ray - Radiation with the Uranium component removed. Also known as a 'carbonate gamma ray'
 TH_PPM     .ppm                       : Spectral    Thorium Abundance (SGR) - The quantitative elemental abundace of Thorium derived from the Spectral Gamma Ray Log
 K_per        .PC                        :             Potassium Abundance (SGR) - The quantitative elemental abundace of Potassium derived from the Spectral Gamma Ray Log. Also wt_%
 U_PPM      .ppm                       :             Uranium Abundance (SGR) - The quantitative elemental abundace of Uranium derived from the Spectral Gamma Ray Log
 ThK        .PPM                       : Spectral    
 ThU        .PPM                       : Spectral    
 SRES       .ohmm                      :             10" array induction, two foot resistivity
 MRES       .ohm.m                     :             30" array induction, two foot resistivity
 DRES       .ohmm                      :             90" array induction, two foot resistivity log - units of ohmm
 DT_US_FT   .us/ft                     :             Interval Transit Time: Compressional Wave - Evaluates the time it takes for a compressional wave to traverse a fixed distance
 NPHI_RATIO .ratio                     :             Neutron Porosity - Measured with an neutron logging device calibrated to a given matrix (limestone, sandstone and dolomite)
 RHOB_G_CC  .g/cc                      :             Bulk Density - Measures the density of bulk material, including any void space or other materials contained in the subject volume
 DRHO_G_CC  .g/cc                      :             Density Correction - Investigates the correction to the Bulk Density log; used as an indication of hole condition to validate the Bulk Density measure
 PEF_B_E    .b/e-                      : PEF         Photoelectric Factor - A log of photoelectric absorption properties. Often expressed in an approximation unit barns/electron (b/e-)
 LITH       .                          : LITH        Lithology Curve
~A  DEPTH   DEPTH       BS     CAL_INCH   GR_API   SGR_API   CGR_API    TH_PPM     K_per      U_PPM      ThK       ThU       SRES      MRES      DRES    DT_US_FT NPHI_RAT~ RHOB_G_C~ DRHO_G_C~  PEF_B_E     LITH   
# ...
9301.7073 9301.7073   12.2500 -999.0000   22.4878 -999.0000 -999.0000    2.6619 -999.0000    1.5816 -999.0000 -999.0000    2.8764   47.6386  300.7440   64.7518    0.0654    2.5866    0.0238    4.0434   18.0000 
9303.3478 9303.3478   12.2500 -999.0000   15.7979 -999.0000 -999.0000    1.6292 -999.0000    1.0513 -999.0000 -999.0000    2.9607   49.3490 1020.0810   56.7890    0.0169    2.6186    0.0178    4.0637   18.0000 
9304.9882 9304.9882   12.2500 -999.0000   13.5481 -999.0000 -999.0000    0.7184 -999.0000    0.6987 -999.0000 -999.0000    2.9223   47.8749 1211.7450   56.1239    0.0163    2.6207    0.0054    4.7417   18.0000 
9306.6286 9306.6286   12.2500 -999.0000   18.0261 -999.0000 -999.0000    1.2254 -999.0000    0.9070 -999.0000 -999.0000    2.9293   50.4603  786.9237   57.8080    0.0194    2.6233    0.0076    4.4945   18.0000 
9308.2690 9308.2690   12.2500 -999.0000   18.7816 -999.0000 -999.0000    1.0531 -999.0000    1.1150 -999.0000 -999.0000    2.9164   48.9812 1331.9200   57.3988    0.0178    2.6148   -0.0028    4.1135   18.0000 
9309.9094 9309.9094   12.2500 -999.0000   16.4345 -999.0000 -999.0000    1.2275 -999.0000    1.3963 -999.0000 -999.0000    2.8880   49.4084 1487.5890   57.8765    0.0118    2.6012    0.0007    4.1672   18.0000 
9311.5499 9311.5499   12.2500 -999.0000   17.2232 -999.0000 -999.0000    1.0254 -999.0000    1.2833 -999.0000 -999.0000    2.9081   50.5644 1090.5740   57.5933    0.0145    2.6062   -0.0009    4.1596   18.0000 
9313.1903 9313.1903   12.2500 -999.0000   14.9025 -999.0000 -999.0000    0.8837 -999.0000    1.1207 -999.0000 -999.0000    2.8371   47.7997 1195.8929   56.2001    0.0063    2.6307    0.0219    3.7527   18.0000 
9314.8307 9314.8307   12.2500 -999.0000   15.6722 -999.0000 -999.0000    1.3511 -999.0000    0.8381 -999.0000 -999.0000    2.8719   48.3504 1047.9301   57.1266    0.0087    2.6258    0.0008    4.0377   18.0000 
9316.4711 9316.4711   12.2500 -999.0000   16.3525 -999.0000 -999.0000    1.7143 -999.0000    0.8946 -999.0000 -999.0000    2.8081   43.8469 1236.9680   56.3360    0.0102    2.6332    0.0104    4.2050   18.0000 
9318.1115 9318.1115   12.2500 -999.0000   13.0176 -999.0000 -999.0000    1.2392 -999.0000    0.6538 -999.0000 -999.0000    2.8548   41.3976 1109.1190   55.0368    0.0029    2.6468    0.0061    3.9823   18.0000 
9319.7520 9319.7520   12.2500 -999.0000   29.0467 -999.0000 -999.0000    2.3822 -999.0000    2.2251 -999.0000 -999.0000    2.9098   35.7343  211.3071   62.3336    0.0449    2.5763   -0.0043    3.9940   18.0000 
9321.3924 9321.3924   12.2500 -999.0000   21.6556 -999.0000 -999.0000    1.5686 -999.0000    1.3243 -999.0000 -999.0000    2.7428   34.0706  328.0917   58.0513    0.0197    2.5658   -0.0111    4.1716   18.0000 
9323.0328 9323.0328   12.2500 -999.0000   37.1480 -999.0000 -999.0000    2.4730 -999.0000    2.3205 -999.0000 -999.0000    2.6308   31.2544  336.8333   65.7862    0.1037    2.5286    0.0001    3.6042   18.0000 
9324.6732 9324.6732   12.2500 -999.0000   29.6480 -999.0000 -999.0000    1.9007 -999.0000    1.9822 -999.0000 -999.0000    2.5416   31.5103  526.2591   65.1267    0.0617    2.5660    0.0043    3.9270   18.0000 
9326.3136 9326.3136   12.2500 -999.0000   25.5915 -999.0000 -999.0000    2.5089 -999.0000    1.7504 -999.0000 -999.0000    2.6230   28.8981  206.4865   64.2659    0.0672    2.6010    0.0154    4.0751   18.0000 
9327.9541 9327.9541   12.2500 -999.0000   38.0119 -999.0000 -999.0000    4.4113 -999.0000    2.3109 -999.0000 -999.0000    2.6552   26.3835  124.0487   69.0572    0.0871    2.5696    0.0334    3.3613   18.0000 
9329.5945 9329.5945   12.2500 -999.0000   32.8375 -999.0000 -999.0000    2.8366 -999.0000    1.0713 -999.0000 -999.0000    2.5963   32.1284  327.3154   61.7844    0.0450    2.6511    0.0695    3.3410   22.0000 
9331.2349 9331.2349   12.2500 -999.0000   53.8151 -999.0000 -999.0000    6.9325 -999.0000    2.5597 -999.0000 -999.0000    2.7153   26.2381   71.5070   75.2023    0.1745    2.4933    0.0053    2.9735   22.0000 
9332.8753 9332.8753   12.2500 -999.0000   53.0562 -999.0000 -999.0000    5.3445 -999.0000    2.4268 -999.0000 -999.0000    2.7627   28.3952   69.9368   71.6075    0.1393    2.5141    0.0186    3.3330   22.0000 
9334.5157 9334.5157   12.2500 -999.0000   40.8038 -999.0000 -999.0000    4.6589 -999.0000    2.1365 -999.0000 -999.0000    2.8980   43.2697  189.0388   69.1104    0.1178    2.5231    0.0099    3.6269   18.0000 
9336.1562 9336.1562   12.2500 -999.0000   32.4816 -999.0000 -999.0000    3.6546 -999.0000    1.9592 -999.0000 -999.0000    2.9109   43.9763  236.9482   64.1495    0.0801    2.6038    0.0445    4.1441   18.0000 
9337.7966 9337.7966   12.2500 -999.0000   20.1256 -999.0000 -999.0000    1.6585 -999.0000    1.3354 -999.0000 -999.0000    3.0795   47.9960  283.0210   62.4246    0.0368    2.6336    0.0257    4.2685   18.0000 
9339.4370 9339.4370   12.2500 -999.0000   27.1913 -999.0000 -999.0000    1.8783 -999.0000    2.1462 -999.0000 -999.0000    3.0974   47.8178  214.4946   63.5015    0.0925    2.5829    0.0381    4.5355   18.0000 
9341.0774 9341.0774   12.2500 -999.0000   20.2854 -999.0000 -999.0000    1.3211 -999.0000    1.5274 -999.0000 -999.0000    3.0742   52.3853  419.7409   56.6008    0.0372    2.6983    0.0333    5.2525   18.0000 
9342.7178 9342.7178   12.2500 -999.0000   39.6419 -999.0000 -999.0000    2.7722 -999.0000    2.8804 -999.0000 -999.0000    3.0697   44.9742  241.5220   63.9271    0.1192    2.5355   -0.0037    3.8084   18.0000 
9344.3583 9344.3583   12.2500 -999.0000   40.0000 -999.0000 -999.0000    3.6905 -999.0000    2.8530 -999.0000 -999.0000    2.8835   43.7502  368.5438   70.6428    0.1433    2.5434    0.0003    3.6373   22.0000 
9345.9987 9345.9987   12.2500 -999.0000   31.9757 -999.0000 -999.0000    2.7067 -999.0000    2.2411 -999.0000 -999.0000    2.9090   42.5205  491.8468   67.2191    0.0930    2.5647   -0.0004    4.1111   18.0000 
9347.6391 9347.6391   12.2500 -999.0000   23.6006 -999.0000 -999.0000    1.7353 -999.0000    1.3790 -999.0000 -999.0000    2.7433   42.1162  461.5263   61.3843    0.0408    2.6149    0.0007    4.2891   18.0000 
9349.2795 9349.2795   12.2500 -999.0000   67.5610 -999.0000 -999.0000    6.7333 -999.0000    4.0906 -999.0000 -999.0000    2.6816   29.6523  100.6761   78.4535    0.1688    2.5203    0.0016    3.1681   22.0000 
9350.9199 9350.9199   12.2500 -999.0000   86.5078 -999.0000 -999.0000    9.3364 -999.0000    4.6629 -999.0000 -999.0000    2.6619   30.6205  128.9398   87.9280    0.2519    2.4552   -0.0010    2.7114   37.0000 
9352.5604 9352.5604   12.2500 -999.0000   81.6751 -999.0000 -999.0000    7.6363 -999.0000    3.8837 -999.0000 -999.0000    2.6637   24.0596   58.3953   86.2239    0.2496    2.4726    0.0013    2.7730   37.0000 
9354.2008 9354.2008   12.2500 -999.0000   98.1404 -999.0000 -999.0000    9.5839 -999.0000    4.2835 -999.0000 -999.0000    2.6773   23.2625   54.8382   83.6544    0.2295    2.4749   -0.0015    2.6241   37.0000 
9355.8412 9355.8412   12.2500 -999.0000   84.9970 -999.0000 -999.0000    7.4614 -999.0000    3.9131 -999.0000 -999.0000    2.6693   25.5227   67.1958   81.8719    0.2663    2.4937    0.0016    2.6410   37.0000 
9357.4816 9357.4816   12.2500 -999.0000   65.4101 -999.0000 -999.0000    7.2967 -999.0000    3.2955 -999.0000 -999.0000    2.7906   26.9109   79.6856   77.2973    0.1683    2.4990   -0.0005    2.8219   37.0000 
9359.1220 9359.1220   12.2500 -999.0000   83.6199 -999.0000 -999.0000    9.6354 -999.0000    3.2460 -999.0000 -999.0000    2.7740   28.2450   89.6076   82.3488    0.2138    2.4932    0.0035    2.8161   37.0000 
9360.7625 9360.7625   12.2500 -999.0000   80.7648 -999.0000 -999.0000    8.5986 -999.0000    4.0190 -999.0000 -999.0000    2.7097   21.2742   49.4702   81.7431    0.2061    2.5165    0.0012    2.7435   37.0000 
9362.4029 9362.4029   12.2500 -999.0000   83.5232 -999.0000 -999.0000    8.6973 -999.0000    4.4052 -999.0000 -999.0000    2.6213   24.2109   74.5539   80.2677    0.2167    2.5040    0.0027    2.7296   37.0000 
