~VERSION INFORMATION
 VERS.                 2.0:   CWLS LOG ASCII STANDARD - VERSION 2.0
 WRAP.                  NO:   SINGLE LINE PER DEPTH STEP
 CREA.                 20/03/2018 14:55:32
#CREATED USING DSPetro VERSION 5000.10.1.3 BY H191660 ON 20/03/2018 14:55:32
~WELL INFORMATION
#MNEM.UNIT       DATA                          DESCRIPTION MNEMONIC
#---------      ---------------------------   --------------------------
 STRT    .FT        10799.4984                : START DEPTH
 STOP    .FT        13010.9983                : STOP DEPTH
 STEP    .FT        0.5000                    : STEP VALUE
 NULL    .      -999.0000                     : NULL VALUE
 DATE    .      20/03/2018                    : LAS file Creation Date
 WELL  .      UNIVERSITY_21-17             : Well Name
 COMP  .      Neftex Exploration Insights  : Company
 FLD   .                                   : Field
 STATE .      Texas                        : State
 API   .      42475370100000               : API Number
 UWI   .      213                          : Unique Well Identifier (UWI)
 LOC   .                                   : Location
 LATI  .      -6235758.22                  : Latitude/Northing
 LONG  .      777123.41                    : Longitude/Easting
 RWS   .      -999                         : Def_Rw
 WST   .      -999                         : Def_Rwt
 CNTY  .      WARD                         : County
 SRVC  .      Diversified Well Logging LLC : Contractor
~CURVE INFORMATION
#MNEM              UNIT       API CODE   Curve Type Comments
#----------  --------------- ----------  ---------- -----------
 DEPTH      .FT                        : Depth       
 DCAL_INCH  .inch                      :             Differential Caliper - Evaluates the difference between the actual borehole diameter and bit size
 GR_API     .API                       : GammaRay    Gamma Ray (API) - Measures the intensity of natural gamma-ray radiation emitted from formations containing radioactive elements, such as K, Th and U
 CGR_API    .API                       : GammaRay    Corrected / Computed Gamma Ray - Radiation with the Uranium component removed. Also known as a 'carbonate gamma ray'
 K_per        .PC                        :             Potassium Abundance (SGR) - The quantitative elemental abundace of Potassium derived from the Spectral Gamma Ray Log. Also wt_%
 TH_PPM     .ppm                       : Spectral    Thorium Abundance (SGR) - The quantitative elemental abundace of Thorium derived from the Spectral Gamma Ray Log
 U_PPM      .ppm                       :             Uranium Abundance (SGR) - The quantitative elemental abundace of Uranium derived from the Spectral Gamma Ray Log
 RD_OHMM    .ohmm                      :             Unspecified Deep Resistivity - No accroynm or method of attainment is specified - units of ohmm
 RM_OHMM    .ohm.m                     :             Unspecified Medium Resistivity - No accroynm or method of attainment is specified
 MSFL_OHMM  .ohmm                      :             Micro-Spherically Focused Log - Measurement involves only the first few inches of the formation immediately adjacent to the borehole
 NPHI_RATIO .ratio                     :             Neutron Porosity - Measured with an neutron logging device calibrated to a given matrix (limestone, sandstone and dolomite)
 RHOZ_G_CC  .g/cc                      :             Formation Density - Measures the density of formation, including any void space or other materials contained in the subject volume
 PEF_B_E    .b/e-                      : PEF         Photoelectric Factor - A log of photoelectric absorption properties. Often expressed in an approximation unit barns/electron (b/e-)
 LITH       .                          : LITH        Lithology Curve
~A  DEPTH DCAL_INC~   GR_API   CGR_API     K_per      TH_PPM    U_PPM    RD_OHMM   RM_OHMM  MSFL_OHM~ NPHI_RAT~ RHOZ_G_C~  PEF_B_E     LITH   
# ...
11796.9984    0.0422  112.9886   78.6954    2.4623   10.7682    2.1996   20.7131   16.2766    3.4718    0.2316    2.5334    3.6056   37.0000 
11797.4984    0.0530  112.1437   78.3108    2.4206   10.8887    2.2172   19.6208   15.4313    3.5182    0.2370    2.5209    3.6494   37.0000 
11797.9984    0.0530  108.4477   76.7874    2.3464   10.8360    2.0589   18.1613   14.3222    3.4017    0.2270    2.5169    3.7542   37.0000 
11798.4984    0.0458  104.9632   75.7123    2.2891   10.8275    1.9106   17.2179   13.6358    1.8341    0.2168    2.5250    3.8636   37.0000 
11798.9984   -0.0116  103.5905   76.1912    2.3369   10.7012    1.7664   21.8892   15.5796    3.1445    0.2241    2.5396    3.8976   37.0000 
11799.4984    0.0315  105.0546   74.6039    2.2845   10.4997    2.0942   16.3309   11.6223    5.0798    0.2317    2.5505    3.8069   37.0000 
11799.9984    0.0638  102.2034   71.4961    2.1600   10.2348    2.1323   17.0979   12.6362    4.3954    0.2319    2.5448    3.6462   37.0000 
11800.4984    0.0961   99.7399   68.7441    2.0462   10.0206    2.4053   20.1359   15.9439    4.5071    0.2102    2.5314    3.5191   37.0000 
11800.9984    0.1104  100.7044   70.6763    2.0879   10.3951    2.3568   24.7002   21.2310    5.0792    0.2075    2.5144    3.4803   37.0000 
11801.4984    0.1176  105.8785   73.8927    2.1454   11.0879    2.6602   19.1364   17.6271    4.4601    0.2119    2.5187    3.4645   37.0000 
11801.9984    0.1248  111.7215   79.5012    2.3806   11.5065    2.5641   15.2677   14.4013    3.6837    0.2227    2.5242    3.4539   37.0000 
11802.4984    0.0853  111.2993   83.5390    2.5113   12.0326    2.4631   15.1325   14.3615    3.6799    0.2205    2.5291    3.4638   37.0000 
11802.9984    0.1176  113.5029   84.6654    2.5804   11.9886    2.8094   14.6796   13.7979    4.1605    0.2235    2.5176    3.5375   37.0000 
11803.4984    0.1284  111.2045   86.1745    2.6638   11.9822    2.8095   11.3242   10.2365    3.9774    0.2282    2.5151    3.6601   37.0000 
11803.9984    0.1463  116.1672   83.7215    2.6177   11.4675    3.1641   10.2222    8.8792    3.3426    0.2433    2.5146    3.8680   37.0000 
11804.4984    0.1463  108.4728   77.2761    2.3584   10.9233    2.8981   10.4140    8.8400    0.8740    0.2207    2.5250    4.1247   37.0000 
11804.9984    0.0817   98.7330   68.9372    2.1384    9.5428    2.5887   18.7647   15.9004    0.4225    0.1847    2.5547    4.2943   37.0000 
11805.4984    0.0315   93.1366   67.4785    2.0899    9.3603    2.4053   11.5605   10.7317    2.4575    0.1617    2.5848    4.1752   37.0000 
11805.9984    0.0745  101.2670   73.8594    2.2815   10.2795    2.4838    8.8904    8.3797    4.3225    0.1815    2.5827    3.8625   37.0000 
11806.4984    0.1032  115.3117   81.8260    2.6226   10.8320    2.9443    8.8662    8.5203    3.6663    0.2123    2.5514    3.5574   37.0000 
11806.9984    0.1248  123.2316   85.4001    2.7911   10.9895    2.8342    8.7747    8.5914    3.5836    0.2300    2.5179    3.4608   37.0000 
11807.4984    0.1248  124.3936   84.5358    2.7408   11.0071    3.1408    8.6278    8.5881    3.7295    0.2353    2.5220    3.4643   37.0000 
11807.9984    0.0961  124.6046   82.3615    2.6245   10.9921    3.2732    8.0049    8.1208    3.4503    0.2427    2.5324    3.5063   37.0000 
11808.4984    0.1391  122.5981   84.5680    2.6755   11.3996    3.0330    8.5811    8.8802    3.3092    0.2400    2.5354    3.5606   37.0000 
11808.9984    0.0745  117.4239   81.4107    2.6610   10.4748    3.3684    8.9044    9.2247    3.6972    0.2386    2.5112    3.7485   37.0000 
11809.4984    0.0602  112.5662   80.5291    2.6249   10.4042    3.2134    9.1044    9.0987    0.9067    0.2245    2.4832    3.9979   37.0000 
11809.9984    0.1104  112.0381   81.8221    2.6769   10.5138    3.2447    9.1392    9.1877    0.2325    0.2295    2.4772    4.1483   37.0000 
11810.4984    0.2827  114.8892   86.8313    2.7383   11.7565    2.9083    6.4062    6.5814    0.2161    0.2366    2.4873    4.1172   37.0000 
11810.9984    0.3868  116.3676   88.1775    2.7746   11.9748    3.0184    6.0545    6.3870    0.2524    0.2433    2.5069    3.9176   37.0000 
11811.4984    0.4083  114.6781   88.9531    2.8109   12.0113    3.1674    5.5732    5.9325    0.6286    0.2297    2.5265    3.7352   37.0000 
11811.9984    0.4299  114.5727   86.5460    2.6878   11.9613    3.2502    5.2320    5.5289    4.2634    0.2181    2.5433    3.5523   37.0000 
11812.4984    0.2145  118.3742   87.6712    2.6571   12.5016    3.3033    6.3980    6.7080    4.0543    0.2233    2.5470    3.4562   37.0000 
11812.9984    0.2360  116.5795   89.7734    2.7133   12.8452    3.2550    6.9934    7.3235    4.5380    0.2271    2.5322    3.3919   37.0000 
11813.4984    0.2576  120.9012   92.0347    2.7998   13.0631    3.1811    6.8194    7.0584    3.8469    0.2327    2.5231    3.3789   37.0000 
11813.9984    0.3007  122.5911   91.0883    2.7650   12.9639    3.5642    6.6123    6.6422    3.7664    0.2558    2.5147    3.4250   37.0000 
11814.4984    0.1822  126.4975   88.7414    2.5419   13.5186    3.4043    5.2913    5.1055    3.2369    0.2924    2.5160    3.5719   37.0000 
11814.9984    0.0673  112.8831   82.5396    2.3170   12.8500    3.2932    6.5205    6.0453    2.8293    0.2659    2.5342    3.8272   37.0000 
11815.4984    0.0099   88.0680   63.6869    1.7175   10.3262    2.9215   18.6362   16.7658    2.9950    0.1924    2.5797    4.1509   37.0000 
11815.9984   -0.0439   64.6257   42.8269    1.1548    6.9454    2.5655   41.4964   36.4168    9.8833    0.1100    2.6326    4.4255   37.0000 
11816.4984   -0.0224   51.4259   29.1867    0.7709    4.8272    2.0979   42.3942   36.3093   12.9750    0.0805    2.6598    4.6003   18.0000 
11816.9984   -0.0116   48.2580   25.2492    0.6215    4.4417    1.7597   43.0914   36.3149   14.4930    0.0735    2.6624    4.6917   18.0000 
11817.4984    0.0315   49.1025   23.7359    0.5621    4.3053    1.9468   43.5691   36.3826   15.5349    0.0681    2.6486    4.7850   18.0000 
11817.9984    0.0315   49.3136   23.1457    0.5353    4.2730    2.3518   44.3919   36.7741   17.5778    0.0634    2.6411    4.8772   18.0000 
11818.4984    0.0853   50.1955   23.1239    0.4927    4.5159    2.8292   46.7073   38.0983   19.3142    0.0628    2.6385    4.9096   18.0000 
11818.9984    0.0745   48.1895   23.6975    0.4797    4.7753    2.8147   41.9409   33.3792   23.0894    0.0665    2.6446    4.8622   18.0000 
11819.4984    0.0099   50.3015   23.1611    0.4749    4.6319    2.9845   38.1490   30.1911   20.2432    0.0695    2.6560    4.7794   18.0000 
11819.9984    0.0315   49.9967   21.4917    0.4846    4.0409    3.1571   39.2244   31.6689   17.9903    0.0749    2.6644    4.7476   18.0000 
11820.4984    0.0243   51.2637   21.8547    0.4577    4.3146    2.9884   38.0916   31.2817   14.6146    0.0778    2.6714    4.7889   18.0000 
11820.9984    0.0171   50.9750   23.1947    0.5516    4.1937    2.9140   36.7347   30.6945   14.6485    0.0817    2.6708    4.8527   18.0000 
11821.4984    0.0099   52.1014   23.3294    0.5790    4.0760    2.7622   37.4390   31.8206   19.2397    0.0823    2.6638    4.8719   18.0000 
11821.9984   -0.0116   52.2070   25.1154    0.6347    4.3220    2.6183   36.6025   31.8462   18.2126    0.0826    2.6573    4.8162   18.0000 
11822.4984    0.0099   53.4460   23.8914    0.6006    4.1299    2.5733   37.9293   33.6936   17.4064    0.0850    2.6541    4.7521   18.0000 
11822.9984   -0.0008   52.3760   24.4201    0.5806    4.4162    2.5203   34.5559   31.2387   20.7110    0.0808    2.6603    4.6911   18.0000 
11823.4984    0.0638   52.5451   24.8112    0.6085    4.3775    2.4876   32.9221   30.2887   19.0474    0.0760    2.6604    4.6911   18.0000 
11823.9984    0.0602   52.4324   26.0247    0.6291    4.6451    2.5283   42.6106   39.8095   21.7479    0.0710    2.6626    4.7108   18.0000 
11824.4984    0.0673   54.7415   25.6532    0.5965    4.7173    2.8019   38.4058   35.9701   19.8413    0.0713    2.6631    4.7273   18.0000 
11824.9984    0.0315   53.6221   27.5290    0.6369    5.0811    2.5890   36.8144   34.3237   18.0423    0.0737    2.6644    4.7093   18.0000 
