~VERSION INFORMATION
 VERS.                 2.0:   CWLS LOG ASCII STANDARD - VERSION 2.0
 WRAP.                  NO:   SINGLE LINE PER DEPTH STEP
 CREA.                 20/03/2018 14:55:32
#CREATED USING DSPetro VERSION 5000.10.1.3 BY H191660 ON 20/03/2018 14:55:32
~WELL INFORMATION
#MNEM.UNIT       DATA                          DESCRIPTION MNEMONIC
#---------      ---------------------------   --------------------------
 STRT    .FT        10799.4984                : START DEPTH
 STOP    .FT        13010.9983                : STOP DEPTH
 STEP    .FT        0.5000                    : STEP VALUE
 NULL    .      -999.0000                     : NULL VALUE
 DATE    .      20/03/2018                    : LAS file Creation Date
 WELL  .      UNIVERSITY_21-17             : Well Name
 COMP  .      Neftex Exploration Insights  : Company
 FLD   .                                   : Field
 STATE .      Texas                        : State
 API   .      42475370100000               : API Number
 UWI   .      213                          : Unique Well Identifier (UWI)
 LOC   .                                   : Location
 LATI  .      -6235758.22                  : Latitude/Northing
 LONG  .      777123.41                    : Longitude/Easting
 RWS   .      -999                         : Def_Rw
 WST   .      -999                         : Def_Rwt
 CNTY  .      WARD                         : County
 SRVC  .      Diversified Well Logging LLC : Contractor
~CURVE INFORMATION
#MNEM              UNIT       API CODE   Curve Type Comments
#----------  --------------- ----------  ---------- -----------
 DEPTH      .FT                        : Depth       
 DCAL_INCH  .inch                      :             Differential Caliper - Evaluates the difference between the actual borehole diameter and bit size
 GR_API     .API                       : GammaRay    Gamma Ray (API) - Measures the intensity of natural gamma-ray radiation emitted from formations containing radioactive elements, such as K, Th and U
 CGR_API    .API                       : GammaRay    Corrected / Computed Gamma Ray - Radiation with the Uranium component removed. Also known as a 'carbonate gamma ray'
 K_per        .PC                        :             Potassium Abundance (SGR) - The quantitative elemental abundace of Potassium derived from the Spectral Gamma Ray Log. Also wt_%
 TH_PPM     .ppm                       : Spectral    Thorium Abundance (SGR) - The quantitative elemental abundace of Thorium derived from the Spectral Gamma Ray Log
 U_PPM      .ppm                       :             Uranium Abundance (SGR) - The quantitative elemental abundace of Uranium derived from the Spectral Gamma Ray Log
 RD_OHMM    .ohmm                      :             Unspecified Deep Resistivity - No accroynm or method of attainment is specified - units of ohmm
 RM_OHMM    .ohm.m                     :             Unspecified Medium Resistivity - No accroynm or method of attainment is specified
 MSFL_OHMM  .ohmm                      :             Micro-Spherically Focused Log - Measurement involves only the first few inches of the formation immediately adjacent to the borehole
 NPHI_RATIO .ratio                     :             Neutron Porosity - Measured with an neutron logging device calibrated to a given matrix (limestone, sandstone and dolomite)
 RHOZ_G_CC  .g/cc                      :             Formation Density - Measures the density of formation, including any void space or other materials contained in the subject volume
 PEF_B_E    .b/e-                      : PEF         Photoelectric Factor - A log of photoelectric absorption properties. Often expressed in an approximation unit barns/electron (b/e-)
 LITH       .                          : LITH        Lithology Curve
~A  DEPTH DCAL_INC~   GR_API   CGR_API     K_per      TH_PPM    U_PPM    RD_OHMM   RM_OHMM  MSFL_OHM~ NPHI_RAT~ RHOZ_G_C~  PEF_B_E     LITH   
# ...
11369.4984    0.1104  127.7299   48.6267    1.4088    7.3149    8.5460   53.6573   43.8315   21.8540    0.2495    2.3883    3.4500   37.0000 
11369.9984    0.0961  126.3220   45.5083    1.3112    6.8888    8.2724   52.8718   43.2302   18.4346    0.2380    2.3967    3.3828   37.0000 
11370.4984    0.0745  115.6218   42.2503    1.2105    6.4354    7.7588   38.0723   31.6235   11.8578    0.2309    2.4171    3.3402   37.0000 
11370.9984    0.0745  109.0184   38.6049    1.0817    6.0226    7.2411   31.8211   26.7356    8.6709    0.2075    2.4357    3.4099   37.0000 
11371.4984    0.0602  112.0354   39.7474    1.1439    6.0244    7.3506   33.3158   28.1479   10.3763    0.2138    2.4484    3.5545   37.0000 
11371.9984    0.0638  119.0189   43.5887    1.2709    6.5104    7.8158   36.5540   31.0571   12.5571    0.2235    2.4495    3.6764   37.0000 
11372.4984    0.0745  123.1376   48.3782    1.3792    7.4092    8.3063   35.4062   30.0985   15.3195    0.2398    2.4430    3.6940   37.0000 
11372.9984    0.1068  118.4868   48.9198    1.3931    7.5010    7.7707   32.8196   29.3693   18.2154    0.2262    2.4427    3.6018   37.0000 
11373.4984    0.0889  110.2642   48.6653    1.2019    8.5386    6.7724   24.4352   22.5366   12.0946    0.2106    2.4585    3.4390   37.0000 
11373.9984    0.0638  107.5036   47.9275    1.0438    9.2282    5.8521   22.9186   21.2744    7.8854    0.2072    2.4790    3.3257   37.0000 
11374.4984    0.0530  103.9630   48.8794    1.0238    9.6496    5.7882   32.2247   29.6047    9.7913    0.2094    2.4878    3.3601   37.0000 
11374.9984    0.0673  108.3558   55.3585    1.2008   10.6872    6.1379   37.4287   33.5271   17.1684    0.2062    2.4831    3.5226   37.0000 
11375.4984    0.0638  124.1889   72.1361    1.5701   13.8943    7.8590   42.5320   37.6172   19.1208    0.2123    2.4630    3.7415   37.0000 
11375.9984    0.0889  167.6026   96.0537    2.1964   17.8829   10.4155   43.9724   39.5626   21.2398    0.2463    2.4407    3.9184   37.0000 
11376.4984    0.0889  200.7181  104.3271    2.3781   19.4665   10.9136    9.8303    8.9508    1.6658    0.2754    2.4294    3.9881   37.0000 
11376.9984    0.1822  191.3697   90.4496    1.9962   17.2611    9.3008   14.5201   13.1021    0.9986    0.2659    2.4526    3.9515   37.0000 
11377.4984    0.0889  150.1452   63.6373    1.3883   12.2387    6.4842   20.9278   19.0542    9.9939    0.2280    2.4868    3.8543   37.0000 
11377.9984    0.1032  108.3574   52.6762    1.1471   10.1428    5.2467   38.3368   34.5620   15.2189    0.2029    2.5196    3.8213   37.0000 
11378.4984    0.0961  104.7385   52.5347    1.1514   10.0727    5.2089   35.8735   32.1229   21.1660    0.2030    2.5296    3.7721   37.0000 
11378.9984    0.0745  108.1178   52.4328    1.2782    9.2976    5.6447   35.6557   31.9711   16.5289    0.2054    2.5186    3.6666   37.0000 
11379.4984    0.0961  118.5921   52.0331    1.4704    8.0446    6.0155   32.7730   29.9358   14.2248    0.2186    2.4811    3.4902   37.0000 
11379.9984    0.0817  118.1553   54.3577    1.6154    7.9400    5.7892   30.9073   28.8432   11.2798    0.2197    2.4456    3.3502   37.0000 
11380.4984    0.0745  115.7895   56.9301    1.6141    8.7711    5.4189   38.8553   35.7882   13.6402    0.2203    2.4336    3.3407   37.0000 
11380.9984    0.0673  111.7347   57.6843    1.6817    8.6172    5.2657   24.1321   21.6692    7.9568    0.2146    2.4445    3.4676   37.0000 
11381.4984    0.0315  108.2438   57.4867    1.6174    8.9300    5.2908   31.7251   27.9764    7.4902    0.2057    2.4531    3.6583   37.0000 
11381.9984    0.0530  111.0598   59.2823    1.6742    9.1721    5.5221   43.8466   38.5286   14.7635    0.2071    2.4442    3.7750   37.0000 
11382.4984    0.0817  115.0343   60.2066    1.6702    9.4906    6.2293   38.8928   34.6322   15.7722    0.2202    2.4317    3.7363   37.0000 
11382.9984    0.1068  123.7072   63.1903    1.6776   10.4018    6.4877   18.1825   16.2787   10.3591    0.2260    2.4179    3.6708   37.0000 
11383.4984    0.0817  127.4240   63.5019    1.7413   10.1288    6.9236   20.5971   18.3287    7.4798    0.2598    2.4102    3.7184   37.0000 
11383.9984    0.0961  132.7986   63.8302    1.7566   10.1446    6.8790   31.1245   27.4324    8.9148    0.2475    2.4118    3.8989   37.0000 
11384.4984    0.0745  136.0490   63.6142    1.7757    9.9640    7.1014   29.8156   26.2727    0.8743    0.2524    2.4271    4.0538   37.0000 
11384.9984    0.0638  141.4556   64.8112    1.7845   10.2957    7.4526   37.7491   32.6603    7.2022    0.2229    2.4456    4.0614   37.0000 
11385.4984    0.0745  140.2163   64.3224    1.7842   10.1411    7.7900   32.7505   28.1523   14.9150    0.2389    2.4436    3.9788   37.0000 
11385.9984    0.1391  129.5322   55.9446    1.5999    8.5381    8.1399   18.6086   16.0094   10.8144    0.2354    2.4321    3.8952   37.0000 
11386.4984    0.1248  112.9748   50.7367    1.4071    7.9997    7.0471   32.0476   27.1229    8.9537    0.2254    2.4375    3.8548   37.0000 
11386.9984    0.1104  104.4144   47.6408    1.3134    7.5576    6.2998   44.5539   35.9085   17.4987    0.1995    2.4530    3.8548   37.0000 
11387.4984    0.1104  105.3150   45.1157    1.2880    6.8981    6.1843   71.6226   51.6232   17.7694    0.1899    2.4733    3.8099   37.0000 
11387.9984    0.0673  107.9218   47.8647    1.4227    6.9895    6.3603   36.1782   26.5409   12.4269    0.1964    2.4693    3.7392   37.0000 
11388.4984    0.1068  113.3282   48.0319    1.5027    6.5748    6.6448   43.8383   34.6405    8.7173    0.2129    2.4593    3.6062   37.0000 
11388.9984    0.0889  114.5677   49.6626    1.5246    6.9681    6.4902   38.8790   31.6456   11.9715    0.2237    2.4506    3.4718   37.0000 
11389.4984    0.1176  110.7219   49.4416    1.4869    7.1185    5.9292   39.7660   33.1011    8.6449    0.2217    2.4499    3.3316   37.0000 
11389.9984    0.0673  102.7248   48.4879    1.4611    6.9636    5.2317   60.1040   50.1833   10.7129    0.2126    2.4500    3.2186   37.0000 
11390.4984    0.0386   95.5802   48.5624    1.3858    7.4289    4.8447   55.7450   46.6089   13.1115    0.2191    2.4403    3.1619   37.0000 
11390.9984    0.0207   95.4675   50.3854    1.3787    8.0537    4.7447   48.9015   41.3317   10.6612    0.2252    2.4307    3.1666   37.0000 
11391.4984    0.0315   98.5087   55.6446    1.4812    9.1371    4.4100   46.3045   38.7493    9.9844    0.2200    2.4300    3.2161   37.0000 
11391.9984    0.0673   97.4224   57.5261    1.5203    9.5107    4.8639   33.5866   26.4475    8.4205    0.2098    2.4336    3.2915   37.0000 
11392.4984    0.0530  107.7850   62.3713    1.6889   10.0746    5.5940   30.2251   26.5191    8.0015    0.2199    2.4392    3.3575   37.0000 
11392.9984    0.0673  117.9295   70.4516    1.8868   11.5014    6.0377   22.0925   20.8159    6.4445    0.2403    2.4388    3.4402   37.0000 
11393.4984    0.0817  137.1985   76.2609    2.0409   12.4589    6.6255   16.2372   15.7989    6.8073    0.2545    2.4379    3.5229   37.0000 
11393.9984    0.1032  135.3958   73.2454    2.0070   11.6924    6.1189   22.5788   22.5892    3.0076    0.2435    2.4394    3.5892   37.0000 
11394.4984    0.0422  122.9987   64.8101    1.7846   10.2950    5.5468   25.9767   26.5403    7.6901    0.2267    2.4526    3.5387   37.0000 
11394.9984    0.0386  105.0897   54.6666    1.4990    8.7201    5.0944   29.3330   30.3717    8.9326    0.2112    2.4535    3.4949   37.0000 
11395.4984    0.0171   99.6834   52.8545    1.4000    8.7199    5.1419   34.4671   36.0020    9.9651    0.2103    2.4564    3.4751   37.0000 
11395.9984    0.0386  101.5979   49.6310    1.3557    7.9476    5.2348   19.3777   20.4011   11.0500    0.2075    2.4582    3.5482   37.0000 
11396.4984    0.0386  105.2025   46.7984    1.3208    7.2450    5.5324   27.5146   28.2068    6.0422    0.2082    2.4699    3.5950   37.0000 
11396.9984    0.0315  106.7793   44.2175    1.2678    6.7292    5.6736   35.4869   35.0605   11.2910    0.2325    2.4749    3.6243   37.0000 
11397.4984    0.0207  102.6123   41.9497    1.2177    6.2968    5.5542   37.2410   34.4754   12.2004    0.2421    2.4796    3.7028   37.0000 
