~VERSION INFORMATION
 VERS.                 2.0:   CWLS LOG ASCII STANDARD - VERSION 2.0
 WRAP.                  NO:   SINGLE LINE PER DEPTH STEP
 CREA.                 20/03/2018 14:55:32
#CREATED USING DSPetro VERSION 5000.10.1.3 BY H191660 ON 20/03/2018 14:55:32
~WELL INFORMATION
#MNEM.UNIT       DATA                          DESCRIPTION MNEMONIC
#---------      ---------------------------   --------------------------
 STRT    .FT        10799.4984                : START DEPTH
 STOP    .FT        13010.9983                : STOP DEPTH
 STEP    .FT        0.5000                    : STEP VALUE
 NULL    .      -999.0000                     : NULL VALUE
 DATE    .      20/03/2018                    : LAS file Creation Date
 WELL  .      UNIVERSITY_21-17             : Well Name
 COMP  .      Neftex Exploration Insights  : Company
 FLD   .                                   : Field
 STATE .      Texas                        : State
 API   .      42475370100000               : API Number
 UWI   .      213                          : Unique Well Identifier (UWI)
 LOC   .                                   : Location
 LATI  .      -6235758.22                  : Latitude/Northing
 LONG  .      777123.41                    : Longitude/Easting
 RWS   .      -999                         : Def_Rw
 WST   .      -999                         : Def_Rwt
 CNTY  .      WARD                         : County
 SRVC  .      Diversified Well Logging LLC : Contractor
~CURVE INFORMATION
#MNEM              UNIT       API CODE   Curve Type Comments
#----------  --------------- ----------  ---------- -----------
 DEPTH      .FT                        : Depth       
 DCAL_INCH  .inch                      :             Differential Caliper - Evaluates the difference between the actual borehole diameter and bit size
 GR_API     .API                       : GammaRay    Gamma Ray (API) - Measures the intensity of natural gamma-ray radiation emitted from formations containing radioactive elements, such as K, Th and U
 CGR_API    .API                       : GammaRay    Corrected / Computed Gamma Ray - Radiation with the Uranium component removed. Also known as a 'carbonate gamma ray'
 K_per        .PC                        :             Potassium Abundance (SGR) - The quantitative elemental abundace of Potassium derived from the Spectral Gamma Ray Log. Also wt_%
 TH_PPM     .ppm                       : Spectral    Thorium Abundance (SGR) - The quantitative elemental abundace of Thorium derived from the Spectral Gamma Ray Log
 U_PPM      .ppm                       :             Uranium Abundance (SGR) - The quantitative elemental abundace of Uranium derived from the Spectral Gamma Ray Log
 RD_OHMM    .ohmm                      :             Unspecified Deep Resistivity - No accroynm or method of attainment is specified - units of ohmm
 RM_OHMM    .ohm.m                     :             Unspecified Medium Resistivity - No accroynm or method of attainment is specified
 MSFL_OHMM  .ohmm                      :             Micro-Spherically Focused Log - Measurement involves only the first few inches of the formation immediately adjacent to the borehole
 NPHI_RATIO .ratio                     :             Neutron Porosity - Measured with an neutron logging device calibrated to a given matrix (limestone, sandstone and dolomite)
 RHOZ_G_CC  .g/cc                      :             Formation Density - Measures the density of formation, including any void space or other materials contained in the subject volume
 PEF_B_E    .b/e-                      : PEF         Photoelectric Factor - A log of photoelectric absorption properties. Often expressed in an approximation unit barns/electron (b/e-)
 LITH       .                          : LITH        Lithology Curve
~A  DEPTH DCAL_INC~   GR_API   CGR_API     K_per      TH_PPM    U_PPM    RD_OHMM   RM_OHMM  MSFL_OHM~ NPHI_RAT~ RHOZ_G_C~  PEF_B_E     LITH   
# ...
12338.4984    0.1714  122.8658   77.8794    2.3368   11.2446    4.8140   47.3315   30.4172    4.4134    0.2151    2.5512    3.6784   37.0000 
12338.9984    0.1894  123.5416   80.1863    2.3491   11.9109    4.4310   54.9691   34.2086    4.3721    0.2091    2.5459    3.6518   37.0000 
12339.4984    0.2037  126.6040   81.9177    2.4052   12.1369    4.4995   63.5506   36.3066    4.4465    0.2166    2.5512    3.6531   37.0000 
12339.9984    0.1894  133.4674   83.5887    2.4356   12.4934    4.4254   72.1305   37.8241    4.3326    0.2241    2.5569    3.6680   37.0000 
12340.4984    0.1822  133.3685   85.6985    2.4785   12.9175    4.4577   83.2670   43.2910    4.1382    0.2349    2.5581    3.6839   37.0000 
12340.9984    0.1894  129.7786   81.8540    2.4404   11.9095    4.5938   81.4893   44.5444    4.2478    0.2311    2.5552    3.6793   37.0000 
12341.4984    0.1966  125.3434   82.6524    2.5244   11.6730    4.6257   80.5405   45.7036    4.4563    0.2188    2.5503    3.6726   37.0000 
12341.9984    0.1535  122.6263   85.9538    2.6732   11.8591    4.6328   76.2398   42.9712    4.5355    0.2125    2.5464    3.6894   37.0000 
12342.4984    0.1320  125.2657   91.9488    2.8458   12.7666    5.1427   68.2721   38.4410    4.3480    0.2047    2.5472    3.6946   37.0000 
12342.9984    0.1248  134.2416   95.6535    2.9904   13.1054    5.2803   59.0723   34.3991    4.4837    0.2111    2.5518    3.6841   37.0000 
12343.4984    0.0961  142.2387   95.8353    3.0012   13.1004    5.5525   47.1830   28.4411    4.2014    0.2258    2.5509    3.6997   37.0000 
12343.9984    0.0889  145.5123   89.5110    2.7506   12.5430    5.1691   42.3289   25.9613    3.8274    0.2489    2.5483    3.7877   37.0000 
12344.4984    0.1391  132.5243   79.9205    2.5043   10.9158    4.7269   43.8852   27.3647    4.0713    0.2274    2.5464    3.9449   37.0000 
12344.9984    0.0853  120.2751   72.3799    2.2847    9.7883    4.1901   51.0780   33.0013    0.8615    0.1905    2.5631    4.0899   37.0000 
12345.4984    0.0458  116.6851   75.3216    2.4165    9.9582    4.3278   38.4149   33.5303    2.9352    0.1764    2.5768    4.1318   37.0000 
12345.9984    0.0315  122.9147   79.8729    2.5395   10.6945    4.6126   29.5062   26.6611    4.6884    0.1969    2.5805    4.0867   37.0000 
12346.4984    0.0207  128.4060   83.0636    2.6664   10.9725    4.6472   23.7516   22.4337    4.5617    0.2261    2.5731    4.0147   37.0000 
12346.9984    0.0673  128.9709   81.2963    2.5265   11.2255    4.5284   14.8346   14.5437    5.2312    0.2099    2.5652    3.9939   37.0000 
12347.4984    0.1320  123.1640   77.0808    2.3697   10.7942    4.6503   13.5454   13.9892    5.0204    0.1964    2.5645    3.9980   37.0000 
12347.9984   -0.0332  126.8592   79.4222    2.4265   11.2109    4.6611   15.4331   16.6702    4.6797    0.1887    2.5571    4.0076   37.0000 
12348.4984   -0.0332  134.6363   83.3211    2.4821   12.1331    5.0685   27.9680   30.9625    4.9705    0.2037    2.5527    3.9698   37.0000 
12348.9984   -0.0188  143.5057   89.6067    2.6020   13.4422    5.4951   26.3750   29.5185    3.8946    0.2232    2.5436    3.9274   37.0000 
12349.4984   -0.0116  142.7920   93.7152    2.7432   13.9303    5.4208   24.4437   27.5615    3.9786    0.2320    2.5466    3.8605   37.0000 
12349.9984   -0.0116  138.5680   87.3346    2.4911   13.3638    5.3323   18.1419   20.2417    4.1158    0.2306    2.5559    3.8566   37.0000 
12350.4984   -0.0403  130.4372   79.6167    2.2448   12.3361    5.0072   20.1586   22.2845    4.4068    0.1952    2.5757    3.9565   37.0000 
12350.9984   -0.0403  137.5927   78.9400    2.1901   12.4394    4.9305   18.2407   21.3487    4.8773    0.1860    2.5960    4.1534   37.0000 
12351.4984   -0.0906  136.4312   86.3917    2.4058   13.5613    5.3499   10.1905   12.0053    1.8748    0.2130    2.5911    4.3147   37.0000 
12351.9984   -0.0008  131.0956   87.4475    2.4093   13.8789    5.1671   12.6367   14.9493    2.2261    0.2395    2.5917    4.3821   37.0000 
12352.4984    0.0099  108.4980   77.1716    2.1131   12.3247    4.3529   20.0168   23.9171    6.0675    0.2314    2.5997    4.3784   37.0000 
12352.9984   -0.0116   90.8630   61.6063    1.6900    9.8203    3.3849   14.1841   16.9667    9.6473    0.1831    2.6306    4.3436   37.0000 
12353.4984   -0.0116   87.5393   54.2011    1.5076    8.5191    3.0115   12.5755   15.0621    6.0650    0.1456    2.6447    4.3140   37.0000 
12353.9984   -0.0188   97.4655   55.5104    1.5810    8.5080    3.0076   31.3051   35.4280    4.1352    0.1399    2.6317    4.2050   37.0000 
12354.4984   -0.0188  117.9513   62.0672    1.8105    9.2634    3.4799   25.6002   30.1011    4.2092    0.1739    2.6003    4.0892   37.0000 
12354.9984   -0.0547  138.1700   71.3654    2.1109   10.4803    4.6877   28.9411   33.9899    4.0533    0.2256    2.5723    3.9432   37.0000 
12355.4984   -0.0439  147.9908   86.4352    2.5782   12.5670    5.3050   26.1350   30.1460    3.6138    0.2515    2.5568    3.8628   37.0000 
12355.9984   -0.0188  148.6247   90.7656    2.7002   13.2381    5.4134   24.1580   27.2233    3.6206    0.2367    2.5515    3.8576   37.0000 
12356.4984   -0.0188  145.3016   85.8373    2.5556   12.5069    5.5982   25.6376   28.2738    4.3662    0.2443    2.5484    3.8943   37.0000 
12356.9984   -0.0116  143.5061   82.1432    2.4174   12.1341    5.3474   28.9473   31.5591    5.4858    0.2313    2.5468    3.9894   37.0000 
12357.4984    0.0099  139.2822   79.0538    2.3174   11.7309    5.4723   24.1613   25.9234    4.2999    0.1711    2.5539    4.2345   37.0000 
12357.9984   -0.0547  123.3373   67.1155    2.0181    9.6631    4.8333   35.3464   35.8149    6.0433    0.0775    2.5983    4.6648   18.0000 
12358.4984   -0.0978   89.9691   44.5456    1.3227    6.5115    3.4318 1396.8594 1350.0868   32.1353    0.0160    2.6584    5.2544   18.0000 
12358.9984   -0.0834   53.8550   23.1992    0.7166    3.2289    1.6507 33619.7461 21542.3828   28.6813    0.0116    2.7116    5.6706   18.0000 
12359.4984   -0.0870   30.8348   12.6333    0.3946    1.7327    0.8915 15633.0869 7945.7363   30.1697    0.0137    2.7213    5.7783   18.0000 
12359.9984   -0.0906   30.0952   12.2298    0.3936    1.6092    0.8069 2211.0132 1271.8779   34.5981    0.0318    2.7035    5.5350   18.0000 
12360.4984   -0.0619   56.7052   20.4273    0.6458    2.7563    1.0628   61.2133   28.3625   13.3741    0.0900    2.6799    5.1179   18.0000 
12360.9984   -0.0439   95.7755   37.5919    1.1944    5.0381    2.1492   34.6498   17.1235    2.2536    0.1703    2.6370    4.5993   37.0000 
12361.4984   -0.0260  128.6163   61.6814    1.9639    8.2426    3.1790   36.9427   19.9408    5.2962    0.2157    2.5923    4.1657   37.0000 
12361.9984   -0.0044  140.7417   81.9748    2.6292   10.8425    3.7390   44.0309   26.1985    4.7659    0.2294    2.5592    3.8618   37.0000 
12362.4984    0.0207  137.2574   88.2602    2.8504   11.5592    4.2632   54.5831   36.6318    4.3635    0.2147    2.5489    3.7576   37.0000 
12362.9984    0.0243  129.5552   88.9260    2.8608   11.7109    3.8491   60.6921   45.7216    4.5269    0.2155    2.5480    3.7108   37.0000 
12363.4984    0.0207  124.8217   89.0941    2.8417   11.8765    3.6795   60.1796   50.4346    5.2405    0.2237    2.5392    3.7166   37.0000 
12363.9984    0.0099  124.0827   87.9516    2.8368   11.5392    3.7446   56.1081   52.5393    4.9992    0.2340    2.5394    3.7059   37.0000 
12364.4984    0.0099  130.9400   84.4895    2.7305   11.0543    4.2651   55.9051   52.3930    4.7031    0.2418    2.5463    3.6924   37.0000 
12364.9984    0.0099  126.7289   83.3093    2.7213   10.7301    4.2943   56.1878   43.8473    4.4881    0.2273    2.5619    3.6708   37.0000 
12365.4984   -0.0116  124.5113   81.9776    2.5459   11.3306    4.1815   46.0217   31.6768    4.9327    0.2114    2.5784    3.6794   37.0000 
12365.9984   -0.0224  121.2383   82.3328    2.5520   11.4087    4.6976   35.1293   25.6930    4.8751    0.1959    2.5907    3.6913   37.0000 
12366.4984    0.0027  129.6732   86.3894    2.7413   11.5989    4.8111   29.3301   20.7804    4.5538    0.2016    2.5876    3.6744   37.0000 
