~VERSION INFORMATION
 VERS.                 2.0:   CWLS LOG ASCII STANDARD - VERSION 2.0
 WRAP.                  NO:   SINGLE LINE PER DEPTH STEP
 CREA.                 20/03/2018 14:44:45
#CREATED USING DSPetro VERSION 5000.10.1.3 BY H191660 ON 20/03/2018 14:44:45
~WELL INFORMATION
#MNEM.UNIT       DATA                          DESCRIPTION MNEMONIC
#---------      ---------------------------   --------------------------
 STRT    .FT        300.0092                  : START DEPTH
 STOP    .FT        12601.0092                : STOP DEPTH
 STEP    .FT        0.5000                    : STEP VALUE
 NULL    .      -999.0000                     : NULL VALUE
 DATE    .      20/03/2018                    : LAS file Creation Date
 WELL  .      UNIVERSITY_20_3_1_4230131346 : Well Name
 COMP  .      Chesapeake Operating, Inc.   : Company
 FLD   .      Haley                        : Field
 STATE .      Texas                        : State
 API   .      42-301-31346                 : API Number
 UWI   .      507                          : Unique Well Identifier (UWI)
 LOC   .      1320' FNL & 1320' FWL        : Location
 TOWN  .      20                           : Township
 SCT   .      3                            : Section
 RANG  .      University Lands             : Range
 PDAT  .      GROUND LEVEL                 : Permanent Datum
 EPDAT .      2800.000000                  : Reference Elevation
 LGMEA .      KELLY BUSHING                : Log Measured from
 DRMEA .      KELLY BUSHING                : Drill Measured From
 APDAT .      26.000000                    : Elevation Above Permanent Datum
 KB    .      2826.00000                   : KB Elevation
 GL    .      2800.00000                   : GL Elevation
 RWS   .      -999                         : Def_Rw
 WST   .      -999                         : Def_Rwt
 CNTY  .      Loving                       : County
 SRVC  .      Schlumberger                 : Contractor
~CURVE INFORMATION
#MNEM              UNIT       API CODE   Curve Type Comments
#----------  --------------- ----------  ---------- -----------
 DEPTH      .FT                        : Depth       
 BS         .inch                      : BitSize     
 CAL        .inch                      :             
 GR         .API                       : GammaRay    
 SP_MV      .mv                        : SP          Spontaneous Potential - Records the electrical potential produced by the interaction of formation water, conductive drilling mud, and certain ion-sele
 DRES       .OHMM                      :             
 MRES       .OHMM                      : MedRes      
 SRES       .OHMM                      : ShalRes     
 DRHO       .G/C3                      : Drho        
 NPHI       .CFCF                      : Neutron     
 PEF        .B/E                       : PEF         
 RHOB       .G/C3                      : Density     
 LITH       .                          : LITH        Lithology Curve
~A  DEPTH     BS       CAL        GR      SP_MV      DRES      MRES      SRES      DRHO      NPHI      PEF       RHOB      LITH   
# ...
10133.0092   12.2500   13.1361   65.2172 -999.0000   37.2714   21.4916    2.1312   -0.0025    0.1519    3.4017    2.5693   22.0000 
10133.5092   12.2500   13.1593   60.9192 -999.0000   29.3594   18.2500    2.1385   -0.0014    0.1227    3.3825    2.5851   22.0000 
10134.0092   12.2500   13.1593   64.8636 -999.0000   22.5238   15.4523    2.1012   -0.0055    0.1226    3.3563    2.5297   22.0000 
10134.5092   12.2500   13.1593   65.5064 -999.0000   22.2790   15.4641    2.0998   -0.0100    0.1271    3.3426    2.5068   22.0000 
10135.0092   12.2500   13.1593   58.3221 -999.0000   27.0410   17.6716    2.0767   -0.0122    0.1548    3.3523    2.5116   22.0000 
10135.5092   12.2500   13.1361   67.4533 -999.0000   25.9944   17.3748    2.1268   -0.0111    0.1443    3.4112    2.5282   22.0000 
10136.0092   12.2500   13.1593   59.7590 -999.0000   30.9992   19.1843    2.1546   -0.0104    0.1492    3.4852    2.5752   22.0000 
10136.5092   12.2500   13.1361   63.7711 -999.0000   25.9193   16.5425    2.1133   -0.0088    0.1353    3.4818    2.5469   22.0000 
10137.0092   12.2500   13.1593   83.0330 -999.0000   22.7448   15.7905    2.1308   -0.0082    0.1586    3.3748    2.4707   37.0000 
10137.5092   12.2500   13.1128   86.0315 -999.0000   21.6280   15.3593    2.1156   -0.0056    0.1634    3.1941    2.4797   37.0000 
10138.0092   12.2500   13.1361   83.6873 -999.0000   21.8327   15.8684    2.1310   -0.0048    0.1679    3.0685    2.4707   37.0000 
10138.5092   12.2500   13.1361   70.4215 -999.0000   22.8518   16.1658    2.1703   -0.0025    0.1722    2.9764    2.4849   37.0000 
10139.0092   12.2500   13.1361   75.5443 -999.0000   23.1932   16.5379    2.1529   -0.0016    0.1728    2.9141    2.4781   37.0000 
10139.5092   12.2500   13.1244   84.8774 -999.0000   26.1947   17.8633    2.0975   -0.0024    0.1955    2.9327    2.4745   37.0000 
10140.0092   12.2500   13.1128   74.7484 -999.0000   27.5841   18.6029    2.1633   -0.0046    0.1623    3.0385    2.4778   37.0000 
10140.5092   12.2500   13.0896   62.8827 -999.0000   37.5876   23.9939    2.1043   -0.0084    0.1549    3.2746    2.5083   37.0000 
10141.0092   12.2500   13.1012   53.4085 -999.0000   39.4915   21.4306    2.1694   -0.0099    0.1196    3.4448    2.5993   22.0000 
10141.5092   12.2500   13.1128   83.9034 -999.0000   23.9834   16.4829    2.1644   -0.0100    0.1221    3.4915    2.4990   22.0000 
10142.0092   12.2500   13.1128   90.5895 -999.0000   26.6253   18.8201    2.1647   -0.0093    0.1292    3.4122    2.4503   37.0000 
10142.5092   12.2500   13.1012   89.1994 -999.0000   39.1925   22.5637    2.2531   -0.0101    0.1671    3.3751    2.5071   37.0000 
10143.0092   12.2500   13.1128   68.9946 -999.0000   33.4275   20.9215    2.2101   -0.0107    0.1540    3.3974    2.5757   37.0000 
10143.5092   12.2500   13.0896   68.3442 -999.0000   26.6466   18.2113    2.1644   -0.0135    0.1585    3.4968    2.4612   22.0000 
10144.0092   12.2500   13.1128   69.7967 -999.0000   28.8639   19.6690    2.1880   -0.0141    0.1686    3.6026    2.4891   22.0000 
10144.5092   12.2500   13.1128   68.1340 -999.0000   36.9005   22.8501    2.2126   -0.0130    0.1726    3.7410    2.5460   22.0000 
10145.0092   12.2500   13.1128   53.9404 -999.0000   31.8811   20.7280    2.1905   -0.0098    0.1362    3.7845    2.6088   22.0000 
10145.5092   12.2500   13.0896   70.4106 -999.0000   24.1271   17.6286    2.1480   -0.0065    0.1196    3.6731    2.5045   22.0000 
10146.0092   12.2500   13.1128   63.8018 -999.0000   22.2046   16.7375    2.1797   -0.0040    0.1146    3.4878    2.5008   22.0000 
10146.5092   12.2500   13.0896   77.5502 -999.0000   29.9034   21.4575    2.1324   -0.0026    0.1422    3.4419    2.5482   22.0000 
10147.0092   12.2500   13.0896   67.2295 -999.0000   31.4456   21.3517    2.1662   -0.0027    0.1493    3.5417    2.5787   22.0000 
10147.5092   12.2500   13.1128   66.6926 -999.0000   27.8883   20.6767    2.1890   -0.0032    0.1366    3.6747    2.5612   22.0000 
10148.0092   12.2500   13.0896   67.5569 -999.0000   28.1332   20.2493    2.2469   -0.0025    0.1221    3.6883    2.5530   22.0000 
10148.5092   12.2500   13.0896   72.6831 -999.0000   26.8049   20.2320    2.2130   -0.0020    0.1090    3.6724    2.5454   22.0000 
10149.0092   12.2500   13.0896   65.7413 -999.0000   38.3289   26.2934    2.1592   -0.0020    0.1074    3.6643    2.5646   22.0000 
10149.5092   12.2500   13.0663   59.4628 -999.0000   43.3993   26.0928    2.2539   -0.0027    0.1134    3.7026    2.5757   22.0000 
10150.0092   12.2500   13.0663   48.7304 -999.0000   34.8797   23.9348    2.2037   -0.0050    0.1212    3.7526    2.5505   22.0000 
10150.5092   12.2500   13.0663   58.8745 -999.0000   40.9436   25.4518    2.2541   -0.0078    0.1328    3.8116    2.5741   22.0000 
10151.0092   12.2500   13.0431   54.8517 -999.0000   38.0934   24.3604    2.2201   -0.0072    0.1264    3.8312    2.5813   22.0000 
10151.5092   12.2500   13.0431   78.4304 -999.0000   50.6931   28.2639    2.2421   -0.0047    0.1430    3.7981    2.5276   22.0000 
10152.0092   12.2500   13.0431   70.6878 -999.0000   40.5418   23.9025    2.2803   -0.0014    0.1381    3.6729    2.6135   36.0000 
10152.5092   12.2500   13.0198   63.2011 -999.0000   33.0431   21.7349    2.2497   -0.0032    0.1729    3.4920    2.5356   36.0000 
10153.0092   12.2500   13.0198   68.1380 -999.0000   31.5191   20.4306    2.2621   -0.0046    0.1741    3.2629    2.5068   36.0000 
10153.5092   12.2500   13.0198   85.3732 -999.0000   28.4066   20.3556    2.2336   -0.0084    0.1803    3.1052    2.4857   36.0000 
10154.0092   12.2500   13.0198   92.6325 -999.0000   29.2064   20.8335    2.2248   -0.0130    0.1877    3.0779    2.5158   37.0000 
10154.5092   12.2500   12.9966   78.5278 -999.0000   31.9885   22.3380    2.2475   -0.0134    0.2064    3.1457    2.4979   37.0000 
10155.0092   12.2500   13.0198   89.3451 -999.0000   31.3679   21.6235    2.2568   -0.0109    0.1797    3.2250    2.5448   37.0000 
10155.5092   12.2500   13.0198   89.2036 -999.0000   27.8829   20.0188    2.2445   -0.0044    0.1688    3.2145    2.5096   37.0000 
10156.0092   12.2500   12.9733   90.6188 -999.0000   27.2545   19.8162    2.2705   -0.0043    0.1644    3.2262    2.4933   37.0000 
10156.5092   12.2500   13.0198   98.9055 -999.0000   30.6276   21.4753    2.2997   -0.0035    0.1823    3.2772    2.5013   37.0000 
10157.0092   12.2500   12.9966   95.8524 -999.0000   49.1981   28.6036    2.2853   -0.0028    0.1836    3.3924    2.5251   37.0000 
10157.5092   12.2500   12.9501   74.1914 -999.0000   48.0245   26.6599    2.3338   -0.0032    0.1794    3.5293    2.5690   37.0000 
10158.0092   12.2500   12.9733   89.1288 -999.0000   35.2003   22.9539    2.3004   -0.0052    0.1845    3.5737    2.5195   37.0000 
10158.5092   12.2500   12.9733  100.0819 -999.0000   34.6120   23.3066    2.2872   -0.0094    0.1876    3.6199    2.4529   37.0000 
10159.0092   12.2500   12.9733   92.3846 -999.0000   52.6611   30.3346    2.3499   -0.0109    0.1853    3.6935    2.5232   37.0000 
10159.5092   12.2500   12.9268   57.1412 -999.0000   83.8178   36.6074    2.3584   -0.0114    0.1404    3.8494    2.5674   22.0000 
10160.0092   12.2500   12.9733   68.2993 -999.0000   66.4471   28.6234    2.4051   -0.0080    0.1222    3.8720    2.6066   22.0000 
10160.5092   12.2500   12.9501   69.5772 -999.0000   35.7769   23.8991    2.3797   -0.0062    0.1210    3.7636    2.5114   22.0000 
10161.0092   12.2500   12.9385  109.9520 -999.0000   40.7587   26.7681    2.3457   -0.0042    0.1517    3.6210    2.4998   37.0000 
10161.5092   12.2500   12.9268  106.3845 -999.0000   51.1542   29.0378    2.3734   -0.0037    0.1618    3.5778    2.5072   37.0000 
10162.0092   12.2500   12.9268  101.3258 -999.0000   47.5595   28.6701    2.3864   -0.0046    0.1659    3.6383    2.4675   37.0000 
10162.5092   12.2500   12.9036   93.5406 -999.0000   35.1481   24.7430    2.3909   -0.0054    0.1578    3.7165    2.5137   37.0000 
10163.0092   12.2500   12.8804   73.5474 -999.0000   44.2566   30.1055    2.4091   -0.0055    0.1568    3.8279    2.5257   37.0000 
