~VERSION INFORMATION
 VERS.                 2.0:   CWLS LOG ASCII STANDARD - VERSION 2.0
 WRAP.                  NO:   SINGLE LINE PER DEPTH STEP
 CREA.                 06/11/2018 17:04:42
#CREATED USING DSPetro VERSION 5000.10.1.3 BY H191660 ON 06/11/2018 17:04:42
~WELL INFORMATION
#MNEM.UNIT       DATA                          DESCRIPTION MNEMONIC
#---------      ---------------------------   --------------------------
 STRT    .FT        297.9921                  : START DEPTH
 STOP    .FT        12485.9921                : STOP DEPTH
 STEP    .FT        0.5000                    : STEP VALUE
 NULL    .      -999.0000                     : NULL VALUE
 DATE    .      06/11/2018                    : LAS file Creation Date
 WELL  .      UNIVERSITY_20-27           : Well Name
 COMP  .      Chesapeake Operating, Inc. : Company
 FLD   .      Haley                      : Field
 STATE .      Texas                      : State
 COUNT .      USA                        : Country
 API   .      42-495-33261               : API Number
 UWI   .      508                        : Unique Well Identifier (UWI)
 LOC   .      1320' FSL & 1320' FEL      : Location
 TOWN  .      20                         : Township
 SCT   .      27                         : Section
 RANG  .      University Lands           : Range
 PDAT  .      Ground Level               : Permanent Datum
 EPDAT .      2777.000000                : Reference Elevation
 LGMEA .      Kelly Bushing              : Log Measured from
 DRMEA .      Kelly Bushing              : Drill Measured From
 APDAT .      25.000000                  : Elevation Above Permanent Datum
 KB    .      2802.00000                 : KB Elevation
 GL    .      2777.00000                 : GL Elevation
 RWS   .      -999                       : Def_Rw
 WST   .      -999                       : Def_Rwt
 CNTY  .      Winkler                    : County
 SRVC  .      Schlumberger               : Contractor
~CURVE INFORMATION
#MNEM              UNIT       API CODE   Curve Type Comments
#----------  --------------- ----------  ---------- -----------
 DEPTH      .FT                        : Depth       
 DEPTH_(m)  .                          :             
 BS         .inch                      : BitSize     
 CAL_INCH   .inch                      :             Caliper Log - A representation of the measured diameter of a borehole along its depth
 GR         .GAPI                      : GammaRay    Gamma-Ray {F11.4}
 SRES       .ohmm                      :             20" array induction, one foot resistivity
 MRES       .ohm.m                     :             30" array induction, one foot resistivity
 DRES       .ohmm                      :             90" array induction, one foot resistivity log - units of ohmm
 DT_US_FT   .us/ft                     :             Interval Transit Time: Compressional Wave - Evaluates the time it takes for a compressional wave to traverse a fixed distance
 NPHI_v/v   .ratio                     :             Neutron Porosity - Measured with an neutron logging device calibrated to a given matrix (limestone, sandstone and dolomite)
 RHOB_G_CC  .g/cc                      :             Bulk Density - Measures the density of bulk material, including any void space or other materials contained in the subject volume
 HDRA       .G/C3                      : Drho        HRDD Density Correction {F11.4}
 PEF_B_E    .b/e-                      : PEF         Photoelectric Factor - A log of photoelectric absorption properties. Often expressed in an approximation unit barns/electron (b/e-)
 LITH       .                          : LITH        Lithology Curve
~A  DEPTH DEPTH_(m~     BS     CAL_INCH     GR       SRES      MRES      DRES    DT_US_FT  NPHI_v/v RHOB_G_C~    HDRA    PEF_B_E     LITH   
# ...
8419.9921 2566.4136   12.2500   12.4684   78.6400   11.9962   30.5063   61.0025   64.5585    0.0843    2.6261   -0.0062    2.7256   37.0000 
8420.4921 2566.5659   12.2500   12.4684   72.3063   11.4193   27.4331   48.2974   64.2868    0.0914    2.6332   -0.0049    2.7781   37.0000 
8420.9921 2566.7185   12.2500   12.4684   75.3114   11.7973   29.1440   53.6864   63.7211    0.0773    2.6501   -0.0054    2.8208   37.0000 
8421.4921 2566.8708   12.2500   12.4684   66.2322   11.3628   26.2585   43.1218   63.2394    0.0695    2.6341    0.0009    2.9368   37.0000 
8421.9921 2567.0232   12.2500   12.4456   65.7404   10.9692   23.3285   34.4747   62.3254    0.0568    2.6364   -0.0012    2.8156   37.0000 
8422.4921 2567.1755   12.2500   12.4456   55.9929   11.3418   25.2613   39.5248   61.7660    0.0464    2.6326    0.0001    2.7617   36.0000 
8422.9921 2567.3279   12.2500   12.4228   53.0437   11.7192   27.1936   45.1408   61.0921    0.0313    2.6410   -0.0003    2.9429   36.0000 
8423.4921 2567.4805   12.2500   12.4000   51.2808   12.9089   30.7001   51.9371   59.3382    0.0220    2.6521    0.0016    2.8411   36.0000 
8423.9921 2567.6328   12.2500   12.4000   48.1491   13.8644   38.4223   87.2614   56.8531    0.0154    2.6608   -0.0004    3.0601   36.0000 
8424.4921 2567.7852   12.2500   12.4114   43.5181   14.2948   44.5282  139.1514   56.2720    0.0119    2.6752   -0.0028    3.2765   18.0000 
8424.9921 2567.9375   12.2500   12.4228   41.0643   15.0615   46.9484  135.4202   54.2491    0.0094    2.7069   -0.0074    3.8133   18.0000 
8425.4921 2568.0901   12.2500   12.4228   38.7976   15.8604   54.3329  284.5548   52.6237    0.0076    2.6895   -0.0096    3.7007   18.0000 
8425.9921 2568.2424   12.2500   12.4456   33.9837   15.7709   51.5085  228.6492   52.2295    0.0046    2.7245   -0.0074    3.8378   18.0000 
8426.4921 2568.3948   12.2500   12.4342   26.6427   14.1536   42.7755  123.8994   52.0206    0.0026    2.7568   -0.0028    3.9220   18.0000 
8426.9921 2568.5471   12.2500   12.4228   31.7957   14.3387   38.0717   77.7627   55.3006    0.0049    2.7014    0.0015    3.3994   18.0000 
8427.4921 2568.6997   12.2500   12.6052   45.9629   11.3256   26.6948   44.7215   57.7832    0.0273    2.6355    0.0017    3.0124   36.0000 
8427.9921 2568.8521   12.2500   12.4570   50.3593   10.6953   19.4608   24.0483   59.0190    0.0490    2.5793    0.0022    2.7664   36.0000 
8428.4921 2569.0044   12.2500   12.4684   47.1935   12.2633   22.4558   28.9584   58.5856    0.0490    2.5870    0.0026    2.7033   36.0000 
8428.9921 2569.1567   12.2500   12.4684   31.4334   16.4591   40.6760   68.8236   55.5026    0.0176    2.6305    0.0025    2.9956   36.0000 
8429.4921 2569.3091   12.2500   12.5140   23.8401   16.2671   48.8590  125.2264   53.6219    0.0133    2.6760   -0.0011    3.7910   18.0000 
8429.9921 2569.4617   12.2500   12.5596   20.2558   16.8083   55.8106  198.6276   52.0556    0.0136    2.6668   -0.0020    4.3106   18.0000 
8430.4921 2569.6140   12.2500   12.5140   19.7651   16.4756   53.5753  197.1633   52.1655    0.0158    2.6467   -0.0079    4.3595   18.0000 
8430.9921 2569.7664   12.2500   12.4912   20.2403   16.9290   50.5364  136.0352   52.5535    0.0142    2.6754   -0.0053    4.3920   18.0000 
8431.4921 2569.9187   12.2500   12.4684   20.3651   16.6887   49.0070  130.7421   53.1865    0.0144    2.6788   -0.0050    3.9828   18.0000 
8431.9921 2570.0713   12.2500   12.4228   26.7708   14.8389   39.8109   89.8968   55.4366    0.0161    2.6704    0.0016    3.8643   18.0000 
8432.4921 2570.2236   12.2500   12.4228   37.8150   14.0276   31.5611   53.1032   57.4745    0.0190    2.6187    0.0015    3.0244   36.0000 
8432.9921 2570.3760   12.2500   12.4228   52.5014   13.7139   30.7726   51.6610   58.6816    0.0246    2.6208    0.0014    2.5602   36.0000 
8433.4921 2570.5283   12.2500   12.3772   61.0641   14.2217   33.4305   59.8731   60.7661    0.0321    2.6250   -0.0011    2.5039   36.0000 
8433.9921 2570.6809   12.2500   12.4000   66.7584   14.2145   35.8876   71.7190   60.0253    0.0448    2.6284   -0.0004    2.6839   36.0000 
8434.4921 2570.8333   12.2500   12.4000   58.6974   15.3814   41.2211   87.5627   58.5844    0.0298    2.6282   -0.0027    2.8504   36.0000 
8434.9921 2570.9856   12.2500   12.3772   48.3885   16.4431   47.5070  131.2193   56.7042    0.0129    2.6609   -0.0029    2.6680   36.0000 
8435.4921 2571.1379   12.2500   12.4000   31.9125   16.1651   50.5117  193.5842   52.8341    0.0014    2.6527   -0.0042    2.9968   36.0000 
8435.9921 2571.2903   12.2500   12.4000   28.7225   12.7857   36.5554  105.3905   54.4096    0.0007    2.7571   -0.0019    3.8409   18.0000 
8436.4921 2571.4429   12.2500   12.4228   35.6328   12.2632   27.2787   47.6056   56.9696    0.0137    2.6915   -0.0002    3.6142   18.0000 
8436.9921 2571.5952   12.2500   12.4228   49.1137   11.2326   22.3415   34.0537   60.4027    0.0326    2.6110   -0.0009    2.7147   36.0000 
8437.4921 2571.7476   12.2500   12.4684   56.9302   10.3123   19.1911   27.8878   63.3855    0.0698    2.5797   -0.0008    2.6704   36.0000 
8437.9921 2571.8999   12.2500   12.4456   59.1019    9.4536   16.3943   22.4593   62.7423    0.0684    2.5529   -0.0007    2.6544   36.0000 
8438.4921 2572.0525   12.2500   12.4228   53.2442    9.4786   16.4615   22.4062   61.3516    0.0634    2.5349   -0.0003    2.4404   36.0000 
8438.9921 2572.2048   12.2500   12.4000   48.2807    9.6470   19.7016   30.0707   62.1652    0.0515    2.5732   -0.0016    2.5637   36.0000 
8439.4921 2572.3572   12.2500   12.4228   44.3877    9.2288   16.9478   23.0057   61.3561    0.0502    2.5801   -0.0018    2.8147   36.0000 
8439.9921 2572.5095   12.2500   12.4798   45.0923   10.8843   22.5086   34.2651   59.5044    0.0494    2.5293   -0.0004    2.5265   27.0000 
8440.4921 2572.6621   12.2500   12.3886   42.3282   11.7587   25.2930   41.7033   57.9803    0.0301    2.6114   -0.0003    2.6553   27.0000 
8440.9921 2572.8145   12.2500   12.3544   38.6396   12.7058   29.2022   56.1348   55.7782    0.0164    2.6793    0.0004    3.1981   27.0000 
8441.4921 2572.9668   12.2500   12.3772   32.9957   11.2856   25.3317   48.9235   55.9885    0.0119    2.6739   -0.0007    3.2503   27.0000 
8441.9921 2573.1191   12.2500   12.3772   34.8982    9.5936   17.2004   25.8594   57.6053    0.0180    2.5983   -0.0005    3.0637   27.0000 
8442.4921 2573.2715   12.2500   12.3772   39.1636    9.0644   15.2376   22.3285   59.4996    0.0191    2.5873   -0.0017    2.8780   27.0000 
8442.9921 2573.4241   12.2500   12.3544   49.7587    9.1762   15.7030   23.4528   61.7023    0.0295    2.5737   -0.0038    2.6298   27.0000 
8443.4921 2573.5764   12.2500   12.3658   57.8280    9.4507   16.2823   24.6110   62.1938    0.0461    2.6022   -0.0038    2.5389   36.0000 
8443.9921 2573.7288   12.2500   12.3886   68.1615    9.5547   16.7859   25.5063   63.9688    0.0676    2.5844   -0.0035    2.6398   36.0000 
8444.4921 2573.8811   12.2500   12.3772   71.3079    8.9393   15.8736   23.9003   64.7094    0.0754    2.5910   -0.0012    2.6822   36.0000 
8444.9921 2574.0337   12.2500   12.3544   78.4850    8.3370   14.3434   20.9706   65.0692    0.0776    2.5878   -0.0018    2.6511   36.0000 
8445.4921 2574.1860   12.2500   12.3772   75.3940    8.2380   14.0689   20.6628   64.7828    0.0851    2.5746   -0.0026    2.6152   36.0000 
8445.9921 2574.3384   12.2500   12.3772   78.2396    8.3132   14.9416   22.9627   64.2333    0.0809    2.5879   -0.0018    2.6947   36.0000 
8446.4921 2574.4907   12.2500   12.3772   71.3541    8.0358   14.0535   21.4896   63.5952    0.0672    2.6236    0.0002    2.6456   36.0000 
8446.9921 2574.6433   12.2500   12.3772   68.4095    7.5186   12.4737   18.4680   62.7582    0.0525    2.5849    0.0015    2.5952   36.0000 
8447.4921 2574.7957   12.2500   12.4000   54.5484    7.4967   12.4953   18.7919   62.1469    0.0457    2.5476   -0.0024    2.4140   36.0000 
8447.9921 2574.9480   12.2500   12.3772   44.0495    7.6252   12.5244   18.5943   61.2815    0.0409    2.5233   -0.0070    2.4772   27.0000 
