~VERSION INFORMATION
 VERS.                 2.0:   CWLS LOG ASCII STANDARD - VERSION 2.0
 WRAP.                  NO:   SINGLE LINE PER DEPTH STEP
 CREA.                 06/11/2018 17:04:42
#CREATED USING DSPetro VERSION 5000.10.1.3 BY H191660 ON 06/11/2018 17:04:42
~WELL INFORMATION
#MNEM.UNIT       DATA                          DESCRIPTION MNEMONIC
#---------      ---------------------------   --------------------------
 STRT    .FT        297.9921                  : START DEPTH
 STOP    .FT        12485.9921                : STOP DEPTH
 STEP    .FT        0.5000                    : STEP VALUE
 NULL    .      -999.0000                     : NULL VALUE
 DATE    .      06/11/2018                    : LAS file Creation Date
 WELL  .      UNIVERSITY_20-27           : Well Name
 COMP  .      Chesapeake Operating, Inc. : Company
 FLD   .      Haley                      : Field
 STATE .      Texas                      : State
 COUNT .      USA                        : Country
 API   .      42-495-33261               : API Number
 UWI   .      508                        : Unique Well Identifier (UWI)
 LOC   .      1320' FSL & 1320' FEL      : Location
 TOWN  .      20                         : Township
 SCT   .      27                         : Section
 RANG  .      University Lands           : Range
 PDAT  .      Ground Level               : Permanent Datum
 EPDAT .      2777.000000                : Reference Elevation
 LGMEA .      Kelly Bushing              : Log Measured from
 DRMEA .      Kelly Bushing              : Drill Measured From
 APDAT .      25.000000                  : Elevation Above Permanent Datum
 KB    .      2802.00000                 : KB Elevation
 GL    .      2777.00000                 : GL Elevation
 RWS   .      -999                       : Def_Rw
 WST   .      -999                       : Def_Rwt
 CNTY  .      Winkler                    : County
 SRVC  .      Schlumberger               : Contractor
~CURVE INFORMATION
#MNEM              UNIT       API CODE   Curve Type Comments
#----------  --------------- ----------  ---------- -----------
 DEPTH      .FT                        : Depth       
 DEPTH_(m)  .                          :             
 BS         .inch                      : BitSize     
 CAL_INCH   .inch                      :             Caliper Log - A representation of the measured diameter of a borehole along its depth
 GR         .GAPI                      : GammaRay    Gamma-Ray {F11.4}
 SRES       .ohmm                      :             20" array induction, one foot resistivity
 MRES       .ohm.m                     :             30" array induction, one foot resistivity
 DRES       .ohmm                      :             90" array induction, one foot resistivity log - units of ohmm
 DT_US_FT   .us/ft                     :             Interval Transit Time: Compressional Wave - Evaluates the time it takes for a compressional wave to traverse a fixed distance
 NPHI_v/v   .ratio                     :             Neutron Porosity - Measured with an neutron logging device calibrated to a given matrix (limestone, sandstone and dolomite)
 RHOB_G_CC  .g/cc                      :             Bulk Density - Measures the density of bulk material, including any void space or other materials contained in the subject volume
 HDRA       .G/C3                      : Drho        HRDD Density Correction {F11.4}
 PEF_B_E    .b/e-                      : PEF         Photoelectric Factor - A log of photoelectric absorption properties. Often expressed in an approximation unit barns/electron (b/e-)
 LITH       .                          : LITH        Lithology Curve
~A  DEPTH DEPTH_(m~     BS     CAL_INCH     GR       SRES      MRES      DRES    DT_US_FT  NPHI_v/v RHOB_G_C~    HDRA    PEF_B_E     LITH   
# ...
7593.4921 2314.4963   12.2500   12.6508   86.4349   14.5315   19.4017   24.2319   67.8426    0.1180    2.5677    0.0018    2.6853   37.0000 
7593.9921 2314.6487   12.2500   12.6736   98.7857   17.1395   26.1429   35.6506   69.3376    0.1294    2.5698    0.0013    2.7130   37.0000 
7594.4921 2314.8013   12.2500   12.6736  109.5233   19.9178   36.0852   52.5318   68.2338    0.1330    2.5637   -0.0017    2.8760   37.0000 
7594.9921 2314.9536   12.2500   12.6508  105.6576   20.4022   45.4037   77.9191   67.7291    0.1282    2.5850   -0.0037    3.1055   37.0000 
7595.4921 2315.1060   12.2500   12.6508   94.5336   20.6665   48.6344   89.7280   66.9973    0.0988    2.5309   -0.0037    2.8448   37.0000 
7595.9921 2315.2583   12.2500   12.6280   83.2459   21.2198   50.6467   95.2734   65.1801    0.1006    2.5544   -0.0025    2.7904   36.0000 
7596.4921 2315.4109   12.2500   12.6280   78.5232   21.8627   54.1424  105.6545   66.1430    0.0959    2.5584   -0.0038    2.7442   36.0000 
7596.9921 2315.5632   12.2500   12.6166   77.5416   20.9874   58.7894  143.7502   68.2484    0.1054    2.5753   -0.0046    2.8854   36.0000 
7597.4921 2315.7156   12.2500   12.6052   90.7924   22.1987   67.5722  178.5345   68.0595    0.1180    2.6051   -0.0050    3.6806   37.0000 
7597.9921 2315.8679   12.2500   12.6280  116.1716   22.5437   80.1485  304.2022   68.2717    0.1501    2.4581    0.0112    3.2600   37.0000 
7598.4921 2316.0205   12.2500   12.6280  125.0573   22.2337   81.8550  327.8359   68.5862    0.1735    2.4557    0.0427    3.2890   37.0000 
7598.9921 2316.1729   12.2500   12.5824  118.9226   22.2842   80.2591  314.6302   67.2314    0.1658    2.6032    0.0853    3.7185   37.0000 
7599.4921 2316.3252   12.2500   12.6052  105.0765   22.2959   78.7449  297.4975   69.4045    0.1622    2.5944    0.1122    3.6845   37.0000 
7599.9921 2316.4775   12.2500   12.6052  102.3959   22.0154   76.7048  288.3719   69.5978    0.1499    2.5960    0.1151    3.5936   37.0000 
7600.4921 2316.6299   12.2500   12.6052  105.5859   21.8701   71.6166  230.2793   70.1302    0.1511    2.5866    0.1173    3.5362   37.0000 
7600.9921 2316.7825   12.2500   12.5938  110.3333   22.2883   70.2813  198.3773   70.4390    0.1697    2.6558    0.1319    3.3962   37.0000 
7601.4921 2316.9348   12.2500   12.5824  125.2314   22.3146   76.3824  274.3840   72.3551    0.1810    2.6295    0.1551    3.2310   37.0000 
7601.9921 2317.0872   12.2500   12.5824  134.8014   22.4777   81.5537  326.5158   72.7863    0.1894    2.5441    0.1642    3.5502   37.0000 
7602.4921 2317.2395   12.2500   12.5596  133.9801   22.1914   77.2386  288.3206   72.7615    0.1810    2.5856    0.1597    3.7817   37.0000 
7602.9921 2317.3921   12.2500   12.5824  121.9562   20.7089   63.1434  187.8578   72.6116    0.1858    2.5895    0.1422    3.8145   37.0000 
7603.4921 2317.5444   12.2500   12.5596  115.2730   22.2493   58.8537  127.2008   70.3330    0.1894    2.6071    0.1219    3.7022   37.0000 
7603.9921 2317.6968   12.2500   12.5596  110.6107   21.9893   63.9721  173.2991   67.9748    0.1609    2.6310    0.0891    3.5848   37.0000 
7604.4921 2317.8491   12.2500   12.5482  106.1937   21.6328   62.6543  174.8578   65.7060    0.1121    2.6206    0.0534    2.9360   37.0000 
7604.9921 2318.0017   12.2500   12.5368   95.2093   21.5543   62.4943  177.9230   63.0307    0.0767    2.6167    0.0225    2.6839   37.0000 
7605.4921 2318.1541   12.2500   12.5368   99.1355   20.9522   58.9897  166.4423   64.6121    0.0905    2.6185    0.0072    2.6378   37.0000 
7605.9921 2318.3064   12.2500   12.5824  109.9324   21.1380   59.0149  157.5509   67.6256    0.1296    2.6005    0.0075    2.9466   37.0000 
7606.4921 2318.4587   12.2500   12.5596  119.3400   21.3996   64.4620  198.9298   70.8296    0.1751    2.5776    0.0062    3.3509   37.0000 
7606.9921 2318.6111   12.2500   12.5596  118.1131   21.3023   65.2956  225.8770   71.7083    0.1836    2.5889    0.0062    3.3733   37.0000 
7607.4921 2318.7637   12.2500   12.5596  107.0318   19.7461   54.4752  165.6937   70.1559    0.1689    2.6040    0.0072    3.6908   37.0000 
7607.9921 2318.9160   12.2500   12.5368  105.0645   19.4958   45.5213  108.0259   67.6211    0.1516    2.6201    0.0159    3.2312   37.0000 
7608.4921 2319.0684   12.2500   12.5596  102.1199   19.2016   42.1781   92.9100   66.9956    0.1271    2.6461    0.0297    3.1171   37.0000 
7608.9921 2319.2207   12.2500   12.5596   96.0779   18.7039   41.8316   91.5544   66.2681    0.1227    2.6467    0.0410    3.1678   37.0000 
7609.4921 2319.3733   12.2500   12.5596   94.0360   18.8978   42.0857   92.9911   67.4330    0.1139    2.6696    0.0609    3.2177   37.0000 
7609.9921 2319.5256   12.2500   12.5824  100.4160   19.9494   46.0986  104.8399   69.3702    0.1473    2.6275    0.0741    3.2597   37.0000 
7610.4921 2319.6780   12.2500   12.5596  119.9932   19.2445   47.2662  120.8348   71.0031    0.1724    2.5720    0.0762    3.4263   37.0000 
7610.9921 2319.8303   12.2500   12.5824  124.4101   17.6215   41.4778  100.5511   71.8566    0.1860    2.5575    0.0641    3.5099   37.0000 
7611.4921 2319.9829   12.2500   12.5824  120.2385   17.1142   36.5265   72.3480   70.5919    0.1674    2.5957    0.0431    3.3590   37.0000 
7611.9921 2320.1353   12.2500   12.5596  107.7239   15.9700   32.8187   61.4506   69.6213    0.1520    2.6150    0.0348    3.1101   37.0000 
7612.4921 2320.2876   12.2500   12.5824   94.6992   15.4723   32.5159   61.3734   66.3060    0.1352    2.6116    0.0248    3.0942   37.0000 
7612.9921 2320.4399   12.2500   12.5824   79.9762   13.2596   25.0314   41.4104   65.1134    0.1066    2.5938    0.0164    2.9901   37.0000 
7613.4921 2320.5923   12.2500   12.5482   67.4615   13.4795   24.1164   37.6425   62.9675    0.0732    2.5818    0.0063    2.9953   36.0000 
7613.9921 2320.7449   12.2500   12.5710   61.3462   13.9387   27.0909   45.1224   62.1446    0.0418    2.5692   -0.0008    2.9344   27.0000 
7614.4921 2320.8972   12.2500   12.5710   57.4579   12.3877   23.7141   37.5256   63.6355    0.0422    2.5574    0.0012    3.0566   27.0000 
7614.9921 2321.0496   12.2500   12.5596   58.1941   11.9021   20.7486   29.8399   64.6545    0.0630    2.5258    0.0025    2.8094   27.0000 
7615.4921 2321.2019   12.2500   12.5596   63.1553   11.8869   20.2567   28.6286   66.4632    0.0955    2.5257    0.0019    2.6976   36.0000 
7615.9921 2321.3545   12.2500   12.5596   68.0252   11.6361   19.8512   27.6328   67.5986    0.1113    2.5360    0.0005    2.7555   36.0000 
7616.4921 2321.5068   12.2500   12.5368   69.4975   11.3289   19.9065   27.6718   67.5955    0.1031    2.5555    0.0014    2.6915   36.0000 
7616.9921 2321.6592   12.2500   12.5596   66.1354   10.9373   19.1450   26.5940   67.6496    0.1001    2.5502    0.0044    2.7842   36.0000 
7617.4921 2321.8115   12.2500   12.5368   65.8424   11.0683   19.8881   28.4919   66.9051    0.0923    2.5432    0.0058    2.6848   36.0000 
7617.9921 2321.9641   12.2500   12.5254   67.8744   12.4598   23.9641   36.8031   64.7210    0.0883    2.5602    0.0056    2.6698   36.0000 
7618.4921 2322.1165   12.2500   12.5368   70.9376   13.9216   29.9344   53.2193   62.4459    0.0769    2.5984    0.0026    3.2101   36.0000 
7618.9921 2322.2688   12.2500   12.5368   71.7213   14.0533   33.0122   66.9604   61.7948    0.0762    2.6303    0.0014    3.6319   22.0000 
7619.4921 2322.4211   12.2500   12.5254   70.1801   13.6551   30.4076   58.5219   60.9010    0.0836    2.6239    0.0014    3.6899   22.0000 
7619.9921 2322.5735   12.2500   12.5368   65.5178   12.3484   24.4999   41.4178   61.5745    0.0730    2.5793    0.0017    2.6892   36.0000 
7620.4921 2322.7261   12.2500   12.5368   69.7476   12.8852   25.5322   43.6761   64.0875    0.0748    2.5628    0.0010    2.5975   36.0000 
7620.9921 2322.8784   12.2500   12.5140   79.5630   15.2014   32.0320   59.6277   65.9013    0.1062    2.5313   -0.0006    2.5985   36.0000 
7621.4921 2323.0308   12.2500   12.5140   98.2953   14.0568   31.4000   61.8655   67.6304    0.1528    2.5377   -0.0024    2.8640   37.0000 
