~VERSION INFORMATION
 VERS.                 2.0:   CWLS LOG ASCII STANDARD - VERSION 2.0
 WRAP.                  NO:   SINGLE LINE PER DEPTH STEP
 CREA.                 06/11/2018 17:04:42
#CREATED USING DSPetro VERSION 5000.10.1.3 BY H191660 ON 06/11/2018 17:04:42
~WELL INFORMATION
#MNEM.UNIT       DATA                          DESCRIPTION MNEMONIC
#---------      ---------------------------   --------------------------
 STRT    .FT        297.9921                  : START DEPTH
 STOP    .FT        12485.9921                : STOP DEPTH
 STEP    .FT        0.5000                    : STEP VALUE
 NULL    .      -999.0000                     : NULL VALUE
 DATE    .      06/11/2018                    : LAS file Creation Date
 WELL  .      UNIVERSITY_20-27           : Well Name
 COMP  .      Chesapeake Operating, Inc. : Company
 FLD   .      Haley                      : Field
 STATE .      Texas                      : State
 COUNT .      USA                        : Country
 API   .      42-495-33261               : API Number
 UWI   .      508                        : Unique Well Identifier (UWI)
 LOC   .      1320' FSL & 1320' FEL      : Location
 TOWN  .      20                         : Township
 SCT   .      27                         : Section
 RANG  .      University Lands           : Range
 PDAT  .      Ground Level               : Permanent Datum
 EPDAT .      2777.000000                : Reference Elevation
 LGMEA .      Kelly Bushing              : Log Measured from
 DRMEA .      Kelly Bushing              : Drill Measured From
 APDAT .      25.000000                  : Elevation Above Permanent Datum
 KB    .      2802.00000                 : KB Elevation
 GL    .      2777.00000                 : GL Elevation
 RWS   .      -999                       : Def_Rw
 WST   .      -999                       : Def_Rwt
 CNTY  .      Winkler                    : County
 SRVC  .      Schlumberger               : Contractor
~CURVE INFORMATION
#MNEM              UNIT       API CODE   Curve Type Comments
#----------  --------------- ----------  ---------- -----------
 DEPTH      .FT                        : Depth       
 DEPTH_(m)  .                          :             
 BS         .inch                      : BitSize     
 CAL_INCH   .inch                      :             Caliper Log - A representation of the measured diameter of a borehole along its depth
 GR         .GAPI                      : GammaRay    Gamma-Ray {F11.4}
 SRES       .ohmm                      :             20" array induction, one foot resistivity
 MRES       .ohm.m                     :             30" array induction, one foot resistivity
 DRES       .ohmm                      :             90" array induction, one foot resistivity log - units of ohmm
 DT_US_FT   .us/ft                     :             Interval Transit Time: Compressional Wave - Evaluates the time it takes for a compressional wave to traverse a fixed distance
 NPHI_v/v   .ratio                     :             Neutron Porosity - Measured with an neutron logging device calibrated to a given matrix (limestone, sandstone and dolomite)
 RHOB_G_CC  .g/cc                      :             Bulk Density - Measures the density of bulk material, including any void space or other materials contained in the subject volume
 HDRA       .G/C3                      : Drho        HRDD Density Correction {F11.4}
 PEF_B_E    .b/e-                      : PEF         Photoelectric Factor - A log of photoelectric absorption properties. Often expressed in an approximation unit barns/electron (b/e-)
 LITH       .                          : LITH        Lithology Curve
~A  DEPTH DEPTH_(m~     BS     CAL_INCH     GR       SRES      MRES      DRES    DT_US_FT  NPHI_v/v RHOB_G_C~    HDRA    PEF_B_E     LITH   
# ...
1922.4921  585.9756 -999.0000    3.5760   18.9108    0.0098    0.0086    0.0277   57.9873    0.2714    2.1298    0.2621    6.9749    3.0000 
1922.9921  586.1280 -999.0000    3.5760   26.6414    0.0081    0.0070    0.0264   56.8384    0.3055    2.1075    0.2446    7.2885    3.0000 
1923.4921  586.2804 -999.0000    3.5760   34.5496    0.0079    0.0068    0.0260   57.6784    0.3536    2.0714    0.2281    7.0693    3.0000 
1923.9921  586.4328 -999.0000    3.5760   48.9906    0.0082    0.0072    0.0253   57.6675    0.3690    2.1212    0.2235    7.1793    3.0000 
1924.4921  586.5852 -999.0000    3.5760   62.9607    0.0083    0.0071    0.0251   65.6926    0.3651    2.1250    0.2192    7.2503    3.0000 
1924.9921  586.7376 -999.0000    3.5760   70.8688    0.0088    0.0075    0.0247   67.3857    0.3526    2.0940    0.2104    7.3745    3.0000 
1925.4921  586.8900 -999.0000    3.5988   67.4305    0.0093    0.0081    0.0262   60.2554    0.3445    2.0886    0.1960    7.4348    3.0000 
1925.9921  587.0424 -999.0000    3.5760   60.8583    0.0099    0.0086    0.0264   60.9585    0.3370    2.0840    0.1908    7.3595    3.0000 
1926.4921  587.1948 -999.0000    3.5760   61.8812    0.0114    0.0099    0.0259   56.1735    0.4124    2.0860    0.1918    7.3795    3.0000 
1926.9921  587.3472 -999.0000    3.5988   65.2528    0.0104    0.0092    0.0269   57.8717    0.4218    2.0745    0.1885    7.6940    3.0000 
1927.4921  587.4996 -999.0000    3.5760   64.5652    0.0111    0.0097    0.0291   57.3185    0.3841    2.0402    0.1792    7.6916    3.0000 
1927.9921  587.6520 -999.0000    3.5760   49.3260    0.0091    0.0078    0.0227   57.0644    0.2114    2.0423    0.1738    7.6102    3.0000 
1928.4921  587.8044 -999.0000    3.5988   33.5764    0.0088    0.0075    0.0210   56.8635    0.1521    2.0449    0.1752    7.8210    3.0000 
1928.9921  587.9568 -999.0000    3.5760   19.4793    0.0105    0.0092    0.0282   57.2059    0.1883    2.0235    0.1746    7.7519    3.0000 
1929.4921  588.1092 -999.0000    3.5760   16.5040    0.0106    0.0094    0.0294   57.0442    0.2262    2.0468    0.1721    7.7731    3.0000 
1929.9921  588.2616 -999.0000    3.5988   17.9899    0.0102    0.0090    0.0285   64.2178    0.2552    2.0358    0.1689    7.5513    3.0000 
1930.4921  588.4140 -999.0000    3.5988   17.6358    0.0107    0.0093    0.0284   62.1349    0.2301    2.0567    0.1686    7.7478    3.0000 
1930.9921  588.5664 -999.0000    3.5760   17.9796    0.0084    0.0074    0.0286   62.8590    0.2812    2.0668    0.1747    7.9267    3.0000 
1931.4921  588.7188 -999.0000    3.5760   15.9900    0.0102    0.0090    0.0276   64.1146    0.3258    2.0760    0.1843    7.7717    3.0000 
1931.9921  588.8712 -999.0000    3.5760   16.3441    0.0107    0.0093    0.0284   64.6406    0.3667    2.0897    0.1958    7.7438    3.0000 
1932.4921  589.0236 -999.0000    3.5760   18.7509    0.0097    0.0085    0.0288   71.6613    0.3466    2.0885    0.2028    7.7955    3.0000 
1932.9921  589.1760 -999.0000    3.5760   16.5040    0.0115    0.0101    0.0310   71.6545    0.3383    2.0695    0.2016    7.7352    3.0000 
1933.4921  589.3284 -999.0000    3.5760   18.1496    0.0103    0.0090    0.0267   71.8001    0.3333    2.0646    0.1974    7.8440    3.0000 
1933.9921  589.4808 -999.0000    3.5988   13.3359    0.0097    0.0085    0.0277   63.3659    0.3334    2.0725    0.1936    7.7821    3.0000 
1934.4921  589.6332 -999.0000    3.5760   16.4304    0.0073    0.0062    0.0228   64.3141    0.3319    2.0718    0.1896    7.8459    3.0000 
1934.9921  589.7856 -999.0000    3.5988   15.5848    0.0098    0.0084    0.0276   64.2450    0.3365    2.0700    0.1908    7.8437    3.0000 
1935.4921  589.9380 -999.0000    3.5988   16.9601    0.0087    0.0076    0.0283   56.0962    0.3747    2.0939    0.1955    7.8715    3.0000 
1935.9921  590.0904 -999.0000    3.5760   15.2410    0.0099    0.0087    0.0278   56.5071    0.3971    2.1111    0.2057    7.6284    3.0000 
1936.4921  590.2428 -999.0000    3.5988   15.8163    0.0077    0.0068    0.0253   56.5071    0.4149    2.0716    0.2061    7.6458    3.0000 
1936.9921  590.3952 -999.0000    3.5760   16.0427    0.0113    0.0101    0.0287   56.2457    0.3885    2.1033    0.2026    7.6557    3.0000 
1937.4921  590.5476 -999.0000    3.5988   16.7303    0.0118    0.0106    0.0277   56.3155    0.3390    2.1149    0.2019    7.7910    3.0000 
1937.9921  590.7000 -999.0000    3.5760   17.0742    0.0122    0.0110    0.0279   56.3155    0.4176    2.1052    0.2041    7.6415    3.0000 
1938.4921  590.8524 -999.0000    3.5988   17.5355    0.0153    0.0138    0.0295   56.2077    0.4759    2.0777    0.2024    7.5963    3.0000 
1938.9921  591.0048 -999.0000    3.5760   18.2608    0.0128    0.0116    0.0267   64.3973    0.5325    2.0871    0.1972    7.6184    3.0000 
1939.4921  591.1572 -999.0000    3.5988   16.5416 100000.0000 100000.0000    0.0114   64.8015    0.4739    2.0790    0.1967    7.6248    3.0000 
1939.9921  591.3096 -999.0000    3.5760   13.7978 100000.0000 100000.0000 100000.0000   64.6382    0.4343    2.1071    0.1981    7.6269    3.0000 
1940.4921  591.4620 -999.0000    3.5988   12.0410 99999.9987 99999.9987 99999.9987   65.2953    0.4729    2.1033    0.1981    7.8320    3.0000 
1940.9921  591.6144 -999.0000    3.5988   13.4163    0.0444    0.0393    0.0421   56.4552    0.4197    2.1037    0.1960    7.6879    3.0000 
1941.4921  591.7668 -999.0000    3.5760   14.7704 99999.9987 99999.9987    0.0282   55.8923    0.4370    2.0707    0.1885    7.7228    3.0000 
1941.9921  591.9192 -999.0000    3.5988   13.7389    0.0205    0.0203    0.0398   65.0114    0.3548    2.0891    0.1843    7.7640    3.0000 
1942.4921  592.0716 -999.0000    3.5988   13.7364    0.0623    0.0572    0.0850   65.1083    0.3826    2.0950    0.1820    7.7703    3.0000 
1942.9921  592.2240 -999.0000    3.5760   13.7507 100000.0000 100000.0000    0.0160   65.2848    0.3518    2.0956    0.1840    7.8557    3.0000 
1943.4921  592.3764 -999.0000    3.5760   15.1261 100000.0000 100000.0000    0.0274   67.2128    0.3814    2.1327    0.1890    7.7692    3.0000 
1943.9921  592.5288 -999.0000    3.5760   15.6988 100000.0000 100000.0000 99999.9987   68.0203    0.3540    2.1806    0.1972    7.7542    3.0000 
1944.4921  592.6812 -999.0000    3.5760   13.6358 100000.0000 100000.0000    0.0053   68.1134    0.3332    2.2928    0.2102    7.7385    3.0000 
1944.9921  592.8336 -999.0000    3.5760   13.9632 100000.0000 100000.0000    0.0029   66.2017    0.3002    2.2383    0.2140    8.0093    3.0000 
1945.4921  592.9860 -999.0000    3.5988   12.7054 99999.9987 99999.9987 99999.9987   66.3485    0.2934    2.1217    0.2018    7.4799    3.0000 
1945.9921  593.1384 -999.0000    3.5760   13.9741    0.0452    0.0393    0.0507   58.4141    0.2636    2.1003    0.1905    7.5653    3.0000 
1946.4921  593.2908 -999.0000    3.5988   15.7097 99999.9987 99999.9987 99999.9987   58.8755    0.2397    2.0716    0.1807    7.5968    3.0000 
1946.9921  593.4432 -999.0000    3.5760   16.7412    0.0665    0.0584    0.0661   59.5742    0.2693    2.0741    0.1846    7.6093    3.0000 
1947.4921  593.5956 -999.0000    3.5988   18.5495    0.0259    0.0237    0.0342   58.3510    0.3679    2.0668    0.1883    7.7192    3.0000 
1947.9921  593.7480 -999.0000    3.5760   19.6342 100000.0000 100000.0000    0.0141   60.6898    0.3981    2.0625    0.1944    7.3875    3.0000 
1948.4921  593.9004 -999.0000    3.5988   20.3218 99999.9987 99999.9987    0.0171   60.9785    0.3496    2.0875    0.1975    7.5505    3.0000 
1948.9921  594.0528 -999.0000    3.5760   18.9639    0.1434    0.1346    0.1228   60.0394    0.2864    2.0799    0.1998    7.4824    3.0000 
1949.4921  594.2052 -999.0000    3.5988   15.8163    0.0860    0.0754    0.0809   59.6083    0.2341    2.0874    0.2035    7.6088    3.0000 
1949.9921  594.3576 -999.0000    3.5760   16.5005    0.0031    0.0031    0.0244   59.5524    0.2674    2.0802    0.2068    7.4623    3.0000 
1950.4921  594.5100 -999.0000    3.5874   18.5635 99999.9987 99999.9987    0.0126   59.1711    0.2665    2.0829    0.2098    7.4617    3.0000 
