~VERSION INFORMATION
 VERS.                 2.0:   CWLS LOG ASCII STANDARD - VERSION 2.0
 WRAP.                  NO:   SINGLE LINE PER DEPTH STEP
 CREA.                 06/11/2018 17:04:42
#CREATED USING DSPetro VERSION 5000.10.1.3 BY H191660 ON 06/11/2018 17:04:42
~WELL INFORMATION
#MNEM.UNIT       DATA                          DESCRIPTION MNEMONIC
#---------      ---------------------------   --------------------------
 STRT    .FT        297.9921                  : START DEPTH
 STOP    .FT        12485.9921                : STOP DEPTH
 STEP    .FT        0.5000                    : STEP VALUE
 NULL    .      -999.0000                     : NULL VALUE
 DATE    .      06/11/2018                    : LAS file Creation Date
 WELL  .      UNIVERSITY_20-27           : Well Name
 COMP  .      Chesapeake Operating, Inc. : Company
 FLD   .      Haley                      : Field
 STATE .      Texas                      : State
 COUNT .      USA                        : Country
 API   .      42-495-33261               : API Number
 UWI   .      508                        : Unique Well Identifier (UWI)
 LOC   .      1320' FSL & 1320' FEL      : Location
 TOWN  .      20                         : Township
 SCT   .      27                         : Section
 RANG  .      University Lands           : Range
 PDAT  .      Ground Level               : Permanent Datum
 EPDAT .      2777.000000                : Reference Elevation
 LGMEA .      Kelly Bushing              : Log Measured from
 DRMEA .      Kelly Bushing              : Drill Measured From
 APDAT .      25.000000                  : Elevation Above Permanent Datum
 KB    .      2802.00000                 : KB Elevation
 GL    .      2777.00000                 : GL Elevation
 RWS   .      -999                       : Def_Rw
 WST   .      -999                       : Def_Rwt
 CNTY  .      Winkler                    : County
 SRVC  .      Schlumberger               : Contractor
~CURVE INFORMATION
#MNEM              UNIT       API CODE   Curve Type Comments
#----------  --------------- ----------  ---------- -----------
 DEPTH      .FT                        : Depth       
 DEPTH_(m)  .                          :             
 BS         .inch                      : BitSize     
 CAL_INCH   .inch                      :             Caliper Log - A representation of the measured diameter of a borehole along its depth
 GR         .GAPI                      : GammaRay    Gamma-Ray {F11.4}
 SRES       .ohmm                      :             20" array induction, one foot resistivity
 MRES       .ohm.m                     :             30" array induction, one foot resistivity
 DRES       .ohmm                      :             90" array induction, one foot resistivity log - units of ohmm
 DT_US_FT   .us/ft                     :             Interval Transit Time: Compressional Wave - Evaluates the time it takes for a compressional wave to traverse a fixed distance
 NPHI_v/v   .ratio                     :             Neutron Porosity - Measured with an neutron logging device calibrated to a given matrix (limestone, sandstone and dolomite)
 RHOB_G_CC  .g/cc                      :             Bulk Density - Measures the density of bulk material, including any void space or other materials contained in the subject volume
 HDRA       .G/C3                      : Drho        HRDD Density Correction {F11.4}
 PEF_B_E    .b/e-                      : PEF         Photoelectric Factor - A log of photoelectric absorption properties. Often expressed in an approximation unit barns/electron (b/e-)
 LITH       .                          : LITH        Lithology Curve
~A  DEPTH DEPTH_(m~     BS     CAL_INCH     GR       SRES      MRES      DRES    DT_US_FT  NPHI_v/v RHOB_G_C~    HDRA    PEF_B_E     LITH   
# ...
10044.4921 3061.5613   12.2500   12.2632   71.6752   15.8791   39.3091   86.8198   77.9610    0.2070    2.4384    0.0085    2.9881   36.0000 
10044.9921 3061.7136   12.2500   12.2860   62.1052   16.8006   46.6335  129.4869   74.0342    0.1668    2.5507    0.0017    3.0418   36.0000 
10045.4921 3061.8660   12.2500   12.2632   60.3857   16.1047   47.7267  145.7452   70.1907    0.1256    2.5885   -0.0008    4.0015   22.0000 
10045.9921 3062.0183   12.2500   12.2632   56.2141   17.1380   52.9479  182.9143   66.4975    0.0690    2.5500   -0.0030    3.6919   22.0000 
10046.4921 3062.1709   12.2500   12.2632   55.9866   16.5401   55.4889  240.4933   64.3994    0.0588    2.5952   -0.0006    3.8079   22.0000 
10046.9921 3062.3232   12.2500   12.2404   52.9451   17.1598   57.5132  246.6969   64.2729    0.0614    2.6075    0.0090    4.0625   22.0000 
10047.4921 3062.4756   12.2500   12.2632   58.3435   16.1302   53.6948  232.8214   68.6604    0.0690    2.6187    0.0243    3.9029   22.0000 
10047.9921 3062.6279   12.2500   12.2404   70.1346   15.1337   46.6932  137.3170   73.6007    0.0932    2.5393    0.0273    3.1766   36.0000 
10048.4921 3062.7805   12.2500   12.2404   81.7436   14.5684   44.9126  132.9942   78.5714    0.1511    2.4312    0.0191    3.0656   36.0000 
10048.9921 3062.9329   12.2500   12.2404   91.7357   14.1927   42.6685  113.4778   80.3753    0.1804    2.4142    0.0081    2.9255   36.0000 
10049.4921 3063.0852   12.2500   12.2632   89.0152   14.2623   42.5287  115.8217   78.4618    0.1900    2.4060    0.0034    2.8182   36.0000 
10049.9921 3063.2375   12.2500   12.2860   88.7997   15.5715   46.8670  130.4892   75.9585    0.1450    2.4557    0.0028    3.0464   36.0000 
10050.4921 3063.3899   12.2500   12.2860   74.6361   13.4009   45.7445  208.8586   72.6953    0.1106    2.5480    0.0052    3.5685   22.0000 
10050.9921 3063.5425   12.2500   12.2860   70.4784   13.1950   41.1798  117.3000   73.1263    0.1016    2.5222    0.0066    3.7097   22.0000 
10051.4921 3063.6948   12.2500   12.2632   70.4485   14.0764   43.4208  129.5041   72.1401    0.1142    2.4699    0.0066    3.3978   22.0000 
10051.9921 3063.8472   12.2500   12.2632   75.3562   14.1031   54.1222  265.7679   69.9306    0.1098    2.4965    0.0021    3.2917   22.0000 
10052.4921 3063.9995   12.2500   12.2860   66.7586   13.9767   52.4426  438.6973   66.0509    0.0829    2.5949    0.0011    3.7532   22.0000 
10052.9921 3064.1521   12.2500   12.2632   58.6609   13.7647   50.8419  367.8123   63.6121    0.0552    2.6123    0.0050    3.9310   22.0000 
10053.4921 3064.3044   12.2500   12.2632   50.0908   13.4870   49.4885  302.0088   66.3295    0.0604    2.5902    0.0077    3.8434   22.0000 
10053.9921 3064.4568   12.2500   12.2860   58.9107   12.5701   43.7404  203.8087   70.5011    0.0754    2.5449    0.0117    3.6554   22.0000 
10054.4921 3064.6091   12.2500   12.2860   57.7038   13.5334   44.3266  162.3952   72.4016    0.0922    2.4853    0.0061    3.0043   37.0000 
10054.9921 3064.7617   12.2500   12.3088   62.8385   13.2120   41.6353  140.5675   75.4235    0.1065    2.5126    0.0060    3.3623   37.0000 
10055.4921 3064.9141   12.2500   12.2860   66.5465   12.8367   39.6528  118.3384   77.4158    0.1235    2.4734    0.0026    3.1566   37.0000 
10055.9921 3065.0664   12.2500   12.2860   75.8512   13.1543   37.6659   90.0537   76.7652    0.1543    2.4260    0.0047    2.8671   37.0000 
10056.4921 3065.2188   12.2500   12.3316   77.8402   13.5539   42.8831  147.8472   74.6165    0.1519    2.5101    0.0024    3.1584   37.0000 
10056.9921 3065.3711   12.2500   12.3316   73.1506   14.0671   47.8302  188.8800   72.5173    0.1389    2.5485   -0.0005    3.7726   22.0000 
10057.4921 3065.5237   12.2500   12.3088   66.2799   13.7780   50.0136  320.0003   66.1364    0.0988    2.5817   -0.0024    3.6748   22.0000 
10057.9921 3065.6760   12.2500   12.3088   57.9279   13.8756   50.6286  474.8149   64.1158    0.0603    2.6212   -0.0028    3.7747   22.0000 
10058.4921 3065.8284   12.2500   12.3316   56.9463   13.5911   48.6582  291.0305   64.0557    0.0362    2.6197   -0.0022    4.1611   22.0000 
10058.9921 3065.9807   12.2500   12.3544   60.8993   13.0876   45.0536  210.7977   66.0834    0.0298    2.5751    0.0024    4.0458   22.0000 
10059.4921 3066.1333   12.2500   12.3316   63.3360   13.0538   42.9826  168.4744   71.0687    0.0770    2.5488    0.0054    3.6640   22.0000 
10059.9921 3066.2856   12.2500   12.3544   65.5681   12.5034   38.0365  113.9856   74.3997    0.1060    2.5016    0.0046    3.1137   22.0000 
10060.4921 3066.4380   12.2500   12.3544   68.4860   12.3747   35.5736   90.2438   76.2450    0.1565    2.4832   -0.0034    2.9900   37.0000 
10060.9921 3066.5903   12.2500   12.3544   78.0859   11.8752   33.7300   84.1139   78.9301    0.1646    2.4483   -0.0052    2.9404   37.0000 
10061.4921 3066.7429   12.2500   12.3772   79.2892   11.9331   33.6841   79.8871   78.1011    0.1821    2.4884   -0.0044    2.9909   37.0000 
10061.9921 3066.8953   12.2500   12.3544   74.6269   12.6219   34.2840   76.1373   75.8306    0.1527    2.5330    0.0007    3.6407   37.0000 
10062.4921 3067.0476   12.2500   12.3886   67.4641   13.6627   44.0227  141.9589   69.8021    0.1233    2.5605    0.0016    3.4856   22.0000 
10062.9921 3067.2000   12.2500   12.3886   57.4175   11.5602   39.4780  187.0135   67.4204    0.0769    2.6227    0.0033    3.9544   22.0000 
10063.4921 3067.3523   12.2500   12.4000   53.7367   12.1546   38.1961  117.0401   67.0190    0.0724    2.6043    0.0067    4.2032   22.0000 
10063.9921 3067.5049   12.2500   12.4000   60.1626   12.9982   39.7521  118.6516   68.0351    0.0789    2.5494   -0.0041    3.6449   22.0000 
10064.4921 3067.6572   12.2500   12.3886   64.5653   13.1995   42.6733  158.7165   70.3738    0.0923    2.5438   -0.0158    3.5612   22.0000 
10064.9921 3067.8096   12.2500   12.3772   68.0254   11.4297   38.0792  150.0191   72.5746    0.1002    2.5580   -0.0168    3.6257   22.0000 
10065.4921 3067.9619   12.2500   12.3772   67.9963   11.6925   35.3434   96.6585   73.8854    0.1133    2.5128   -0.0055    3.3221   22.0000 
10065.9921 3068.1145   12.2500   12.3772   80.5109   12.2916   35.6032   90.5090   78.7120    0.1352    2.5115    0.0104    3.2107   22.0000 
10066.4921 3068.2668   12.2500   12.3772   84.9215   11.8784   35.7311   98.7647   80.9040    0.1464    2.5114    0.0152    3.6002   22.0000 
10066.9921 3068.4192   12.2500   12.4000   91.4771   11.3753   31.2595   67.8217   81.1939    0.1625    2.4836    0.0127    2.9948   37.0000 
10067.4921 3068.5715   12.2500   12.4000   96.1013   11.0414   27.1634   47.4530   80.1990    0.1741    2.4818    0.0061    3.1031   37.0000 
10067.9921 3068.7241   12.2500   12.3772  101.7622   12.0037   34.0759   79.2130   77.4220    0.1730    2.4998   -0.0038    2.8659   37.0000 
10068.4921 3068.8765   12.2500   12.3544   92.9981   12.0273   35.6559   91.8919   75.8246    0.1440    2.5898   -0.0004    3.3012   37.0000 
10068.9921 3069.0288   12.2500   12.4000   87.6378   12.3144   35.6238   85.4155   74.9659    0.1377    2.5096   -0.0009    3.5969   37.0000 
10069.4921 3069.1812   12.2500   12.3544   82.7248   12.3931   37.8330  101.9321   77.6397    0.1467    2.4179    0.0013    3.0656   37.0000 
10069.9921 3069.3335   12.2500   12.3544   87.3871   12.6870   37.5953   95.2103   79.7841    0.1728    2.4661   -0.0009    3.2241   37.0000 
10070.4921 3069.4861   12.2500   12.3316   87.4186   12.9175   38.6342  101.5870   80.6194    0.1778    2.4010    0.0007    2.6625   37.0000 
10070.9921 3069.6384   12.2500   12.3316   88.6154   12.8278   38.7576  106.0749   81.2386    0.1801    2.3926    0.0000    2.5580   37.0000 
10071.4921 3069.7908   12.2500   12.3544   87.2847   12.9933   39.1125  105.2898   80.1316    0.1733    2.3972   -0.0012    2.6312   37.0000 
10071.9921 3069.9431   12.2500   12.3544   85.2999   12.8864   38.3387  102.6469   79.0509    0.1595    2.3935   -0.0029    2.6632   37.0000 
10072.4921 3070.0957   12.2500   12.3088   86.7929   12.5462   36.8080   95.0161   79.7831    0.1618    2.4538   -0.0037    2.8131   37.0000 
