~VERSION INFORMATION
 VERS.                 2.0:   CWLS LOG ASCII STANDARD - VERSION 2.0
 WRAP.                  NO:   SINGLE LINE PER DEPTH STEP
 CREA.                 06/11/2018 17:04:42
#CREATED USING DSPetro VERSION 5000.10.1.3 BY H191660 ON 06/11/2018 17:04:42
~WELL INFORMATION
#MNEM.UNIT       DATA                          DESCRIPTION MNEMONIC
#---------      ---------------------------   --------------------------
 STRT    .FT        297.9921                  : START DEPTH
 STOP    .FT        12485.9921                : STOP DEPTH
 STEP    .FT        0.5000                    : STEP VALUE
 NULL    .      -999.0000                     : NULL VALUE
 DATE    .      06/11/2018                    : LAS file Creation Date
 WELL  .      UNIVERSITY_20-27           : Well Name
 COMP  .      Chesapeake Operating, Inc. : Company
 FLD   .      Haley                      : Field
 STATE .      Texas                      : State
 COUNT .      USA                        : Country
 API   .      42-495-33261               : API Number
 UWI   .      508                        : Unique Well Identifier (UWI)
 LOC   .      1320' FSL & 1320' FEL      : Location
 TOWN  .      20                         : Township
 SCT   .      27                         : Section
 RANG  .      University Lands           : Range
 PDAT  .      Ground Level               : Permanent Datum
 EPDAT .      2777.000000                : Reference Elevation
 LGMEA .      Kelly Bushing              : Log Measured from
 DRMEA .      Kelly Bushing              : Drill Measured From
 APDAT .      25.000000                  : Elevation Above Permanent Datum
 KB    .      2802.00000                 : KB Elevation
 GL    .      2777.00000                 : GL Elevation
 RWS   .      -999                       : Def_Rw
 WST   .      -999                       : Def_Rwt
 CNTY  .      Winkler                    : County
 SRVC  .      Schlumberger               : Contractor
~CURVE INFORMATION
#MNEM              UNIT       API CODE   Curve Type Comments
#----------  --------------- ----------  ---------- -----------
 DEPTH      .FT                        : Depth       
 DEPTH_(m)  .                          :             
 BS         .inch                      : BitSize     
 CAL_INCH   .inch                      :             Caliper Log - A representation of the measured diameter of a borehole along its depth
 GR         .GAPI                      : GammaRay    Gamma-Ray {F11.4}
 SRES       .ohmm                      :             20" array induction, one foot resistivity
 MRES       .ohm.m                     :             30" array induction, one foot resistivity
 DRES       .ohmm                      :             90" array induction, one foot resistivity log - units of ohmm
 DT_US_FT   .us/ft                     :             Interval Transit Time: Compressional Wave - Evaluates the time it takes for a compressional wave to traverse a fixed distance
 NPHI_v/v   .ratio                     :             Neutron Porosity - Measured with an neutron logging device calibrated to a given matrix (limestone, sandstone and dolomite)
 RHOB_G_CC  .g/cc                      :             Bulk Density - Measures the density of bulk material, including any void space or other materials contained in the subject volume
 HDRA       .G/C3                      : Drho        HRDD Density Correction {F11.4}
 PEF_B_E    .b/e-                      : PEF         Photoelectric Factor - A log of photoelectric absorption properties. Often expressed in an approximation unit barns/electron (b/e-)
 LITH       .                          : LITH        Lithology Curve
~A  DEPTH DEPTH_(m~     BS     CAL_INCH     GR       SRES      MRES      DRES    DT_US_FT  NPHI_v/v RHOB_G_C~    HDRA    PEF_B_E     LITH   
 297.9921   90.8280 -999.0000    3.5760   40.2284    0.0084    0.0066    0.0222   56.0046    0.4114    2.2588    0.2544    7.4595    3.0000 
 298.4921   90.9804 -999.0000    3.5760   38.4682    0.0079    0.0061    0.0218   55.9585    0.3951    2.2428    0.2577    7.4844    3.0000 
 298.9921   91.1328 -999.0000    3.5988   40.5311    0.0079    0.0061    0.0220   55.5747    0.4312    2.2519    0.2626    7.4733    3.0000 
 299.4921   91.2852 -999.0000    3.5988   42.2503    0.0066    0.0049    0.0210   55.5747    0.4520    2.2427    0.2712    7.5035    3.0000 
 299.9921   91.4376 -999.0000    3.5760   43.3229    0.0089    0.0070    0.0224   55.7670    0.4846    2.2382    0.2779    7.4961    3.0000 
 300.4921   91.5900 -999.0000    3.5988   41.2599    0.0086    0.0067    0.0220   56.0181    0.4915    2.2861    0.2819    7.4165    3.0000 
 300.9921   91.7424 -999.0000    3.5988   39.8845    0.0089    0.0071    0.0210   56.3669    0.4549    2.2749    0.2779    7.4592    3.0000 
 301.4921   91.8948 -999.0000    3.5988   37.1339    0.0086    0.0068    0.0217   56.3639    0.5090    2.2419    0.2713    7.5111    3.0000 
 301.9921   92.0472 -999.0000    3.6216   40.2284    0.0094    0.0075    0.0224   56.3176    0.5035    2.2511    0.2662    7.4036    3.0000 
 302.4921   92.1996 -999.0000    3.5988   42.6352    0.0088    0.0069    0.0221   56.2604    0.4998    2.2786    0.2660    7.6132    3.0000 
 302.9921   92.3520 -999.0000    3.5760   42.2914    0.0089    0.0069    0.0226   56.2604    0.4197    2.2840    0.2705    7.5135    3.0000 
 303.4921   92.5044 -999.0000    3.5760   40.9160    0.0075    0.0057    0.0209   56.0450    0.4270    2.2361    0.2761    7.5240    3.0000 
 303.9921   92.6568 -999.0000    3.5988   44.3544    0.0088    0.0068    0.0218   56.2444    0.4646    2.2443    0.2741    7.7362    3.0000 
 304.4921   92.8092 -999.0000    3.5988   47.0619    0.0086    0.0067    0.0212   56.4385    0.4834    2.2258    0.2664    7.6482    3.0000 
 304.9921   92.9616 -999.0000    3.5988   45.3427    0.0074    0.0056    0.0206   56.8193    0.5704    2.2479    0.2593    7.5034    3.0000 
 305.4921   93.1140 -999.0000    3.5988   45.3427    0.0088    0.0068    0.0215   56.7197    0.5437    2.2598    0.2592    7.4763    3.0000 
 305.9921   93.2664 -999.0000    3.5760   52.6063    0.0089    0.0069    0.0213   56.2072    0.5550    2.2732    0.2640    7.5001    3.0000 
 306.4921   93.4188 -999.0000    3.5988   55.3118    0.0088    0.0069    0.0211   56.2112    0.5260    2.2746    0.2774    7.5070    3.0000 
 306.9921   93.5712 -999.0000    3.6216   55.9995    0.0065    0.0048    0.0200   56.1436    0.5580    2.2803    0.2854    7.4960    3.0000 
 307.4921   93.7236 -999.0000    3.5988   51.5297    0.0087    0.0067    0.0213   56.1436    0.5551    2.2709    0.2879    7.5189    3.0000 
 307.9921   93.8760 -999.0000    3.5988   53.6378    0.0085    0.0066    0.0210   56.1921    0.5160    2.2655    0.2877    7.5016    3.0000 
 308.4921   94.0284 -999.0000    3.5988   47.4488    0.0072    0.0055    0.0201   56.0728    0.5044    2.2981    0.2918    7.6398    3.0000 
 308.9921   94.1808 -999.0000    3.5988   46.4174    0.0081    0.0062    0.0195   55.9566    0.5532    2.2926    0.2967    7.8131    3.0000 
 309.4921   94.3332 -999.0000    3.5760   44.3544    0.0080    0.0061    0.0185   56.9142    0.6186    2.2942    0.2950    7.5118    3.0000 
 309.9921   94.4856 -999.0000    3.5988   48.4803    0.0090    0.0070    0.0191   57.5013    0.5694    2.2864    0.2906    7.6465    3.0000 
 310.4921   94.6380 -999.0000    3.5760   48.3577    0.0065    0.0048    0.0184   57.1845    0.5291    2.2669    0.2811    7.6184    3.0000 
 310.9921   94.7904 -999.0000    3.5760   54.2029    0.0089    0.0069    0.0197   56.3710    0.4696    2.2582    0.2750    7.5754    3.0000 
 311.4921   94.9428 -999.0000    3.6216   59.2937    0.0084    0.0064    0.0181   56.2949    0.5776    2.2649    0.2772    7.6463    3.0000 
 311.9921   95.0952 -999.0000    3.5760   62.2522    0.0083    0.0064    0.0182   55.3773    0.5693    2.2883    0.2840    7.2539    3.0000 
 312.4921   95.2476 -999.0000    3.5988   60.8769    0.0103    0.0081    0.0201   56.6928    0.5727    2.3147    0.2901    7.2619    3.0000 
 312.9921   95.4000 -999.0000    3.5988   55.7348    0.0092    0.0071    0.0185   53.5221    0.4874    2.3071    0.2888    7.2615    3.0000 
 313.4921   95.5524 -999.0000    3.5760   52.2112    0.0080    0.0061    0.0176   48.0912    0.5108    2.2797    0.2818    7.5795    3.0000 
 313.9921   95.7048 -999.0000    3.5988   49.8044    0.0091    0.0070    0.0185   70.5076    0.5738    2.2256    0.2717    7.4193    3.0000 
 314.4921   95.8572 -999.0000    3.5988   47.4488    0.0082    0.0062    0.0178   66.2352    0.5890    2.2597    0.2653    7.3520    3.0000 
 314.9921   96.0096 -999.0000    3.5988   45.3859    0.0075    0.0056    0.0164   69.4321    0.6090    2.2804    0.2684    7.2880    3.0000 
 315.4921   96.1620 -999.0000    3.5988   37.4777    0.0062    0.0045    0.0166   62.4213    0.4637    2.3687    0.2790    7.3396    3.0000 
 315.9921   96.3144 -999.0000    3.5988   33.8341    0.0085    0.0065    0.0189   61.6674    0.4673    2.3688    0.2927    7.3503    3.0000 
 316.4921   96.4668 -999.0000    3.5760   34.2055    0.0077    0.0059    0.0188   64.2345    0.4300    2.3687    0.3002    7.3775    3.0000 
 316.9921   96.6192 -999.0000    3.5760   39.7068    0.0085    0.0065    0.0195   57.8946    0.5058    2.2837    0.3030    7.1699    3.0000 
 317.4921   96.7716 -999.0000    3.5988   40.9435    0.0086    0.0065    0.0177   59.1145    0.4483    2.3016    0.3024    7.3819    3.0000 
 317.9921   96.9240 -999.0000    3.5988   42.5890    0.0068    0.0049    0.0178   58.8684    0.4870    2.3187    0.3023    7.4607    3.0000 
 318.4921   97.0764 -999.0000    3.5760   45.8464    0.0085    0.0064    0.0195   58.8402    0.5376    2.3066    0.3009    7.4376    3.0000 
 318.9921   97.2288 -999.0000    3.5760   48.9409    0.0077    0.0058    0.0180   67.6190    0.6170    2.2838    0.2941    7.3873    3.0000 
 319.4921   97.3812 -999.0000    3.5988   48.2994    0.0086    0.0066    0.0194   75.7566    0.5581    2.3043    0.2832    7.4708    3.0000 
 319.9921   97.5336 -999.0000    3.5988   47.0547    0.0084    0.0064    0.0204   70.3995    0.4835    2.2679    0.2717    7.4711    3.0000 
 320.4921   97.6860 -999.0000    3.5988   49.1177    0.0095    0.0074    0.0207   82.6511    0.4735    2.2669    0.2678    7.4431    3.0000 
 320.9921   97.8384 -999.0000    3.5988   49.4615    0.0071    0.0053    0.0181   84.6402    0.5429    2.2713    0.2765    7.4429    3.0000 
 321.4921   97.9908 -999.0000    3.5760   49.5118    0.0080    0.0061    0.0207   84.2278    0.5264    2.2968    0.2874    7.3941    3.0000 
 321.9921   98.1432 -999.0000    3.5988   47.1050    0.0090    0.0071    0.0222   91.5261    0.4831    2.2794    0.2816    7.5259    3.0000 
 322.4921   98.2956 -999.0000    3.5988   43.6667    0.0082    0.0063    0.0204   91.8371    0.3959    2.2791    0.2711    7.5669    3.0000 
 322.9921   98.4480 -999.0000    3.5988   41.6037    0.0077    0.0059    0.0211   92.9093    0.4164    2.2720    0.2565    7.4922    3.0000 
 323.4921   98.6004 -999.0000    3.6216   43.6667    0.0080    0.0062    0.0208   92.5231    0.4303    2.2608    0.2568    7.2431    3.0000 
 323.9921   98.7528 -999.0000    3.5988   52.2625    0.0089    0.0070    0.0223   92.6997    0.4886    2.2595    0.2572    7.3245    3.0000 
 324.4921   98.9052 -999.0000    3.5988   56.3885    0.0097    0.0077    0.0234  101.5903    0.5971    2.2465    0.2601    7.5078    3.0000 
 324.9921   99.0576 -999.0000    3.5988   57.7638    0.0094    0.0073    0.0228  100.7350    0.6122    2.2887    0.2647    7.4787    3.0000 
 325.4921   99.2100 -999.0000    3.5988   56.0447    0.0082    0.0063    0.0222  100.2448    0.5777    2.2510    0.2684    7.3910    3.0000 
 325.9921   99.3624 -999.0000    3.5988   62.9213    0.0094    0.0073    0.0218   92.7225    0.5441    2.2874    0.2763    7.6761    3.0000 
