~VERSION INFORMATION
 VERS.                 2.0:   CWLS LOG ASCII STANDARD - VERSION 2.0
 WRAP.                  NO:   SINGLE LINE PER DEPTH STEP
 CREA.                 06/11/2018 17:04:42
#CREATED USING DSPetro VERSION 5000.10.1.3 BY H191660 ON 06/11/2018 17:04:42
~WELL INFORMATION
#MNEM.UNIT       DATA                          DESCRIPTION MNEMONIC
#---------      ---------------------------   --------------------------
 STRT    .FT        297.9921                  : START DEPTH
 STOP    .FT        12485.9921                : STOP DEPTH
 STEP    .FT        0.5000                    : STEP VALUE
 NULL    .      -999.0000                     : NULL VALUE
 DATE    .      06/11/2018                    : LAS file Creation Date
 WELL  .      UNIVERSITY_20-27           : Well Name
 COMP  .      Chesapeake Operating, Inc. : Company
 FLD   .      Haley                      : Field
 STATE .      Texas                      : State
 COUNT .      USA                        : Country
 API   .      42-495-33261               : API Number
 UWI   .      508                        : Unique Well Identifier (UWI)
 LOC   .      1320' FSL & 1320' FEL      : Location
 TOWN  .      20                         : Township
 SCT   .      27                         : Section
 RANG  .      University Lands           : Range
 PDAT  .      Ground Level               : Permanent Datum
 EPDAT .      2777.000000                : Reference Elevation
 LGMEA .      Kelly Bushing              : Log Measured from
 DRMEA .      Kelly Bushing              : Drill Measured From
 APDAT .      25.000000                  : Elevation Above Permanent Datum
 KB    .      2802.00000                 : KB Elevation
 GL    .      2777.00000                 : GL Elevation
 RWS   .      -999                       : Def_Rw
 WST   .      -999                       : Def_Rwt
 CNTY  .      Winkler                    : County
 SRVC  .      Schlumberger               : Contractor
~CURVE INFORMATION
#MNEM              UNIT       API CODE   Curve Type Comments
#----------  --------------- ----------  ---------- -----------
 DEPTH      .FT                        : Depth       
 DEPTH_(m)  .                          :             
 BS         .inch                      : BitSize     
 CAL_INCH   .inch                      :             Caliper Log - A representation of the measured diameter of a borehole along its depth
 GR         .GAPI                      : GammaRay    Gamma-Ray {F11.4}
 SRES       .ohmm                      :             20" array induction, one foot resistivity
 MRES       .ohm.m                     :             30" array induction, one foot resistivity
 DRES       .ohmm                      :             90" array induction, one foot resistivity log - units of ohmm
 DT_US_FT   .us/ft                     :             Interval Transit Time: Compressional Wave - Evaluates the time it takes for a compressional wave to traverse a fixed distance
 NPHI_v/v   .ratio                     :             Neutron Porosity - Measured with an neutron logging device calibrated to a given matrix (limestone, sandstone and dolomite)
 RHOB_G_CC  .g/cc                      :             Bulk Density - Measures the density of bulk material, including any void space or other materials contained in the subject volume
 HDRA       .G/C3                      : Drho        HRDD Density Correction {F11.4}
 PEF_B_E    .b/e-                      : PEF         Photoelectric Factor - A log of photoelectric absorption properties. Often expressed in an approximation unit barns/electron (b/e-)
 LITH       .                          : LITH        Lithology Curve
~A  DEPTH DEPTH_(m~     BS     CAL_INCH     GR       SRES      MRES      DRES    DT_US_FT  NPHI_v/v RHOB_G_C~    HDRA    PEF_B_E     LITH   
# ...
9217.9921 2809.6440   12.2500   12.8788   10.2527    9.8079   22.5469   45.0455   56.7259    0.0080    2.6125    0.0047    3.8376   18.0000 
9218.4921 2809.7964   12.2500   12.8332   10.3742   10.1442   24.3903   52.7137   56.8003    0.0102    2.5607   -0.0016    3.8261   27.0000 
9218.9921 2809.9487   12.2500   12.8560   11.4177   11.2516   30.4371   81.9258   56.7483    0.0065    2.5899   -0.0035    4.4127   27.0000 
9219.4921 2810.1013   12.2500   12.8446   12.8932   11.5507   35.8958  122.6493   55.6810    0.0039    2.5917   -0.0012    4.5590   18.0000 
9219.9921 2810.2537   12.2500   12.8560   13.0994   11.9955   38.1017  169.5121   54.8734    0.0021    2.6262   -0.0005    4.7213   18.0000 
9220.4921 2810.4060   12.2500   12.8218   17.7785   12.2479   38.5797  184.7153   55.7750    0.0079    2.6343    0.0032    4.5570   18.0000 
9220.9921 2810.5583   12.2500   12.7876   25.0331   11.4000   34.0336  120.2499   58.8096    0.0166    2.5995    0.0033    3.7951   18.0000 
9221.4921 2810.7107   12.2500   12.7648   36.7292   11.7872   33.5252   97.7398   64.1614    0.0297    2.5633    0.0047    3.0464   36.0000 
9221.9921 2810.8633   12.2500   12.7306   45.5819   11.7065   31.5182   78.6646   63.4738    0.0485    2.5235    0.0025    3.0664   36.0000 
9222.4921 2811.0156   12.2500   12.6964   43.8647   11.6834   31.2183   73.9841   64.0805    0.0549    2.4811    0.0030    2.6846   36.0000 
9222.9921 2811.1680   12.2500   12.7078   46.8093   10.4393   25.5502   49.3709   67.3545    0.0597    2.6043    0.0150    3.4552   22.0000 
9223.4921 2811.3203   12.2500   12.6964   49.4425   10.1099   21.6768   34.1841   64.8496    0.0886    2.5514    0.0165    3.3026   22.0000 
9223.9921 2811.4729   12.2500   12.6964   54.6905   10.5074   24.1476   41.2933   66.5775    0.1170    2.5174    0.0164    2.8509   22.0000 
9224.4921 2811.6252   12.2500   12.6736   50.1743   12.0643   26.8156   42.2280   66.9760    0.1188    2.5334    0.0120    2.8938   22.0000 
9224.9921 2811.7776   12.2500   12.6964   44.8062   11.7936   30.4418   63.3234   64.5632    0.0857    2.5884    0.0167    2.6108   22.0000 
9225.4921 2811.9299   12.2500   12.6052   45.0516   11.7452   28.1711   49.5804   65.8253    0.0590    2.6106    0.0190    2.9584   22.0000 
9225.9921 2812.0825   12.2500   12.6052   48.7075   10.4945   24.6791   47.7777   67.3416    0.0621    2.6228    0.0144    2.7028   22.0000 
9226.4921 2812.2349   12.2500   12.5824   54.8421   10.8930   24.8400   45.9438   70.0175    0.0691    2.5699    0.0117    2.7018   37.0000 
9226.9921 2812.3872   12.2500   12.5596   62.6944   10.2636   20.4234   33.5748   74.6248    0.1058    2.5800    0.0141    3.0298   37.0000 
9227.4921 2812.5396   12.2500   12.5140   68.8853   10.8677   22.2819   39.6997   72.8965    0.1347    2.5218    0.0113    2.9456   37.0000 
9227.9921 2812.6919   12.2500   12.5140   75.3220   11.0561   23.3164   42.1575   74.2537    0.1440    2.4809    0.0058    2.7093   37.0000 
9228.4921 2812.8445   12.2500   12.5140   71.8866   10.9502   24.4479   50.5373   72.7457    0.1334    2.4974   -0.0018    2.7365   37.0000 
9228.9921 2812.9968   12.2500   12.5026   72.5306   10.3048   21.5060   41.6746   74.8244    0.1366    2.5008   -0.0015    3.1676   37.0000 
9229.4921 2813.1492   12.2500   12.4912   69.7989   10.6196   22.1921   43.6124   72.2654    0.1460    2.4816    0.0007    2.7638   37.0000 
9229.9921 2813.3015   12.2500   12.4912   67.5904   11.8951   27.1341   59.2384   72.9678    0.1328    2.4956    0.0116    2.5589   37.0000 
9230.4921 2813.4541   12.2500   12.4798   64.8537   11.8420   27.6230   55.5490   73.0917    0.1264    2.5083    0.0151    2.4565   37.0000 
9230.9921 2813.6064   12.2500   12.4912   62.7072   11.8668   27.0264   50.8613   71.2139    0.1410    2.4850    0.0158    2.4752   37.0000 
9231.4921 2813.7588   12.2500   12.4912   70.3141   11.7565   27.4569   52.3316   75.1135    0.1571    2.4802    0.0111    2.4471   37.0000 
9231.9921 2813.9111   12.2500   12.4684   71.3774   11.6057   25.4879   45.0567   75.4903    0.1725    2.4566    0.0104    2.5021   37.0000 
9232.4921 2814.0637   12.2500   12.4456   72.5181   11.8527   26.7974   49.8691   75.6247    0.1715    2.4661    0.0113    2.5938   37.0000 
9232.9921 2814.2161   12.2500   12.4570   67.7676   11.7908   27.8999   56.4652   75.0521    0.1770    2.4627    0.0068    2.5546   37.0000 
9233.4921 2814.3684   12.2500   12.4684   63.9572   11.8303   27.0645   53.8510   71.9460    0.1524    2.5051    0.0035    2.5256   37.0000 
9233.9921 2814.5208   12.2500   12.4570   65.9203   11.8365   28.3455   69.7423   71.9382    0.1381    2.5591    0.0040    2.8100   37.0000 
9234.4921 2814.6731   12.2500   12.4456   71.4070   10.7215   23.3978   50.3902   70.1677    0.1205    2.5230    0.0034    3.3822   37.0000 
9234.9921 2814.8257   12.2500   12.4456   75.2173   11.2280   24.2621   51.6475   71.9933    0.1273    2.5250    0.0032    2.7328   37.0000 
9235.4921 2814.9780   12.2500   12.4456   74.9719   11.2511   23.5357   47.4108   71.9181    0.1287    2.5402    0.0020    2.8831   37.0000 
9235.9921 2815.1304   12.2500   12.4684   69.8744   12.0051   26.8819   59.2803   70.3112    0.1319    2.5435    0.0026    2.8396   37.0000 
9236.4921 2815.2827   12.2500   12.4684   69.7947   10.9769   24.1765   48.7176   73.0332    0.1243    2.5520    0.0032    3.1892   37.0000 
9236.9921 2815.4353   12.2500   12.4456   68.0096   11.0506   23.2127   42.9154   70.9657    0.1267    2.4884    0.0006    2.7357   37.0000 
9237.4921 2815.5876   12.2500   12.4456   72.8618   10.6545   22.4091   40.8098   74.5747    0.1416    2.5248    0.0009    2.6831   37.0000 
9237.9921 2815.7400   12.2500   12.4456   71.6322   10.2786   20.1721   33.2374   72.7514    0.1442    2.5295   -0.0049    2.6703   37.0000 
9238.4921 2815.8923   12.2500   12.4228   73.0895   10.8531   24.8613   47.0682   72.4262    0.1369    2.5694   -0.0045    2.7174   37.0000 
9238.9921 2816.0449   12.2500   12.4114   63.3104   10.9985   24.6883   43.6113   69.4412    0.0954    2.5816   -0.0038    3.1576   37.0000 
9239.4921 2816.1973   12.2500   12.4228   58.3508   11.1203   29.6700   69.2196   70.0684    0.0905    2.6045    0.0042    2.6746   37.0000 
9239.9921 2816.3496   12.2500   12.4228   54.7525   10.7956   24.3402   40.3532   71.9105    0.0890    2.5717    0.0052    2.9942   37.0000 
9240.4921 2816.5020   12.2500   12.4684   59.0753   10.7570   25.3713   43.9050   69.8067    0.1136    2.5829    0.0079    2.8614   37.0000 
9240.9921 2816.6543   12.2500   12.4684   57.8529   11.4033   28.9918   54.5668   69.3038    0.1015    2.5623    0.0064    2.9487   37.0000 
9241.4921 2816.8069   12.2500   12.4456   52.0795   12.4429   34.3705   73.0282   62.5157    0.0730    2.6040    0.0063    2.6599   37.0000 
9241.9921 2816.9592   12.2500   12.4000   45.7574   11.4057   34.2827   93.2166   62.7402    0.0422    2.6069    0.0046    2.7318   27.0000 
9242.4921 2817.1116   12.2500   12.4000   46.4935   11.3274   27.8218   49.2644   63.6251    0.0385    2.5814    0.0063    2.5203   27.0000 
9242.9921 2817.2639   12.2500   12.3772   47.9989   11.3224   27.7441   50.3070   62.9605    0.0599    2.5852    0.0083    3.0013   27.0000 
9243.4921 2817.4165   12.2500   12.4000   47.2628   12.4010   31.0547   57.3061   63.6131    0.0613    2.5908    0.0068    2.9854   27.0000 
9243.9921 2817.5688   12.2500   12.4228   37.6602   13.3253   40.9333  135.1414   59.6016    0.0418    2.6365   -0.0010    3.4125   18.0000 
9244.4921 2817.7212   12.2500   12.4228   29.9228   13.6506   40.4560  113.4712   57.7091    0.0136    2.6613   -0.0158    3.3386   18.0000 
9244.9921 2817.8735   12.2500   12.4684   31.6405   11.2569   33.0005  110.4690   58.1910    0.0182    2.6599   -0.0185    3.5388   18.0000 
9245.4921 2818.0259   12.2500   12.4684   43.4465   11.3440   24.2459   40.0844   65.8396    0.0704    2.5793   -0.0121    3.6071   18.0000 
9245.9921 2818.1785   12.2500   12.4684   55.4519   11.7163   22.7182   33.6071   63.8351    0.1143    2.5599    0.0031    2.8753   37.0000 
