~VERSION INFORMATION
 VERS.                 2.0:   CWLS LOG ASCII STANDARD - VERSION 2.0
 WRAP.                  NO:   SINGLE LINE PER DEPTH STEP
 CREA.                 06/11/2018 17:04:42
#CREATED USING DSPetro VERSION 5000.10.1.3 BY H191660 ON 06/11/2018 17:04:42
~WELL INFORMATION
#MNEM.UNIT       DATA                          DESCRIPTION MNEMONIC
#---------      ---------------------------   --------------------------
 STRT    .FT        297.9921                  : START DEPTH
 STOP    .FT        12485.9921                : STOP DEPTH
 STEP    .FT        0.5000                    : STEP VALUE
 NULL    .      -999.0000                     : NULL VALUE
 DATE    .      06/11/2018                    : LAS file Creation Date
 WELL  .      UNIVERSITY_20-27           : Well Name
 COMP  .      Chesapeake Operating, Inc. : Company
 FLD   .      Haley                      : Field
 STATE .      Texas                      : State
 COUNT .      USA                        : Country
 API   .      42-495-33261               : API Number
 UWI   .      508                        : Unique Well Identifier (UWI)
 LOC   .      1320' FSL & 1320' FEL      : Location
 TOWN  .      20                         : Township
 SCT   .      27                         : Section
 RANG  .      University Lands           : Range
 PDAT  .      Ground Level               : Permanent Datum
 EPDAT .      2777.000000                : Reference Elevation
 LGMEA .      Kelly Bushing              : Log Measured from
 DRMEA .      Kelly Bushing              : Drill Measured From
 APDAT .      25.000000                  : Elevation Above Permanent Datum
 KB    .      2802.00000                 : KB Elevation
 GL    .      2777.00000                 : GL Elevation
 RWS   .      -999                       : Def_Rw
 WST   .      -999                       : Def_Rwt
 CNTY  .      Winkler                    : County
 SRVC  .      Schlumberger               : Contractor
~CURVE INFORMATION
#MNEM              UNIT       API CODE   Curve Type Comments
#----------  --------------- ----------  ---------- -----------
 DEPTH      .FT                        : Depth       
 DEPTH_(m)  .                          :             
 BS         .inch                      : BitSize     
 CAL_INCH   .inch                      :             Caliper Log - A representation of the measured diameter of a borehole along its depth
 GR         .GAPI                      : GammaRay    Gamma-Ray {F11.4}
 SRES       .ohmm                      :             20" array induction, one foot resistivity
 MRES       .ohm.m                     :             30" array induction, one foot resistivity
 DRES       .ohmm                      :             90" array induction, one foot resistivity log - units of ohmm
 DT_US_FT   .us/ft                     :             Interval Transit Time: Compressional Wave - Evaluates the time it takes for a compressional wave to traverse a fixed distance
 NPHI_v/v   .ratio                     :             Neutron Porosity - Measured with an neutron logging device calibrated to a given matrix (limestone, sandstone and dolomite)
 RHOB_G_CC  .g/cc                      :             Bulk Density - Measures the density of bulk material, including any void space or other materials contained in the subject volume
 HDRA       .G/C3                      : Drho        HRDD Density Correction {F11.4}
 PEF_B_E    .b/e-                      : PEF         Photoelectric Factor - A log of photoelectric absorption properties. Often expressed in an approximation unit barns/electron (b/e-)
 LITH       .                          : LITH        Lithology Curve
~A  DEPTH DEPTH_(m~     BS     CAL_INCH     GR       SRES      MRES      DRES    DT_US_FT  NPHI_v/v RHOB_G_C~    HDRA    PEF_B_E     LITH   
# ...
5968.9921 1819.3488   12.2500   14.3153   50.8596    1.7709    1.8535    2.2423   78.2021    0.1846    2.4136   -0.0018    2.5291   36.0000 
5969.4921 1819.5012   12.2500   14.3153   52.0865    1.8303    1.9267    2.3438   77.5852    0.1838    2.4149    0.0013    2.3623   36.0000 
5969.9921 1819.6536   12.2500   14.3153   50.6636    2.0469    2.1827    2.6973   75.4622    0.1705    2.4295    0.0020    2.3242   36.0000 
5970.4921 1819.8060   12.2500   14.3153   52.6005    2.3972    2.6278    3.2981   73.9678    0.1634    2.4504    0.0000    2.3921   36.0000 
5970.9921 1819.9584   12.2500   14.3153   55.2997    2.4055    2.6476    3.3416   73.5883    0.1559    2.4650    0.0000    2.5699   36.0000 
5971.4921 1820.1108   12.2500   14.3153   55.9449    2.2326    2.4260    3.0449   73.2877    0.1776    2.4617   -0.0005    2.5631   36.0000 
5971.9921 1820.2632   12.2500   14.3267   58.8895    2.2539    2.4342    3.0798   73.1976    0.1732    2.4477   -0.0010    2.4157   36.0000 
5972.4921 1820.4156   12.2500   14.3153   52.1621    2.2571    2.4614    3.1169   73.5986    0.1633    2.4246   -0.0028    2.4976   27.0000 
5972.9921 1820.5680   12.2500   14.3267   50.4472    2.1422    2.3115    2.8938   74.3284    0.1396    2.4302   -0.0009    2.5272   27.0000 
5973.4921 1820.7205   12.2500   14.3153   47.0118    2.0729    2.2190    2.7596   74.8086    0.1589    2.4164    0.0006    2.4654   27.0000 
5973.9921 1820.8728   12.2500   14.3153   48.3021    2.0666    2.2207    2.7340   75.3469    0.1716    2.4201    0.0016    2.4468   27.0000 
5974.4921 1821.0251   12.2500   14.2925   47.8114    2.0596    2.2401    2.7345   75.4032    0.1902    2.4324    0.0012    2.5377   36.0000 
5974.9921 1821.1776   12.2500   14.2925   43.7894    2.0026    2.1949    2.6573   75.3645    0.1863    2.4199   -0.0003    2.6208   36.0000 
5975.4921 1821.3300   12.2500   14.3039   46.0364    2.0229    2.2192    2.6664   75.3653    0.1951    2.4106    0.0002    2.5423   36.0000 
5975.9921 1821.4824   12.2500   14.2925   48.0363    2.0404    2.2495    2.6977   75.2803    0.2012    2.4333   -0.0082    2.5747   36.0000 
5976.4921 1821.6348   12.2500   14.2697   50.3975    2.0749    2.3072    2.7722   75.1536    0.1832    2.4422   -0.0095    2.5682   36.0000 
5976.9921 1821.7872   12.2500   14.2697   49.1706    2.0642    2.3108    2.7712   74.9387    0.1662    2.4514   -0.0089    2.4622   36.0000 
5977.4921 1821.9396   12.2500   14.2697   49.6624    2.0049    2.2337    2.6787   74.9558    0.1502    2.4452   -0.0004    2.6434   36.0000 
5977.9921 1822.0920   12.2500   14.2469   51.3452    2.0196    2.2657    2.7371   75.2228    0.1709    2.4146   -0.0001    2.4521   36.0000 
5978.4921 1822.2444   12.2500   14.2241   54.8412    2.0070    2.2548    2.7209   75.4512    0.1898    2.4349   -0.0020    2.4704   36.0000 
5978.9921 1822.3969   12.2500   14.2241   56.2757    1.9259    2.1672    2.6106   75.4633    0.1931    2.4229   -0.0028    2.5401   36.0000 
5979.4921 1822.5492   12.2500   14.1899   61.6522    1.9157    2.1574    2.5975   75.5060    0.1868    2.4212   -0.0007    2.4749   36.0000 
5979.9921 1822.7017   12.2500   14.1785   65.3201    1.9466    2.1920    2.6400   75.6498    0.1659    2.4178    0.0006    2.3964   36.0000 
5980.4921 1822.8540   12.2500   14.1329   63.3524    1.9587    2.2159    2.6692   75.5257    0.1789    2.4342    0.0019    2.3439   36.0000 
5980.9921 1823.0063   12.2500   14.1101   58.9355    1.9312    2.2041    2.6599   75.3107    0.1880    2.4373    0.0041    2.4412   36.0000 
5981.4921 1823.1588   12.2500   14.0873   53.7622    1.9048    2.1689    2.5998   75.4739    0.1991    2.4227    0.0041    2.4963   36.0000 
5981.9921 1823.3112   12.2500   14.0873   57.6929    1.8430    2.1027    2.5287   75.8406    0.2217    2.4459    0.0042    2.3563   36.0000 
5982.4921 1823.4636   12.2500   14.0417   61.5336    1.8285    2.0835    2.5017   76.0589    0.2248    2.4246    0.0024    2.4438   36.0000 
5982.9921 1823.6160   12.2500   14.0189   65.9230    1.8283    2.0863    2.5093   76.1537    0.2264    2.4193    0.0028    2.3903   36.0000 
5983.4921 1823.7684   12.2500   13.9961   62.7330    1.8378    2.0925    2.5181   76.0726    0.2035    2.4266    0.0026    2.4134   36.0000 
5983.9921 1823.9208   12.2500   13.9505   60.1523    1.8439    2.1170    2.5509   75.9496    0.1907    2.4283    0.0048    2.4015   36.0000 
5984.4921 1824.0732   12.2500   13.9277   60.1523    1.8515    2.1202    2.5566   75.8307    0.1990    2.4442    0.0065    2.5439   36.0000 
5984.9921 1824.2256   12.2500   13.8821   61.9874    1.8336    2.1115    2.5321   75.8782    0.1971    2.4501    0.0077    2.4617   36.0000 
5985.4921 1824.3781   12.2500   13.8593   62.4451    1.8888    2.1633    2.5809   75.5552    0.2099    2.4374    0.0071    2.5892   36.0000 
5985.9921 1824.5304   12.2500   13.8365   60.0322    1.9470    2.2603    2.7093   75.4733    0.1958    2.4653    0.0056    2.5474   36.0000 
5986.4921 1824.6827   12.2500   13.8251   66.9012    1.9573    2.2684    2.6950   75.2065    0.1825    2.4654    0.0050    2.5537   36.0000 
5986.9921 1824.8352   12.2500   13.7909   66.9012    1.9795    2.3091    2.7210   75.0448    0.2026    2.4528    0.0046    2.5596   36.0000 
5987.4921 1824.9875   12.2500   13.7453   65.3218    1.9996    2.3221    2.7151   75.1213    0.2042    2.4249    0.0042    2.5357   36.0000 
5987.9921 1825.1400   12.2500   13.7111   57.5993    2.0301    2.3672    2.7486   75.0900    0.2085    2.4340    0.0045    2.5249   36.0000 
5988.4921 1825.2924   12.2500   13.6769   61.0872    2.0469    2.3917    2.7518   75.1578    0.1662    2.4539    0.0037    2.5410   36.0000 
5988.9921 1825.4448   12.2500   13.6541   65.1657    2.0691    2.4250    2.7643   75.0480    0.1803    2.4382   -0.0005    2.6111   36.0000 
5989.4921 1825.5972   12.2500   13.5857   62.4664    2.0886    2.4502    2.7742   75.0772    0.1923    2.4405   -0.0029    2.5540   36.0000 
5989.9921 1825.7496   12.2500   13.5857   58.9509    2.1063    2.4760    2.7656   74.8942    0.2053    2.4469   -0.0046    2.4686   36.0000 
5990.4921 1825.9020   12.2500   13.5515   56.6563    2.1704    2.5612    2.8351   74.9868    0.1960    2.4320    0.0008    2.4971   36.0000 
5990.9921 1826.0544   12.2500   13.4945   58.1286    2.2128    2.6058    2.8671   74.7298    0.1814    2.4505    0.0032    2.5108   36.0000 
5991.4921 1826.2068   12.2500   13.4489   57.9135    2.3727    2.7990    3.0718   74.4081    0.1707    2.4615    0.0050    2.5509   36.0000 
5991.9921 1826.3593   12.2500   13.4375   60.1220    2.4676    2.9368    3.1965   74.1454    0.1663    2.4688    0.0057    2.6131   36.0000 
5992.4921 1826.5116   12.2500   13.3805   60.3039    2.4501    2.9109    3.1366   73.8087    0.1627    2.4487    0.0075    2.6187   36.0000 
5992.9921 1826.6639   12.2500   13.3349   63.7366    2.5607    3.0093    3.2368   73.4538    0.1703    2.4823    0.0097    2.6444   36.0000 
5993.4921 1826.8164   12.2500   13.3121   64.4668    2.7628    3.2795    3.5365   73.2975    0.1746    2.4894    0.0200    2.6062   36.0000 
5993.9921 1826.9688   12.2500   13.3121   69.4867    3.0194    3.6243    3.9086   72.3824    0.1733    2.4789    0.0200    2.7629   36.0000 
5994.4921 1827.1212   12.2500   13.2665   65.3152    3.4758    4.2490    4.6621   71.8561    0.1685    2.4942    0.0168    2.7272   36.0000 
5994.9921 1827.2736   12.2500   13.2208   62.7393    3.6039    4.4276    4.7983   71.3346    0.1601    2.5114    0.0051    2.7628   37.0000 
5995.4921 1827.4260   12.2500   13.1866   59.0097    4.1017    5.2949    5.7960   70.8124    0.1707    2.5198    0.0032    2.7239   37.0000 
5995.9921 1827.5784   12.2500   13.1296   66.1493    4.6538    5.9496    6.6287   70.5681    0.1654    2.5416    0.0052    2.7799   37.0000 
5996.4921 1827.7308   12.2500   13.0840   72.7134    5.3597    6.9355    7.9261   70.2329    0.1550    2.5680    0.0042    2.7371   37.0000 
5996.9921 1827.8832   12.2500   13.0726   84.2465    7.4872   10.3874   13.1975   70.3088    0.1576    2.5891    0.0031    2.8814   37.0000 
