~VERSION INFORMATION
 VERS.                 2.0:   CWLS LOG ASCII STANDARD - VERSION 2.0
 WRAP.                  NO:   SINGLE LINE PER DEPTH STEP
 CREA.                 06/11/2018 17:04:42
#CREATED USING DSPetro VERSION 5000.10.1.3 BY H191660 ON 06/11/2018 17:04:42
~WELL INFORMATION
#MNEM.UNIT       DATA                          DESCRIPTION MNEMONIC
#---------      ---------------------------   --------------------------
 STRT    .FT        297.9921                  : START DEPTH
 STOP    .FT        12485.9921                : STOP DEPTH
 STEP    .FT        0.5000                    : STEP VALUE
 NULL    .      -999.0000                     : NULL VALUE
 DATE    .      06/11/2018                    : LAS file Creation Date
 WELL  .      UNIVERSITY_20-27           : Well Name
 COMP  .      Chesapeake Operating, Inc. : Company
 FLD   .      Haley                      : Field
 STATE .      Texas                      : State
 COUNT .      USA                        : Country
 API   .      42-495-33261               : API Number
 UWI   .      508                        : Unique Well Identifier (UWI)
 LOC   .      1320' FSL & 1320' FEL      : Location
 TOWN  .      20                         : Township
 SCT   .      27                         : Section
 RANG  .      University Lands           : Range
 PDAT  .      Ground Level               : Permanent Datum
 EPDAT .      2777.000000                : Reference Elevation
 LGMEA .      Kelly Bushing              : Log Measured from
 DRMEA .      Kelly Bushing              : Drill Measured From
 APDAT .      25.000000                  : Elevation Above Permanent Datum
 KB    .      2802.00000                 : KB Elevation
 GL    .      2777.00000                 : GL Elevation
 RWS   .      -999                       : Def_Rw
 WST   .      -999                       : Def_Rwt
 CNTY  .      Winkler                    : County
 SRVC  .      Schlumberger               : Contractor
~CURVE INFORMATION
#MNEM              UNIT       API CODE   Curve Type Comments
#----------  --------------- ----------  ---------- -----------
 DEPTH      .FT                        : Depth       
 DEPTH_(m)  .                          :             
 BS         .inch                      : BitSize     
 CAL_INCH   .inch                      :             Caliper Log - A representation of the measured diameter of a borehole along its depth
 GR         .GAPI                      : GammaRay    Gamma-Ray {F11.4}
 SRES       .ohmm                      :             20" array induction, one foot resistivity
 MRES       .ohm.m                     :             30" array induction, one foot resistivity
 DRES       .ohmm                      :             90" array induction, one foot resistivity log - units of ohmm
 DT_US_FT   .us/ft                     :             Interval Transit Time: Compressional Wave - Evaluates the time it takes for a compressional wave to traverse a fixed distance
 NPHI_v/v   .ratio                     :             Neutron Porosity - Measured with an neutron logging device calibrated to a given matrix (limestone, sandstone and dolomite)
 RHOB_G_CC  .g/cc                      :             Bulk Density - Measures the density of bulk material, including any void space or other materials contained in the subject volume
 HDRA       .G/C3                      : Drho        HRDD Density Correction {F11.4}
 PEF_B_E    .b/e-                      : PEF         Photoelectric Factor - A log of photoelectric absorption properties. Often expressed in an approximation unit barns/electron (b/e-)
 LITH       .                          : LITH        Lithology Curve
~A  DEPTH DEPTH_(m~     BS     CAL_INCH     GR       SRES      MRES      DRES    DT_US_FT  NPHI_v/v RHOB_G_C~    HDRA    PEF_B_E     LITH   
# ...
5170.9921 1576.1184   12.2500   15.2045   60.7010    1.9712    2.4021    3.8295   81.0038    0.1927    2.3959    0.0009    2.5673   36.0000 
5171.4921 1576.2708   12.2500   15.1817   58.9805    1.9962    2.4239    3.8275   80.0213    0.1771    2.3908    0.0004    2.5110   36.0000 
5171.9921 1576.4232   12.2500   15.2273   52.1098    2.1017    2.5614    4.0237   79.3795    0.1875    2.4159    0.0014    2.5211   36.0000 
5172.4921 1576.5756   12.2500   15.2273   49.1652    2.1058    2.5619    3.9783   79.4961    0.1823    2.4196    0.0014    2.4666   36.0000 
5172.9921 1576.7280   12.2500   15.2273   50.0254    1.9700    2.3452    3.5649   80.2006    0.2067    2.3966    0.0018    2.5132   36.0000 
5173.4921 1576.8804   12.2500   15.2387   52.2338    1.8830    2.1879    3.2614   80.6049    0.1940    2.3877    0.0040    2.4678   36.0000 
5173.9921 1577.0328   12.2500   15.2501   54.1611    1.9166    2.2296    3.3012   81.6043    0.1955    2.3901    0.0092    2.4566   36.0000 
5174.4921 1577.1852   12.2500   15.2501   54.7239    1.8302    2.1045    3.0353   82.5583    0.1946    2.3871    0.0095    2.5447   36.0000 
5174.9921 1577.3376   12.2500   15.2501   58.4047    1.8098    2.0832    2.9756   82.7237    0.2193    2.3857    0.0083    2.4861   36.0000 
5175.4921 1577.4900   12.2500   15.2501   59.0486    1.8142    2.0998    2.9689   82.9529    0.2472    2.3823    0.0050    2.3962   36.0000 
5175.9921 1577.6425   12.2500   15.2729   56.0977    1.9320    2.2723    3.2306   81.9507    0.2538    2.4038    0.0069    2.4437   36.0000 
5176.4921 1577.7948   12.2500   15.2729   52.1715    2.2225    2.6325    3.7961   80.4098    0.2289    2.4176    0.0068    2.4615   27.0000 
5176.9921 1577.9471   12.2500   15.2729   49.8103    2.3621    2.8368    4.1330   78.8530    0.1896    2.4347    0.0058    2.5076   36.0000 
5177.4921 1578.0996   12.2500   15.2729   58.3662    2.1952    2.6301    3.8222   78.4770    0.1729    2.4584    0.0036    2.6040   36.0000 
5177.9921 1578.2520   12.2500   15.2729   58.6489    1.9788    2.3226    3.3075   78.9718    0.1756    2.4013    0.0028    2.5651   36.0000 
5178.4921 1578.4044   12.2500   15.2843   62.2980    1.9021    2.2617    3.2126   80.7280    0.1907    2.3681    0.0020    2.5111   36.0000 
5178.9921 1578.5568   12.2500   15.2729   62.7888    1.9820    2.3417    3.3529   81.0475    0.2046    2.3717    0.0016    2.5201   36.0000 
5179.4921 1578.7092   12.2500   15.2957   67.2152    2.4990    2.9578    4.3789   78.1324    0.1941    2.4019    0.0016    2.4963   36.0000 
5179.9921 1578.8616   12.2500   15.2957   71.8895    3.0639    3.9581    6.1427   75.8835    0.1673    2.4516    0.0024    2.5832   36.0000 
5180.4921 1579.0140   12.2500   15.2729   75.1384    2.9737    3.7978    5.8153   75.0547    0.1500    2.5379    0.0038    2.7488   36.0000 
5180.9921 1579.1664   12.2500   15.2957   72.8832    2.2925    2.7730    3.9661   75.8002    0.1721    2.5053    0.0047    2.7375   36.0000 
5181.4921 1579.3188   12.2500   15.2729   69.9261    1.7894    2.0919    2.8463   79.2292    0.2055    2.4182    0.0047    2.4701   36.0000 
5181.9921 1579.4712   12.2500   15.2957   60.0896    1.6628    1.8970    2.5172   82.3042    0.2224    2.3444    0.0028    2.4968   36.0000 
5182.4921 1579.6237   12.2500   15.3071   57.6358    1.8746    2.1810    2.8892   82.8128    0.2122    2.3610    0.0012    2.4530   36.0000 
5182.9921 1579.7760   12.2500   15.3413   50.3376    2.0263    2.3877    3.1310   80.5261    0.1873    2.4145   -0.0003    2.6796   36.0000 
5183.4921 1579.9283   12.2500   15.3185   47.8459    2.1049    2.4987    3.2493   78.7041    0.1651    2.4277    0.0037    2.7158   27.0000 
5183.9921 1580.0808   12.2500   15.3413   46.1530    2.0188    2.4639    3.1497   79.0383    0.1624    2.4289    0.0046    2.6631   27.0000 
5184.4921 1580.2332   12.2500   15.3185   49.1017    1.8007    2.1761    2.7041   79.7160    0.1754    2.3840    0.0070    2.5899   36.0000 
5184.9921 1580.3856   12.2500   15.3185   54.2548    1.7659    2.1430    2.6398   80.4496    0.1845    2.3725    0.0065    2.5373   36.0000 
5185.4921 1580.5380   12.2500   15.3185   55.3301    1.8434    2.2281    2.7603   82.0042    0.1731    2.3899    0.0075    2.5116   36.0000 
5185.9921 1580.6904   12.2500   15.3185   54.1032    1.8101    2.1389    2.6459   82.2966    0.1648    2.3828    0.0054    2.6062   27.0000 
5186.4921 1580.8428   12.2500   15.3299   49.1955    1.7631    2.0586    2.5353   82.7678    0.1588    2.3732    0.0034    2.5457   27.0000 
5186.9921 1580.9952   12.2500   15.3299   50.0557    1.7233    1.9970    2.4522   83.2497    0.2046    2.3682    0.0059    2.5456   36.0000 
5187.4921 1581.1476   12.2500   15.3185   49.5649    1.7247    2.0048    2.4637   83.0959    0.2089    2.3658    0.0070    2.5640   36.0000 
5187.9921 1581.3000   12.2500   15.3185   51.3102    1.7915    2.0817    2.5715   81.4604    0.2045    2.3821    0.0072    2.4707   36.0000 
5188.4921 1581.4524   12.2500   15.3071   51.3130    2.0083    2.3796    3.0149   80.2706    0.1728    2.4101    0.0045    2.4722   36.0000 
5188.9921 1581.6049   12.2500   15.2957   53.7668    2.1059    2.4527    3.1230   78.0759    0.1513    2.4386    0.0041    2.6299   36.0000 
5189.4921 1581.7572   12.2500   15.2501   56.3105    2.2572    2.6729    3.4788   76.9975    0.1491    2.4555    0.0053    2.6201   36.0000 
5189.9921 1581.9095   12.2500   15.2273   56.5937    2.2023    2.5888    3.3620   76.6731    0.1472    2.4583    0.0075    2.7393   36.0000 
5190.4921 1582.0620   12.2500   15.2045   54.8407    2.2791    2.7406    3.6468   76.5972    0.1538    2.4630    0.0086    2.6251   36.0000 
5190.9921 1582.2144   12.2500   15.1817   53.9871    2.2822    2.7869    3.7457   77.0659    0.1652    2.4678    0.0076    2.6886   36.0000 
5191.4921 1582.3668   12.2500   15.1817   55.4626    2.3343    2.8086    3.8127   76.6404    0.1493    2.4488    0.0046    2.6685   36.0000 
5191.9921 1582.5192   12.2500   15.1589   61.0008    2.5481    3.1716    4.4391   76.5110    0.1557    2.4677    0.0035    2.5044   36.0000 
5192.4921 1582.6716   12.2500   15.1589   68.9103    2.6468    3.3431    4.7162   76.5206    0.1488    2.4926    0.0057    2.7180   36.0000 
5192.9921 1582.8240   12.2500   15.1589   72.5501    2.6178    3.3049    4.6684   76.0140    0.1693    2.4855    0.0142    2.7194   36.0000 
5193.4921 1582.9764   12.2500   15.1361   71.5197    2.6141    3.3379    4.7600   76.1633    0.1811    2.5149    0.0199    2.9402   36.0000 
5193.9921 1583.1288   12.2500   15.1361   67.3392    2.5414    3.2399    4.5856   76.1259    0.1908    2.5106    0.0230    2.8154   36.0000 
5194.4921 1583.2813   12.2500   15.1361   66.6031    2.5128    3.2224    4.5458   76.1915    0.1784    2.4827    0.0147    2.7741   36.0000 
5194.9921 1583.4336   12.2500   15.1589   66.6031    2.4308    3.1188    4.3606   76.5158    0.1781    2.4770    0.0117    2.8191   36.0000 
5195.4921 1583.5861   12.2500   15.1361   64.1009    2.2803    2.8654    3.9454   76.5605    0.1816    2.4727    0.0075    2.7231   36.0000 
5195.9921 1583.7384   12.2500   15.1361   62.9186    2.2192    2.7791    3.7712   76.8446    0.1710    2.4923    0.0041    2.7165   36.0000 
5196.4921 1583.8907   12.2500   15.1361   66.3531    2.0830    2.5863    3.4208   77.6897    0.1627    2.4723    0.0008    2.5665   36.0000 
5196.9921 1584.0432   12.2500   15.1589   64.1447    1.9127    2.3333    3.0222   78.6320    0.1668    2.4494   -0.0012    2.5143   36.0000 
5197.4921 1584.1956   12.2500   15.1475   62.1774    1.8064    2.1656    2.7447   79.7313    0.1832    2.4316   -0.0054    2.5465   36.0000 
5197.9921 1584.3480   12.2500   15.1361   53.1619    1.7642    2.1062    2.6302   80.5871    0.1952    2.4084   -0.0078    2.5041   36.0000 
5198.4921 1584.5004   12.2500   15.1361   52.4257    1.7153    2.0407    2.5259   81.1776    0.2055    2.4141   -0.0059    2.5128   36.0000 
5198.9921 1584.6528   12.2500   15.1589   48.7597    1.6459    1.9302    2.3649   81.6074    0.2138    2.3975    0.0020    2.4672   36.0000 
