~VERSION INFORMATION
 VERS.                 2.0:   CWLS LOG ASCII STANDARD - VERSION 2.0
 WRAP.                  NO:   SINGLE LINE PER DEPTH STEP
 CREA.                 06/11/2018 17:04:42
#CREATED USING DSPetro VERSION 5000.10.1.3 BY H191660 ON 06/11/2018 17:04:42
~WELL INFORMATION
#MNEM.UNIT       DATA                          DESCRIPTION MNEMONIC
#---------      ---------------------------   --------------------------
 STRT    .FT        297.9921                  : START DEPTH
 STOP    .FT        12485.9921                : STOP DEPTH
 STEP    .FT        0.5000                    : STEP VALUE
 NULL    .      -999.0000                     : NULL VALUE
 DATE    .      06/11/2018                    : LAS file Creation Date
 WELL  .      UNIVERSITY_20-27           : Well Name
 COMP  .      Chesapeake Operating, Inc. : Company
 FLD   .      Haley                      : Field
 STATE .      Texas                      : State
 COUNT .      USA                        : Country
 API   .      42-495-33261               : API Number
 UWI   .      508                        : Unique Well Identifier (UWI)
 LOC   .      1320' FSL & 1320' FEL      : Location
 TOWN  .      20                         : Township
 SCT   .      27                         : Section
 RANG  .      University Lands           : Range
 PDAT  .      Ground Level               : Permanent Datum
 EPDAT .      2777.000000                : Reference Elevation
 LGMEA .      Kelly Bushing              : Log Measured from
 DRMEA .      Kelly Bushing              : Drill Measured From
 APDAT .      25.000000                  : Elevation Above Permanent Datum
 KB    .      2802.00000                 : KB Elevation
 GL    .      2777.00000                 : GL Elevation
 RWS   .      -999                       : Def_Rw
 WST   .      -999                       : Def_Rwt
 CNTY  .      Winkler                    : County
 SRVC  .      Schlumberger               : Contractor
~CURVE INFORMATION
#MNEM              UNIT       API CODE   Curve Type Comments
#----------  --------------- ----------  ---------- -----------
 DEPTH      .FT                        : Depth       
 DEPTH_(m)  .                          :             
 BS         .inch                      : BitSize     
 CAL_INCH   .inch                      :             Caliper Log - A representation of the measured diameter of a borehole along its depth
 GR         .GAPI                      : GammaRay    Gamma-Ray {F11.4}
 SRES       .ohmm                      :             20" array induction, one foot resistivity
 MRES       .ohm.m                     :             30" array induction, one foot resistivity
 DRES       .ohmm                      :             90" array induction, one foot resistivity log - units of ohmm
 DT_US_FT   .us/ft                     :             Interval Transit Time: Compressional Wave - Evaluates the time it takes for a compressional wave to traverse a fixed distance
 NPHI_v/v   .ratio                     :             Neutron Porosity - Measured with an neutron logging device calibrated to a given matrix (limestone, sandstone and dolomite)
 RHOB_G_CC  .g/cc                      :             Bulk Density - Measures the density of bulk material, including any void space or other materials contained in the subject volume
 HDRA       .G/C3                      : Drho        HRDD Density Correction {F11.4}
 PEF_B_E    .b/e-                      : PEF         Photoelectric Factor - A log of photoelectric absorption properties. Often expressed in an approximation unit barns/electron (b/e-)
 LITH       .                          : LITH        Lithology Curve
~A  DEPTH DEPTH_(m~     BS     CAL_INCH     GR       SRES      MRES      DRES    DT_US_FT  NPHI_v/v RHOB_G_C~    HDRA    PEF_B_E     LITH   
# ...
6795.4921 2071.2661   12.2500   13.0384   79.3355   19.0548   62.8031  124.3920   63.8770    0.1295    2.6544    0.0032    4.0526   36.0000 
6795.9921 2071.4185   12.2500   12.9928   77.1303   19.5666   66.7627  133.4110   62.2431    0.1340    2.6568    0.0041    3.7874   36.0000 
6796.4921 2071.5708   12.2500   12.9472   73.9018   21.1730   79.0195  168.2282   63.2219    0.1158    2.6235    0.0057    3.8874   36.0000 
6796.9921 2071.7231   12.2500   12.9244   80.9250   20.7454   81.9570  209.0271   65.1882    0.1151    2.6371    0.0053    4.1399   36.0000 
6797.4921 2071.8755   12.2500   12.9016   84.4206   20.9626   82.7105  216.1839   65.6514    0.1302    2.6093    0.0043    3.8676   36.0000 
6797.9921 2072.0281   12.2500   12.8560   93.0090   21.0110   82.3423  231.5955   66.8259    0.1428    2.5825    0.0012    3.8480   37.0000 
6798.4921 2072.1804   12.2500   12.8560   97.8902   21.6992   78.8650  167.8034   64.7701    0.1439    2.6224   -0.0002    3.7795   37.0000 
6798.9921 2072.3328   12.2500   12.8104   94.8239   22.8407   89.8517  224.7783   60.8429    0.1264    2.6031    0.0029    3.5912   37.0000 
6799.4921 2072.4851   12.2500   12.7648   96.5416   22.7108   92.5004  288.2010   61.5372    0.1034    2.6541    0.0048    3.7864   37.0000 
6799.9921 2072.6377   12.2500   12.7420   99.1874   23.0932   84.0884  195.0340   63.3952    0.1091    2.6404    0.0045    3.9711   37.0000 
6800.4921 2072.7900   12.2500   12.7192  105.9096   23.3064   86.6708  219.2469   64.3201    0.1157    2.5928    0.0027    3.6361   37.0000 
6800.9921 2072.9424   12.2500   12.7420  111.7989   22.4604   78.4805  203.7661   67.2487    0.1275    2.6140    0.0064    3.7011   37.0000 
6801.4921 2073.0947   12.2500   12.7420  110.4410   21.5429   64.6909  141.8797   66.6003    0.1087    2.6075    0.0123    3.7275   37.0000 
6801.9921 2073.2473   12.2500   12.7420  107.2943   21.9281   56.3362  103.2485   64.8531    0.0943    2.6192    0.0128    3.0419   37.0000 
6802.4921 2073.3997   12.2500   12.7648   97.5412   21.1589   49.2285   87.3759   65.8195    0.0834    2.6032    0.0078    2.8500   37.0000 
6802.9921 2073.5520   12.2500   12.7420   87.7162   18.6292   30.5176   45.6705   65.2602    0.0833    2.5953    0.0028    3.4598   37.0000 
6803.4921 2073.7043   12.2500   12.7876   81.7560   11.6555   14.3316   16.9710   65.7785    0.0769    2.6008    0.0029    3.1943   37.0000 
6803.9921 2073.8567   12.2500   12.8218   81.4318    9.3538   10.5587   11.7630   66.1031    0.0807    2.5750    0.0043    2.7932   37.0000 
6804.4921 2074.0093   12.2500   12.8560   85.4612   11.7801   13.8810   15.7426   65.5333    0.0847    2.5741    0.0023    2.7334   37.0000 
6804.9921 2074.1616   12.2500   12.8902   87.2409   15.5232   19.3617   22.8175   67.1003    0.1065    2.5833    0.0024    2.7292   37.0000 
6805.4921 2074.3140   12.2500   12.9244   89.9792   14.4605   17.8048   20.2122   67.1921    0.1074    2.5673   -0.0027    2.8073   37.0000 
6805.9921 2074.4663   12.2500   12.9928   87.1887   11.1581   13.0126   13.6010   67.1864    0.1115    2.5603    0.0021    2.8384   37.0000 
6806.4921 2074.6189   12.2500   13.0270   81.9736    9.2146   10.6398   10.4715   66.7254    0.0916    2.5481    0.0014    2.7579   36.0000 
6806.9921 2074.7712   12.2500   13.0612   73.6439    9.1748   10.7638   10.3739   65.0664    0.0851    2.5437    0.0052    2.7555   36.0000 
6807.4921 2074.9236   12.2500   13.0840   69.9704   11.3590   13.1895   12.9020   63.0221    0.0716    2.5509    0.0020    2.8780   36.0000 
6807.9921 2075.0759   12.2500   13.0612   66.5985   14.8482   20.0627   22.3237   61.5058    0.0548    2.5947    0.0026    2.8147   36.0000 
6808.4921 2075.2285   12.2500   13.0840   63.1222   12.5751   14.9554   15.8288   60.9147    0.0463    2.6300    0.0034    3.2835   36.0000 
6808.9921 2075.3809   12.2500   13.0498   63.6129   10.4491   12.1048   12.4690   61.6845    0.0438    2.5753    0.0042    2.9482   36.0000 
6809.4921 2075.5332   12.2500   13.0612   67.2239    8.8993   10.5603   10.7613   64.1138    0.0695    2.5704    0.0055    3.0103   36.0000 
6809.9921 2075.6855   12.2500   13.0384   71.6459    8.3057   10.0647   10.5160   64.7347    0.0736    2.5712    0.0049    3.1035   36.0000 
6810.4921 2075.8379   12.2500   12.9928   68.2132    9.5259   11.4934   12.5837   62.7588    0.0612    2.5750    0.0029    2.9593   36.0000 
6810.9921 2075.9905   12.2500   12.9472   64.8173   14.5994   21.5857   28.4263   61.1357    0.0271    2.6084   -0.0003    3.0164   36.0000 
6811.4921 2076.1428   12.2500   12.9016   61.8727   14.0060   21.1726   27.3390   60.0514    0.0202    2.6209   -0.0007    3.4089   36.0000 
6811.9921 2076.2952   12.2500   12.8560   59.9019   11.9985   17.0772   20.8336   60.1445    0.0210    2.5880    0.0003    3.0454   36.0000 
6812.4921 2076.4475   12.2500   12.8104   59.0046   10.4180   14.1781   16.9134   61.4344    0.0452    2.5740    0.0020    2.8459   36.0000 
6812.9921 2076.6001   12.2500   12.7876   56.8351    9.8057   13.0439   15.5937   61.5182    0.0507    2.5715    0.0003    2.7914   36.0000 
6813.4921 2076.7524   12.2500   12.7648   56.1911   12.8479   19.6785   27.1930   60.5615    0.0476    2.5926   -0.0005    3.0263   36.0000 
6813.9921 2076.9048   12.2500   12.7420   59.2389   14.8275   26.2635   42.8548   60.3240    0.0364    2.6161   -0.0046    3.4740   36.0000 
6814.4921 2077.0571   12.2500   12.7420   71.2238   13.8040   21.4854   30.7666   61.1394    0.0471    2.5736   -0.0045    2.8708   36.0000 
6814.9921 2077.2097   12.2500   12.7306   86.6789   15.9669   27.8398   43.5745   64.6998    0.0973    2.5774   -0.0047    3.1294   37.0000 
6815.4921 2077.3621   12.2500   12.7648  109.1750   17.7705   39.8661   85.7247   68.1253    0.1459    2.5422   -0.0033    3.0506   37.0000 
6815.9921 2077.5144   12.2500   12.7762  126.2075   17.9747   43.4405  102.7427   69.5465    0.1771    2.5412   -0.0030    3.2380   37.0000 
6816.4921 2077.6667   12.2500   12.8104  123.8463   18.8786   51.4745  133.3960   68.7576    0.1577    2.5410   -0.0015    3.2715   37.0000 
6816.9921 2077.8191   12.2500   12.8560  114.2535   18.7612   58.7489  224.4259   68.1371    0.1476    2.6193    0.0048    3.7686   37.0000 
6817.4921 2077.9717   12.2500   13.0156  103.8465   18.2686   56.1832  176.1274   66.8955    0.1467    2.6074    0.0089    3.6703   37.0000 
6817.9921 2078.1240   12.2500   12.9016  111.6472   18.4427   57.2991  162.5098   65.8546    0.1532    2.6368    0.0102    3.2637   37.0000 
6818.4921 2078.2764   12.2500   12.9358  104.4125   18.3798   59.8938  175.7931   65.1798    0.1268    2.6185    0.0098    3.3307   37.0000 
6818.9921 2078.4287   12.2500   12.9472   97.6564   17.9657   52.2110  119.5121   65.0372    0.0997    2.6374    0.0098    4.0940   37.0000 
6819.4921 2078.5813   12.2500   12.9928   89.8557   17.3415   42.7525   69.9694   63.4526    0.0820    2.6388    0.0052    3.5833   37.0000 
6819.9921 2078.7336   12.2500   13.0498   87.6472   17.6060   43.2640   70.2464   62.3061    0.0717    2.6569    0.0029    3.1568   37.0000 
6820.4921 2078.8860   12.2500   13.0840   89.6390   16.2182   35.7577   54.6392   64.5274    0.0695    2.6661   -0.0018    3.6439   37.0000 
6820.9921 2079.0383   12.2500   13.1296   95.5980   15.2180   26.9064   34.8313   64.7983    0.0956    2.6198    0.0020    3.7793   37.0000 
6821.4921 2079.1909   12.2500   13.1866  102.8906   13.9393   19.7870   23.3118   65.5656    0.1145    2.5918    0.0002    3.1754   37.0000 
6821.9921 2079.3433   12.2500   13.2436   93.6005   12.4259   14.5469   15.9053   66.6215    0.1114    2.6007    0.0042    2.6921   36.0000 
6822.4921 2079.4956   12.2500   13.2893   75.4421   12.4717   14.8889   16.5845   64.7746    0.0839    2.5896    0.0031    2.6542   36.0000 
6822.9921 2079.6479   12.2500   13.3463   67.4372   12.3664   15.2061   17.1072   63.9464    0.0692    2.5978    0.0032    3.0383   36.0000 
6823.4921 2079.8003   12.2500   13.3805   70.4906   11.8570   14.4007   16.3497   64.0217    0.0694    2.5965    0.0020    2.7538   36.0000 
