~VERSION INFORMATION
 VERS.                 2.0:   CWLS LOG ASCII STANDARD - VERSION 2.0
 WRAP.                  NO:   SINGLE LINE PER DEPTH STEP
 CREA.                 06/11/2018 17:04:42
#CREATED USING DSPetro VERSION 5000.10.1.3 BY H191660 ON 06/11/2018 17:04:42
~WELL INFORMATION
#MNEM.UNIT       DATA                          DESCRIPTION MNEMONIC
#---------      ---------------------------   --------------------------
 STRT    .FT        297.9921                  : START DEPTH
 STOP    .FT        12485.9921                : STOP DEPTH
 STEP    .FT        0.5000                    : STEP VALUE
 NULL    .      -999.0000                     : NULL VALUE
 DATE    .      06/11/2018                    : LAS file Creation Date
 WELL  .      UNIVERSITY_20-27           : Well Name
 COMP  .      Chesapeake Operating, Inc. : Company
 FLD   .      Haley                      : Field
 STATE .      Texas                      : State
 COUNT .      USA                        : Country
 API   .      42-495-33261               : API Number
 UWI   .      508                        : Unique Well Identifier (UWI)
 LOC   .      1320' FSL & 1320' FEL      : Location
 TOWN  .      20                         : Township
 SCT   .      27                         : Section
 RANG  .      University Lands           : Range
 PDAT  .      Ground Level               : Permanent Datum
 EPDAT .      2777.000000                : Reference Elevation
 LGMEA .      Kelly Bushing              : Log Measured from
 DRMEA .      Kelly Bushing              : Drill Measured From
 APDAT .      25.000000                  : Elevation Above Permanent Datum
 KB    .      2802.00000                 : KB Elevation
 GL    .      2777.00000                 : GL Elevation
 RWS   .      -999                       : Def_Rw
 WST   .      -999                       : Def_Rwt
 CNTY  .      Winkler                    : County
 SRVC  .      Schlumberger               : Contractor
~CURVE INFORMATION
#MNEM              UNIT       API CODE   Curve Type Comments
#----------  --------------- ----------  ---------- -----------
 DEPTH      .FT                        : Depth       
 DEPTH_(m)  .                          :             
 BS         .inch                      : BitSize     
 CAL_INCH   .inch                      :             Caliper Log - A representation of the measured diameter of a borehole along its depth
 GR         .GAPI                      : GammaRay    Gamma-Ray {F11.4}
 SRES       .ohmm                      :             20" array induction, one foot resistivity
 MRES       .ohm.m                     :             30" array induction, one foot resistivity
 DRES       .ohmm                      :             90" array induction, one foot resistivity log - units of ohmm
 DT_US_FT   .us/ft                     :             Interval Transit Time: Compressional Wave - Evaluates the time it takes for a compressional wave to traverse a fixed distance
 NPHI_v/v   .ratio                     :             Neutron Porosity - Measured with an neutron logging device calibrated to a given matrix (limestone, sandstone and dolomite)
 RHOB_G_CC  .g/cc                      :             Bulk Density - Measures the density of bulk material, including any void space or other materials contained in the subject volume
 HDRA       .G/C3                      : Drho        HRDD Density Correction {F11.4}
 PEF_B_E    .b/e-                      : PEF         Photoelectric Factor - A log of photoelectric absorption properties. Often expressed in an approximation unit barns/electron (b/e-)
 LITH       .                          : LITH        Lithology Curve
~A  DEPTH DEPTH_(m~     BS     CAL_INCH     GR       SRES      MRES      DRES    DT_US_FT  NPHI_v/v RHOB_G_C~    HDRA    PEF_B_E     LITH   
# ...
4344.9921 1324.3536 -999.0000    3.5760   10.8022    0.0026    0.0019    0.0132   49.8383    0.0297    2.4050    0.3087    7.2458    3.0000 
4345.4921 1324.5060 -999.0000    3.5760   13.0154    0.0243    0.0216    0.0241   49.6002    0.0268    2.3779    0.3122    7.1428    3.0000 
4345.9921 1324.6584 -999.0000    3.5532   10.9596 99999.9968 99999.9968    0.0114   49.6775    0.0262    2.3801    0.3118    7.2893    3.0000 
4346.4921 1324.8108 -999.0000    3.5760    9.2419    0.0228    0.0205    0.0249   49.6857    0.0242    2.3883    0.3077    7.3482    3.0000 
4346.9921 1324.9633 -999.0000    3.5532    7.2747 99999.9968 99999.9968    0.0068   49.7521    0.0269    2.3910    0.3054    7.0550    3.0000 
4347.4921 1325.1156 -999.0000    3.5760    9.8211    0.0144    0.0124    0.0219   49.8072    0.0270    2.3952    0.2979    7.0467    3.0000 
4347.9921 1325.2679 -999.0000    3.5760   10.8027    0.0057    0.0049    0.0162   49.8448    0.0271    2.3793    0.2933    7.0338    3.0000 
4348.4921 1325.4204 -999.0000    3.5760   10.8882    0.0099    0.0086    0.0135   49.7295    0.0266    2.3663    0.2947    7.1138    3.0000 
4348.9921 1325.5728 -999.0000    3.5646    9.6691 99999.9968 99999.9968    0.0079   50.1503    0.0276    2.3950    0.3023    7.0242    3.0000 
4349.4921 1325.7252 -999.0000    3.5760   11.6322    0.0136    0.0113    0.0191   49.9122    0.0327    2.3859    0.3081    6.9461    3.0000 
4349.9921 1325.8776 -999.0000    3.5760   13.0132    0.0077    0.0064    0.0160   49.6107    0.0354    2.3670    0.3099    6.9750    3.0000 
4350.4921 1326.0300 -999.0000    3.5760   12.5146    0.0080    0.0066    0.0159   49.5623    0.0359    2.3813    0.3000    6.9813    3.0000 
4350.9921 1326.1824 -999.0000    3.5760   10.5874    0.0170    0.0152    0.0208   49.5736    0.0352    2.3490    0.2855    6.8673    3.0000 
4351.4921 1326.3348 -999.0000    3.5760   10.8327 100000.0000 100000.0000    0.0065   50.3992    0.0335    2.3295    0.2725    7.0531    3.0000 
4351.9921 1326.4872 -999.0000    3.5760    9.8512 99999.9968 99999.9968    0.0086   49.9674    0.0344    2.3244    0.2642    6.8214    3.0000 
4352.4921 1326.6396 -999.0000    3.5532    8.8338    0.0092    0.0075    0.0145   50.1686    0.0328    2.3377    0.2611    6.8202    3.0000 
4352.9921 1326.7920 -999.0000    3.5760    7.6069    0.0071    0.0059    0.0145   49.5875    0.0345    2.3667    0.2670    7.2809    3.0000 
4353.4921 1326.9445 -999.0000    3.5760    8.3431    0.0138    0.0119    0.0192   49.0590    0.0369    2.3843    0.2836    7.2769    3.0000 
4353.9921 1327.0968 -999.0000    3.5532    8.5937    0.0140    0.0119    0.0194   50.3950    0.0385    2.3564    0.2988    7.2606    3.0000 
4354.4921 1327.2491 -999.0000    3.5646   10.1261    0.0154    0.0130    0.0187   49.3968    0.0411    2.3342    0.3023    7.2725    3.0000 
4354.9921 1327.4016 -999.0000    3.5760   12.3346    0.0068    0.0054    0.0136   49.4139    0.0431    2.3315    0.2943    7.1303    3.0000 
4355.4921 1327.5540 -999.0000    3.5760   15.0396    0.0083    0.0068    0.0142   49.4021    0.0450    2.2975    0.2805    7.1127    3.0000 
4355.9921 1327.7064 -999.0000    3.5532   13.7526    0.0067    0.0053    0.0129   49.5624    0.0434    2.3003    0.2732    6.9720    3.0000 
4356.4921 1327.8588 -999.0000    3.5760   11.0533    0.0096    0.0081    0.0147   49.6159    0.0460    2.2959    0.2692    6.8532    3.0000 
4356.9921 1328.0112 -999.0000    3.5646   10.3156    0.0073    0.0060    0.0130   50.0193    0.0516    2.2848    0.2698    6.8358    3.0000 
4357.4921 1328.1636 -999.0000    3.5532   10.9586    0.0092    0.0078    0.0135   49.8780    0.0620    2.2712    0.2605    6.9608    3.0000 
4357.9921 1328.3160 -999.0000    3.5532   13.1671    0.0143    0.0123    0.0180   49.8855    0.0631    2.2637    0.2540    7.0355    3.0000 
4358.4921 1328.4684 -999.0000    3.5532   14.6426    0.0052    0.0040    0.0116   49.9512    0.0625    2.2551    0.2582    6.8182    3.0000 
4358.9921 1328.6208 -999.0000    3.5532   15.4718    0.0066    0.0054    0.0117   49.9862    0.0559    2.2817    0.2701    6.8763    3.0000 
4359.4921 1328.7732 -999.0000    3.5760   14.2449    0.0085    0.0071    0.0133   49.9719    0.0601    2.2848    0.2787    7.2073    3.0000 
4359.9921 1328.9257 -999.0000    3.5760   13.0655    0.0046    0.0037    0.0107   50.1377    0.0641    2.2659    0.2769    7.2787    3.0000 
4360.4921 1329.0780 -999.0000    3.5760   13.0760    0.0131    0.0111    0.0164   50.0423    0.0676    2.2520    0.2696    7.2486    3.0000 
4360.9921 1329.2303 -999.0000    3.5760   14.0575    0.0086    0.0070    0.0136   50.0797    0.0700    2.2343    0.2622    7.0597    3.0000 
4361.4921 1329.3828 -999.0000    3.5760   12.0343    0.0108    0.0094    0.0126   50.0082    0.0702    2.2779    0.2614    7.1287    3.0000 
4361.9921 1329.5352 -999.0000    3.5760   10.0608 99999.9967 99999.9967    0.0006   49.9708    0.0740    2.2829    0.2666    7.2010    3.0000 
4362.4921 1329.6876 -999.0000    3.5532    9.0792    0.0069    0.0055    0.0121   49.8248    0.0714    2.2419    0.2710    7.3933    3.0000 
4362.9921 1329.8400 -999.0000    3.5646   11.9714    0.0080    0.0065    0.0127   49.7711    0.0789    2.2799    0.2809    7.3804    3.0000 
4363.4921 1329.9924 -999.0000    3.5532   13.4438    0.0058    0.0044    0.0113   49.6779    0.0815    2.2954    0.2891    7.3587    3.0000 
4363.9921 1330.1448 -999.0000    3.5760   14.6707    0.0072    0.0057    0.0119   49.4321    0.0877    2.2859    0.2947    7.4459    3.0000 
4364.4921 1330.2972 -999.0000    3.5532   12.5146    0.0078    0.0064    0.0128   49.2408    0.0864    2.2636    0.2864    7.4380    3.0000 
4364.9921 1330.4496 -999.0000    3.5760   12.0238    0.0099    0.0081    0.0140   49.1497    0.0828    2.2466    0.2721    7.2426    3.0000 
4365.4921 1330.6021 -999.0000    3.5532   12.2797    0.0082    0.0067    0.0129   49.0939    0.0769    2.2561    0.2588    7.2043    3.0000 
4365.9921 1330.7544 -999.0000    3.5532   11.7890    0.0064    0.0050    0.0117   49.1476    0.0714    2.2528    0.2509    7.2607    3.0000 
4366.4921 1330.9069 -999.0000    3.5760   10.6533    0.0074    0.0061    0.0121   49.1575    0.0768    2.2643    0.2508    6.8853    3.0000 
4366.9921 1331.0592 -999.0000    3.5760   10.3974    0.0064    0.0050    0.0114   49.0830    0.0788    2.2398    0.2564    7.1194    3.0000 
4367.4921 1331.2115 -999.0000    3.5646   11.3874    0.0072    0.0057    0.0117   49.2549    0.0783    2.2299    0.2575    7.3134    3.0000 
4367.9921 1331.3640 -999.0000    3.5532   13.0138    0.0059    0.0045    0.0112   49.5668    0.0717    2.2650    0.2569    7.3112    3.0000 
4368.4921 1331.5164 -999.0000    3.5646   11.7942    0.0048    0.0035    0.0101   49.6752    0.0680    2.2738    0.2559    7.2353    3.0000 
4368.9921 1331.6688 -999.0000    3.5760   11.0795    0.0098    0.0080    0.0134   49.9224    0.0740    2.2519    0.2580    7.1729    3.0000 
4369.4921 1331.8212 -999.0000    3.5760   12.5518    0.0066    0.0052    0.0114   50.0239    0.0787    2.2496    0.2573    7.3982    3.0000 
4369.9921 1331.9736 -999.0000    3.5760   14.0272    0.0070    0.0055    0.0116   49.9178    0.0885    2.2696    0.2526    7.4621    3.0000 
4370.4921 1332.1260 -999.0000    3.5760   15.9605    0.0077    0.0063    0.0120   49.9106    0.0906    2.2397    0.2515    7.4640    3.0000 
4370.9921 1332.2784 -999.0000    3.5760   15.4697    0.0073    0.0059    0.0119   49.8873    0.0881    2.2451    0.2525    7.4172    3.0000 
4371.4921 1332.4308 -999.0000    3.5760   14.4153    0.0054    0.0040    0.0101   49.7247    0.0861    2.2504    0.2504    7.3171    3.0000 
4371.9921 1332.5833 -999.0000    3.5532   12.4591    0.0072    0.0056    0.0115   49.6272    0.0849    2.2500    0.2467    7.5466    3.0000 
4372.4921 1332.7356 -999.0000    3.5760   11.7229    0.0077    0.0062    0.0118   49.5502    0.0918    2.2076    0.2415    7.4625    3.0000 
4372.9921 1332.8879 -999.0000    3.5760   14.2391    0.0048    0.0034    0.0098   49.3472    0.1004    2.2313    0.2473    7.3026    3.0000 
