~VERSION INFORMATION
 VERS.                 2.0:   CWLS LOG ASCII STANDARD - VERSION 2.0
 WRAP.                  NO:   SINGLE LINE PER DEPTH STEP
 CREA.                 06/11/2018 17:04:42
#CREATED USING DSPetro VERSION 5000.10.1.3 BY H191660 ON 06/11/2018 17:04:42
~WELL INFORMATION
#MNEM.UNIT       DATA                          DESCRIPTION MNEMONIC
#---------      ---------------------------   --------------------------
 STRT    .FT        297.9921                  : START DEPTH
 STOP    .FT        12485.9921                : STOP DEPTH
 STEP    .FT        0.5000                    : STEP VALUE
 NULL    .      -999.0000                     : NULL VALUE
 DATE    .      06/11/2018                    : LAS file Creation Date
 WELL  .      UNIVERSITY_20-27           : Well Name
 COMP  .      Chesapeake Operating, Inc. : Company
 FLD   .      Haley                      : Field
 STATE .      Texas                      : State
 COUNT .      USA                        : Country
 API   .      42-495-33261               : API Number
 UWI   .      508                        : Unique Well Identifier (UWI)
 LOC   .      1320' FSL & 1320' FEL      : Location
 TOWN  .      20                         : Township
 SCT   .      27                         : Section
 RANG  .      University Lands           : Range
 PDAT  .      Ground Level               : Permanent Datum
 EPDAT .      2777.000000                : Reference Elevation
 LGMEA .      Kelly Bushing              : Log Measured from
 DRMEA .      Kelly Bushing              : Drill Measured From
 APDAT .      25.000000                  : Elevation Above Permanent Datum
 KB    .      2802.00000                 : KB Elevation
 GL    .      2777.00000                 : GL Elevation
 RWS   .      -999                       : Def_Rw
 WST   .      -999                       : Def_Rwt
 CNTY  .      Winkler                    : County
 SRVC  .      Schlumberger               : Contractor
~CURVE INFORMATION
#MNEM              UNIT       API CODE   Curve Type Comments
#----------  --------------- ----------  ---------- -----------
 DEPTH      .FT                        : Depth       
 DEPTH_(m)  .                          :             
 BS         .inch                      : BitSize     
 CAL_INCH   .inch                      :             Caliper Log - A representation of the measured diameter of a borehole along its depth
 GR         .GAPI                      : GammaRay    Gamma-Ray {F11.4}
 SRES       .ohmm                      :             20" array induction, one foot resistivity
 MRES       .ohm.m                     :             30" array induction, one foot resistivity
 DRES       .ohmm                      :             90" array induction, one foot resistivity log - units of ohmm
 DT_US_FT   .us/ft                     :             Interval Transit Time: Compressional Wave - Evaluates the time it takes for a compressional wave to traverse a fixed distance
 NPHI_v/v   .ratio                     :             Neutron Porosity - Measured with an neutron logging device calibrated to a given matrix (limestone, sandstone and dolomite)
 RHOB_G_CC  .g/cc                      :             Bulk Density - Measures the density of bulk material, including any void space or other materials contained in the subject volume
 HDRA       .G/C3                      : Drho        HRDD Density Correction {F11.4}
 PEF_B_E    .b/e-                      : PEF         Photoelectric Factor - A log of photoelectric absorption properties. Often expressed in an approximation unit barns/electron (b/e-)
 LITH       .                          : LITH        Lithology Curve
~A  DEPTH DEPTH_(m~     BS     CAL_INCH     GR       SRES      MRES      DRES    DT_US_FT  NPHI_v/v RHOB_G_C~    HDRA    PEF_B_E     LITH   
# ...
11668.9921 3556.7087   12.2500   13.7909  103.3223    4.6388    6.9661    8.5677   86.1547    0.1828    2.5266    0.0020    2.8455   37.0000 
11669.4921 3556.8611   12.2500   13.8365   97.0724    4.6982    6.8845    8.6076   86.3057    0.2208    2.5142    0.0025    2.7852   37.0000 
11669.9921 3557.0137   12.2500   13.9733   91.1832    4.7626    6.7666    8.5741   84.8993    0.1950    2.5307    0.0045    2.6432   37.0000 
11670.4921 3557.1660   12.2500   14.0645   80.8702    4.7809    6.9350    9.3288   83.3345    0.2320    2.5163    0.0175    2.7242   37.0000 
11670.9921 3557.3184   12.2500   14.2697   72.4961    6.1701    9.3870   13.7457   83.5500    0.2300    2.5677    0.0346    3.2713   37.0000 
11671.4921 3557.4707   12.2500   14.3153   59.5073    6.7073   12.5807   19.5524   81.1825    0.2190    2.4697    0.0615    2.4951   37.0000 
11671.9921 3557.6233   12.2500   13.8593   46.6396    6.7850   14.4981   24.5371   77.6241    0.1792    2.4577    0.0853    2.6547   27.0000 
11672.4921 3557.7756   12.2500   14.1101   40.8523    6.7621   14.4660   25.6924   73.3863    0.1177    2.5478    0.0896    2.7259   27.0000 
11672.9921 3557.9280   12.2500   13.4945   37.4132    6.8382   13.5545   26.0544   71.6388    0.1130    2.5208    0.0770    2.6192   27.0000 
11673.4921 3558.0803   12.2500   13.1752   40.1125    6.6915   13.1466   26.1471   71.7342    0.1061    2.5081    0.0801    2.7069   27.0000 
11673.9921 3558.2329   12.2500   13.5401   40.5422    5.8706   12.3387   26.5575   71.6078    0.1168    2.5453    0.1133    3.0710   27.0000 
11674.4921 3558.3853   12.2500   13.9961   43.7193    5.1726   11.4096   27.0149   71.6452    0.1096    2.5655    0.1311    3.0162   27.0000 
11674.9921 3558.5376   12.2500   14.2241   45.2074    5.0553   11.2002   27.3142   71.8842    0.1022    2.5492    0.1206    2.6322   27.0000 
11675.4921 3558.6899   12.2500   14.1785   44.3479    5.2555   11.4416   27.3234   72.1878    0.0972    2.4910    0.0872    2.4382   27.0000 
11675.9921 3558.8423   12.2500   14.1443   40.1764    5.5659   11.2771   24.1294   72.3022    0.0881    2.4774    0.0776    2.5079   27.0000 
11676.4921 3558.9949   12.2500   13.3349   38.4430    5.4223   10.3610   20.1121   72.2136    0.0895    2.5129    0.1050    2.7721   27.0000 
11676.9921 3559.1472   12.2500   13.7225   42.7401    5.3674   10.1402   18.1883   72.3597    0.0888    2.5073    0.1349    3.0915   27.0000 
11677.4921 3559.2996   12.2500   14.3039   51.3495    3.5476    5.7816    8.2014   72.8786    0.1488    2.5150    0.1437    2.7995   27.0000 
11677.9921 3559.4519   12.2500   14.2697   63.8641    3.6714    5.6712    7.4311   82.9676    0.1940    2.3058    0.1074    2.4959   36.0000 
11678.4921 3559.6045   12.2500   14.9765   63.3496    4.8858    7.7383   10.2063   83.8630    0.1910    2.5616    0.0660    2.6955   36.0000 
11678.9921 3559.7568   12.2500   13.8251   60.6556    5.1048    8.1750   10.6357   83.8999    0.1522    2.4807    0.0314    2.4651   36.0000 
11679.4921 3559.9092   12.2500   13.5857   52.8221    5.7664    8.5939   10.4334   77.3017    0.1320    2.4700    0.0096    2.5990   36.0000 
11679.9921 3560.0615   12.2500   13.5401   55.2566    4.9644    8.3935   10.8755   75.9323    0.1375    2.4514   -0.0029    2.4228   36.0000 
11680.4921 3560.2141   12.2500   13.5287   54.4130    4.2768    7.7807   11.5771   78.4743    0.1172    2.4605   -0.0027    2.4781   36.0000 
11680.9921 3560.3665   12.2500   13.5629   60.0629    4.6101    8.1886   11.2870   82.2878    0.0983    2.4691   -0.0003    2.4959   36.0000 
11681.4921 3560.5188   12.2500   13.5629   65.4614    4.8548    8.7911   10.8637   84.2758    0.1094    2.4896    0.0038    2.5693   36.0000 
11681.9921 3560.6711   12.2500   13.4945   87.1617    4.1532    6.7883    9.1267   85.8406    0.1772    2.5010    0.0031    2.7365   37.0000 
11682.4921 3560.8235   12.2500   13.6769  102.1052    5.5348    8.4065   11.2030   84.0698    0.2167    2.5148    0.0049    3.0607   37.0000 
11682.9921 3560.9761   12.2500   13.4945  102.8700    6.6228   13.3175   22.1908   78.6828    0.1929    2.5670    0.0166    3.1805   37.0000 
11683.4921 3561.1284   12.2500   13.6769   84.1955    4.7783    8.3899   12.7427   73.1490    0.1483    2.6737    0.0282    3.9517   37.0000 
11683.9921 3561.2808   12.2500   13.4489   76.1301    4.6394    6.8306    8.5043   70.8445    0.1453    2.6085    0.0258    3.6690   37.0000 
11684.4921 3561.4331   12.2500   13.4717   80.9088    4.8219    7.0803    8.6261   72.4328    0.2035    2.5919    0.0118    2.9392   37.0000 
11684.9921 3561.5857   12.2500   13.4945   94.1942    4.9016    7.4549    8.9440   84.2960    0.2234    2.5671   -0.0002    3.1480   37.0000 
11685.4921 3561.7380   12.2500   13.4717   98.0880    4.6979    7.7099    9.6060   84.2023    0.2188    2.5551   -0.0016    3.1098   37.0000 
11685.9921 3561.8904   12.2500   13.4945  100.2661    4.2815    7.3231    9.8052   82.2961    0.2063    2.5492   -0.0017    3.1935   37.0000 
11686.4921 3562.0427   12.2500   13.4945   98.7922    4.5702    7.7591    9.9500   82.3633    0.1878    2.5717    0.0003    3.3456   37.0000 
11686.9921 3562.1953   12.2500   13.5173   96.3384    4.8749    7.8849    9.3498   82.8012    0.2005    2.5759    0.0030    3.3660   37.0000 
11687.4921 3562.3477   12.2500   13.5173   96.7681    4.4187    7.1619    8.5656   83.3379    0.1847    2.5445    0.0066    2.9653   37.0000 
11687.9921 3562.5000   12.2500   13.5629   94.7719    4.3745    6.9561    8.3481   83.0119    0.1870    2.5287    0.0055    2.8476   37.0000 
11688.4921 3562.6523   12.2500   13.5743   98.4905    4.6237    7.0463    8.4057   82.0278    0.1610    2.5255    0.0019    2.7993   37.0000 
11688.9921 3562.8047   12.2500   13.5857   88.3698    4.6098    6.8983    8.4607   81.2438    0.1619    2.5220    0.0015    2.7562   37.0000 
11689.4921 3562.9573   12.2500   13.6085   83.4878    4.4444    6.6213    8.4384   80.2413    0.1629    2.4999    0.0044    2.6396   37.0000 
11689.9921 3563.1096   12.2500   13.6085   68.7270    4.7456    7.4916   10.1529   78.7533    0.1596    2.5223    0.0082    2.5050   37.0000 
11690.4921 3563.2620   12.2500   13.5059   58.8661    5.2344    8.9482   13.6462   77.1816    0.1423    2.5146    0.0062    2.5244   36.0000 
11690.9921 3563.4143   12.2500   13.3805   50.5141    5.5776   10.5402   18.5160   75.3825    0.1282    2.5148    0.0029    2.5218   36.0000 
11691.4921 3563.5669   12.2500   13.3235   46.0972    5.2444   10.5197   21.3665   73.6917    0.1224    2.5189   -0.0022    2.5760   36.0000 
11691.9921 3563.7192   12.2500   13.3121   51.0773    5.3827   11.2815   23.9945   73.1452    0.1118    2.5179   -0.0049    2.6587   36.0000 
11692.4921 3563.8716   12.2500   13.3121   49.3084    5.7090   12.0613   26.4598   73.2003    0.0946    2.4863   -0.0060    2.7390   36.0000 
11692.9921 3564.0239   12.2500   13.2893   50.5539    6.1020   12.7910   28.6378   73.2350    0.0904    2.4949   -0.0051    2.8135   36.0000 
11693.4921 3564.1765   12.2500   13.3121   46.3619    6.0822   12.9977   30.2884   73.2758    0.0896    2.5178   -0.0018    2.6680   36.0000 
11693.9921 3564.3289   12.2500   13.3121   51.3166    5.5176   12.2788   31.3810   73.3491    0.0994    2.5223    0.0000    2.5238   36.0000 
11694.4921 3564.4812   12.2500   13.3349   50.3164    5.2549   11.4093   29.9329   73.4063    0.0995    2.5484    0.0017    2.6126   36.0000 
11694.9921 3564.6335   12.2500   13.3235   52.0520    5.5994   11.9383   29.1877   73.5927    0.1026    2.5303    0.0011    2.5106   36.0000 
11695.4921 3564.7859   12.2500   13.3235   51.4074    6.0344   12.9627   29.5808   73.6162    0.1196    2.5156    0.0016    2.6175   36.0000 
11695.9921 3564.9385   12.2500   13.3349   50.9166    6.0310   12.8350   29.9372   73.6236    0.1156    2.5221    0.0031    2.6312   36.0000 
11696.4921 3565.0908   12.2500   13.4033   48.9515    6.1926   12.8935   26.8796   73.7407    0.1084    2.5306    0.0026    2.5645   36.0000 
11696.9921 3565.2432   12.2500   13.3805   49.1491    6.1433   13.4039   28.4994   73.4560    0.0887    2.5198    0.0029    2.6526   36.0000 
