~VERSION INFORMATION
 VERS.                 2.0:   CWLS LOG ASCII STANDARD - VERSION 2.0
 WRAP.                  NO:   SINGLE LINE PER DEPTH STEP
 CREA.                 06/11/2018 17:04:42
#CREATED USING DSPetro VERSION 5000.10.1.3 BY H191660 ON 06/11/2018 17:04:42
~WELL INFORMATION
#MNEM.UNIT       DATA                          DESCRIPTION MNEMONIC
#---------      ---------------------------   --------------------------
 STRT    .FT        297.9921                  : START DEPTH
 STOP    .FT        12485.9921                : STOP DEPTH
 STEP    .FT        0.5000                    : STEP VALUE
 NULL    .      -999.0000                     : NULL VALUE
 DATE    .      06/11/2018                    : LAS file Creation Date
 WELL  .      UNIVERSITY_20-27           : Well Name
 COMP  .      Chesapeake Operating, Inc. : Company
 FLD   .      Haley                      : Field
 STATE .      Texas                      : State
 COUNT .      USA                        : Country
 API   .      42-495-33261               : API Number
 UWI   .      508                        : Unique Well Identifier (UWI)
 LOC   .      1320' FSL & 1320' FEL      : Location
 TOWN  .      20                         : Township
 SCT   .      27                         : Section
 RANG  .      University Lands           : Range
 PDAT  .      Ground Level               : Permanent Datum
 EPDAT .      2777.000000                : Reference Elevation
 LGMEA .      Kelly Bushing              : Log Measured from
 DRMEA .      Kelly Bushing              : Drill Measured From
 APDAT .      25.000000                  : Elevation Above Permanent Datum
 KB    .      2802.00000                 : KB Elevation
 GL    .      2777.00000                 : GL Elevation
 RWS   .      -999                       : Def_Rw
 WST   .      -999                       : Def_Rwt
 CNTY  .      Winkler                    : County
 SRVC  .      Schlumberger               : Contractor
~CURVE INFORMATION
#MNEM              UNIT       API CODE   Curve Type Comments
#----------  --------------- ----------  ---------- -----------
 DEPTH      .FT                        : Depth       
 DEPTH_(m)  .                          :             
 BS         .inch                      : BitSize     
 CAL_INCH   .inch                      :             Caliper Log - A representation of the measured diameter of a borehole along its depth
 GR         .GAPI                      : GammaRay    Gamma-Ray {F11.4}
 SRES       .ohmm                      :             20" array induction, one foot resistivity
 MRES       .ohm.m                     :             30" array induction, one foot resistivity
 DRES       .ohmm                      :             90" array induction, one foot resistivity log - units of ohmm
 DT_US_FT   .us/ft                     :             Interval Transit Time: Compressional Wave - Evaluates the time it takes for a compressional wave to traverse a fixed distance
 NPHI_v/v   .ratio                     :             Neutron Porosity - Measured with an neutron logging device calibrated to a given matrix (limestone, sandstone and dolomite)
 RHOB_G_CC  .g/cc                      :             Bulk Density - Measures the density of bulk material, including any void space or other materials contained in the subject volume
 HDRA       .G/C3                      : Drho        HRDD Density Correction {F11.4}
 PEF_B_E    .b/e-                      : PEF         Photoelectric Factor - A log of photoelectric absorption properties. Often expressed in an approximation unit barns/electron (b/e-)
 LITH       .                          : LITH        Lithology Curve
~A  DEPTH DEPTH_(m~     BS     CAL_INCH     GR       SRES      MRES      DRES    DT_US_FT  NPHI_v/v RHOB_G_C~    HDRA    PEF_B_E     LITH   
# ...
2720.4921  829.2060 -999.0000    3.5760   15.1286    0.0092    0.0079    0.0207   77.6235    0.0117    2.0832    0.2046    6.1157    3.0000 
2720.9921  829.3584 -999.0000    3.5988   16.1001    0.0087    0.0075    0.0202   88.3768    0.0139    2.1121    0.1977    6.0643    3.0000 
2721.4921  829.5108 -999.0000    3.5760   14.0371    0.0111    0.0096    0.0222   88.1887    0.0142    2.1104    0.1989    5.9112    3.0000 
2721.9921  829.6632 -999.0000    3.5760   14.7248    0.0106    0.0091    0.0218   86.6976    0.0143    2.1964    0.2038    6.0478    3.0000 
2722.4921  829.8156 -999.0000    3.5760   13.7533    0.0113    0.0099    0.0248   86.4425    0.0137    2.1852    0.2091    6.2429    3.0000 
2722.9921  829.9680 -999.0000    3.5988   13.5104    0.0069    0.0058    0.0213   75.2079    0.0162    2.1453    0.2104    6.1830    3.0000 
2723.4921  830.1204 -999.0000    3.5988   12.8227    0.0090    0.0076    0.0217   71.8381    0.0158    2.1351    0.2088    6.3044    3.0000 
2723.9921  830.2728 -999.0000    3.5760   13.1666    0.0096    0.0081    0.0220   84.7264    0.0179    2.1046    0.2143    6.4202    3.0000 
2724.4921  830.4252 -999.0000    3.5760   13.1894    0.0040    0.0032    0.0186   84.7451    0.0144    2.0880    0.2237    6.4926    3.0000 
2724.9921  830.5776 -999.0000    3.5988   14.5648    0.0079    0.0067    0.0212   78.2537    0.0157    2.0977    0.2334    6.6099    3.0000 
2725.4921  830.7300 -999.0000    3.5760   14.8932    0.0090    0.0079    0.0209   78.1677    0.0157    2.0645    0.2304    6.6487    3.0000 
2725.9921  830.8824 -999.0000    3.5760   14.7694    0.0101    0.0090    0.0212   75.7910    0.0173    2.0659    0.2218    6.6766    3.0000 
2726.4921  831.0348 -999.0000    3.5988   15.9124    0.0067    0.0058    0.0195   86.4658    0.0151    2.0558    0.2049    6.3565    3.0000 
2726.9921  831.1872 -999.0000    3.5988   17.3031    0.0131    0.0117    0.0238   74.1076    0.0147    2.0431    0.1872    6.5168    3.0000 
2727.4921  831.3396 -999.0000    3.5760   17.9908    0.0069    0.0061    0.0206   74.0181    0.0201    2.0392    0.1805    6.1485    3.0000 
2727.9921  831.4920 -999.0000    3.5988   17.4180 100000.0000 100000.0000 99999.9981   73.7630    0.0266    2.1005    0.1843    6.6164    3.0000 
2728.4921  831.6444 -999.0000    3.5988   13.6358 100000.0000 100000.0000    0.0037   73.6213    0.0395    2.0778    0.1915    6.5410    3.0000 
2728.9921  831.7968 -999.0000    3.5760   13.6204 100000.0000 100000.0000 99999.9981   73.6644    0.0438    2.0823    0.1941    6.7506    3.0000 
2729.4921  831.9492 -999.0000    3.5760   16.1447 100000.0000 100000.0000    0.0084   73.6460    0.0571    2.0814    0.1932    6.7912    3.0000 
2729.9921  832.1016 -999.0000    3.5760   18.8490 100000.0000 100000.0000 100000.0000   73.6431    0.0697    2.0513    0.1913    6.6483    3.0000 
2730.4921  832.2540 -999.0000    3.5760   17.8329 99999.9981 99999.9981 99999.9981   73.3366    0.0944    2.1121    0.1884    6.7741    3.0000 
2730.9921  832.4064 -999.0000    3.5760   12.6754    0.0121    0.0107    0.0229   59.6220    0.1022    2.0688    0.1841    6.5601    3.0000 
2731.4921  832.5588 -999.0000    3.5760   13.2196    0.0119    0.0104    0.0232   59.5652    0.1123    2.0545    0.1775    6.7534    3.0000 
2731.9921  832.7112 -999.0000    3.5988   13.9073    0.0125    0.0116    0.0275   59.5729    0.1183    2.0168    0.1685    6.8205    3.0000 
2732.4921  832.8636 -999.0000    3.5760   15.9703    0.0006    0.0001    0.0141   59.8432    0.1337    2.0386    0.1660    6.6421    3.0000 
2732.9921  833.0160 -999.0000    3.5988   14.5648    0.0036    0.0029    0.0185   59.8568    0.1372    2.0392    0.1721    6.6367    3.0000 
2733.4921  833.1684 -999.0000    3.5760   13.8648    0.0125    0.0107    0.0244   59.4153    0.1450    2.0402    0.1735    6.9186    3.0000 
2733.9921  833.3208 -999.0000    3.5988   13.5209    0.0080    0.0067    0.0209   59.1992    0.1670    2.0213    0.1770    6.9937    3.0000 
2734.4921  833.4732 -999.0000    3.5760   10.3027    0.0148    0.0131    0.0238   59.0315    0.1774    2.0485    0.1747    7.0768    3.0000 
2734.9921  833.6256 -999.0000    3.5988   11.0575 99999.9981 99999.9981    0.0028   58.7320    0.2001    2.0350    0.1768    7.0339    3.0000 
2735.4921  833.7780 -999.0000    3.5988   12.0890    0.0279    0.0246    0.0329   58.8489    0.1840    2.0227    0.1745    7.0590    3.0000 
2735.9921  833.9304 -999.0000    3.5760   17.5903    0.0016    0.0012    0.0172   58.6961    0.1973    2.0411    0.1734    7.0977    3.0000 
2736.4921  834.0828 -999.0000    3.5760   17.5355    0.0250    0.0220    0.0308   58.5235    0.1784    2.0334    0.1732    6.7622    3.0000 
2736.9921  834.2352 -999.0000    3.5760   15.1184    0.0845    0.0755    0.0726   58.3273    0.2373    2.0013    0.1742    6.7838    3.0000 
2737.4921  834.3876 -999.0000    3.5760   13.7430    0.0253    0.0224    0.0332   58.0292    0.2683    2.0325    0.1726    6.7711    3.0000 
2737.9921  834.5400 -999.0000    3.5760   14.4307 100000.0000 100000.0000 100000.0000   57.8359    0.3462    2.0518    0.1716    7.0111    3.0000 
2738.4921  834.6924 -999.0000    3.5988   17.1916 99999.9980 99999.9980 99999.9980   57.8051    0.3801    2.0453    0.1749    7.0788    3.0000 
2738.9921  834.8448 -999.0000    3.5988   17.4323    0.0255    0.0231    0.0351   57.7900    0.4559    2.0469    0.1819    7.0842    3.0000 
2739.4921  834.9972 -999.0000    3.5760   18.7871    0.0833    0.0746    0.0710   57.8751    0.4647    2.0432    0.1932    7.0349    3.0000 
2739.9921  835.1496 -999.0000    3.5988   21.8816 99999.9980 99999.9980    0.0004   57.8937    0.4758    2.0803    0.1967    7.1227    3.0000 
2740.4921  835.3020 -999.0000    3.5760   20.7218    0.0413    0.0367    0.0362   57.7193    0.4491    2.0659    0.1945    6.9708    3.0000 
2740.9921  835.4544 -999.0000    3.5988   18.3355    0.0185    0.0164    0.0265   57.3419    0.4776    2.0285    0.1871    7.0182    3.0000 
2741.4921  835.6068 -999.0000    3.5760   15.2410 99999.9980 99999.9980    0.0138   57.6514    0.4741    2.0537    0.1811    7.1030    3.0000 
2741.9921  835.7592 -999.0000    3.5760   16.8478    0.0110    0.0095    0.0225   57.8442    0.5552    2.0460    0.1787    6.7507    3.0000 
2742.4921  835.9116 -999.0000    3.5988   17.8193    0.0066    0.0054    0.0192   58.2249    0.5197    2.0559    0.1774    6.6919    3.0000 
2742.9921  836.0640 -999.0000    3.5760   20.2004    0.0085    0.0071    0.0210   58.7674    0.5321    2.0313    0.1794    6.6719    3.0000 
2743.4921  836.2164 -999.0000    3.5760   19.8566    0.0090    0.0078    0.0209   58.8918    0.4144    2.0769    0.1851    6.8790    3.0000 
2743.9921  836.3688 -999.0000    3.5760   19.8702    0.0070    0.0058    0.0189   59.1103    0.4111    2.0547    0.1916    6.9102    3.0000 
2744.4921  836.5212 -999.0000    3.5760   15.4261    0.0075    0.0064    0.0193   58.3143    0.3405    2.0607    0.1935    6.9634    3.0000 
2744.9921  836.6736 -999.0000    3.5760   14.7384    0.0081    0.0066    0.0185   57.6976    0.3146    2.0849    0.1923    6.9366    3.0000 
2745.4921  836.8260 -999.0000    3.5988   12.7116    0.0064    0.0052    0.0180   57.2484    0.2483    2.0631    0.1862    6.7317    3.0000 
2745.9921  836.9784 -999.0000    3.5760   16.8375    0.0092    0.0079    0.0192   57.5741    0.2393    2.0805    0.1825    6.6625    3.0000 
2746.4921  837.1308 -999.0000    3.5988   18.9005    0.0092    0.0080    0.0201   56.6809    0.2781    2.0657    0.1779    6.7908    3.0000 
2746.9921  837.2832 -999.0000    3.5988   20.6300    0.0084    0.0071    0.0204   56.0764    0.2735    2.0728    0.1797    6.7727    3.0000 
2747.4921  837.4356 -999.0000    3.5988   17.1916    0.0121    0.0103    0.0208   55.4414    0.2708    2.1006    0.1818    6.6898    3.0000 
2747.9921  837.5880 -999.0000    3.5760   14.5533    0.0108    0.0092    0.0203   55.6963    0.2213    2.1025    0.1899    6.7118    3.0000 
2748.4921  837.7404 -999.0000    3.5760   14.8971    0.0100    0.0085    0.0197   55.4355    0.2628    2.1167    0.2002    6.8910    3.0000 
