~VERSION INFORMATION
 VERS.                 2.0:   CWLS LOG ASCII STANDARD - VERSION 2.0
 WRAP.                  NO:   SINGLE LINE PER DEPTH STEP
 CREA.                 06/11/2018 17:04:42
#CREATED USING DSPetro VERSION 5000.10.1.3 BY H191660 ON 06/11/2018 17:04:42
~WELL INFORMATION
#MNEM.UNIT       DATA                          DESCRIPTION MNEMONIC
#---------      ---------------------------   --------------------------
 STRT    .FT        297.9921                  : START DEPTH
 STOP    .FT        12485.9921                : STOP DEPTH
 STEP    .FT        0.5000                    : STEP VALUE
 NULL    .      -999.0000                     : NULL VALUE
 DATE    .      06/11/2018                    : LAS file Creation Date
 WELL  .      UNIVERSITY_20-27           : Well Name
 COMP  .      Chesapeake Operating, Inc. : Company
 FLD   .      Haley                      : Field
 STATE .      Texas                      : State
 COUNT .      USA                        : Country
 API   .      42-495-33261               : API Number
 UWI   .      508                        : Unique Well Identifier (UWI)
 LOC   .      1320' FSL & 1320' FEL      : Location
 TOWN  .      20                         : Township
 SCT   .      27                         : Section
 RANG  .      University Lands           : Range
 PDAT  .      Ground Level               : Permanent Datum
 EPDAT .      2777.000000                : Reference Elevation
 LGMEA .      Kelly Bushing              : Log Measured from
 DRMEA .      Kelly Bushing              : Drill Measured From
 APDAT .      25.000000                  : Elevation Above Permanent Datum
 KB    .      2802.00000                 : KB Elevation
 GL    .      2777.00000                 : GL Elevation
 RWS   .      -999                       : Def_Rw
 WST   .      -999                       : Def_Rwt
 CNTY  .      Winkler                    : County
 SRVC  .      Schlumberger               : Contractor
~CURVE INFORMATION
#MNEM              UNIT       API CODE   Curve Type Comments
#----------  --------------- ----------  ---------- -----------
 DEPTH      .FT                        : Depth       
 DEPTH_(m)  .                          :             
 BS         .inch                      : BitSize     
 CAL_INCH   .inch                      :             Caliper Log - A representation of the measured diameter of a borehole along its depth
 GR         .GAPI                      : GammaRay    Gamma-Ray {F11.4}
 SRES       .ohmm                      :             20" array induction, one foot resistivity
 MRES       .ohm.m                     :             30" array induction, one foot resistivity
 DRES       .ohmm                      :             90" array induction, one foot resistivity log - units of ohmm
 DT_US_FT   .us/ft                     :             Interval Transit Time: Compressional Wave - Evaluates the time it takes for a compressional wave to traverse a fixed distance
 NPHI_v/v   .ratio                     :             Neutron Porosity - Measured with an neutron logging device calibrated to a given matrix (limestone, sandstone and dolomite)
 RHOB_G_CC  .g/cc                      :             Bulk Density - Measures the density of bulk material, including any void space or other materials contained in the subject volume
 HDRA       .G/C3                      : Drho        HRDD Density Correction {F11.4}
 PEF_B_E    .b/e-                      : PEF         Photoelectric Factor - A log of photoelectric absorption properties. Often expressed in an approximation unit barns/electron (b/e-)
 LITH       .                          : LITH        Lithology Curve
~A  DEPTH DEPTH_(m~     BS     CAL_INCH     GR       SRES      MRES      DRES    DT_US_FT  NPHI_v/v RHOB_G_C~    HDRA    PEF_B_E     LITH   
# ...
1095.9921  334.0584 -999.0000    3.5988   40.2747    0.0071    0.0061    0.0252   64.7476    0.5341    2.2291    0.2672    6.7535    3.0000 
1096.4921  334.2108 -999.0000    3.5988   41.6500    0.0088    0.0077    0.0262   64.7660    0.5860    2.2254    0.2702    6.7759    3.0000 
1096.9921  334.3632 -999.0000    3.5760   44.6602    0.0087    0.0076    0.0258   64.5052    0.5136    2.2363    0.2700    6.6087    3.0000 
1097.4921  334.5156 -999.0000    3.5760   46.7612    0.0088    0.0076    0.0255   64.8815    0.4776    2.2245    0.2695    6.7487    3.0000 
1097.9921  334.6680 -999.0000    3.5988   44.3154    0.0070    0.0060    0.0247   64.6988    0.5232    2.2285    0.2670    6.8094    3.0000 
1098.4921  334.8204 -999.0000    3.5760   43.2839    0.0080    0.0069    0.0253   64.9498    0.5442    2.2243    0.2577    6.7742    3.0000 
1098.9921  334.9728 -999.0000    3.5988   48.4414    0.0080    0.0069    0.0252   64.9820    0.6301    2.2040    0.2482    6.8036    3.0000 
1099.4921  335.1252 -999.0000    3.5760   47.1858    0.0086    0.0074    0.0257   64.6711    0.5505    2.1908    0.2404    6.6242    3.0000 
1099.9921  335.2776 -999.0000    3.5760   48.2173    0.0082    0.0072    0.0252   64.6115    0.6430    2.1856    0.2405    6.5640    3.0000 
1100.4921  335.4300 -999.0000    3.5988   38.9339    0.0099    0.0086    0.0257   64.6130    0.5458    2.2140    0.2488    6.5684    3.0000 
1100.9921  335.5824 -999.0000    3.5988   37.4469    0.0084    0.0073    0.0244   64.4565    0.5648    2.1861    0.2556    6.7887    3.0000 
1101.4921  335.7348 -999.0000    3.5988   29.1950    0.0096    0.0083    0.0256   64.3780    0.4653    2.2295    0.2619    6.8057    3.0000 
1101.9921  335.8872 -999.0000    3.5988   28.1635    0.0094    0.0082    0.0259   64.2453    0.4766    2.2597    0.2642    6.9213    3.0000 
1102.4921  336.0396 -999.0000    3.5988   25.7874    0.0085    0.0074    0.0241   64.3264    0.4658    2.2282    0.2681    6.7646    3.0000 
1102.9921  336.1920 -999.0000    3.5988   27.4768    0.0089    0.0077    0.0244   64.2912    0.5079    2.2295    0.2690    6.7081    3.0000 
1103.4921  336.3444 -999.0000    3.5988   27.4768    0.0098    0.0085    0.0242   64.4920    0.4794    2.2405    0.2664    6.7442    3.0000 
1103.9921  336.4968 -999.0000    3.5988   29.5398    0.0098    0.0085    0.0247   64.3170    0.4464    2.2277    0.2635    6.6943    3.0000 
1104.4921  336.6492 -999.0000    3.5988   28.4985    0.0087    0.0076    0.0236   64.6780    0.3749    2.2331    0.2617    6.6294    3.0000 
1104.9921  336.8016 -999.0000    3.5988   26.0917    0.0086    0.0075    0.0240   64.5698    0.4761    2.2258    0.2606    6.6792    3.0000 
1105.4921  336.9540 -999.0000    3.5988   25.5477    0.0088    0.0076    0.0234   64.3397    0.5243    2.1998    0.2592    6.9478    3.0000 
1105.9921  337.1064 -999.0000    3.5988   26.3847    0.0091    0.0078    0.0239   71.3155    0.5385    2.2268    0.2643    6.9382    3.0000 
1106.4921  337.2588 -999.0000    3.5988   27.7600    0.0095    0.0082    0.0233   70.8055    0.5052    2.2365    0.2753    6.9305    3.0000 
1106.9921  337.4112 -999.0000    3.5988   31.3985    0.0088    0.0075    0.0222   70.8828    0.4752    2.2071    0.2805    6.9658    3.0000 
1107.4921  337.5636 -999.0000    3.5760   31.2887    0.0092    0.0079    0.0235   70.7746    0.5002    2.2245    0.2757    7.1263    3.0000 
1107.9921  337.7160 -999.0000    3.5760   30.9203    0.0086    0.0074    0.0217   71.2261    0.4972    2.2379    0.2712    6.9956    3.0000 
1108.4921  337.8684 -999.0000    3.5760   29.8888    0.0092    0.0078    0.0187   63.5009    0.4977    2.2200    0.2758    7.0792    3.0000 
1108.9921  338.0208 -999.0000    3.5988   28.1696    0.0085    0.0070    0.0163   56.1989    0.4488    2.1786    0.2753    6.8848    3.0000 
1109.4921  338.1732 -999.0000    3.5988   30.2573    0.0089    0.0074    0.0198   56.1989    0.4485    2.1934    0.2657    6.8553    3.0000 
1109.9921  338.3256 -999.0000    3.5988   25.4436    0.0098    0.0083    0.0209   64.0477    0.4699    2.2129    0.2530    6.8556    3.0000 
1110.4921  338.4780 -999.0000    3.5988   23.2775    0.0103    0.0087    0.0199   64.1387    0.5328    2.1977    0.2492    6.6661    3.0000 
1110.9921  338.6304 -999.0000    3.5988   21.1898    0.0089    0.0075    0.0177   64.1387    0.5333    2.1741    0.2511    6.8160    3.0000 
1111.4921  338.7828 -999.0000    3.5988   20.5022    0.0093    0.0077    0.0179   63.9920    0.5795    2.1790    0.2537    6.9847    3.0000 
1111.9921  338.9352 -999.0000    3.5760   25.0751    0.0069    0.0056    0.0155   63.8754    0.5449    2.2068    0.2634    7.0028    3.0000 
1112.4921  339.0876 -999.0000    3.5760   26.4751    0.0096    0.0079    0.0164   64.2716    0.5466    2.2151    0.2669    6.8908    3.0000 
1112.9921  339.2400 -999.0000    3.5760   29.1980    0.0076    0.0061    0.0144   64.1399    0.6122    2.1914    0.2656    7.0026    3.0000 
1113.4921  339.3924 -999.0000    3.5760   31.9487    0.0090    0.0075    0.0170   64.0824    0.6662    2.2078    0.2585    7.1140    3.0000 
1113.9921  339.5448 -999.0000    3.5988   33.6679    0.0089    0.0073    0.0173   64.0092    0.6317    2.1765    0.2520    7.1208    3.0000 
1114.4921  339.6972 -999.0000    3.5760   36.1024    0.0087    0.0072    0.0157   64.0724    0.5024    2.1941    0.2496    7.0536    3.0000 
1114.9921  339.8496 -999.0000    3.5988   36.4462    0.0052    0.0041    0.0133   64.4453    0.4954    2.1894    0.2468    7.0702    3.0000 
1115.4921  340.0020 -999.0000    3.5760   31.9764 99999.9993 99999.9993 99999.9993   64.2501    0.5503    2.1982    0.2452    7.1011    3.0000 
1115.9921  340.1544 -999.0000    3.5988   27.4457    0.0134    0.0114    0.0193   64.3117    0.6063    2.1916    0.2410    6.9786    3.0000 
1116.4921  340.3068 -999.0000    3.5988   20.2252 100000.0000 100000.0000 99999.9993   64.2216    0.5294    2.2015    0.2364    6.9796    3.0000 
1116.9921  340.4592 -999.0000    3.5760   22.2882 100000.0000 100000.0000    0.0104   64.5247    0.5283    2.1815    0.2324    6.8753    3.0000 
1117.4921  340.6116 -999.0000    3.5988   24.7559 99999.9993 99999.9993 99999.9993   64.4938    0.4796    2.1798    0.2288    6.9411    3.0000 
1117.9921  340.7640 -999.0000    3.5760   27.4799    0.0088    0.0072    0.0147   64.5421    0.5276    2.1760    0.2259    7.0012    3.0000 
1118.4921  340.9164 -999.0000    3.5988   25.4169    0.0083    0.0068    0.0146   72.1001    0.4606    2.1587    0.2257    7.0014    3.0000 
1118.9921  341.0688 -999.0000    3.5988   24.0416    0.0095    0.0078    0.0154   72.0570    0.4551    2.1611    0.2291    6.9192    3.0000 
1119.4921  341.2212 -999.0000    3.5760   23.3806    0.0089    0.0074    0.0146   72.1496    0.4375    2.1589    0.2361    6.8658    3.0000 
1119.9921  341.3736 -999.0000    3.5988   25.0998    0.0091    0.0075    0.0151   64.5200    0.5254    2.1715    0.2431    6.9810    3.0000 
1120.4921  341.5260 -999.0000    3.5988   22.8619    0.0094    0.0077    0.0152   64.8318    0.6205    2.1667    0.2511    6.7710    3.0000 
1120.9921  341.6784 -999.0000    3.5988   20.7989    0.0093    0.0076    0.0149   64.9176    0.6228    2.1806    0.2512    6.7418    3.0000 
1121.4921  341.8308 -999.0000    3.5988   18.0482    0.0110    0.0092    0.0165   64.6068    0.6239    2.1841    0.2512    6.8225    3.0000 
1121.9921  341.9832 -999.0000    3.5988   17.8793    0.0102    0.0085    0.0158   56.8484    0.6347    2.1616    0.2499    6.7315    3.0000 
1122.4921  342.1356 -999.0000    3.5988   16.1601    0.0083    0.0068    0.0144   56.8283    0.6082    2.1802    0.2523    6.7425    3.0000 
1122.9921  342.2880 -999.0000    3.5988   17.1711    0.0084    0.0068    0.0143   56.7881    0.5834    2.1851    0.2502    6.8398    3.0000 
1123.4921  342.4404 -999.0000    3.5988   19.9218    0.0096    0.0080    0.0152   57.1413    0.5278    2.1607    0.2466    6.8427    3.0000 
1123.9921  342.5928 -999.0000    3.5760   22.6724    0.0087    0.0071    0.0146   56.8778    0.5676    2.1689    0.2413    6.6797    3.0000 
