~VERSION INFORMATION
 VERS.                 2.0:   CWLS LOG ASCII STANDARD - VERSION 2.0
 WRAP.                  NO:   SINGLE LINE PER DEPTH STEP
 CREA.                 06/11/2018 17:04:42
#CREATED USING DSPetro VERSION 5000.10.1.3 BY H191660 ON 06/11/2018 17:04:42
~WELL INFORMATION
#MNEM.UNIT       DATA                          DESCRIPTION MNEMONIC
#---------      ---------------------------   --------------------------
 STRT    .FT        297.9921                  : START DEPTH
 STOP    .FT        12485.9921                : STOP DEPTH
 STEP    .FT        0.5000                    : STEP VALUE
 NULL    .      -999.0000                     : NULL VALUE
 DATE    .      06/11/2018                    : LAS file Creation Date
 WELL  .      UNIVERSITY_20-27           : Well Name
 COMP  .      Chesapeake Operating, Inc. : Company
 FLD   .      Haley                      : Field
 STATE .      Texas                      : State
 COUNT .      USA                        : Country
 API   .      42-495-33261               : API Number
 UWI   .      508                        : Unique Well Identifier (UWI)
 LOC   .      1320' FSL & 1320' FEL      : Location
 TOWN  .      20                         : Township
 SCT   .      27                         : Section
 RANG  .      University Lands           : Range
 PDAT  .      Ground Level               : Permanent Datum
 EPDAT .      2777.000000                : Reference Elevation
 LGMEA .      Kelly Bushing              : Log Measured from
 DRMEA .      Kelly Bushing              : Drill Measured From
 APDAT .      25.000000                  : Elevation Above Permanent Datum
 KB    .      2802.00000                 : KB Elevation
 GL    .      2777.00000                 : GL Elevation
 RWS   .      -999                       : Def_Rw
 WST   .      -999                       : Def_Rwt
 CNTY  .      Winkler                    : County
 SRVC  .      Schlumberger               : Contractor
~CURVE INFORMATION
#MNEM              UNIT       API CODE   Curve Type Comments
#----------  --------------- ----------  ---------- -----------
 DEPTH      .FT                        : Depth       
 DEPTH_(m)  .                          :             
 BS         .inch                      : BitSize     
 CAL_INCH   .inch                      :             Caliper Log - A representation of the measured diameter of a borehole along its depth
 GR         .GAPI                      : GammaRay    Gamma-Ray {F11.4}
 SRES       .ohmm                      :             20" array induction, one foot resistivity
 MRES       .ohm.m                     :             30" array induction, one foot resistivity
 DRES       .ohmm                      :             90" array induction, one foot resistivity log - units of ohmm
 DT_US_FT   .us/ft                     :             Interval Transit Time: Compressional Wave - Evaluates the time it takes for a compressional wave to traverse a fixed distance
 NPHI_v/v   .ratio                     :             Neutron Porosity - Measured with an neutron logging device calibrated to a given matrix (limestone, sandstone and dolomite)
 RHOB_G_CC  .g/cc                      :             Bulk Density - Measures the density of bulk material, including any void space or other materials contained in the subject volume
 HDRA       .G/C3                      : Drho        HRDD Density Correction {F11.4}
 PEF_B_E    .b/e-                      : PEF         Photoelectric Factor - A log of photoelectric absorption properties. Often expressed in an approximation unit barns/electron (b/e-)
 LITH       .                          : LITH        Lithology Curve
~A  DEPTH DEPTH_(m~     BS     CAL_INCH     GR       SRES      MRES      DRES    DT_US_FT  NPHI_v/v RHOB_G_C~    HDRA    PEF_B_E     LITH   
# ...
3546.9921 1081.1232 -999.0000    3.5532   15.9653    0.0071    0.0057    0.0124   60.8159    0.1060    2.1843    0.2495    6.5685    3.0000 
3547.4921 1081.2756 -999.0000    3.5760   13.4160    0.0154    0.0130    0.0181   59.3584    0.0956    2.2001    0.2567    6.6003    3.0000 
3547.9921 1081.4280 -999.0000    3.5760    9.4899    0.0106    0.0086    0.0141   58.4589    0.0900    2.1932    0.2681    6.5132    3.0000 
3548.4921 1081.5804 -999.0000    3.5760    9.0043    0.0224    0.0192    0.0230   57.0978    0.0850    2.2095    0.2795    6.4178    3.0000 
3548.9921 1081.7328 -999.0000    3.5760    9.3299    0.0090    0.0075    0.0141   56.0999    0.0717    2.2607    0.2855    6.5044    3.0000 
3549.4921 1081.8853 -999.0000    3.5874   11.0476    0.0018    0.0009    0.0090   55.2852    0.0597    2.2603    0.2897    6.3306    3.0000 
3549.9921 1082.0376 -999.0000    3.5760   12.2692    0.0135    0.0113    0.0168   54.3062    0.0510    2.2574    0.2881    6.3364    3.0000 
3550.4921 1082.1899 -999.0000    3.5874   10.5516    0.0059    0.0046    0.0120   53.8012    0.0523    2.2630    0.2914    6.2248    3.0000 
3550.9921 1082.3424 -999.0000    3.5760   10.0289    0.0027    0.0018    0.0100   53.2195    0.0458    2.2718    0.3002    6.2283    3.0000 
3551.4921 1082.4948 -999.0000    3.5760   11.0104    0.0050    0.0038    0.0116   53.0361    0.0420    2.2893    0.3179    6.4186    3.0000 
3551.9921 1082.6472 -999.0000    3.5760    9.7835    0.0051    0.0039    0.0122   52.8021    0.0347    2.3077    0.3285    6.6514    3.0000 
3552.4921 1082.7996 -999.0000    3.5760    9.8154    0.0052    0.0039    0.0122   52.5127    0.0377    2.3417    0.3308    6.7263    3.0000 
3552.9921 1082.9520 -999.0000    3.5760    8.3431    0.0064    0.0051    0.0137   52.2552    0.0360    2.3006    0.3287    6.7143    3.0000 
3553.4921 1083.1044 -999.0000    3.5760   10.7969    0.0087    0.0071    0.0141   52.2907    0.0390    2.3088    0.3294    6.9630    3.0000 
3553.9921 1083.2568 -999.0000    3.5760    9.5742    0.0068    0.0054    0.0131   51.8459    0.0402    2.3524    0.3287    6.9274    3.0000 
3554.4921 1083.4092 -999.0000    3.5760    8.5927    0.0081    0.0065    0.0137   51.4249    0.0375    2.3372    0.3312    6.8923    3.0000 
3554.9921 1083.5616 -999.0000    3.5760    6.3890    0.0162    0.0138    0.0195   51.4738    0.0334    2.3688    0.3293    6.9547    3.0000 
3555.4921 1083.7140 -999.0000    3.5988    7.6117    0.0064    0.0051    0.0125   51.0910    0.0291    2.3339    0.3284    6.8564    3.0000 
3555.9921 1083.8665 -999.0000    3.5760    9.1169    0.0069    0.0055    0.0133   50.8990    0.0326    2.3431    0.3213    6.8426    3.0000 
3556.4921 1084.0188 -999.0000    3.5760    9.6088    0.0077    0.0061    0.0139   51.3114    0.0325    2.3625    0.3220    7.2623    3.0000 
3556.9921 1084.1711 -999.0000    3.5760   10.0995    0.0112    0.0093    0.0160   51.2515    0.0315    2.3587    0.3237    7.0688    3.0000 
3557.4921 1084.3236 -999.0000    3.5760    9.8212    0.0149    0.0126    0.0180   51.2863    0.0299    2.3487    0.3257    7.0467    3.0000 
3557.9921 1084.4760 -999.0000    3.5760   10.0671    0.0031    0.0020    0.0103   51.6024    0.0276    2.3422    0.3241    7.0648    3.0000 
3558.4921 1084.6284 -999.0000    3.5760    9.5763    0.0032    0.0021    0.0105   51.7256    0.0245    2.3759    0.3213    7.0412    3.0000 
3558.9921 1084.7808 -999.0000    3.5760    8.8402    0.0050    0.0037    0.0123   51.8514    0.0270    2.3667    0.3183    7.1472    3.0000 
3559.4921 1084.9332 -999.0000    3.5760    8.3431    0.0074    0.0057    0.0136   52.2253    0.0264    2.3738    0.3158    7.3168    3.0000 
3559.9921 1085.0856 -999.0000    3.5532    8.0977    0.0086    0.0072    0.0124   52.0353    0.0259    2.3441    0.3137    7.3117    3.0000 
3560.4921 1085.2380 -999.0000    3.5760    7.1211 99999.9974 99999.9974    0.0080   52.4987    0.0229    2.3710    0.3180    7.3992    3.0000 
3560.9921 1085.3904 -999.0000    3.5532    7.3665    0.0085    0.0069    0.0153   52.1357    0.0251    2.3976    0.3210    7.4053    3.0000 
3561.4921 1085.5428 -999.0000    3.5532    5.6488    0.0037    0.0024    0.0108   51.8145    0.0267    2.3677    0.3191    7.3713    3.0000 
3561.9921 1085.6952 -999.0000    3.5760    7.1162    0.0134    0.0113    0.0167   52.1517    0.0267    2.3795    0.3122    7.2482    3.0000 
3562.4921 1085.8477 -999.0000    3.5760    9.0793    0.0052    0.0037    0.0110   51.8956    0.0277    2.3626    0.3064    7.2128    3.0000 
3562.9921 1086.0000 -999.0000    3.5988   10.5516    0.0265    0.0232    0.0235   52.1524    0.0303    2.3771    0.3053    7.2652    3.0000 
3563.4921 1086.1523 -999.0000    3.5760   11.7879 99999.9974 99999.9974    0.0059   52.0053    0.0324    2.3552    0.3057    7.3476    3.0000 
3563.9921 1086.3048 -999.0000    3.5988    9.0887    0.0013    0.0004    0.0082   51.5745    0.0319    2.3414    0.3045    7.2193    3.0000 
3564.4921 1086.4572 -999.0000    3.5760    9.8322    0.0109    0.0093    0.0139   52.1990    0.0297    2.3482    0.3036    7.1852    3.0000 
3564.9921 1086.6096 -999.0000    3.5760    7.8597 99999.9974 99999.9974    0.0060   51.6866    0.0347    2.3175    0.2982    7.1003    3.0000 
3565.4921 1086.7620 -999.0000    3.5760   10.4674    0.0023    0.0011    0.0073   51.9132    0.0359    2.2938    0.2920    7.1329    3.0000 
3565.9921 1086.9144 -999.0000    3.5760   10.4674    0.0052    0.0039    0.0107   52.2068    0.0419    2.3033    0.2843    7.0557    3.0000 
3566.4921 1087.0668 -999.0000    3.5760   10.7127    0.0077    0.0061    0.0123   51.8510    0.0405    2.3132    0.2810    6.8682    3.0000 
3566.9921 1087.2192 -999.0000    3.5760    9.5847    0.0086    0.0069    0.0126   52.1644    0.0428    2.3158    0.2809    6.7998    3.0000 
3567.4921 1087.3716 -999.0000    3.5760   10.3135    0.0071    0.0056    0.0117   52.0278    0.0419    2.2887    0.2884    6.7883    3.0000 
3567.9921 1087.5240 -999.0000    3.5760   12.0312    0.0056    0.0042    0.0107   51.9901    0.0434    2.3082    0.2944    6.9726    3.0000 
3568.4921 1087.6764 -999.0000    3.5760   12.5146    0.0106    0.0088    0.0154   52.0195    0.0415    2.3068    0.2963    7.0245    3.0000 
3568.9921 1087.8289 -999.0000    3.5760   12.7600    0.0208    0.0178    0.0229   51.9063    0.0456    2.2684    0.2886    6.9158    3.0000 
3569.4921 1087.9812 -999.0000    3.5988   11.2877    0.0083    0.0067    0.0132   51.6184    0.0461    2.2340    0.2771    6.8734    3.0000 
3569.9921 1088.1335 -999.0000    3.5760   12.2692    0.0060    0.0045    0.0115   51.4814    0.0613    2.2474    0.2715    7.0562    3.0000 
3570.4921 1088.2860 -999.0000    3.5760   11.2951    0.0088    0.0070    0.0132   51.2116    0.0654    2.2185    0.2707    7.1427    3.0000 
3570.9921 1088.4384 -999.0000    3.5760   12.3598    0.0058    0.0044    0.0110   50.7776    0.0823    2.2166    0.2730    7.1797    3.0000 
3571.4921 1088.5908 -999.0000    3.5760    9.9060    0.0077    0.0061    0.0122   50.6070    0.0810    2.2122    0.2650    7.4321    3.0000 
3571.9921 1088.7432 -999.0000    3.5532   11.1255    0.0081    0.0064    0.0128   50.6680    0.1012    2.1874    0.2547    7.1348    3.0000 
3572.4921 1088.8956 -999.0000    3.5760   12.0239    0.0088    0.0071    0.0134   50.7457    0.1022    2.1628    0.2422    7.1086    3.0000 
3572.9921 1089.0480 -999.0000    3.5532   13.7505    0.0089    0.0072    0.0136   50.9416    0.1232    2.1521    0.2355    7.3452    3.0000 
3573.4921 1089.2004 -999.0000    3.5988   13.5051    0.0066    0.0052    0.0120   50.8926    0.1273    2.1536    0.2314    7.1669    3.0000 
3573.9921 1089.3528 -999.0000    3.5760   13.2697    0.0079    0.0063    0.0136   50.9538    0.1558    2.1477    0.2298    7.1762    3.0000 
3574.4921 1089.5052 -999.0000    3.5760   15.2238    0.0083    0.0066    0.0136   50.9069    0.1892    2.1191    0.2258    7.1762    3.0000 
3574.9921 1089.6576 -999.0000    3.5760   14.8063    0.0073    0.0058    0.0126   50.8650    0.2238    2.0996    0.2216    7.1336    3.0000 
