~VERSION INFORMATION
 VERS.                 2.0:   CWLS LOG ASCII STANDARD - VERSION 2.0
 WRAP.                  NO:   SINGLE LINE PER DEPTH STEP
 CREA.                 06/11/2018 17:04:42
#CREATED USING DSPetro VERSION 5000.10.1.3 BY H191660 ON 06/11/2018 17:04:42
~WELL INFORMATION
#MNEM.UNIT       DATA                          DESCRIPTION MNEMONIC
#---------      ---------------------------   --------------------------
 STRT    .FT        297.9921                  : START DEPTH
 STOP    .FT        12485.9921                : STOP DEPTH
 STEP    .FT        0.5000                    : STEP VALUE
 NULL    .      -999.0000                     : NULL VALUE
 DATE    .      06/11/2018                    : LAS file Creation Date
 WELL  .      UNIVERSITY_20-27           : Well Name
 COMP  .      Chesapeake Operating, Inc. : Company
 FLD   .      Haley                      : Field
 STATE .      Texas                      : State
 COUNT .      USA                        : Country
 API   .      42-495-33261               : API Number
 UWI   .      508                        : Unique Well Identifier (UWI)
 LOC   .      1320' FSL & 1320' FEL      : Location
 TOWN  .      20                         : Township
 SCT   .      27                         : Section
 RANG  .      University Lands           : Range
 PDAT  .      Ground Level               : Permanent Datum
 EPDAT .      2777.000000                : Reference Elevation
 LGMEA .      Kelly Bushing              : Log Measured from
 DRMEA .      Kelly Bushing              : Drill Measured From
 APDAT .      25.000000                  : Elevation Above Permanent Datum
 KB    .      2802.00000                 : KB Elevation
 GL    .      2777.00000                 : GL Elevation
 RWS   .      -999                       : Def_Rw
 WST   .      -999                       : Def_Rwt
 CNTY  .      Winkler                    : County
 SRVC  .      Schlumberger               : Contractor
~CURVE INFORMATION
#MNEM              UNIT       API CODE   Curve Type Comments
#----------  --------------- ----------  ---------- -----------
 DEPTH      .FT                        : Depth       
 DEPTH_(m)  .                          :             
 BS         .inch                      : BitSize     
 CAL_INCH   .inch                      :             Caliper Log - A representation of the measured diameter of a borehole along its depth
 GR         .GAPI                      : GammaRay    Gamma-Ray {F11.4}
 SRES       .ohmm                      :             20" array induction, one foot resistivity
 MRES       .ohm.m                     :             30" array induction, one foot resistivity
 DRES       .ohmm                      :             90" array induction, one foot resistivity log - units of ohmm
 DT_US_FT   .us/ft                     :             Interval Transit Time: Compressional Wave - Evaluates the time it takes for a compressional wave to traverse a fixed distance
 NPHI_v/v   .ratio                     :             Neutron Porosity - Measured with an neutron logging device calibrated to a given matrix (limestone, sandstone and dolomite)
 RHOB_G_CC  .g/cc                      :             Bulk Density - Measures the density of bulk material, including any void space or other materials contained in the subject volume
 HDRA       .G/C3                      : Drho        HRDD Density Correction {F11.4}
 PEF_B_E    .b/e-                      : PEF         Photoelectric Factor - A log of photoelectric absorption properties. Often expressed in an approximation unit barns/electron (b/e-)
 LITH       .                          : LITH        Lithology Curve
~A  DEPTH DEPTH_(m~     BS     CAL_INCH     GR       SRES      MRES      DRES    DT_US_FT  NPHI_v/v RHOB_G_C~    HDRA    PEF_B_E     LITH   
# ...
10842.4921 3304.7915   12.2500   12.3316   29.7289   16.6675   65.6929 4322.9741   55.8870    0.0058    2.6182    0.0011    4.2869   18.0000 
10842.9921 3304.9441   12.2500   12.3316   27.5297   16.5330   65.4074 4518.9141   55.2504    0.0053    2.6243    0.0008    4.2716   18.0000 
10843.4921 3305.0964   12.2500   12.3430   27.9830   16.4302   64.6106 4538.4608   54.8885    0.0059    2.6345    0.0004    4.0203   18.0000 
10843.9921 3305.2488   12.2500   12.3202   26.7642   16.6740   66.0299 3238.5731   56.2402    0.0072    2.6143    0.0005    4.0601   18.0000 
10844.4921 3305.4011   12.2500   12.3316   27.2458   16.5180   64.8531 4425.3398   55.7555    0.0103    2.6045    0.0016    4.1075   18.0000 
10844.9921 3305.5537   12.2500   12.3088   25.2827   16.2387   64.4036 4025.6189   56.4118    0.0085    2.6410    0.0023    4.2383   18.0000 
10845.4921 3305.7061   12.2500   12.3316   27.2479   16.3113   64.6638 4616.1572   56.2977    0.0101    2.6267    0.0098    4.0148   18.0000 
10845.9921 3305.8584   12.2500   12.3316   27.1926   16.3426   64.5433 4669.0459   55.1339    0.0066    2.6564    0.0144    4.3881   18.0000 
10846.4921 3306.0107   12.2500   12.3088   28.1741   16.6995   65.9991 4371.1030   55.2449    0.0081    2.6374    0.0163    4.2755   18.0000 
10846.9921 3306.1631   12.2500   12.3316   28.1741   16.4644   64.6247 3663.9480   55.7096    0.0050    2.6201    0.0106    4.2693   18.0000 
10847.4921 3306.3157   12.2500   12.3202   26.2664   16.2830   63.7422 3243.1641   55.2423    0.0059    2.6177    0.0047    4.3918   18.0000 
10847.9921 3306.4680   12.2500   12.3316   27.2592   16.3445   64.7947 3219.6661   55.7788    0.0044    2.6134    0.0017    4.1192   27.0000 
10848.4921 3306.6204   12.2500   12.3088   27.9851   16.2006   63.4998 3936.9540   55.4212    0.0057    2.6204    0.0005    4.1238   18.0000 
10848.9921 3306.7727   12.2500   12.3088   31.3968   16.0010   63.1614 2985.0220   55.0725    0.0048    2.6202   -0.0012    4.0283   18.0000 
10849.4921 3306.9253   12.2500   12.3316   29.6679   15.6821   62.1446 3170.7419   55.8255    0.0071    2.6224   -0.0008    4.2187   18.0000 
10849.9921 3307.0776   12.2500   12.3088   32.3810   15.7015   62.1218 2878.0301   55.1678    0.0058    2.6063    0.0003    4.2739   27.0000 
10850.4921 3307.2300   12.2500   12.3316   28.9693   15.5581   61.8113 3328.3461   54.8759    0.0065    2.6256    0.0018    4.4286   18.0000 
10850.9921 3307.3823   12.2500   12.3544   32.1721   15.4305   61.8357 5334.2841   55.4377    0.0054    2.6146    0.0017    4.3059   27.0000 
10851.4921 3307.5349   12.2500   12.3430   28.9682   15.5083   61.6010 4043.7819   55.8737    0.0053    2.6258    0.0004    4.7301   18.0000 
10851.9921 3307.6873   12.2500   12.3544   30.4405   15.4472   60.2660 2504.1510   56.1803    0.0059    2.6254    0.0012    4.3713   18.0000 
10852.4921 3307.8396   12.2500   12.3544   26.5102   15.2649   60.3408 3407.0340   57.0679    0.0074    2.6062    0.0033    4.3975   27.0000 
10852.9921 3307.9919   12.2500   12.3316   25.2890   15.0385   59.5775 4044.7628   56.7237    0.0081    2.5954    0.0087    4.3870   27.0000 
10853.4921 3308.1443   12.2500   12.3316   27.0067   14.8714   59.2214 2548.7421   55.5713    0.0081    2.6230    0.0078    4.3032   18.0000 
10853.9921 3308.2969   12.2500   12.3316   26.5154   14.9440   59.0681 4019.8678   55.9757    0.0064    2.6010    0.0038    4.3245   27.0000 
10854.4921 3308.4492   12.2500   12.3316   26.2643   15.0353   59.9593 2585.7352   54.8224    0.0062    2.5784   -0.0004    4.0572   27.0000 
10854.9921 3308.6016   12.2500   12.3430   25.0470   15.0805   59.6664 3706.0090   55.4053    0.0069    2.5610    0.0027    3.8654   27.0000 
10855.4921 3308.7539   12.2500   12.3316   26.7566   15.1385   60.2473 2884.0930   55.3246    0.0079    2.6076    0.0052    3.7324   27.0000 
10855.9921 3308.9065   12.2500   12.3316   24.5481   15.1030   59.6751 3214.6430   55.3286    0.0090    2.5962    0.0066    3.9058   27.0000 
10856.4921 3309.0588   12.2500   12.3544   25.1277   15.0075   58.8950 2682.5200   56.8931    0.0076    2.6176    0.0041    4.2226   18.0000 
10856.9921 3309.2112   12.2500   12.3544   25.6289   15.0747   59.7262 2862.0500   55.8969    0.0067    2.6042    0.0034    4.2928   27.0000 
10857.4921 3309.3635   12.2500   12.3316   26.1197   15.0345   59.5452 2753.9450   56.5974    0.0055    2.6069    0.0000    4.6003   27.0000 
10857.9921 3309.5161   12.2500   12.3544   25.0489   14.7130   58.3149 1612.1441   56.2847    0.0067    2.6299   -0.0033    4.1774   18.0000 
10858.4921 3309.6685   12.2500   12.3544   23.8115   14.7480   58.6067 1797.5830   56.4155    0.0071    2.6139    0.0007    4.1968   18.0000 
10858.9921 3309.8208   12.2500   12.3544   24.5555   14.6859   57.3138 1794.2819   56.7916    0.0066    2.6272    0.0064    4.3937   18.0000 
10859.4921 3309.9731   12.2500   12.3544   21.3563   14.7843   56.0187  722.7326   54.9513    0.0057    2.6204    0.0063    4.2361   18.0000 
10859.9921 3310.1255   12.2500   12.3544   20.2878   14.4785   52.9769  545.9895   57.3218    0.0050    2.6320    0.0009    4.1013   18.0000 
10860.4921 3310.2781   12.2500   12.3544   31.8130   11.9277   39.6266  176.0389   63.3552    0.0112    2.6354   -0.0021    3.9938   18.0000 
10860.9921 3310.4304   12.2500   12.3772   49.2597   12.2631   30.8565   54.0984   65.0062    0.0529    2.5568    0.0003    3.9131   18.0000 
10861.4921 3310.5828   12.2500   12.4000   65.2967   14.3100   47.5537  151.6680   66.3348    0.0664    2.5552    0.0015    3.6172   27.0000 
10861.9921 3310.7351   12.2500   12.4228   59.1757   13.8628   49.3599  301.0745   65.4732    0.0532    2.6315    0.0011    4.1841   18.0000 
10862.4921 3310.8877   12.2500   12.4228   49.5813   14.1075   51.5206  422.4174   58.2793    0.0099    2.6466    0.0025    4.0722   18.0000 
10862.9921 3311.0400   12.2500   12.4228   33.3859   14.3963   53.2952  734.4938   54.9766    0.0028    2.6586    0.0040    4.3929   18.0000 
10863.4921 3311.1924   12.2500   12.4228   29.2065   14.5424   52.0088  674.3058   54.9136    0.0034    2.6748    0.0029    4.5858   18.0000 
10863.9921 3311.3447   12.2500   12.4684   27.2555   12.8401   43.4347  328.8772   59.0954    0.0106    2.6547    0.0044    4.3202   18.0000 
10864.4921 3311.4973   12.2500   12.4912   38.5432   11.8077   34.2877  100.7587   63.4785    0.0544    2.5564    0.0056    4.0281   18.0000 
10864.9921 3311.6497   12.2500   12.6052   49.8464   13.0976   33.9908   80.4680   68.1086    0.0874    2.5504    0.0036    3.6981   22.0000 
10865.4921 3311.8020   12.2500   12.5938   58.6681   12.6058   35.5015   95.6547   71.3478    0.1102    2.5200    0.0016    3.6875   22.0000 
10865.9921 3311.9543   12.2500   12.6280   61.7193   11.5069   32.4576   91.9348   71.4622    0.0938    2.5583    0.0030    3.7292   22.0000 
10866.4921 3312.1067   12.2500   12.6280   67.3100   12.5441   32.3615   69.0154   70.0303    0.1041    2.5498    0.0090    3.6932   22.0000 
10866.9921 3312.2593   12.2500   12.6280   71.6820   11.6710   32.2959   82.9601   70.4124    0.0926    2.5461    0.0101    3.5121   36.0000 
10867.4921 3312.4116   12.2500   12.6052   71.0847   12.4046   31.9812   66.3398   70.6133    0.1028    2.5483    0.0075    3.5809   22.0000 
10867.9921 3312.5640   12.2500   12.7420   68.1960   12.7615   36.2356   99.5582   69.4409    0.0925    2.5360    0.0049    3.5015   36.0000 
10868.4921 3312.7163   12.2500   12.7648   57.9349   12.5229   36.8456  112.1138   69.7120    0.0905    2.5688    0.0049    3.6876   22.0000 
10868.9921 3312.8689   12.2500   12.7762   55.0097   12.9024   35.7600   99.7834   69.7273    0.0911    2.5477    0.0035    3.7063   18.0000 
10869.4921 3313.0212   12.2500   12.8104   53.0225   13.6728   38.4314  112.5376   69.7477    0.0844    2.5282    0.0006    3.6736   27.0000 
10869.9921 3313.1736   12.2500   12.7876   54.9043   13.0209   38.6901  138.7474   69.0447    0.0945    2.5528    0.0004    3.8105   18.0000 
10870.4921 3313.3259   12.2500   12.7420   52.6764   12.6242   37.4009  156.4386   66.6307    0.0815    2.5416   -0.0006    3.3769   36.0000 
