~VERSION INFORMATION
 VERS.                 2.0:   CWLS LOG ASCII STANDARD - VERSION 2.0
 WRAP.                  NO:   SINGLE LINE PER DEPTH STEP
 CREA.                 06/11/2018 17:04:42
#CREATED USING DSPetro VERSION 5000.10.1.3 BY H191660 ON 06/11/2018 17:04:42
~WELL INFORMATION
#MNEM.UNIT       DATA                          DESCRIPTION MNEMONIC
#---------      ---------------------------   --------------------------
 STRT    .FT        297.9921                  : START DEPTH
 STOP    .FT        12485.9921                : STOP DEPTH
 STEP    .FT        0.5000                    : STEP VALUE
 NULL    .      -999.0000                     : NULL VALUE
 DATE    .      06/11/2018                    : LAS file Creation Date
 WELL  .      UNIVERSITY_20-27           : Well Name
 COMP  .      Chesapeake Operating, Inc. : Company
 FLD   .      Haley                      : Field
 STATE .      Texas                      : State
 COUNT .      USA                        : Country
 API   .      42-495-33261               : API Number
 UWI   .      508                        : Unique Well Identifier (UWI)
 LOC   .      1320' FSL & 1320' FEL      : Location
 TOWN  .      20                         : Township
 SCT   .      27                         : Section
 RANG  .      University Lands           : Range
 PDAT  .      Ground Level               : Permanent Datum
 EPDAT .      2777.000000                : Reference Elevation
 LGMEA .      Kelly Bushing              : Log Measured from
 DRMEA .      Kelly Bushing              : Drill Measured From
 APDAT .      25.000000                  : Elevation Above Permanent Datum
 KB    .      2802.00000                 : KB Elevation
 GL    .      2777.00000                 : GL Elevation
 RWS   .      -999                       : Def_Rw
 WST   .      -999                       : Def_Rwt
 CNTY  .      Winkler                    : County
 SRVC  .      Schlumberger               : Contractor
~CURVE INFORMATION
#MNEM              UNIT       API CODE   Curve Type Comments
#----------  --------------- ----------  ---------- -----------
 DEPTH      .FT                        : Depth       
 DEPTH_(m)  .                          :             
 BS         .inch                      : BitSize     
 CAL_INCH   .inch                      :             Caliper Log - A representation of the measured diameter of a borehole along its depth
 GR         .GAPI                      : GammaRay    Gamma-Ray {F11.4}
 SRES       .ohmm                      :             20" array induction, one foot resistivity
 MRES       .ohm.m                     :             30" array induction, one foot resistivity
 DRES       .ohmm                      :             90" array induction, one foot resistivity log - units of ohmm
 DT_US_FT   .us/ft                     :             Interval Transit Time: Compressional Wave - Evaluates the time it takes for a compressional wave to traverse a fixed distance
 NPHI_v/v   .ratio                     :             Neutron Porosity - Measured with an neutron logging device calibrated to a given matrix (limestone, sandstone and dolomite)
 RHOB_G_CC  .g/cc                      :             Bulk Density - Measures the density of bulk material, including any void space or other materials contained in the subject volume
 HDRA       .G/C3                      : Drho        HRDD Density Correction {F11.4}
 PEF_B_E    .b/e-                      : PEF         Photoelectric Factor - A log of photoelectric absorption properties. Often expressed in an approximation unit barns/electron (b/e-)
 LITH       .                          : LITH        Lithology Curve
~A  DEPTH DEPTH_(m~     BS     CAL_INCH     GR       SRES      MRES      DRES    DT_US_FT  NPHI_v/v RHOB_G_C~    HDRA    PEF_B_E     LITH   
# ...
12466.9921 3799.9392   12.2500   12.7648   93.2535    5.7643   12.6039   30.6785   81.8950    0.1566    2.2464   -0.0226    3.2912   11.0000 
12467.4921 3800.0916   12.2500   12.7420   93.2535    5.3570   11.7640   25.1043   84.5478    0.1627    2.2560   -0.0224    3.2270   11.0000 
12467.9921 3800.2439   12.2500   12.7420   93.2535    5.0369   11.7856   26.0151   84.0973    0.1593    2.2286   -0.0212    3.2803   11.0000 
12468.4921 3800.3965   12.2500   12.7648   93.2535    4.6676   10.4294   23.2866   83.9847    0.1530    2.2473   -0.0183    3.1860   11.0000 
12468.9921 3800.5488   12.2500   12.7648   93.2535    4.5489   10.0311   22.8743   85.4655    0.1413    2.2482   -0.0200    3.3050   11.0000 
12469.4921 3800.7012   12.2500   12.7420   93.2535    4.6965   10.2323   23.1948   74.9248    0.1700    2.2630   -0.0236    3.2396   11.0000 
12469.9921 3800.8535   12.2500   12.7420   93.2535    4.6795   10.1633   23.4750   69.5889    0.1645    2.2523   -0.0277    3.1576   11.0000 
12470.4921 3801.0061   12.2500   12.7420   93.2535    4.8989   10.1680   22.0077   74.4704    0.1736    2.2383   -0.0300    3.2027   11.0000 
12470.9921 3801.1584   12.2500   12.7306   93.2535    4.6717    9.0170   16.7158   78.5263    0.1537    2.2504   -0.0260    3.2219   11.0000 
12471.4921 3801.3108   12.2500   12.7420   93.2535    4.2562    8.0329   11.3096   90.1481    0.1622    2.2627   -0.0281    3.1805   11.0000 
12471.9921 3801.4631   12.2500   12.7648   93.2535    4.3289    7.9029   10.4992   95.6181    0.1620    2.2465   -0.0297    3.1840   11.0000 
12472.4921 3801.6155   12.2500   12.7192   93.2535    4.2055    9.0161   12.9071   94.4795    0.1622    2.2510   -0.0249    3.0484   11.0000 
12472.9921 3801.7681   12.2500   12.7420   93.2535    3.9019    8.6635   14.3610   95.6483    0.1619    2.2488   -0.0129    3.0611   11.0000 
12473.4921 3801.9204   12.2500   12.6964   93.2535    3.7319    7.6727   13.8178   96.9506    0.1621    2.2341    0.0094    3.0465   11.0000 
12473.9921 3802.0728   12.2500   11.8528   93.2535    4.2165   11.0480   21.8724   97.8213    0.1654    2.0628    0.0473    2.3729   11.0000 
12474.4921 3802.2251   12.2500   10.4163   93.2535    3.5117   10.2495   30.9584   94.8301    0.1734    2.2546    0.0931    2.7322   11.0000 
12474.9921 3802.3777   12.2500    8.8659   93.2535    2.7431    8.0209   19.1296   84.6764    0.1923    2.3064    0.1304    2.7912   11.0000 
12475.4921 3802.5300   12.2500    7.2014   93.2535    2.5187    7.2007   16.8663   77.7583    0.2107    2.2761    0.1360    2.7301   11.0000 
12475.9921 3802.6824   12.2500    5.4913   93.2535    2.4730    7.2485   16.6698   73.7253    0.2259    2.2788    0.1344    2.7609   11.0000 
12476.4921 3802.8347   12.2500    4.1917   93.2535    2.3703    6.7571   16.1324   80.2881    0.2375    2.0881    0.1583    2.4832   11.0000 
12476.9921 3802.9873   12.2500    3.4392   93.2535    2.3764    7.0796   16.5261   86.9907    0.2443    2.1194    0.2105    2.5627   11.0000 
12477.4921 3803.1396   12.2500    3.4392   93.2535    2.4225    7.5582   19.9011   87.6846    0.2443    2.1895    0.2652    2.6087   11.0000 
12477.9921 3803.2920   12.2500    3.4278   93.2535    2.4472    7.8858   21.5034   88.8917    0.2444    2.2079    0.2927    2.5064   11.0000 
12478.4921 3803.4443   12.2500    3.4392   93.2535    2.5597    7.3962   18.0239   89.8954    0.2443    2.2312    0.3046    2.4831   11.0000 
12478.9921 3803.5967   12.2500    3.4392   93.2535    2.3076    6.7464   16.1465   88.6001    0.2443    2.2247    0.3111    2.5330   11.0000 
12479.4921 3803.7493   12.2500    3.4392   93.2535    2.2805    6.5560   15.2092   86.2857    0.2443    2.2327    0.3142    2.4958   11.0000 
12479.9921 3803.9016   12.2500    3.4392   93.2535    2.8469    8.0492   16.2205   84.5076    0.2443    2.2294    0.3147    2.5287   11.0000 
12480.4921 3804.0540   12.2500    3.4164   93.2535    3.0662   10.5377   21.5800   84.0319    0.2445    2.2216    0.3108    2.4760   11.0000 
12480.9921 3804.2063   12.2500    3.4392   93.2535    3.0953   10.1826   23.0099   83.0094    0.2443    2.2028    0.3041    2.4998   11.0000 
12481.4921 3804.3589   12.2500    3.4278   93.2535    2.9731    9.0955   20.5257   82.3913    0.2444    2.1902    0.2955    2.4788   11.0000 
12481.9921 3804.5112   12.2500    3.4392   93.2535    3.2346    9.3585   19.2604   84.7375    0.2443    2.1950    0.2911    2.5213   11.0000 
12482.4921 3804.6636   12.2500    3.4392   93.2535    3.5236    9.7432   19.0970   88.5811    0.2443    2.1817    0.2866    2.4626   11.0000 
12482.9921 3804.8159   12.2500    3.4164   93.2535    3.7257   10.0286   19.0335   91.5449    0.2445    2.1715    0.2741    2.5326   11.0000 
12483.4921 3804.9685   12.2500    3.4278   93.2535    3.7995   10.0940   19.0629   89.9229    0.2444    2.1533    0.2511    2.5795   11.0000 
12483.9921 3805.1208   12.2500    3.4164   93.2535    3.9309   10.2416   18.9189   85.6747    0.2445    2.0964    0.2250    2.6211   11.0000 
12484.4921 3805.2732   12.2500    3.4164   93.2535    4.0677   10.3282   18.8655   86.4283    0.2445    2.0857    0.2060    2.6194   11.0000 
12484.9921 3805.4255   12.2500    3.4164   93.2535    4.2292   10.4590   18.7689   87.4876    0.2445    2.0938    0.1980    2.6463   11.0000 
12485.4921 3805.5779   12.2500    3.4164   93.2535    4.2364   10.4140   18.7026   85.3804    0.2445    2.0975    0.1963    2.6553   11.0000 
12485.9921 3805.7305   12.2500    3.4164   93.2535    4.3480   10.4803   18.7048   83.8004    0.2445    2.0984    0.1963    2.6583   11.0000 
