~VERSION INFORMATION
 VERS.                 2.0:   CWLS LOG ASCII STANDARD - VERSION 2.0
 WRAP.                  NO:   SINGLE LINE PER DEPTH STEP
 CREA.                 05/01/2018 17:11:51
#CREATED USING DSPetro VERSION 5000.10.1.3 BY H191660 ON 05/01/2018 17:11:51
~WELL INFORMATION
#MNEM.UNIT       DATA                          DESCRIPTION MNEMONIC
#---------      ---------------------------   --------------------------
 STRT    .M         1527.0480                 : START DEPTH
 STOP    .M         2383.2312                 : STOP DEPTH
 STEP    .M         0.3048                    : STEP VALUE
 NULL    .      -999.0000                     : NULL VALUE
 DATE    .      05/01/2018                    : LAS file Creation Date
 WELL .      KALIUM_HERSEY_2081          : Well Name
 COMP .      Neftex Exploration Insights : Company
 FLD  .                                  : Field
 UWI  .      DUSWL_K_2081                : Unique Well Identifier (UWI)
 LOC  .                                  : Location
 RWS  .      -999                        : Def_Rw
 WST  .      -999                        : Def_Rwt
 SRVC .                                  : Contractor
~CURVE INFORMATION
#MNEM              UNIT       API CODE   Curve Type Comments
#----------  --------------- ----------  ---------- -----------
 DEPTH      .M                         : Depth       
 GR_API     .API                       : GammaRay    Gamma Ray (API) - Measures the intensity of natural gamma-ray radiation emitted from formations containing radioactive elements, such as K, Th and U
 DT_US_FT   .us/ft                     :             Interval Transit Time: Compressional Wave - Evaluates the time it takes for a compressional wave to traverse a fixed distance
 DTS_US_FT  .us/ft                     :             Interval Transit Time: Shear Wave - Evaluates the time it takes for a shear wave to traverse a fixed distance
 RHOZ_G_CC  .g/cc                      :             Formation Density - Measures the density of formation, including any void space or other materials contained in the subject volume
 NPHI_v/v   .dec                       : Neutron     
 PEF_B_E    .b/e-                      : PEF         Photoelectric Factor - A log of photoelectric absorption properties. Often expressed in an approximation unit barns/electron (b/e-)
 LITH       .                          :             
~A  DEPTH   GR_API   DT_US_FT DTS_US_F~ RHOZ_G_C~  NPHI_v/v  PEF_B_E     LITH   
# ...
1557.2232   35.6100   47.7020   91.0810 -999.0000    0.0971 -999.0000 -999.0000 
1557.5280   34.4330   48.0480   93.4140 -999.0000    0.1142 -999.0000 -999.0000 
1557.8328   34.5330   48.2380   94.2830 -999.0000    0.1449 -999.0000 -999.0000 
1558.1376   35.9570   48.4220   95.1350 -999.0000    0.1565 -999.0000 -999.0000 
1558.4424   35.0790   48.7890   93.7530 -999.0000    0.1480 -999.0000 -999.0000 
1558.7472   35.3510   48.4120   92.6750 -999.0000    0.1612 -999.0000 -999.0000 
1559.0520   35.7510   48.1770   93.5430 -999.0000    0.1703 -999.0000 -999.0000 
1559.3568   36.4550   48.2220   93.5910 -999.0000    0.1564 -999.0000 -999.0000 
1559.6616   36.0600   48.1240   90.9860 -999.0000    0.1465 -999.0000 -999.0000 
1559.9664   37.0670   47.9070   89.6270 -999.0000    0.1410 -999.0000 -999.0000 
1560.2712   36.3080   48.9790   89.8090 -999.0000    0.1480 -999.0000 -999.0000 
1560.5760   35.8590   48.4020   89.4130 -999.0000    0.1469 -999.0000 -999.0000 
1560.8808   39.5810   50.5370   91.3240 -999.0000    0.1818 -999.0000 -999.0000 
1561.1856   41.9700   50.4840   92.6170 -999.0000    0.1703 -999.0000 -999.0000 
1561.4904   40.7400   51.8510   91.9400 -999.0000    0.1633 -999.0000 -999.0000 
1561.7952   37.6430   51.4970   93.9930 -999.0000    0.1444 -999.0000 -999.0000 
1562.1000   42.9210   50.9160   95.8890 -999.0000    0.1530    8.2490 -999.0000 
1562.4048   39.8250   54.8990   99.7070    2.5480    0.1584    4.9130 -999.0000 
1562.7096   36.2970   56.5940  101.0560    2.7280    0.0776    3.8780 -999.0000 
1563.0144   32.4120   55.5120   98.9320    2.7460    0.0832    3.6800 -999.0000 
1563.3192   32.6840   55.8410   98.3570    2.6630    0.0982    3.5670 -999.0000 
1563.6240   32.1710   55.7430   98.4620    2.6890    0.0968    3.5700 -999.0000 
1563.9288   31.4780   57.4750  101.3400    2.6350    0.1237    3.1860 -999.0000 
1564.2336   33.9290   59.1050  105.0990    2.5880    0.1294    2.8610 -999.0000 
1564.5384   34.3280   61.4570  106.5070    2.5730    0.1234    2.8000 -999.0000 
1564.8432   32.0690   60.4600  107.1980    2.5890    0.1363    2.9830 -999.0000 
1565.1480   33.3080   61.6890  107.9260    2.5780    0.1524    3.0140 -999.0000 
1565.4528   32.9760   59.4290  105.2980    2.5900    0.1369    3.0310 -999.0000 
1565.7576   30.5390   57.4080  100.8080    2.6630    0.0991    3.2750 -999.0000 
1566.0624   32.0160   55.7250   97.6790    2.6800    0.0846    3.4750 -999.0000 
1566.3672   33.3750   55.2890   97.4460    2.6750    0.0842    3.4340 -999.0000 
1566.6720   34.3220   55.4720   97.9680    2.6780    0.0900    3.3950 -999.0000 
1566.9768   34.2890   56.5020  101.0610    2.6790    0.0724    3.5000 -999.0000 
1567.2816   31.6130   58.0930  101.5910    2.6770    0.0632    3.5710 -999.0000 
1567.5864   26.4020   57.6180  101.3970    2.6630    0.0952    3.4620 -999.0000 
1567.8912   28.7220   56.8570  102.1270    2.6350    0.0788    3.2830 -999.0000 
1568.1960   34.3070   56.4210   99.3220    2.6780    0.0551    3.2340 -999.0000 
1568.5008   41.0460   55.6240   95.7130    2.6810    0.0510    3.0670 -999.0000 
1568.8056   42.7040   53.4800   91.6820    2.6720    0.0455    2.9170 -999.0000 
1569.1104   42.4370   52.6210   91.4040    2.6920    0.0406    3.2410 -999.0000 
1569.4152   38.6700   54.5940   94.5570    2.6890    0.0715    3.4610 -999.0000 
1569.7200   34.2950   56.0490   99.5090    2.6590    0.0943    3.2130 -999.0000 
1570.0248   32.9460   57.8600  102.9470    2.6280    0.1242    2.8540 -999.0000 
1570.3296   34.7240   57.6430  102.5710    2.6430    0.0945    2.8810 -999.0000 
1570.6344   34.6920   56.9460   99.7020    2.6720    0.0684    2.9820 -999.0000 
1570.9392   38.7830   55.5640   95.6910    2.6960    0.0537    3.0720 -999.0000 
1571.2440   38.5230   54.9490   95.3120    2.6700    0.0853    2.8860 -999.0000 
1571.5488   35.1170   55.8580   98.7120    2.6380    0.0965    2.7590 -999.0000 
1571.8536   33.5780   56.4040  100.8660    2.6420    0.1169    2.8300 -999.0000 
1572.1584   32.2850   57.0520  102.7800    2.6300    0.1375    2.7870 -999.0000 
1572.4632   33.0470   58.1440  106.9020    2.6050    0.1609    2.8200 -999.0000 
1572.7680   35.9790   59.2920  107.4510    2.6300    0.1413    2.9040 -999.0000 
1573.0728   35.4660   57.6230  101.9530    2.6750    0.1217    2.9050 -999.0000 
1573.3776   33.2070   57.9930   98.2600    2.6490    0.1113    2.8200 -999.0000 
1573.6824   32.9420   57.2360   99.3310    2.6300    0.1109    2.7770 -999.0000 
1573.9872   35.0820   57.3430   98.1700    2.6570    0.1269    2.9180 -999.0000 
1574.2920   36.3230   57.2500  101.0700    2.6340    0.1683    2.8710 -999.0000 
1574.5968   32.7440   57.4130  104.6280    2.5940    0.1608    2.7640 -999.0000 
1574.9016   33.2040   60.1870  104.6740    2.6240    0.1528    2.8640 -999.0000 
1575.2064   37.2710   59.7100  106.4650    2.6310    0.1596    2.9090 -999.0000 
1575.5112   35.1930   59.1940  107.4770    2.6070    0.1390    2.8900 -999.0000 
1575.8160   33.3000   60.3850  107.0400    2.6030    0.1220    2.7830 -999.0000 
1576.1208   30.3200   61.0140  105.8600    2.6240    0.1281    2.8300 -999.0000 
1576.4256   29.4470   60.9020  103.7340    2.6470    0.1519    2.8950 -999.0000 
1576.7304   31.7120   61.6890  106.0520    2.6070    0.1391    2.7720 -999.0000 
1577.0352   35.7930   60.6640  103.6630    2.6290    0.1235    2.6480 -999.0000 
1577.3400   36.3630   56.7740   98.6270    2.6680    0.1125    2.7520 -999.0000 
1577.6448   31.4510   55.6530   96.9230    2.6640    0.0953    2.7650 -999.0000 
1577.9496   32.5680   55.6790   95.9060    2.6920    0.0909    2.6700 -999.0000 
1578.2544   37.6740   54.4230   94.3440    2.6660    0.0998    2.7270 -999.0000 
1578.5592   38.6130   54.3300   95.7370    2.6800    0.1172    2.9530 -999.0000 
1578.8640   33.8220   56.2590   98.0930    2.6630    0.1296    3.0180 -999.0000 
1579.1688   37.3010   59.6180  106.4920    2.6130    0.1523    2.8390 -999.0000 
1579.4736   35.1030   61.3700  108.7890    2.5980    0.1624    2.7940 -999.0000 
1579.7784   37.1970   62.3410  110.8810    2.6020    0.1777    2.8070 -999.0000 
1580.0832   37.7690   60.8770  108.2160    2.6100    0.1680    2.8260 -999.0000 
1580.3880   34.4780   60.8020  104.3610    2.6030    0.1592    2.8010 -999.0000 
1580.6928   32.3340   61.4110  104.2870    2.6020    0.1807    2.7160 -999.0000 
1580.9976   30.5000   61.4580  104.3940    2.5790    0.1682    2.6150 -999.0000 
1581.3024   28.8450   61.8840  105.8050    2.5810    0.1566    2.4910 -999.0000 
1581.6072   27.9740   61.4620  107.0980    2.5600    0.1686    2.4320 -999.0000 
1581.9120   29.6970   61.7330  108.5510    2.5900    0.1728    2.6220 -999.0000 
1582.2168   32.2100   62.7420  109.5000    2.5920    0.1541    2.5950 -999.0000 
1582.5216   33.5190   63.1110  108.6600    2.5350    0.1426    2.4860 -999.0000 
1582.8264   35.9060   61.2230  109.1280    2.5600    0.1267    2.3530 -999.0000 
1583.1312   39.6750   59.5220  102.3000    2.5900    0.1070    2.3480 -999.0000 
1583.4360   43.3200   57.7390   96.4800    2.5880    0.0783    2.4150 -999.0000 
1583.7408   42.8330   56.8000   94.1590    2.6180    0.0856    2.5290 -999.0000 
1584.0456   42.9840   55.9240   92.5190    2.6440    0.1121    2.6400 -999.0000 
1584.3504   46.3830   54.7640   93.6860    2.6610    0.1017    2.7650 -999.0000 
1584.6552   48.3530   55.0110   95.6610    2.6710    0.1053    2.8910 -999.0000 
1584.9600   48.2610   56.1010   96.3710    2.6570    0.1101    2.9820 -999.0000 
1585.2648   45.0950   57.1480   96.8550    2.6670    0.1271    2.9330 -999.0000 
1585.5696   45.7380   56.9950   97.8460    2.6650    0.1161    2.9020 -999.0000 
1585.8744   47.5850   56.8950   99.2310    2.6730    0.0995    2.9490 -999.0000 
1586.1792   52.3850   54.7950   96.7090    2.6980    0.0859    3.1870 -999.0000 
1586.4840   52.6010   52.3710   94.7690    2.7560    0.0851    3.4090 -999.0000 
1586.7888   50.9450   51.3710   93.1260    2.7630    0.0750    3.3300 -999.0000 
1587.0936   52.3700   51.3390   91.1000    2.7700    0.0745    3.3410 -999.0000 
