~VERSION INFORMATION
 VERS.                 2.0:   CWLS LOG ASCII STANDARD - VERSION 2.0
 WRAP.                  NO:   SINGLE LINE PER DEPTH STEP
 CREA.                 05/01/2018 17:11:51
#CREATED USING DSPetro VERSION 5000.10.1.3 BY H191660 ON 05/01/2018 17:11:51
~WELL INFORMATION
#MNEM.UNIT       DATA                          DESCRIPTION MNEMONIC
#---------      ---------------------------   --------------------------
 STRT    .M         1527.0480                 : START DEPTH
 STOP    .M         2383.2312                 : STOP DEPTH
 STEP    .M         0.3048                    : STEP VALUE
 NULL    .      -999.0000                     : NULL VALUE
 DATE    .      05/01/2018                    : LAS file Creation Date
 WELL .      KALIUM_HERSEY_2081          : Well Name
 COMP .      Neftex Exploration Insights : Company
 FLD  .                                  : Field
 UWI  .      DUSWL_K_2081                : Unique Well Identifier (UWI)
 LOC  .                                  : Location
 RWS  .      -999                        : Def_Rw
 WST  .      -999                        : Def_Rwt
 SRVC .                                  : Contractor
~CURVE INFORMATION
#MNEM              UNIT       API CODE   Curve Type Comments
#----------  --------------- ----------  ---------- -----------
 DEPTH      .M                         : Depth       
 GR_API     .API                       : GammaRay    Gamma Ray (API) - Measures the intensity of natural gamma-ray radiation emitted from formations containing radioactive elements, such as K, Th and U
 DT_US_FT   .us/ft                     :             Interval Transit Time: Compressional Wave - Evaluates the time it takes for a compressional wave to traverse a fixed distance
 DTS_US_FT  .us/ft                     :             Interval Transit Time: Shear Wave - Evaluates the time it takes for a shear wave to traverse a fixed distance
 RHOZ_G_CC  .g/cc                      :             Formation Density - Measures the density of formation, including any void space or other materials contained in the subject volume
 NPHI_v/v   .dec                       : Neutron     
 PEF_B_E    .b/e-                      : PEF         Photoelectric Factor - A log of photoelectric absorption properties. Often expressed in an approximation unit barns/electron (b/e-)
 LITH       .                          :             
~A  DEPTH   GR_API   DT_US_FT DTS_US_F~ RHOZ_G_C~  NPHI_v/v  PEF_B_E     LITH   
# ...
1708.0992   27.7040   49.7590   98.8960    2.9870    0.0042    5.9060    1.0000 
1708.4040   29.2250   50.5230   96.5710    2.9840    0.0080    5.5320    1.0000 
1708.7088   29.3550   50.4880   91.8510    2.9720    0.0068    4.8800    1.0000 
1709.0136   39.6260   47.9360   86.7780    2.9120    0.0130    3.7090   12.0000 
1709.3184   50.0750   46.4520   83.4660    2.8830    0.0298    3.3160   12.0000 
1709.6232   50.8110   46.0470   82.8640    2.8890    0.0290    3.3750   12.0000 
1709.9280   50.0360   45.0810   82.7810    2.8750    0.0253    3.4790   12.0000 
1710.2328   47.1510   44.3990   83.6580    2.8900    0.0248    3.4240   12.0000 
1710.5376   44.6880   44.8820   84.7840    2.8870    0.0282    3.5990   12.0000 
1710.8424   46.4490   46.1850   86.4700    2.8860    0.0340    3.6250   12.0000 
1711.1472   41.6330   47.0700   87.4350    2.8730    0.0407    3.2900   12.0000 
1711.4520   38.3240   46.9450   88.7200    2.8870    0.0352    3.1800   12.0000 
1711.7568   42.0750   44.8160   84.1240    2.8850    0.0349    3.3070   12.0000 
1712.0616   45.7110   45.5200   84.8230    2.8650    0.0420    3.1260   12.0000 
1712.3664   45.5400   44.7460   85.6020    2.8530    0.0351    3.2670   12.0000 
1712.6712   44.6450   45.5920   85.8810    2.8780    0.0344    4.5470    1.0000 
1712.9760   41.5170   47.5430   89.6120    2.9050    0.0578    5.6260    1.0000 
1713.2808   44.3660   51.0280   97.1410    2.9460    0.0746    4.8910    1.0000 
1713.5856   43.6520   52.1590  100.0060    2.9150    0.0631    4.1150    1.0000 
1713.8904   35.7560   52.4040  102.5340    2.9020    0.0503    4.4060    1.0000 
1714.1952   31.3010   51.8140  101.7090    2.9610    0.0508    4.7880    1.0000 
1714.5000   33.3020   51.4510   99.8030    2.9940    0.0277    5.2020    1.0000 
1714.8048   35.0610   50.7850   98.2190    3.0520    0.0158    5.5680    1.0000 
1715.1096   34.5900   50.4460   97.3180    3.0080    0.0183    5.4380    1.0000 
1715.4144   28.9880   50.1040   96.0290    2.9700    0.0127    5.4620    1.0000 
1715.7192   23.6270   48.1340   95.8290    2.9880    0.0050    5.5390    1.0000 
1716.0240   25.2090   47.2730   95.7450    2.9880    0.0036    5.3160    1.0000 
1716.3288   27.0330   46.0080   94.8830    2.9910    0.0047    5.1320    1.0000 
1716.6336   26.7990   46.9100   93.1340    2.9880    0.0013    5.4220    1.0000 
1716.9384   29.7060   46.8090   90.4280    2.9950    0.0042    5.1670    1.0000 
1717.2432   34.7850   45.3020   85.9760    2.9640    0.0149    4.5120    1.0000 
1717.5480   38.6610   43.5960   81.3980    2.8940    0.0428    3.3340   12.0000 
1717.8528   39.7580   42.1100   79.8100    2.8850    0.0305    2.9810   12.0000 
1718.1576   41.3390   41.4870   79.5090    2.8780    0.0333    3.0290   12.0000 
1718.4624   42.1920   41.4300   80.0240    2.8900    0.0306    2.9590   12.0000 
1718.7672   41.5380   40.5450   80.1020    2.8950    0.0247    2.9900   12.0000 
1719.0720   42.5150   41.2050   80.1000    2.8870    0.0279    3.0400   12.0000 
1719.3768   41.1980   43.2090   79.8820    2.8730    0.0376    3.0790   12.0000 
1719.6816   41.8730   43.9310   79.3810    2.8750    0.0411    3.1370   12.0000 
1719.9864   36.1550   44.8910   78.4930    2.8820    0.0464    3.1620   12.0000 
1720.2912   36.9500   44.8880   79.2600    2.8890    0.0486    3.1160   12.0000 
1720.5960   43.4750   45.0100   80.3190    2.8690    0.0421    3.3590   12.0000 
1720.9008   45.4800   44.8890   79.9380    2.8890    0.0333    3.8960   12.0000 
1721.2056   36.9230   44.9840   79.8740    2.9080    0.0297    4.5930   12.0000 
1721.5104   34.5750   45.8660   81.4010    2.8910    0.0284    4.7360   12.0000 
1721.8152   33.6210   45.7900   84.2740    2.8600    0.0297    4.0340   12.0000 
1722.1200   33.1470   46.1680   83.9330    2.8250    0.0296    3.2770   12.0000 
1722.4248   30.3830   45.0830   84.4490    2.8360    0.0316    3.0260   12.0000 
1722.7296   28.9460   45.2010   85.1290    2.8510    0.0402    3.1070   12.0000 
1723.0344   36.4400   44.5210   84.7070    2.8660    0.0393    3.2360   12.0000 
1723.3392   45.7470   44.5420   84.8820    2.9040    0.0325    3.7780   12.0000 
1723.6440   42.5600   45.2440   85.1610    2.9730    0.0231    5.5600    1.0000 
1723.9488   46.7960   45.1630   85.8700    2.9960    0.0150    5.4680    1.0000 
1724.2536   44.6330   46.6230   89.5590    2.9440    0.0097    4.4640    1.0000 
1724.5584   38.8460   48.2690   94.9040    2.9860    0.0100    5.0330    1.0000 
1724.8632   36.0210   50.1170   98.3040    2.9750    0.0133    5.1240    1.0000 
1725.1680   37.3010   51.7220  100.1920    2.9580    0.0132    4.9500    1.0000 
1725.4728   37.0100   54.0660  101.9400    2.9400    0.0241    5.0480    1.0000 
1725.7776   37.1970   52.1980  100.6080    2.9390    0.0125    5.2130    1.0000 
1726.0824   32.8050   51.1350   98.9070    2.9700    0.0059    5.1920    1.0000 
1726.3872   37.2860   51.0180   98.2410    2.9440    0.0147    5.0430    1.0000 
1726.6920   35.2430   51.3350   97.4010    2.9650    0.0095    5.3070    1.0000 
1726.9968   32.7180   51.0350   95.9110    2.9760    0.0044    5.3740    1.0000 
1727.3016   30.4970   51.2300   95.7680    2.9860    0.0027    5.3920    1.0000 
1727.6064   28.7570   51.1740   96.2130    3.0090    0.0031    5.7400    1.0000 
1727.9112   28.0430   97.3580   97.6960    3.0100    0.0068    6.3150    1.0000 
1728.2160   28.5980   49.8440   97.6770    3.0010    0.0026    5.8650    1.0000 
1728.5208   27.4620   48.6410   96.4340    2.9850   -0.0019    5.2510    1.0000 
1728.8256   25.3590   47.0090   95.2480    3.0260   -0.0055    5.4040    1.0000 
1729.1304   22.5360   47.3700   95.0650    3.0250   -0.0058    5.2130    1.0000 
1729.4352   24.3570   48.4790   94.8610    3.0250   -0.0039    5.3160    1.0000 
1729.7400   27.5640   49.6570   95.1590    2.9960    0.0053    5.4630    1.0000 
1730.0448   32.1020   50.4990   95.7820    2.9780    0.0175    5.1260    1.0000 
1730.3496   35.9750   51.3650   97.1020    2.9530    0.0236    4.7030    1.0000 
1730.6544   38.3990   51.6870   97.7130    2.9240    0.0320    4.9640    1.0000 
1730.9592   37.8080   51.7290   98.4740    2.9180    0.0475    5.1870    1.0000 
1731.2640   32.8110   51.3200   96.9060    2.9200    0.0308    4.8980    1.0000 
1731.5688   34.3890   51.1420   95.2780    2.9360    0.0176    4.5980    1.0000 
1731.8736   33.6120   51.2980   96.4220    2.9260    0.0263    4.6360    1.0000 
1732.1784   39.7820   52.4020   98.0720    2.8930    0.0453    4.4240    1.0000 
1732.4832   45.3470   52.7410   99.9760    2.8930    0.0457    4.3130    1.0000 
1732.7880   46.0820   52.9790   98.6250    2.9160    0.0398    4.5310    1.0000 
1733.0928   41.7470   52.0380   96.5780    2.9240    0.0315    4.6960    1.0000 
1733.3976   38.3760   51.5330   94.8670    2.9090    0.0249    4.6540    1.0000 
1733.7024   41.7680   51.2960   94.8250    2.9180    0.0320    4.7430    1.0000 
1734.0072   44.3130   51.8960   96.7730    2.9280    0.0394    4.8330    1.0000 
1734.3120   47.4000   51.8130   97.0510    2.9310    0.0361    4.7210    1.0000 
1734.6168   56.1630   55.2800  101.1250    2.9090    0.0790    4.5650    1.0000 
1734.9216   64.8650   57.0070  107.6270    2.8460    0.1332    4.4210   22.0000 
1735.2264   74.9550   59.4310  109.3090    2.7890    0.1316    3.6300   22.0000 
1735.5312   74.6040   60.1150  108.3860    2.7570    0.1421    3.3010   22.0000 
1735.8360   73.0460   60.0540  107.8240    2.7330    0.1393    3.4340   22.0000 
1736.1408   72.0290   58.8130  105.6340    2.7380    0.1285    3.5440   22.0000 
1736.4456   65.5200   56.5870  101.4410    2.7810    0.1110    3.5710   22.0000 
1736.7504   67.9460   55.9470  102.7710    2.8090    0.1127    3.5410   22.0000 
1737.0552   71.7600   56.8050  109.1100    2.7910    0.1246    3.5920   22.0000 
1737.3600   71.2260   60.0950  108.5480    2.7750    0.1059    3.7490   22.0000 
1737.6648   41.7870   57.0280  103.8440    2.8530    0.0333    4.2010    1.0000 
1737.9696   23.6360   52.5870   95.9190    3.0260    0.0146    4.7400    1.0000 
