~VERSION INFORMATION
 VERS.                 2.0:   CWLS LOG ASCII STANDARD - VERSION 2.0
 WRAP.                  NO:   SINGLE LINE PER DEPTH STEP
 CREA.                 05/01/2018 17:11:51
#CREATED USING DSPetro VERSION 5000.10.1.3 BY H191660 ON 05/01/2018 17:11:51
~WELL INFORMATION
#MNEM.UNIT       DATA                          DESCRIPTION MNEMONIC
#---------      ---------------------------   --------------------------
 STRT    .M         1527.0480                 : START DEPTH
 STOP    .M         2383.2312                 : STOP DEPTH
 STEP    .M         0.3048                    : STEP VALUE
 NULL    .      -999.0000                     : NULL VALUE
 DATE    .      05/01/2018                    : LAS file Creation Date
 WELL .      KALIUM_HERSEY_2081          : Well Name
 COMP .      Neftex Exploration Insights : Company
 FLD  .                                  : Field
 UWI  .      DUSWL_K_2081                : Unique Well Identifier (UWI)
 LOC  .                                  : Location
 RWS  .      -999                        : Def_Rw
 WST  .      -999                        : Def_Rwt
 SRVC .                                  : Contractor
~CURVE INFORMATION
#MNEM              UNIT       API CODE   Curve Type Comments
#----------  --------------- ----------  ---------- -----------
 DEPTH      .M                         : Depth       
 GR_API     .API                       : GammaRay    Gamma Ray (API) - Measures the intensity of natural gamma-ray radiation emitted from formations containing radioactive elements, such as K, Th and U
 DT_US_FT   .us/ft                     :             Interval Transit Time: Compressional Wave - Evaluates the time it takes for a compressional wave to traverse a fixed distance
 DTS_US_FT  .us/ft                     :             Interval Transit Time: Shear Wave - Evaluates the time it takes for a shear wave to traverse a fixed distance
 RHOZ_G_CC  .g/cc                      :             Formation Density - Measures the density of formation, including any void space or other materials contained in the subject volume
 NPHI_v/v   .dec                       : Neutron     
 PEF_B_E    .b/e-                      : PEF         Photoelectric Factor - A log of photoelectric absorption properties. Often expressed in an approximation unit barns/electron (b/e-)
 LITH       .                          :             
~A  DEPTH   GR_API   DT_US_FT DTS_US_F~ RHOZ_G_C~  NPHI_v/v  PEF_B_E     LITH   
# ...
2040.0264   30.0420   67.8550  118.9300    2.0670   -0.0230    4.9810   16.0000 
2040.3312   28.9980   67.5600  118.6850    2.0650   -0.0214    4.9880   16.0000 
2040.6360   36.4430   67.3600  119.3860    2.0510   -0.0191    4.9690   16.0000 
2040.9408   45.6980   68.3590  117.1790    2.0590   -0.0160    5.0420   16.0000 
2041.2456   47.5370   66.0940  113.7690    2.1690   -0.0219    4.8290   16.0000 
2041.5504   41.2370   64.4250  114.7030    2.4430   -0.0212    4.5300   16.0000 
2041.8552   30.2790   64.2450  115.5360    2.3710   -0.0223    4.8410   16.0000 
2042.1600   25.2420   66.0570  116.9630    2.1000   -0.0241    5.0000   16.0000 
2042.4648   25.1490   65.3730  117.8170    2.0660   -0.0244    4.9510   16.0000 
2042.7696   22.7180   66.0600  117.6810    2.0690   -0.0226    4.9940   16.0000 
2043.0744   26.4840   67.5610  117.0190    2.0610   -0.0194    4.9630   16.0000 
2043.3792   33.2100   67.8860  118.9010    2.0720   -0.0168    5.0100   16.0000 
2043.6840   48.6170   68.1690  117.2990    2.2040   -0.0104    4.8550   16.0000 
2043.9888   60.5970   66.8400  116.5090    2.4030   -0.0170    4.6090   16.0000 
2044.2936   51.1610   65.0730  118.5660    2.1980   -0.0210    4.8270   16.0000 
2044.5984   39.4880   65.3960  117.8150    2.0940   -0.0227    4.9300   16.0000 
2044.9032   30.4050   69.6850  115.7480    2.0870   -0.0227    5.0050   16.0000 
2045.2080   29.9550   68.3680  113.9540    2.1500   -0.0215    5.1870   16.0000 
2045.5128   30.1700   66.5360  115.6230    2.3150   -0.0204    5.4030   15.0000 
2045.8176   28.7480   64.0040  115.5380    2.1570   -0.0233    5.2230   16.0000 
2046.1224   25.9370   64.8200  116.4470    2.0970   -0.0234    4.9530   16.0000 
2046.4272   23.8520   67.0020  119.0500    2.1120   -0.0234    4.9640   16.0000 
2046.7320   28.0440   67.8740  119.8200    2.1220   -0.0231    4.8670   16.0000 
2047.0368   33.0270   67.4950  118.4390    2.1050   -0.0186    4.9200   16.0000 
2047.3416   40.6590   65.9820  118.1270    2.0820   -0.0091    4.8610   16.0000 
2047.6464   45.9960   65.2310  118.7000    2.2510   -0.0017    4.5870   16.0000 
2047.9512   44.3420   64.8920  117.5870    2.1850   -0.0120    4.6980   16.0000 
2048.2560   35.1420   64.4510  116.5190    2.0940   -0.0190    4.8050   16.0000 
2048.5608   33.7230   67.3380  117.0060    2.0820   -0.0204    4.9030   16.0000 
2048.8656   36.0470   67.0670  118.2620    2.0700   -0.0226    4.9500   16.0000 
2049.1704   36.9800   67.5240  118.0260    2.0830   -0.0217    4.9630   16.0000 
2049.4752   36.1670   68.2540  118.2290    2.1010   -0.0209    4.9060   16.0000 
2049.7800   34.4430   68.1310  117.8890    2.1050   -0.0228    4.9450   16.0000 
2050.0848   37.7250   66.5840  117.9100    2.0940   -0.0237    4.9660   16.0000 
2050.3896   40.7720   66.5660  117.9980    2.0650   -0.0232    4.9190   16.0000 
2050.6944   35.3220   67.6750  117.6520    2.0670   -0.0235    4.9420   16.0000 
2050.9992   30.7080   67.5670  117.8220    2.0690   -0.0238    5.0010   16.0000 
2051.3040   27.7730   68.0140  118.3250    2.0630   -0.0233    5.0120   16.0000 
2051.6088   24.9660   67.5690  118.8080    2.0660   -0.0232    4.9670   16.0000 
2051.9136   25.9620   66.8420  119.0720    2.0570   -0.0231    5.0170   16.0000 
2052.2184   25.2140   67.6490  118.6880    2.0450   -0.0205    4.9350   16.0000 
2052.5232   30.3710   66.7170  116.8630    2.0660   -0.0224    4.9780   16.0000 
2052.8280   38.2440   66.5290  115.4050    2.2210   -0.0239    4.8810   16.0000 
2053.1328   41.1060   66.7960  115.6100    2.2810   -0.0234    4.7930   16.0000 
2053.4376   38.2440   67.6230  115.8930    2.0740   -0.0233    4.9930   16.0000 
2053.7424   37.1280   67.0190  115.6970    2.0640   -0.0233    4.9940   16.0000 
2054.0472   37.8200   66.1710  115.2250    2.0640   -0.0237    4.9990   16.0000 
2054.3520   36.3930   67.9390  115.8750    2.0650   -0.0233    4.9040   16.0000 
2054.6568   36.0090   67.2410  116.8810    2.0620   -0.0228    4.8950   16.0000 
2054.9616   34.2830   66.5160  117.9050    2.0560   -0.0219    4.9800   16.0000 
2055.2664   29.4320   66.4190  118.3660    2.0570   -0.0225    4.9090   16.0000 
2055.5712   26.3880   67.0000  119.4010    2.0540   -0.0228    4.9460   16.0000 
2055.8760   27.1430   67.0580  119.5120    2.0570   -0.0222    5.0050   16.0000 
2056.1808   29.5350   67.6990  119.0840    2.0510   -0.0210    5.0060   16.0000 
2056.4856   38.1230   67.6190  117.3750    2.1610   -0.0191    4.9230   16.0000 
2056.7904   50.2790   66.5420  115.2550    2.5300   -0.0110    4.5730   16.0000 
2057.0952   51.1530   65.4080  113.8830    2.4470   -0.0193    4.7080   16.0000 
2057.4000   40.5650   67.4270  116.1770    2.1280   -0.0239    4.9380   16.0000 
2057.7048   32.6870   68.2500  117.5400    2.0550   -0.0251    5.0540   16.0000 
2058.0096   28.4280   67.6640  117.2720    2.0520   -0.0253    5.1070   16.0000 
2058.3144   27.3210   68.1140  117.7180    2.0600   -0.0254    5.0470   16.0000 
2058.6192   29.3390   67.9680  117.2750    2.0700   -0.0242    4.9980   16.0000 
2058.9240   27.4950   67.4740  117.3550    2.0580   -0.0221    4.9610   16.0000 
2059.2288   29.5170   67.2320  117.5770    2.0540   -0.0190    4.9140   16.0000 
2059.5336   43.8530   69.0400  117.3650    2.0630   -0.0145    4.9070   16.0000 
2059.8384   51.9060   69.0680  117.5360    2.1650   -0.0110    4.9280   16.0000 
2060.1432   61.0500   66.6180  115.9400    2.4950   -0.0192    4.5070   16.0000 
2060.4480   55.9490   64.3490  116.3720    2.3370   -0.0235    4.7490   16.0000 
2060.7528   46.1430   65.4370  116.6780    2.0670   -0.0244    5.0270   16.0000 
2061.0576   39.2330   67.2930  117.3600    2.0770   -0.0235    4.9960   16.0000 
2061.3624   35.7600   67.1080  117.4990    2.0710   -0.0233    5.0900   16.0000 
2061.6672   36.7580   67.5590  118.0880    2.0580   -0.0242    5.0850   16.0000 
2061.9720   35.1020   68.3200  118.3850    2.0570   -0.0242    4.9970   16.0000 
2062.2768   31.9340   68.0620  118.4130    2.0560   -0.0240    5.0650   16.0000 
2062.5816   29.2680   67.7600  118.4900    2.0660   -0.0238    5.0320   16.0000 
2062.8864   28.4430   67.2530  118.3850    2.0730   -0.0239    4.9870   16.0000 
2063.1912   29.3180   67.7820  118.0090    2.0670   -0.0231    4.9470   16.0000 
2063.4960   29.8860   67.8040  117.5920    2.0690   -0.0234    4.9020   16.0000 
2063.8008   28.7070   67.4220  117.6130    2.0580   -0.0230    4.9790   16.0000 
2064.1056   32.1120   67.8120  118.0090    2.0870   -0.0211    4.9840   16.0000 
2064.4104   32.6910   67.8680  118.2180    2.1180   -0.0227    4.8850   16.0000 
2064.7152   35.0720   68.3180  118.2830    2.0860   -0.0236    4.9380   16.0000 
2065.0200   36.4280   67.8400  119.0020    2.0730   -0.0237    4.9850   16.0000 
2065.3248   35.5520   68.8300  118.7270    2.0740   -0.0236    5.0320   16.0000 
2065.6296   34.0140   67.6980  117.9740    2.0690   -0.0237    4.9630   16.0000 
2065.9344   32.0550   67.5650  118.2910    2.0630   -0.0237    4.9890   16.0000 
2066.2392   29.3070   69.4000  119.3790    2.0570   -0.0239    4.9740   16.0000 
2066.5440   26.9870   69.5470  119.0160    2.0680   -0.0236    4.9180   16.0000 
2066.8488   23.7000   69.2230  118.5050    2.0760   -0.0236    4.9580   16.0000 
2067.1536   21.0750   68.0020  118.5410    2.0710   -0.0235    5.0210   16.0000 
2067.4584   23.5830   67.4160  119.0840    2.0600   -0.0232    5.0280   16.0000 
2067.7632   31.7580   67.9250  118.6190    2.0850   -0.0170    4.9880   16.0000 
2068.0680   51.5700   67.1790  115.6040    2.2000    0.0133    4.8510   16.0000 
2068.3728   60.6530   65.7060  113.0300    2.4340    0.0323    4.6150   16.0000 
2068.6776   53.6880   63.2050  112.1690    2.6570   -0.0013    4.3910   16.0000 
2068.9824   42.0090   60.9510  112.2510    2.5190   -0.0157    4.7150   16.0000 
2069.2872   38.9630   62.6700  114.4260    2.1740   -0.0226    4.8850   16.0000 
2069.5920   39.2370   64.2610  115.7140    2.0650   -0.0244    4.9660   16.0000 
2069.8968   37.5110   66.9660  116.8920    2.0440   -0.0238    5.1060   16.0000 
