~VERSION INFORMATION
 VERS.                 2.0:   CWLS LOG ASCII STANDARD - VERSION 2.0
 WRAP.                  NO:   SINGLE LINE PER DEPTH STEP
 CREA.                 05/01/2018 17:11:51
#CREATED USING DSPetro VERSION 5000.10.1.3 BY H191660 ON 05/01/2018 17:11:51
~WELL INFORMATION
#MNEM.UNIT       DATA                          DESCRIPTION MNEMONIC
#---------      ---------------------------   --------------------------
 STRT    .M         1527.0480                 : START DEPTH
 STOP    .M         2383.2312                 : STOP DEPTH
 STEP    .M         0.3048                    : STEP VALUE
 NULL    .      -999.0000                     : NULL VALUE
 DATE    .      05/01/2018                    : LAS file Creation Date
 WELL .      KALIUM_HERSEY_2081          : Well Name
 COMP .      Neftex Exploration Insights : Company
 FLD  .                                  : Field
 UWI  .      DUSWL_K_2081                : Unique Well Identifier (UWI)
 LOC  .                                  : Location
 RWS  .      -999                        : Def_Rw
 WST  .      -999                        : Def_Rwt
 SRVC .                                  : Contractor
~CURVE INFORMATION
#MNEM              UNIT       API CODE   Curve Type Comments
#----------  --------------- ----------  ---------- -----------
 DEPTH      .M                         : Depth       
 GR_API     .API                       : GammaRay    Gamma Ray (API) - Measures the intensity of natural gamma-ray radiation emitted from formations containing radioactive elements, such as K, Th and U
 DT_US_FT   .us/ft                     :             Interval Transit Time: Compressional Wave - Evaluates the time it takes for a compressional wave to traverse a fixed distance
 DTS_US_FT  .us/ft                     :             Interval Transit Time: Shear Wave - Evaluates the time it takes for a shear wave to traverse a fixed distance
 RHOZ_G_CC  .g/cc                      :             Formation Density - Measures the density of formation, including any void space or other materials contained in the subject volume
 NPHI_v/v   .dec                       : Neutron     
 PEF_B_E    .b/e-                      : PEF         Photoelectric Factor - A log of photoelectric absorption properties. Often expressed in an approximation unit barns/electron (b/e-)
 LITH       .                          :             
~A  DEPTH   GR_API   DT_US_FT DTS_US_F~ RHOZ_G_C~  NPHI_v/v  PEF_B_E     LITH   
# ...
2190.9024   30.3720   68.5900  121.0500    2.0550   -0.0191    4.9470   16.0000 
2191.2072   32.6160   67.8270  120.8280    2.0320   -0.0193    5.0020   16.0000 
2191.5120   30.9890   67.8890  120.5070    2.0420   -0.0204    5.0220   16.0000 
2191.8168   28.7790   68.5110  120.6660    2.0380   -0.0216    5.0670   16.0000 
2192.1216   29.5830   67.8470  120.4900    2.0510   -0.0229    5.0430   16.0000 
2192.4264   28.6260   67.7280  120.5100    2.0570   -0.0220    4.9760   16.0000 
2192.7312   27.1100   67.5890  120.2890    2.0470   -0.0219    4.9430   16.0000 
2193.0360   30.6860   68.2700  120.4080    2.0480   -0.0220    4.9990   16.0000 
2193.3408   32.3960   68.0090  120.4710    2.0530   -0.0224    4.9880   16.0000 
2193.6456   32.7140   67.8900  120.4500    2.0580   -0.0228    4.8950   16.0000 
2193.9504   32.7890   67.6300  120.4290    2.0570   -0.0227    4.9440   16.0000 
2194.2552   32.4330   67.3680  120.7070    2.0510   -0.0220    5.0830   16.0000 
2194.5600   31.6430   67.9100  120.7710    2.0510   -0.0228    5.0870   16.0000 
2194.8648   30.8700   68.6720  120.7470    2.0570   -0.0226    5.0740   16.0000 
2195.1696   31.3580   69.0750  120.6900    2.0650   -0.0229    4.9200   16.0000 
2195.4744   32.4590   68.4750  120.2450    2.0540   -0.0223    4.9500   16.0000 
2195.7792   31.7990   68.1730  120.1460    2.0400   -0.0222    4.9590   16.0000 
2196.0840   32.4180   68.5930  120.3210    2.0470   -0.0230    4.9960   16.0000 
2196.3888   32.8440   68.4110  120.9460    2.0500   -0.0225    4.9980   16.0000 
2196.6936   31.4670   68.8530  120.6240    2.0510   -0.0217    5.0100   16.0000 
2196.9984   33.2940   68.7540  120.4060    2.0470   -0.0223    5.0010   16.0000 
2197.3032   34.0800   68.5340  120.3060    2.0490   -0.0207    4.8950   16.0000 
2197.6080   34.2210   68.1350  120.1850    2.0510   -0.0201    4.8450   16.0000 
2197.9128   33.9870   67.2670  120.2430    2.0440   -0.0207    4.9420   16.0000 
2198.2176   33.7530   67.3680  120.3060    2.0500   -0.0214    4.9120   16.0000 
2198.5224   33.8180   68.1720  120.2670    2.0400   -0.0215    5.0500   16.0000 
2198.8272   34.3740   67.5470  120.1660    2.0490   -0.0217    5.0020   16.0000 
2199.1320   35.8440   67.9310  120.3070    2.0510   -0.0217    4.9270   16.0000 
2199.4368   35.8460   68.0910  120.8100    2.0590   -0.0217    4.8760   16.0000 
2199.7416   34.7540   67.4850  121.0100    2.0520   -0.0212    4.9980   16.0000 
2200.0464   32.4750   67.3100  120.7710    2.0470   -0.0208    5.0370   16.0000 
2200.3512   29.5220   68.0550  120.3680    2.0540   -0.0209    5.0480   16.0000 
2200.6560   29.7080   67.7360  120.0480    2.0540   -0.0210    4.9710   16.0000 
2200.9608   33.3600   68.1940  119.6240    2.0430   -0.0212    4.9980   16.0000 
2201.2656   34.2890   68.2140  119.2620    2.0550   -0.0210    5.0680   16.0000 
2201.5704   33.9240   68.4360  119.3990    2.0630   -0.0210    5.1410   16.0000 
2201.8752   32.7650   68.3730  119.5190    2.0520   -0.0218    5.1330   16.0000 
2202.1800   31.0250   68.1540  119.5010    2.0620   -0.0204    5.0430   16.0000 
2202.4848   29.5200   67.3480  119.3620    2.0530   -0.0216    5.0030   16.0000 
2202.7896   28.8060   67.4910  119.7220    2.0390   -0.0211    4.8620   16.0000 
2203.0944   28.2170   68.2350  119.6450    2.0380   -0.0200    4.8040   16.0000 
2203.3992   25.4390   67.9930  119.5450    2.0410   -0.0198    4.8970   16.0000 
2203.7040   24.8940   67.9320  120.0070    2.0510   -0.0199    4.9730   16.0000 
2204.0088   24.9150   68.3150  119.3240    2.0440   -0.0193    4.9610   16.0000 
2204.3136   27.8300   67.4650  119.2610    2.0390   -0.0191    4.9610   16.0000 
2204.6184   31.2170   68.0510  119.8070    2.0400   -0.0190    5.0210   16.0000 
2204.9232   31.8950   68.5140  120.0870    2.0370   -0.0194    4.9860   16.0000 
2205.2280   32.2650   67.7340  120.6280    2.0340   -0.0201    4.9020   16.0000 
2205.5328   33.2430   67.2290  120.3430    2.0420   -0.0200    4.9800   16.0000 
2205.8376   32.5490   67.1480  120.2040    2.0470   -0.0206    5.0810   16.0000 
2206.1424   33.6930   66.8470  120.1440    2.0480   -0.0216    5.1190   16.0000 
2206.4472   35.3300   67.1460  120.2860    2.0410   -0.0220    5.0710   16.0000 
2206.7520   35.8250   67.8110  120.0470    2.0370   -0.0219    5.1500   16.0000 
2207.0568   31.3700   66.0380  119.8860    2.0400   -0.0221    5.1400   16.0000 
2207.3616   28.0550   66.5870  119.8640    2.0490   -0.0221    5.1120   16.0000 
2207.6664   27.6390   65.3390  120.2280    2.0500   -0.0220    5.0400   16.0000 
2207.9712   28.5030   64.7180  120.2100    2.0560   -0.0215    4.9200   16.0000 
2208.2760   28.5090   64.1350  120.1290    2.0620   -0.0215    4.9020   16.0000 
2208.5808   27.9660   64.2010  120.1290    2.0630   -0.0218    4.9780   16.0000 
2208.8856   25.9140   63.3550  120.2690    2.0550   -0.0219    5.0640   16.0000 
2209.1904   25.1330   67.3150  120.7150    2.0470   -0.0220    5.1000   16.0000 
2209.4952   27.1530   67.9980  120.7350    2.0430   -0.0213    5.0930   16.0000 
2209.8000   29.0270   67.9390  120.2680    2.0430   -0.0218    5.0190   16.0000 
2210.1048   30.5490   68.0990  119.8500    2.0430   -0.0201    4.9800   16.0000 
2210.4096   31.5890   67.8990  119.7260    2.0710   -0.0185    5.0150   16.0000 
2210.7144   30.9300   68.0570  119.5470    2.0890   -0.0187    5.1120   16.0000 
2211.0192   32.7060   68.2600  119.4270    2.0820   -0.0187    5.0360   16.0000 
2211.3240   31.7990   68.2390  119.5890    2.0810   -0.0199    4.8440   16.0000 
2211.6288   30.7950   68.4400  120.2540    2.0620   -0.0210    4.8730   16.0000 
2211.9336   32.8610   68.1170  119.8080    2.0450   -0.0210    4.9450   16.0000 
2212.2384   34.8570   68.2960  119.9650    2.0480   -0.0208    5.0050   16.0000 
2212.5432   35.4020   67.9950  120.2100    2.0540   -0.0203    5.0130   16.0000 
2212.8480   33.5390   67.7540  119.7900    2.0590   -0.0210    5.0120   16.0000 
2213.1528   29.9360   67.5950  119.3650    2.0460   -0.0214    4.9260   16.0000 
2213.4576   29.2220   67.7160  119.7260    2.0570   -0.0218    4.9620   16.0000 
2213.7624   30.3780   67.9380  120.6540    2.0530   -0.0220    5.0270   16.0000 
2214.0672   32.1360   68.3200  120.3530    2.0500   -0.0218    5.0090   16.0000 
2214.3720   30.9480   67.8560  120.1530    2.0560   -0.0217    5.0880   16.0000 
2214.6768   31.1990   67.0320  120.0910    2.0550   -0.0218    5.0390   16.0000 
2214.9816   31.6760   66.6130  120.0000    2.0480   -0.0219    4.9510   16.0000 
2215.2864   32.5310   67.1930  119.7900    2.0500   -0.0215    4.8330   16.0000 
2215.5912   31.0940   67.0360  120.0170    2.0320   -0.0217    4.7670   16.0000 
2215.8960   32.3000   67.9540  120.0730    2.0410   -0.0219    4.7310   16.0000 
2216.2008   34.9100   66.2060  119.9480    2.0430   -0.0225    5.0310   16.0000 
2216.5056   33.5900   65.7460  120.1300    2.0550   -0.0219    5.1040   16.0000 
2216.8104   29.3810   68.2310  120.6690    2.0710   -0.0214    5.1310   16.0000 
2217.1152   28.7060   68.2770  120.0050    2.0690   -0.0211    5.1190   16.0000 
2217.4200   28.2450   68.0990  119.9310    2.0600   -0.0210    5.0390   16.0000 
2217.7248   26.1500   67.8990  120.6130    2.0630   -0.0213    4.9550   16.0000 
2218.0296   23.6180   67.9190  119.9880    2.0550   -0.0213    4.9630   16.0000 
2218.3344   22.6700   67.8590  121.0150    2.0370   -0.0208    5.0030   16.0000 
2218.6392   23.2290   67.4340  120.0500    2.0530   -0.0203    4.9150   16.0000 
2218.9440   25.8870   67.3780  119.5670    2.0520   -0.0195    4.8550   16.0000 
2219.2488   31.2810   67.8600  119.4450    2.0620   -0.0155    4.8900   16.0000 
2219.5536   34.8290   68.0200  119.0040    2.1010   -0.0161    5.0530   16.0000 
2219.8584   38.6700   67.2120  119.0450    2.1490   -0.0185    5.1430   16.0000 
2220.1632   37.7750   66.7490  119.2050    2.0970   -0.0206    5.0960   16.0000 
2220.4680   36.6960   66.9320  119.8500    2.0540   -0.0218    4.9710   16.0000 
2220.7728   37.1210   67.2590  119.9110    2.0440   -0.0224    4.9050   16.0000 
