~VERSION INFORMATION
 VERS.                 2.0:   CWLS LOG ASCII STANDARD - VERSION 2.0
 WRAP.                  NO:   SINGLE LINE PER DEPTH STEP
 CREA.                 05/01/2018 17:11:51
#CREATED USING DSPetro VERSION 5000.10.1.3 BY H191660 ON 05/01/2018 17:11:51
~WELL INFORMATION
#MNEM.UNIT       DATA                          DESCRIPTION MNEMONIC
#---------      ---------------------------   --------------------------
 STRT    .M         1527.0480                 : START DEPTH
 STOP    .M         2383.2312                 : STOP DEPTH
 STEP    .M         0.3048                    : STEP VALUE
 NULL    .      -999.0000                     : NULL VALUE
 DATE    .      05/01/2018                    : LAS file Creation Date
 WELL .      KALIUM_HERSEY_2081          : Well Name
 COMP .      Neftex Exploration Insights : Company
 FLD  .                                  : Field
 UWI  .      DUSWL_K_2081                : Unique Well Identifier (UWI)
 LOC  .                                  : Location
 RWS  .      -999                        : Def_Rw
 WST  .      -999                        : Def_Rwt
 SRVC .                                  : Contractor
~CURVE INFORMATION
#MNEM              UNIT       API CODE   Curve Type Comments
#----------  --------------- ----------  ---------- -----------
 DEPTH      .M                         : Depth       
 GR_API     .API                       : GammaRay    Gamma Ray (API) - Measures the intensity of natural gamma-ray radiation emitted from formations containing radioactive elements, such as K, Th and U
 DT_US_FT   .us/ft                     :             Interval Transit Time: Compressional Wave - Evaluates the time it takes for a compressional wave to traverse a fixed distance
 DTS_US_FT  .us/ft                     :             Interval Transit Time: Shear Wave - Evaluates the time it takes for a shear wave to traverse a fixed distance
 RHOZ_G_CC  .g/cc                      :             Formation Density - Measures the density of formation, including any void space or other materials contained in the subject volume
 NPHI_v/v   .dec                       : Neutron     
 PEF_B_E    .b/e-                      : PEF         Photoelectric Factor - A log of photoelectric absorption properties. Often expressed in an approximation unit barns/electron (b/e-)
 LITH       .                          :             
~A  DEPTH   GR_API   DT_US_FT DTS_US_F~ RHOZ_G_C~  NPHI_v/v  PEF_B_E     LITH   
# ...
2070.2016   35.6700   68.0960  117.1010    2.0500   -0.0239    5.1010   16.0000 
2070.5064   32.2640   68.3160  116.7310    2.0500   -0.0238    4.9730   16.0000 
2070.8112   27.8270   68.6920  116.6620    2.0570   -0.0240    5.0080   16.0000 
2071.1160   24.7800   68.9010  116.7330    2.0690   -0.0231    5.0540   16.0000 
2071.4208   25.8410   68.1120  117.3670    2.0720   -0.0232    5.0610   16.0000 
2071.7256   29.0630   68.6940  117.1010    2.0560   -0.0225    5.0010   16.0000 
2072.0304   31.6280   68.0930  117.0490    2.0660   -0.0227    5.0250   16.0000 
2072.3352   31.8450   68.3780  117.3510    2.0910   -0.0225    5.0480   16.0000 
2072.6400   32.1150   68.9910  117.0650    2.1120   -0.0226    5.0100   16.0000 
2072.9448   35.7680   68.2420  116.8470    2.1260   -0.0208    4.9510   16.0000 
2073.2496   37.9050   67.4190  116.5890    2.1220   -0.0223    4.9620   16.0000 
2073.5544   37.9370   67.2050  117.1000    2.1450   -0.0237    4.8370   16.0000 
2073.8592   37.1270   67.2400  117.6170    2.1320   -0.0237    4.9480   16.0000 
2074.1640   34.8030   67.2890  118.0350    2.0920   -0.0245    5.1040   16.0000 
2074.4688   36.5280   67.5700  117.8330    2.0820   -0.0246    5.1690   16.0000 
2074.7736   38.1150   68.2530  117.5930    2.0740   -0.0247    5.1480   16.0000 
2075.0784   40.0730   67.6910  118.1450    2.0760   -0.0246    5.0250   16.0000 
2075.3832   40.7690   67.2750  117.3010    2.0690   -0.0245    4.9410   16.0000 
2075.6880   38.2040   67.8150  116.9390    2.0500   -0.0245    5.0110   16.0000 
2075.9928   35.0900   68.4930  117.2010    2.0500   -0.0239    5.0340   16.0000 
2076.2976   34.7640   68.2010  118.5630    2.0590   -0.0242    4.9870   16.0000 
2076.6024   32.9240   67.3380  118.3240    2.0590   -0.0239    5.0240   16.0000 
2076.9072   28.5470   67.9810  119.1700    2.0580   -0.0248    5.0890   16.0000 
2077.2120   25.8050   68.1250  118.7480    2.0680   -0.0239    5.0780   16.0000 
2077.5168   26.3960   67.2660  117.6020    2.0770   -0.0236    5.0490   16.0000 
2077.8216   26.8980   67.1040  117.7110    2.0890   -0.0235    4.9920   16.0000 
2078.1264   28.7930   68.0450  117.8860    2.0810   -0.0224    4.9930   16.0000 
2078.4312   33.9470   68.3650  117.7060    2.2470   -0.0194    4.7120   15.0000 
2078.7360   39.6440   67.5640  118.2870    2.3660   -0.0213    4.8660   15.0000 
2079.0408   40.8920   66.8650  117.4570    2.0980   -0.0229    5.1300   16.0000 
2079.3456   32.4770   66.3650  116.6770    2.0550   -0.0248    5.1650   16.0000 
2079.6504   34.3200   68.2720  117.0850    2.0710   -0.0238    5.0880   16.0000 
2079.9552   35.4930   68.2540  117.3100    2.0800   -0.0235    5.0710   16.0000 
2080.2600   36.8520   67.6370  117.5120    2.0750   -0.0242    5.0340   16.0000 
2080.5648   34.4090   67.7020  117.2870    2.0650   -0.0248    5.0070   16.0000 
2080.8696   33.4670   68.4750  116.9960    2.0580   -0.0247    5.0580   16.0000 
2081.1744   32.2860   68.1920  116.7740    2.0530   -0.0247    5.0670   16.0000 
2081.4792   35.1000   68.1400  117.7380    2.0500   -0.0244    5.0320   16.0000 
2081.7840   35.3090   67.4540  116.9930    2.0510   -0.0242    4.9990   16.0000 
2082.0888   33.5900   67.0200  116.0240    2.0510   -0.0240    5.0780   16.0000 
2082.3936   32.1080   67.1530  115.9550    2.0470   -0.0242    5.1190   16.0000 
2082.6984   32.2590   67.4810  116.4420    2.0590   -0.0244    5.0420   16.0000 
2083.0032   32.3540   67.4150  117.1200    2.0670   -0.0245    5.0510   16.0000 
2083.3080   30.8100   68.2150  117.0600    2.0550   -0.0237    5.0800   16.0000 
2083.6128   32.2920   67.9190  116.5790    2.0700   -0.0234    5.1050   16.0000 
2083.9176   31.5980   67.5380  116.4170    2.0810   -0.0229    5.1080   16.0000 
2084.2224   32.7150   67.3890  117.1190    2.1010   -0.0232    5.0090   16.0000 
2084.5272   35.0450   67.5990  117.4900    2.1560   -0.0241    4.8630   16.0000 
2084.8320   36.1610   68.5320  117.6120    2.1200   -0.0249    4.9640   16.0000 
2085.1368   36.4880   67.9280  118.2900    2.0760   -0.0254    5.0900   16.0000 
2085.4416   32.9570   68.6560  118.5380    2.0670   -0.0253    5.0930   16.0000 
2085.7464   32.1420   68.2970  118.9120    2.0910   -0.0248    4.9840   16.0000 
2086.0512   32.7140   68.0950  118.6810    2.0800   -0.0248    5.0030   16.0000 
2086.3560   31.5930   68.5410  118.3220    2.0590   -0.0243    5.0760   16.0000 
2086.6608   31.9250   68.3400  118.3020    2.0760   -0.0228    5.0950   16.0000 
2086.9656   31.2900   67.2930  119.3110    2.0960   -0.0238    5.0540   16.0000 
2087.2704   30.2930   66.0370  118.8880    2.0800   -0.0246    5.0210   16.0000 
2087.5752   28.0320   65.8590  118.9750    2.0570   -0.0247    4.8990   16.0000 
2087.8800   26.0670   66.2990  118.5890    2.0660   -0.0242    4.9080   16.0000 
2088.1848   29.4830   66.9560  118.3540    2.0590   -0.0231    4.9840   16.0000 
2088.4896   32.7710   65.8140  118.8980    2.0750   -0.0222    5.0590   16.0000 
2088.7944   33.2870   64.2880  119.2140    2.0680   -0.0208    4.9840   16.0000 
2089.0992   31.0830   65.6990  119.3860    2.0570   -0.0232    4.8720   16.0000 
2089.4040   28.9410   67.6150  119.3390    2.0500   -0.0233    4.9130   16.0000 
2089.7088   31.3830   66.4900  119.0550    2.0760   -0.0239    5.0110   16.0000 
2090.0136   33.8240   65.4560  118.7240    2.0540   -0.0215    5.0820   16.0000 
2090.3184   34.4610   65.5970  118.4520    2.0560   -0.0209    5.0070   16.0000 
2090.6232   33.7640   66.6170  118.7130    2.0620   -0.0229    4.9290   16.0000 
2090.9280   36.6300   67.8220  119.1570    2.0720   -0.0227    5.0180   16.0000 
2091.2328   37.0790   68.5870  119.0790    2.0900   -0.0213    5.2970   16.0000 
2091.5376   36.8720   67.8840  118.4120    2.1990   -0.0228    5.9790   15.0000 
2091.8424   35.3880   67.8650  118.5580    2.2880   -0.0250    6.2390   15.0000 
2092.1472   38.3210   67.8490  117.5090    2.1420   -0.0251    5.4790   16.0000 
2092.4520   35.8110   68.0710  116.9930    2.0590   -0.0248    4.8810   16.0000 
2092.7568   32.5260   68.2360  117.0760    2.0620   -0.0248    4.9380   16.0000 
2093.0616   32.2560   68.2640  117.3080    2.0560   -0.0240    4.9770   16.0000 
2093.3664   35.9700   68.4660  117.5420    2.0520   -0.0241    5.0230   16.0000 
2093.6712   34.5450   68.5250  118.4290    2.0960   -0.0238    5.0200   16.0000 
2093.9760   37.4150   68.3060  118.8100    2.1100   -0.0249    5.0930   16.0000 
2094.2808   35.7510   68.3140  119.4310    2.1010   -0.0250    5.1060   16.0000 
2094.5856   37.1670   68.7160  119.3050    2.0840   -0.0251    5.0810   16.0000 
2094.8904   40.0970   68.7570  119.4750    2.0640   -0.0248    4.9680   16.0000 
2095.1952   43.5090   68.3300  119.1610    2.0630   -0.0247    4.9750   16.0000 
2095.5000   38.4710   68.6140  118.8720    2.0630   -0.0251    5.0360   16.0000 
2095.8048   36.6870   68.6520  119.2530    2.0630   -0.0254    5.1170   16.0000 
2096.1096   39.4370   67.2120  119.6720    2.0540   -0.0250    5.1520   16.0000 
2096.4144   40.1880   66.8380  119.3990    2.0530   -0.0246    5.1290   16.0000 
2096.7192   36.8370   66.3570  118.9340    2.0570   -0.0243    5.0780   16.0000 
2097.0240   34.8090   66.0650  118.8650    2.0640   -0.0243    5.0190   16.0000 
2097.3288   33.0330   67.5100  119.1230    2.0530   -0.0249    4.9690   16.0000 
2097.6336   35.4200   67.3510  119.3740    2.0600   -0.0251    5.0550   16.0000 
2097.9384   37.6290   68.3130  119.5970    2.0850   -0.0255    5.1910   16.0000 
2098.2432   37.8380   67.9510  119.4940    2.0830   -0.0252    5.2440   16.0000 
2098.5480   38.1080   67.2830  119.3280    2.0600   -0.0242    5.0760   16.0000 
2098.8528   38.7380   65.8660  119.2860    2.0470   -0.0251    5.0110   16.0000 
2099.1576   37.3790   64.2720  119.1450    2.0610   -0.0248    5.0540   16.0000 
2099.4624   35.8580   65.5300  119.0290    2.0690   -0.0249    5.0390   16.0000 
2099.7672   36.6060   67.5970  119.2710    2.0540   -0.0242    4.9000   16.0000 
2100.0720   37.6560   67.6120  119.0030    2.0490   -0.0241    4.9470   16.0000 
