~VERSION INFORMATION
 VERS.                 2.0:   CWLS LOG ASCII STANDARD - VERSION 2.0
 WRAP.                  NO:   SINGLE LINE PER DEPTH STEP
 CREA.                 05/01/2018 17:11:51
#CREATED USING DSPetro VERSION 5000.10.1.3 BY H191660 ON 05/01/2018 17:11:51
~WELL INFORMATION
#MNEM.UNIT       DATA                          DESCRIPTION MNEMONIC
#---------      ---------------------------   --------------------------
 STRT    .M         1527.0480                 : START DEPTH
 STOP    .M         2383.2312                 : STOP DEPTH
 STEP    .M         0.3048                    : STEP VALUE
 NULL    .      -999.0000                     : NULL VALUE
 DATE    .      05/01/2018                    : LAS file Creation Date
 WELL .      KALIUM_HERSEY_2081          : Well Name
 COMP .      Neftex Exploration Insights : Company
 FLD  .                                  : Field
 UWI  .      DUSWL_K_2081                : Unique Well Identifier (UWI)
 LOC  .                                  : Location
 RWS  .      -999                        : Def_Rw
 WST  .      -999                        : Def_Rwt
 SRVC .                                  : Contractor
~CURVE INFORMATION
#MNEM              UNIT       API CODE   Curve Type Comments
#----------  --------------- ----------  ---------- -----------
 DEPTH      .M                         : Depth       
 GR_API     .API                       : GammaRay    Gamma Ray (API) - Measures the intensity of natural gamma-ray radiation emitted from formations containing radioactive elements, such as K, Th and U
 DT_US_FT   .us/ft                     :             Interval Transit Time: Compressional Wave - Evaluates the time it takes for a compressional wave to traverse a fixed distance
 DTS_US_FT  .us/ft                     :             Interval Transit Time: Shear Wave - Evaluates the time it takes for a shear wave to traverse a fixed distance
 RHOZ_G_CC  .g/cc                      :             Formation Density - Measures the density of formation, including any void space or other materials contained in the subject volume
 NPHI_v/v   .dec                       : Neutron     
 PEF_B_E    .b/e-                      : PEF         Photoelectric Factor - A log of photoelectric absorption properties. Often expressed in an approximation unit barns/electron (b/e-)
 LITH       .                          :             
~A  DEPTH   GR_API   DT_US_FT DTS_US_F~ RHOZ_G_C~  NPHI_v/v  PEF_B_E     LITH   
# ...
1617.5736   29.9030   56.0870   90.7120    2.6260    0.0815    2.5280 -999.0000 
1617.8784   29.1660   52.3350   86.8830    2.6640    0.0622    2.8370 -999.0000 
1618.1832   27.3240   50.4340   85.3830    2.6850    0.0589    3.1510 -999.0000 
1618.4880   29.3600   50.3360   85.8860    2.6900    0.0740    3.1060 -999.0000 
1618.7928   29.0300   49.9810   86.4320    2.6390    0.0836    2.5820 -999.0000 
1619.0976   31.7810   49.1610   85.8100    2.6740    0.0764    2.8400 -999.0000 
1619.4024   30.3630   49.8890   85.7150    2.6960    0.0771    3.0420 -999.0000 
1619.7072   33.6540   49.3730   85.5000    2.6920    0.0731    3.0790 -999.0000 
1620.0120   32.7840   50.8420   85.6310    2.6780    0.0557    3.1360 -999.0000 
1620.3168   28.3500   48.3990   85.7150    2.6880    0.0582    3.1750 -999.0000 
1620.6216   28.2020   48.7850   85.4230    2.6820    0.0562    3.1720 -999.0000 
1620.9264   31.3160   49.0110   85.3860    2.6970    0.0517    3.1510 -999.0000 
1621.2312   29.9640   49.2560   85.1680    2.6930    0.0477    3.0700 -999.0000 
1621.5360   30.6620   50.1040   85.2100    2.6970    0.0462    3.0610 -999.0000 
1621.8408   30.5780   50.3130   85.2200    2.6920    0.0426    3.0180 -999.0000 
1622.1456   28.9860   49.6510   84.8810    2.6970    0.0474    2.9370 -999.0000 
1622.4504   32.8740   50.4000   84.4870    2.6870    0.0605    2.8780 -999.0000 
1622.7552   37.8560   50.2230   84.4080    2.7120    0.0660    2.9740 -999.0000 
1623.0600   44.1650   50.4520   85.3970    2.6960    0.0773    2.8040 -999.0000 
1623.3648   36.9570   50.7180   85.4020    2.7020    0.0694    2.9260 -999.0000 
1623.6696   29.9360   50.4020   84.7640    2.7030    0.0609    3.0920 -999.0000 
1623.9744   33.8930   49.8670   84.9710    2.6890    0.0697    2.9920 -999.0000 
1624.2792   35.8650   49.8120   85.8030    2.7080    0.0827    2.7770 -999.0000 
1624.5840   37.1040   50.3580   87.1340    2.7220    0.0853    2.8300 -999.0000 
1624.8888   34.9050   50.8060   87.0770    2.7120    0.0782    2.7950 -999.0000 
1625.1936   36.9830   48.7980   85.7770    2.7100    0.0761    2.7600 -999.0000 
1625.4984   36.7790   49.5100   83.8730    2.6960    0.0660    2.8110 -999.0000 
1625.8032   35.8470   50.7200   86.3660    2.7020    0.0494    2.8960 -999.0000 
1626.1080   31.5390   50.1430   85.6660    2.7120    0.0698    3.1460 -999.0000 
1626.4128   30.9680   50.0910   85.2280    2.7240    0.0638    3.1230 -999.0000 
1626.7176   32.5130   50.2560   84.8110    2.7090    0.0599    2.8360 -999.0000 
1627.0224   33.9890   50.5420   84.7600    2.7220    0.0719    2.9510 -999.0000 
1627.3272   35.7170   50.9490   84.9870    2.7350    0.0605    3.0640 -999.0000 
1627.6320   35.6370   48.9260   85.5970    2.7170    0.0473    3.0110 -999.0000 
1627.9368   30.5940   46.7370   86.3280    2.7190    0.0524    3.1510 -999.0000 
1628.2416   32.7440   47.8880   87.1750    2.6970    0.0566    3.0920 -999.0000 
1628.5464   34.2870   49.7850   86.1320    2.6640    0.0539    2.9850 -999.0000 
1628.8512   34.9200   49.9670   85.0720    2.7030    0.0611    3.1540 -999.0000 
1629.1560   38.6420   50.9380   85.5990    2.7190    0.0675    3.0190 -999.0000 
1629.4608   43.1990   50.0770   86.8490    2.7370    0.0616    3.2390 -999.0000 
1629.7656   39.8030   49.3210   87.6390    2.7540    0.0540    3.5110 -999.0000 
1630.0704   36.6960   48.7230   87.4770    2.7450    0.0389    3.7680 -999.0000 
1630.3752   33.1100   48.7270   88.1900    2.7510    0.0309    4.0300 -999.0000 
1630.6800   28.6230   48.8340   89.3220    2.7500    0.0268    4.3020 -999.0000 
1630.9848   26.0670   48.4960   89.2470    2.7180    0.0336    4.5250 -999.0000 
1631.2896   26.0970   49.2870   90.5770    2.7290    0.0364    4.5290 -999.0000 
1631.5944   26.1900   50.0980   90.8260    2.7580    0.0352    4.4350 -999.0000 
1631.8992   24.7680   48.1690   90.6670    2.7600    0.0415    4.3510 -999.0000 
1632.2040   25.1610   47.7130   90.8130    2.7660    0.0492    4.2470 -999.0000 
1632.5088   26.1060   48.9870   91.7830    2.7810    0.0520    4.1120 -999.0000 
1632.8136   24.7490   47.3000   90.6240    2.7790    0.0492    4.0690 -999.0000 
1633.1184   27.8000   47.7880   89.2630    2.7680    0.0479    4.1040 -999.0000 
1633.4232   33.5700   50.9670   92.2160    2.7180    0.0920    3.6180 -999.0000 
1633.7280   40.4310   49.3660   89.8920    2.7500    0.0853    3.3800 -999.0000 
1634.0328   39.7980   47.5210   87.9110    2.7810    0.0852    3.3580 -999.0000 
1634.3376   35.9070   48.0930   87.4180    2.7600    0.1203    3.3480 -999.0000 
1634.6424   35.4600   47.7720   87.4600    2.7170    0.1421    3.0490 -999.0000 
1634.9472   35.6100   51.1510   93.6730    2.7000    0.1519    3.0500 -999.0000 
1635.2520   38.0630   53.2070   97.1910    2.7000    0.1660    3.1280 -999.0000 
1635.5568   38.3450   54.7220   98.2600    2.6910    0.1895    3.1750 -999.0000 
1635.8616   36.0200   55.6510   99.5920    2.6390    0.2262    3.1480   12.0000 
1636.1664   32.9180   52.0360   98.0090    2.6530    0.1847    3.0580   12.0000 
1636.4712   33.4940   51.5600   96.3650    2.6840    0.1833    2.9930   12.0000 
1636.7760   33.5940   51.6440   95.2700    2.6780    0.1784    3.0250   12.0000 
1637.0808   34.9530   51.2110   93.4260    2.6970    0.1725    3.0600   12.0000 
1637.3856   36.3080   50.7750   91.8850    2.7130    0.1728    3.0430   12.0000 
1637.6904   33.8760   50.7790   92.0900    2.6630    0.2129    3.0720   12.0000 
1637.9952   36.9800   51.2240   93.9030    2.6390    0.2331    3.0550   12.0000 
1638.3000   43.4810   51.5710   94.9520    2.6630    0.2210    3.0860   12.0000 
1638.6048   42.3710   51.3950   94.7180    2.6780    0.1920    3.1380   12.0000 
1638.9096   38.0570   50.9400   94.5400    2.7020    0.1924    3.1590   12.0000 
1639.2144   35.3690   50.5020   95.1500    2.6960    0.1940    3.1340   12.0000 
1639.5192   37.4550   50.8090   94.8910    2.6500    0.1865    3.0870   12.0000 
1639.8240   38.2670   50.9520   94.1940    2.6400    0.1969    3.1440   12.0000 
1640.1288   36.3200   51.2810   93.3520    2.6480    0.2209    3.2170   12.0000 
1640.4336   38.1690   51.5070   91.8290    2.7270    0.1902    3.2060   12.0000 
1640.7384   40.7370   49.7850   90.6140    2.7560    0.1620    3.0770   12.0000 
1641.0432   43.5510   47.9620   88.8080    2.7450    0.1606    3.0300   12.0000 
1641.3480   46.5410   47.8260   88.7780    2.7410    0.1816    2.9830   12.0000 
1641.6528   45.1230   49.0200   88.9840    2.7660    0.1595    3.5540   12.0000 
1641.9576   45.0350   51.0910   89.5740    2.8270    0.1285    5.1610    1.0000 
1642.2624   41.7560   48.5250   89.7580    2.8990    0.1164    6.1910    1.0000 
1642.5672   39.6710   46.8620   87.8300    2.8870    0.1188    5.8070    1.0000 
1642.8720   38.1980   45.6790   86.5350    2.8910    0.1106    4.8320    1.0000 
1643.1768   41.9760   45.6290   86.3200    2.8270    0.1017    3.7000   12.0000 
1643.4816   44.4750   45.7550   85.5230    2.8600    0.0717    3.5040   12.0000 
1643.7864   50.2500   46.2430   84.1000    2.8470    0.0533    3.8580   12.0000 
1644.0912   48.8420   45.4820   83.3460    2.8830    0.0547    4.2780    1.0000 
1644.3960   44.6420   45.6490   82.4860    2.9960    0.0597    6.1470    1.0000 
1644.7008   39.1790   45.8990   84.3200    2.0840    0.0556    8.8070   16.0000 
1645.0056   35.4170   46.5430   86.4290    2.0240    0.0494    9.3470   16.0000 
1645.3104   37.0830   46.0450   85.6910    2.0040    0.0544    6.9880   16.0000 
1645.6152   41.0390   45.4090   83.9050    2.9260    0.0380    4.4240    1.0000 
1645.9200   39.2570   46.2340   83.9330    2.9620    0.0200    4.9970    1.0000 
1646.2248   27.9210   46.7130   85.5930    2.9750    0.0009    5.0620    1.0000 
1646.5296   29.0760   47.2130   85.4960    2.9790    0.0067    4.3350    1.0000 
1646.8344   31.2620   47.1940   85.0960    2.9620    0.0219    3.6640   12.0000 
1647.1392   33.4470   46.7530   84.5090    2.9350    0.0119    3.4280   12.0000 
1647.4440   32.4900   46.5930   85.7290    2.9280    0.0014    3.7310   12.0000 
