~VERSION INFORMATION
 VERS.                 2.0:   CWLS LOG ASCII STANDARD - VERSION 2.0
 WRAP.                  NO:   SINGLE LINE PER DEPTH STEP
 CREA.                 05/01/2018 17:11:51
#CREATED USING DSPetro VERSION 5000.10.1.3 BY H191660 ON 05/01/2018 17:11:51
~WELL INFORMATION
#MNEM.UNIT       DATA                          DESCRIPTION MNEMONIC
#---------      ---------------------------   --------------------------
 STRT    .M         1527.0480                 : START DEPTH
 STOP    .M         2383.2312                 : STOP DEPTH
 STEP    .M         0.3048                    : STEP VALUE
 NULL    .      -999.0000                     : NULL VALUE
 DATE    .      05/01/2018                    : LAS file Creation Date
 WELL .      KALIUM_HERSEY_2081          : Well Name
 COMP .      Neftex Exploration Insights : Company
 FLD  .                                  : Field
 UWI  .      DUSWL_K_2081                : Unique Well Identifier (UWI)
 LOC  .                                  : Location
 RWS  .      -999                        : Def_Rw
 WST  .      -999                        : Def_Rwt
 SRVC .                                  : Contractor
~CURVE INFORMATION
#MNEM              UNIT       API CODE   Curve Type Comments
#----------  --------------- ----------  ---------- -----------
 DEPTH      .M                         : Depth       
 GR_API     .API                       : GammaRay    Gamma Ray (API) - Measures the intensity of natural gamma-ray radiation emitted from formations containing radioactive elements, such as K, Th and U
 DT_US_FT   .us/ft                     :             Interval Transit Time: Compressional Wave - Evaluates the time it takes for a compressional wave to traverse a fixed distance
 DTS_US_FT  .us/ft                     :             Interval Transit Time: Shear Wave - Evaluates the time it takes for a shear wave to traverse a fixed distance
 RHOZ_G_CC  .g/cc                      :             Formation Density - Measures the density of formation, including any void space or other materials contained in the subject volume
 NPHI_v/v   .dec                       : Neutron     
 PEF_B_E    .b/e-                      : PEF         Photoelectric Factor - A log of photoelectric absorption properties. Often expressed in an approximation unit barns/electron (b/e-)
 LITH       .                          :             
~A  DEPTH   GR_API   DT_US_FT DTS_US_F~ RHOZ_G_C~  NPHI_v/v  PEF_B_E     LITH   
# ...
2130.5520   33.1230   46.7820   91.0350    2.7200    0.0005    4.9010   18.0000 
2130.8568   36.0510   46.1360   91.4870    2.7310    0.0006    5.6870   18.0000 
2131.1616   38.3120   45.5380   91.4130    2.7530    0.0020    6.0890   18.0000 
2131.4664   39.1860   44.8240   91.5510    2.7610    0.0033    6.0480   18.0000 
2131.7712   37.5210   44.8400   90.6460    2.7530    0.0057    5.6760   18.0000 
2132.0760   34.5420   45.7800   88.5220    2.7720    0.0116    4.7110   18.0000 
2132.3808   38.2530   45.4970   87.5350    2.7630    0.0169    4.2340   18.0000 
2132.6856   40.0850   48.3750   89.0280    2.6920    0.0423    3.6590   18.0000 
2132.9904   39.6380   47.6510   88.7680    2.6780    0.1005    3.5920   12.0000 
2133.2952   38.3370   47.6420   90.0840    2.6990    0.1500    4.0020   12.0000 
2133.6000   36.0680   48.7760   91.5480    2.6990    0.1123    4.1400   12.0000 
2133.9048   30.1370   46.5020   93.0930    2.7780    0.0002    4.4060   12.0000 
2134.2096   33.0630   45.4110   92.6450    2.9020    0.0007    4.8330    1.0000 
2134.5144   34.3560   45.4730   92.1220    2.8600    0.0043    5.3460    1.0000 
2134.8192   32.5820   45.3180   92.1530    2.7970    0.0067    5.7240   18.0000 
2135.1240   36.9560   45.2250   92.8180    2.7380    0.0049    5.4060   18.0000 
2135.4288   35.7780   47.9890   94.2580    2.7520    0.0029    4.8750   18.0000 
2135.7336   31.9470   46.4040   92.7320    2.7630    0.0023    4.6630   18.0000 
2136.0384   30.1650   45.8530   91.6950    2.7390    0.0004    4.7980   18.0000 
2136.3432   32.1270   46.2860   92.0800    2.7400   -0.0010    4.7470   18.0000 
2136.6480   30.2850   45.7110   92.8450    2.7390   -0.0017    4.9130   18.0000 
2136.9528   29.8860   47.4420   92.8970    2.7600    0.0003    5.3700   18.0000 
2137.2576   31.0160   48.5930   93.7330    2.7840    0.0035    5.7520   18.0000 
2137.5624   35.3310   46.8910   92.4320    2.7570    0.0051    5.2900   18.0000 
2137.8672   39.4530   47.3160   94.9660    2.7430    0.0066    5.1820   18.0000 
2138.1720   45.6390   50.7250   97.4380    2.7780    0.0090    5.3460   18.0000 
2138.4768   48.5000   51.0130   98.3950    2.7730    0.0080    5.3750   18.0000 
2138.7816   45.6930   51.1180   98.0100    2.7660    0.0045    5.2350   18.0000 
2139.0864   42.5210   50.6920   96.4160    2.7830    0.0037    5.0330   18.0000 
2139.3912   40.0220   51.3320   96.3250    2.7570    0.0061    4.6670   18.0000 
2139.6960   45.2400   50.5610   97.5540    2.7480    0.0067    4.8160   18.0000 
2140.0008   47.3240   49.2340   95.4310    2.7640    0.0058    4.8920   18.0000 
2140.3056   42.8910   50.1500   94.9610    2.7460    0.0067    4.9010   18.0000 
2140.6104   37.6160   49.2700   94.9970    2.7470    0.0043    5.3180   18.0000 
2140.9152   37.7130   47.8880   94.2130    2.7510    0.0003    5.6540   18.0000 
2141.2200   36.2250   46.3830   93.2880    2.7610   -0.0008    5.2910   18.0000 
2141.5248   35.0460   46.8300   92.6620    2.7360   -0.0016    4.9290   18.0000 
2141.8296   37.7390   46.4700   92.7090    2.7510   -0.0014    4.8150   18.0000 
2142.1344   34.8740   46.1900   94.2570    2.7610   -0.0010    4.6900   18.0000 
2142.4392   31.7630   48.8620   93.0160    2.7780   -0.0012    4.8860   18.0000 
2142.7440   27.8100   50.1300   91.8340    2.7580   -0.0022    5.0380   18.0000 
2143.0488   29.1060   48.6500   91.5790    2.7310   -0.0031    5.1370   18.0000 
2143.3536   31.5500   48.1270   91.6570    2.7360   -0.0015    5.1440   18.0000 
2143.6584   30.9140   47.9310   93.8840    2.7500   -0.0016    4.9220   18.0000 
2143.9632   30.2760   48.2940   93.0210    2.7570   -0.0017    4.8990   18.0000 
2144.2680   33.0890   47.6280   92.5780    2.7410   -0.0021    4.9700   18.0000 
2144.5728   35.2880   47.1060   92.2550    2.7390   -0.0012    5.1680   18.0000 
2144.8776   39.2390   46.9100   92.0570    2.7350   -0.0010    5.4000   18.0000 
2145.1824   39.2070   46.9200   92.0610    2.7590   -0.0013    5.2580   18.0000 
2145.4872   37.6700   47.6390   92.0980    2.7750   -0.0011    5.3000   18.0000 
2145.7920   36.5490   47.5220   92.0840    2.7570    0.0021    5.3950   18.0000 
2146.0968   33.9240   46.9620   91.6190    2.7590    0.0021    5.2730   18.0000 
2146.4016   35.6450   46.7080   91.1580    2.7700    0.0019    4.9430   18.0000 
2146.7064   34.2900   47.3220   90.1550    2.7830    0.0026    4.6690   18.0000 
2147.0112   32.8080   47.5060   91.0860    2.7690    0.0025    4.5860   18.0000 
2147.3160   34.4850   47.3750   90.0850    2.7760    0.0013    4.5290   18.0000 
2147.6208   32.2730   47.7260   88.8440    2.7830    0.0002    4.6200   18.0000 
2147.9256   32.4300   48.1200   88.3830    2.7840   -0.0018    4.7560   18.0000 
2148.2304   33.4230   47.3330   88.7420    2.7730   -0.0032    4.9270   18.0000 
2148.5352   31.2170   46.4120   90.2300    2.7820   -0.0027    5.1530   18.0000 
2148.8400   32.2760   46.4730   91.0970    2.7780   -0.0033    5.0480   18.0000 
2149.1448   31.5150   45.9450   90.1940    2.7650   -0.0063    4.8860   18.0000 
2149.4496   29.0180   45.5080   89.8570    2.7470   -0.0072    4.9170   18.0000 
2149.7544   27.9570   45.1360   90.3050    2.7490   -0.0060    4.8460   18.0000 
2150.0592   30.2240   45.3370   91.0390    2.7340   -0.0057    4.8130   18.0000 
2150.3640   29.2280   45.8690   91.7020    2.7600   -0.0063    4.8160   18.0000 
2150.6688   30.2840   46.7180   91.5380    2.7550   -0.0038    4.8730   18.0000 
2150.9736   28.7400   46.8810   92.0520    2.7920   -0.0039    4.9400   18.0000 
2151.2784   28.6500   45.9780   92.1670    2.7750   -0.0043    4.9810   18.0000 
2151.5832   26.8730   45.9140   91.4020    2.7480   -0.0034    4.9800   18.0000 
2151.8880   25.6320   45.7850   90.8700    2.7470   -0.0032    4.9210   18.0000 
2152.1928   26.7530   45.9440   92.9140    2.7400   -0.0035    4.8670   18.0000 
2152.4976   25.0260   46.2300   91.9180    2.7690   -0.0041    4.9530   18.0000 
2152.8024   24.9420   47.3350   92.0360    2.7560   -0.0040    4.8920   18.0000 
2153.1072   27.0840   46.0080   91.6780    2.7680   -0.0041    4.7320   18.0000 
2153.4120   32.4180   46.7110   92.0820    2.7620   -0.0037    4.5430   18.0000 
2153.7168   36.0770   46.4550   92.9670    2.7480   -0.0029    4.6160   18.0000 
2154.0216   37.1360   51.1660   96.1830    2.7310    0.0065    4.7250   18.0000 
2154.3264   40.7850   53.2130  100.1470    2.6960    0.0132    4.7370   18.0000 
2154.6312   45.6950   52.9340   99.9850    2.7170    0.0148    4.6390   18.0000 
2154.9360   40.9040   52.0310   97.8610    2.7330    0.0137    4.7100   18.0000 
2155.2408   31.7090   51.2300   95.0710    2.7460    0.0075    4.7840   18.0000 
2155.5456   30.9440   50.4450   93.7160    2.7260    0.0015    4.8530   18.0000 
2155.8504   32.8430   48.7170   92.9710    2.7240   -0.0006    4.9640   18.0000 
2156.1552   30.5810   46.8140   92.7850    2.7480   -0.0025    5.0560   18.0000 
2156.4600   35.1270   46.3280   93.7570    2.7580    0.0038    4.8560   18.0000 
2156.7648   38.1120   46.4590   94.2590    2.7200    0.0069    4.6460   18.0000 
2157.0696   36.8820   51.0780   94.8280    2.7270    0.0082    4.5470   18.0000 
2157.3744   35.5790   51.2060   95.3080    2.7240    0.0125    4.7930   18.0000 
2157.6792   38.2070   51.4080   95.2370    2.7380    0.0198    4.8360   18.0000 
2157.9840   38.3000   51.3850   94.8510    2.7590    0.0210    4.8790   18.0000 
2158.2888   37.5480   51.8640   95.5250    2.7630    0.0194    4.9340   18.0000 
2158.5936   39.5690   51.8030   95.9230    2.7460    0.0173    4.8910   18.0000 
2158.8984   42.3110   52.1260   96.9080    2.7600    0.0174    4.8280   18.0000 
2159.2032   44.8650   51.9510   97.7800    2.7730    0.0201    4.9970   18.0000 
2159.5080   47.1860   52.5970   98.4670    2.7470    0.0145    5.2480   18.0000 
2159.8128   41.7900   53.3660   99.6170    2.7550    0.0055    5.2570   18.0000 
2160.1176   35.2550   52.6190  100.7190    2.8600    0.0016    4.9780    1.0000 
2160.4224   34.7360   52.6810  100.9430    2.9030    0.0015    4.8970    1.0000 
