~VERSION INFORMATION
 VERS.                 2.0:   CWLS LOG ASCII STANDARD - VERSION 2.0
 WRAP.                  NO:   SINGLE LINE PER DEPTH STEP
 CREA.                 05/01/2018 17:11:51
#CREATED USING DSPetro VERSION 5000.10.1.3 BY H191660 ON 05/01/2018 17:11:51
~WELL INFORMATION
#MNEM.UNIT       DATA                          DESCRIPTION MNEMONIC
#---------      ---------------------------   --------------------------
 STRT    .M         1527.0480                 : START DEPTH
 STOP    .M         2383.2312                 : STOP DEPTH
 STEP    .M         0.3048                    : STEP VALUE
 NULL    .      -999.0000                     : NULL VALUE
 DATE    .      05/01/2018                    : LAS file Creation Date
 WELL .      KALIUM_HERSEY_2081          : Well Name
 COMP .      Neftex Exploration Insights : Company
 FLD  .                                  : Field
 UWI  .      DUSWL_K_2081                : Unique Well Identifier (UWI)
 LOC  .                                  : Location
 RWS  .      -999                        : Def_Rw
 WST  .      -999                        : Def_Rwt
 SRVC .                                  : Contractor
~CURVE INFORMATION
#MNEM              UNIT       API CODE   Curve Type Comments
#----------  --------------- ----------  ---------- -----------
 DEPTH      .M                         : Depth       
 GR_API     .API                       : GammaRay    Gamma Ray (API) - Measures the intensity of natural gamma-ray radiation emitted from formations containing radioactive elements, such as K, Th and U
 DT_US_FT   .us/ft                     :             Interval Transit Time: Compressional Wave - Evaluates the time it takes for a compressional wave to traverse a fixed distance
 DTS_US_FT  .us/ft                     :             Interval Transit Time: Shear Wave - Evaluates the time it takes for a shear wave to traverse a fixed distance
 RHOZ_G_CC  .g/cc                      :             Formation Density - Measures the density of formation, including any void space or other materials contained in the subject volume
 NPHI_v/v   .dec                       : Neutron     
 PEF_B_E    .b/e-                      : PEF         Photoelectric Factor - A log of photoelectric absorption properties. Often expressed in an approximation unit barns/electron (b/e-)
 LITH       .                          :             
~A  DEPTH   GR_API   DT_US_FT DTS_US_F~ RHOZ_G_C~  NPHI_v/v  PEF_B_E     LITH   
# ...
1768.4496   50.6660   79.0600  135.1760    2.0110    0.3262    4.6610   16.0000 
1768.7544   56.5890   77.3570  130.3010    2.1530    0.2468    4.2330   37.0000 
1769.0592   69.6360   71.8320  123.3570    2.6650    0.1910    3.9180   37.0000 
1769.3640   73.3280   68.0010  120.6670    2.6730    0.1867    3.7460   37.0000 
1769.6688   75.6320   64.1050  123.1990    2.6170    0.1909    3.5640   37.0000 
1769.9736   77.4540   66.3340  127.5060    2.5330    0.1816    3.4620   37.0000 
1770.2784   77.1620   68.8440  125.5400    2.5780    0.1818    3.5240   37.0000 
1770.5832   77.9570   65.0170  121.4510    2.5870    0.1887    3.6390   37.0000 
1770.8880   78.0890   62.4190  116.3970    2.5400    0.1837    3.7120   37.0000 
1771.1928   70.3760   61.8370  112.9670    2.3320    0.1491    3.8080   16.0000 
1771.4976   62.1180   61.2720  113.8450    2.0330    0.1356    4.0060   16.0000 
1771.8024   52.7150   66.6100  118.6360    2.0850    0.1088    4.2610   16.0000 
1772.1072   46.3880   66.7310  117.9930    2.0390    0.0382    4.5510   16.0000 
1772.4120   41.9360   70.4380  114.4430    2.0440    0.0499    4.7580   16.0000 
1772.7168   41.9450   67.8090  111.9930    2.0350    0.1061    4.9450   16.0000 
1773.0216   41.7140   66.2840  113.1770    2.0240    0.1316    5.0580   16.0000 
1773.3264   39.7340   64.4350  113.5170    2.0280    0.0977    5.0880   16.0000 
1773.6312   41.0100   70.4570  121.4250    2.0330    0.1107    5.0530   16.0000 
1773.9360   43.0140   72.8060  126.7960    1.8660    0.1256    4.8880   16.0000 
1774.2408   43.7490   67.8460  124.7690    1.8970    0.1090    4.2900   16.0000 
1774.5456   42.1920   62.7490  111.9700    2.0470    0.1355    4.3410   16.0000 
1774.8504   40.8150   65.4540  116.9630    1.9650    0.1710    4.3170   16.0000 
1775.1552   42.5150   73.2210  124.1660    2.0010    0.1822    4.3720   16.0000 
1775.4600   47.8980   85.5190  120.6660    1.9860    0.2016    4.3600   16.0000 
1775.7648   57.2000   79.4130  118.4820    2.1300    0.1752    4.0530   16.0000 
1776.0696   68.8590   70.1660  123.2300    2.5460    0.1980    3.5890   22.0000 
1776.3744   71.2830   70.4880  126.1040    2.5620    0.2108    3.4390   37.0000 
1776.6792   69.4250   69.5870  131.7850    2.5260    0.1833    3.4920   37.0000 
1776.9840   67.9280   69.6870  135.5560    2.3920    0.1775    3.5480   37.0000 
1777.2888   66.4290   67.0570  138.9010    2.3900    0.1906    3.6650   22.0000 
1777.5936   67.5260   65.9700  131.9620    2.3680    0.2065    3.7540   22.0000 
1777.8984   66.6930   70.9210  128.4870    2.2160    0.2080    3.8360   22.0000 
1778.2032   67.3640   66.9120  120.5340    2.2970    0.1957    3.7890   22.0000 
1778.5080   68.7650   65.5090  114.7860    2.4560    0.1776    3.8090   22.0000 
1778.8128   66.1200   65.7100  112.1750    2.4690    0.1883    3.7710   22.0000 
1779.1176   56.4750   60.2060  115.6600    2.0930    0.1632    3.9850   16.0000 
1779.4224   49.3640   59.1260  117.4650    1.9290    0.1513    4.2060   16.0000 
1779.7272   45.4500   69.4400  135.0010    1.9990    0.2263    4.5020   16.0000 
1780.0320   48.2370   79.4260   48.6300    1.8800    0.2628    4.3470   16.0000 
1780.3368   54.7050   76.5590  128.6580    2.4140    0.2284    3.8830   16.0000 
1780.6416   61.0550   67.9090  116.7430    2.5270    0.1050    3.7830   22.0000 
1780.9464   58.8320   65.2580  115.5350    2.0190    0.0945    3.8820   22.0000 
1781.2512   52.3850   67.6700  116.7640    2.0020    0.1647    3.9530   16.0000 
1781.5560   53.8440   72.5410  125.0900    1.9040    0.2744    3.8830   16.0000 
1781.8608   67.2540   80.1040  139.1900    1.9930    0.2593    3.8070   16.0000 
1782.1656   72.5750   79.8250  139.6280    2.4100    0.1713    3.6170   22.0000 
1782.4704   74.6370   68.3880  123.9810    2.5820    0.1497    3.6550   37.0000 
1782.7752   74.0450   65.5160  117.2530    2.6040    0.1393    3.5990   37.0000 
1783.0800   63.0120   64.0330  114.2690    2.6290    0.1320    3.5190   37.0000 
1783.3848   59.3420   63.4690  111.9180    2.6100    0.1301    3.5600   37.0000 
1783.6896   60.6200   64.9320  117.6770    2.5460    0.1310    3.6590   37.0000 
1783.9944   55.8620   66.9980  121.1480    2.4980    0.1077    3.7710   37.0000 
1784.2992   50.5020   65.4140  122.3870    2.3870    0.0640    3.9380   16.0000 
1784.6040   48.7040   68.5790  118.1580    2.2590    0.0524    4.0450   16.0000 
1784.9088   46.9620   71.3670  116.2700    2.1440    0.0451    4.2470   16.0000 
1785.2136   47.0340   73.2720  120.9230    2.0750    0.0305    4.3310   16.0000 
1785.5184   48.6750   71.1420  124.1790    2.0860    0.0304    4.3400   16.0000 
1785.8232   51.7020   70.7400  128.3690    2.0730    0.0764    4.4750   16.0000 
1786.1280   51.9540   70.8040  125.1760    2.0800    0.0765    4.6580   16.0000 
1786.4328   51.8430   66.9290  120.0580    2.0630    0.0542    4.4470   16.0000 
1786.7376   51.7950   66.3660  120.3570    2.1450    0.0290    4.2530   16.0000 
1787.0424   46.7990   66.3060  119.6560    2.0440    0.0090    4.2030   16.0000 
1787.3472   44.6970   69.7770  116.8480    2.1800    0.0015    4.1130   16.0000 
1787.6520   45.0090   67.0230  115.6260    2.2590    0.0179    4.3060   16.0000 
1787.9568   45.9860   65.1610  116.9270    2.1230    0.0628    4.4050   16.0000 
1788.2616   45.6350   69.8970  119.4190    2.2210    0.0884    4.3270   16.0000 
1788.5664   43.5330   71.7570  120.1690    2.2810    0.0607    4.4030   16.0000 
1788.8712   45.2940   72.1580  123.6600    2.1570    0.0297    4.5460   16.0000 
1789.1760   52.6070   71.2140  125.3460    2.0780    0.0122    4.7400   16.0000 
1789.4808   58.4120   69.0260  124.3000    2.0910    0.0077    4.7800   16.0000 
1789.7856   54.4400   67.7810  121.5510    2.1960    0.0051    4.6500   16.0000 
1790.0904   50.3460   70.8260  119.2000    2.3270    0.0083    4.2120   15.0000 
1790.3952   43.6580   70.7700  119.5650    2.3300    0.0215    4.3230   15.0000 
1790.7000   38.9010   70.1450  120.1040    2.2170    0.0210    4.4360   16.0000 
1791.0048   40.1780   69.5430  120.8450    2.1530    0.0162    4.5570   16.0000 
1791.3096   42.7250   67.8790  120.2570    2.1260    0.0101    4.6350   16.0000 
1791.6144   47.2610   67.5760  122.0880    2.1320    0.0039    4.7240   16.0000 
1791.9192   52.9440   71.0460  120.8230    2.1410   -0.0019    4.7230   16.0000 
1792.2240   52.8960   66.8880  119.6220    2.1200   -0.0056    4.6430   16.0000 
1792.5288   50.9150   69.3590  119.0160    2.0720   -0.0099    4.7170   16.0000 
1792.8336   48.6330   70.2570  118.7900    2.0740   -0.0106    4.7760   16.0000 
1793.1384   43.6950   70.5990  119.7710    2.0880   -0.0093    4.8340   16.0000 
1793.4432   42.4980   69.2700  119.7770    2.1030   -0.0115    4.8790   16.0000 
1793.7480   43.9580   68.6710  118.8890    2.0850   -0.0138    4.8330   16.0000 
1794.0528   39.7460   70.1930  118.7290    2.0770   -0.0116    4.8400   16.0000 
1794.3576   37.2200   69.4900  119.3510    2.0720   -0.0112    4.8800   16.0000 
1794.6624   36.1460   69.5710  119.5110    2.0690   -0.0135    4.8890   16.0000 
1794.9672   36.5780   70.3340  119.5070    2.0740   -0.0153    4.8570   16.0000 
1795.2720   37.8560   72.2440  119.7290    2.0820   -0.0164    4.7770   16.0000 
1795.5768   38.8350   70.0940  118.8060    2.0900   -0.0133    4.6610   16.0000 
1795.8816   38.9060   70.8770  118.0050    2.0790   -0.0120    4.7610   16.0000 
1796.1864   39.7590   70.4330  117.4390    2.0820   -0.0074    4.8820   16.0000 
1796.4912   39.9530   69.4460  119.1030    2.0720    0.0036    4.8990   16.0000 
1796.7960   38.3930   69.8060  118.5300    2.0860    0.0034    4.7670   16.0000 
1797.1008   38.8850   71.4340  117.1000    2.1010    0.0006    4.6970   16.0000 
1797.4056   39.8610   69.6840  124.3420    2.1250    0.0083    4.6510   16.0000 
1797.7104   40.1150   70.4840  122.2950    2.1230    0.0252    4.7880   16.0000 
1798.0152   46.8840   68.8370  121.1060    2.0820    0.0145    4.9510   16.0000 
1798.3200   51.7230   67.5160  119.0990    2.0630    0.0057    4.9630   16.0000 
