~VERSION INFORMATION
 VERS.                 2.0:   CWLS LOG ASCII STANDARD - VERSION 2.0
 WRAP.                  NO:   SINGLE LINE PER DEPTH STEP
 CREA.                 05/01/2018 17:11:51
#CREATED USING DSPetro VERSION 5000.10.1.3 BY H191660 ON 05/01/2018 17:11:51
~WELL INFORMATION
#MNEM.UNIT       DATA                          DESCRIPTION MNEMONIC
#---------      ---------------------------   --------------------------
 STRT    .M         1527.0480                 : START DEPTH
 STOP    .M         2383.2312                 : STOP DEPTH
 STEP    .M         0.3048                    : STEP VALUE
 NULL    .      -999.0000                     : NULL VALUE
 DATE    .      05/01/2018                    : LAS file Creation Date
 WELL .      KALIUM_HERSEY_2081          : Well Name
 COMP .      Neftex Exploration Insights : Company
 FLD  .                                  : Field
 UWI  .      DUSWL_K_2081                : Unique Well Identifier (UWI)
 LOC  .                                  : Location
 RWS  .      -999                        : Def_Rw
 WST  .      -999                        : Def_Rwt
 SRVC .                                  : Contractor
~CURVE INFORMATION
#MNEM              UNIT       API CODE   Curve Type Comments
#----------  --------------- ----------  ---------- -----------
 DEPTH      .M                         : Depth       
 GR_API     .API                       : GammaRay    Gamma Ray (API) - Measures the intensity of natural gamma-ray radiation emitted from formations containing radioactive elements, such as K, Th and U
 DT_US_FT   .us/ft                     :             Interval Transit Time: Compressional Wave - Evaluates the time it takes for a compressional wave to traverse a fixed distance
 DTS_US_FT  .us/ft                     :             Interval Transit Time: Shear Wave - Evaluates the time it takes for a shear wave to traverse a fixed distance
 RHOZ_G_CC  .g/cc                      :             Formation Density - Measures the density of formation, including any void space or other materials contained in the subject volume
 NPHI_v/v   .dec                       : Neutron     
 PEF_B_E    .b/e-                      : PEF         Photoelectric Factor - A log of photoelectric absorption properties. Often expressed in an approximation unit barns/electron (b/e-)
 LITH       .                          :             
~A  DEPTH   GR_API   DT_US_FT DTS_US_F~ RHOZ_G_C~  NPHI_v/v  PEF_B_E     LITH   
# ...
1828.8000   43.3910   67.0830  120.0380    2.1810   -0.0149    4.7340   16.0000 
1829.1048   42.0120   67.8070  119.9000    2.2050   -0.0149    4.5960   16.0000 
1829.4096   38.5230   69.0320  119.3980    2.2870   -0.0051    4.4930   16.0000 
1829.7144   41.9130   68.7280  119.5930    2.2380   -0.0016    4.5200   16.0000 
1830.0192   39.3890   68.6680  119.9540    2.1330   -0.0049    4.5480   16.0000 
1830.3240   39.8220   70.5720  119.8360    2.1220   -0.0107    4.5890   16.0000 
1830.6288   42.4290   70.8180  119.5310    2.1850   -0.0105    4.6030   16.0000 
1830.9336   43.1060   69.4660  119.4510    2.2850   -0.0022    4.4130   16.0000 
1831.2384   37.9880   71.5920  118.7470    2.1890   -0.0110    4.6160   16.0000 
1831.5432   39.1430   70.7470  117.9620    2.1220   -0.0121    4.7470   16.0000 
1831.8480   39.1550   69.4820  118.5010    2.1190   -0.0137    4.7920   16.0000 
1832.1528   37.7150   69.5050  119.1280    2.1690   -0.0189    4.8080   16.0000 
1832.4576   37.1220   68.6620  118.9240    2.1590   -0.0189    4.7980   16.0000 
1832.7624   35.2620   68.3420  118.5810    2.0850   -0.0160    4.6980   16.0000 
1833.0672   35.0910   68.0020  118.6970    2.0810   -0.0144    4.8150   16.0000 
1833.3720   39.8100   67.2760  118.9780    2.0690   -0.0166    4.8140   16.0000 
1833.6768   43.9250   68.5990  119.2370    2.1110   -0.0196    4.7180   16.0000 
1833.9816   42.1850   69.3190  118.7780    2.1880   -0.0206    4.5630   16.0000 
1834.2864   38.5760   69.0960  118.4540    2.1750   -0.0210    4.7000   16.0000 
1834.5912   35.5080   68.7370  118.1560    2.1090   -0.0201    4.7650   16.0000 
1834.8960   32.8640   68.1870  116.9670    2.1100   -0.0222    4.8370   16.0000 
1835.2008   30.6410   68.5890  116.3470    2.0770   -0.0222    4.9100   16.0000 
1835.5056   29.0240   66.8430  116.3870    2.0830   -0.0213    4.9140   16.0000 
1835.8104   29.7000   68.9300  117.6290    2.0740   -0.0219    4.7880   16.0000 
1836.1152   33.2100   69.0300  117.2670    2.0550   -0.0224    4.7520   16.0000 
1836.4200   34.4280   70.1310  117.8290    2.0650   -0.0229    4.8590   16.0000 
1836.7248   33.5340   70.3330  117.9900    2.0490   -0.0208    5.0060   16.0000 
1837.0296   28.4750   71.3180  119.4440    2.0640   -0.0197    4.9140   16.0000 
1837.3344   24.8060   69.3740  119.5290    2.0460   -0.0214    4.9350   16.0000 
1837.6392   25.4190   68.3480  119.1240    2.0370   -0.0224    4.9830   16.0000 
1837.9440   25.4310   68.4070  118.9430    2.0430   -0.0226    4.8710   16.0000 
1838.2488   26.4660   69.0220  119.9040    2.0260   -0.0220    4.8920   16.0000 
1838.5536   29.2550   69.0040  119.7440    2.0260   -0.0214    4.8760   16.0000 
1838.8584   31.4970   66.4530  118.3180    2.0470   -0.0189    4.8140   16.0000 
1839.1632   33.7400   69.8400  115.7050    2.0450   -0.0162    4.8670   16.0000 
1839.4680   39.1820   68.2570  116.8150    2.0470   -0.0116    4.9430   16.0000 
1839.7728   55.1270   67.6730  118.8400    2.1180   -0.0032    4.8110   16.0000 
1840.0776   55.9220   67.9900  118.4530    2.1670   -0.0087    4.6810   16.0000 
1840.3824   49.4150   69.6230  119.6370    2.2070   -0.0119    4.5790   16.0000 
1840.6872   43.4510   67.9160  119.6020    2.4010   -0.0050    4.0310   15.0000 
1840.9920   45.9980   65.9630  118.7980    2.3330   -0.0002    4.2700   15.0000 
1841.2968   44.0160   63.0730  117.9730    2.1520   -0.0021    4.5740   16.0000 
1841.6016   38.7770   62.4520  118.3530    2.2440   -0.0093    4.5460   16.0000 
1841.9064   32.8730   62.5730  118.6130    2.2290   -0.0175    4.4280   16.0000 
1842.2112   34.8140   65.4400  117.6690    2.1410   -0.0191    4.5550   16.0000 
1842.5160   34.8260   66.2450  116.5460    2.1150   -0.0212    4.6370   16.0000 
1842.8208   32.9640   65.6440  116.3020    2.1380   -0.0223    4.6680   16.0000 
1843.1256   25.4310   67.9090  118.5050    2.1350   -0.0236    4.7590   16.0000 
1843.4304   23.6310   68.3100  119.9110    2.0860   -0.0240    4.8700   16.0000 
1843.7352   24.7310   68.7560  119.8360    2.0440   -0.0243    4.8920   16.0000 
1844.0400   23.2940   69.5370  119.5160    2.0320   -0.0220    4.8860   16.0000 
1844.3448   27.1080   67.9260  119.9080    2.0380   -0.0170    4.9090   16.0000 
1844.6496   33.2730   69.2500  121.0870    2.0490   -0.0030    4.8890   16.0000 
1844.9544   44.2050   70.4080  119.7010    2.0710    0.0896    4.7350   16.0000 
1845.2592   61.7180   68.6990  118.0180    2.1230    0.1066    4.6370   22.0000 
1845.5640   69.0950   67.8590  115.9890    2.3970    0.0938    4.2070   22.0000 
1845.8688   71.8190   66.5290  114.6080    2.6080    0.0723    3.7840   22.0000 
1846.1736   75.6300   66.6710  116.1070    2.6090    0.0319    3.5410   22.0000 
1846.4784   73.0470   68.1930  118.1350    2.6020    0.0135    3.6400   22.0000 
1846.7832   62.3150   66.5070  117.8360    2.5640   -0.0009    3.9190   22.0000 
1847.0880   48.4460   65.7790  117.2530    2.2360   -0.0115    4.5750   16.0000 
1847.3928   43.1450   65.2240  119.0750    2.1390   -0.0132    4.7780   16.0000 
1847.6976   42.1310   62.8310  119.1170    2.1710   -0.0119    4.9530   16.0000 
1848.0024   39.7280   65.4820  118.8120    2.1530   -0.0164    5.0840   16.0000 
1848.3072   36.7820   65.8450  118.2670    2.1160   -0.0188    5.0920   16.0000 
1848.6120   32.7500   67.2230  118.3280    2.1050   -0.0191    5.0260   16.0000 
1848.9168   31.2500   67.5510  118.6620    2.1080   -0.0187    4.9760   16.0000 
1849.2216   34.3400   68.7120  118.8190    2.1210   -0.0165    4.7780   16.0000 
1849.5264   35.2550   69.1530  118.4610    2.1300   -0.0171    4.6400   16.0000 
1849.8312   35.0250   67.2450  118.2440    2.1090   -0.0191    4.7590   16.0000 
1850.1360   32.0780   67.1990  118.6820    2.1050   -0.0197    4.8810   16.0000 
1850.4408   26.4170   68.0810  119.4620    2.0900   -0.0204    4.9160   16.0000 
1850.7456   28.7210   67.3840  119.4680    2.0620   -0.0206    4.9040   16.0000 
1851.0504   27.9480   67.8470  119.4820    2.0910   -0.0197    4.8180   16.0000 
1851.3552   29.8280   66.7000  118.9040    2.1560   -0.0159    4.7520   16.0000 
1851.6600   34.6070   67.3190  117.0950    2.2960   -0.0102    4.6200   16.0000 
1851.9648   49.7060   66.0120  117.5820    2.3790   -0.0051    4.3130   16.0000 
1852.2696   51.7070   65.9740  117.1400    2.2270   -0.0136    4.6830   16.0000 
1852.5744   41.2790   65.4710  119.5020    2.0970   -0.0184    4.8960   16.0000 
1852.8792   32.2980   69.1620  119.0620    2.0880   -0.0208    4.8240   16.0000 
1853.1840   25.7280   68.9630  119.2820    2.0890   -0.0233    4.8790   16.0000 
1853.4888   25.0140   69.3440  119.4580    2.0680   -0.0224    4.9420   16.0000 
1853.7936   30.9410   72.4750  119.2550    2.0640   -0.0187    4.9120   16.0000 
1854.0984   41.6330   68.3750  118.6150    2.1430   -0.0075    4.6450   16.0000 
1854.4032   44.8430   64.7980  118.2940    2.3220   -0.0130    4.3400   16.0000 
1854.7080   36.5850   65.0210  119.2760    2.3430   -0.0152    4.5350   16.0000 
1855.0128   34.2420   63.5130  118.2910    2.1660   -0.0186    4.6980   16.0000 
1855.3176   32.3210   67.7510  118.8920    2.1800   -0.0200    4.7410   16.0000 
1855.6224   28.8320   70.0370  119.4910    2.1390   -0.0210    4.8500   16.0000 
1855.9272   27.5760   69.7750  119.5750    2.1060   -0.0218    4.9530   16.0000 
1856.2320   28.7940   67.8220  119.6500    2.0820   -0.0225    5.0190   16.0000 
1856.5368   32.1860   68.5290  119.1690    2.0590   -0.0211    4.9130   16.0000 
1856.8416   37.0850   69.1270  118.8860    2.1110   -0.0176    4.8190   16.0000 
1857.1464   40.6550   71.0160  119.9490    2.1270   -0.0106    4.8500   16.0000 
1857.4512   39.0380   68.3450  119.0270    2.0920   -0.0119    4.8980   16.0000 
1857.7560   41.3420   67.1810  118.7850    2.1760   -0.0099    4.7340   16.0000 
1858.0608   40.7490   67.3990  117.2990    2.2390   -0.0118    4.6620   16.0000 
1858.3656   34.3640   64.3690  114.0830    2.1360   -0.0201    4.6080   16.0000 
1858.6704   33.4670   64.3660  117.9770    2.2880   -0.0209    4.5600   16.0000 
