~VERSION INFORMATION
 VERS.                 2.0:   CWLS LOG ASCII STANDARD - VERSION 2.0
 WRAP.                  NO:   SINGLE LINE PER DEPTH STEP
 CREA.                 05/01/2018 17:11:51
#CREATED USING DSPetro VERSION 5000.10.1.3 BY H191660 ON 05/01/2018 17:11:51
~WELL INFORMATION
#MNEM.UNIT       DATA                          DESCRIPTION MNEMONIC
#---------      ---------------------------   --------------------------
 STRT    .M         1527.0480                 : START DEPTH
 STOP    .M         2383.2312                 : STOP DEPTH
 STEP    .M         0.3048                    : STEP VALUE
 NULL    .      -999.0000                     : NULL VALUE
 DATE    .      05/01/2018                    : LAS file Creation Date
 WELL .      KALIUM_HERSEY_2081          : Well Name
 COMP .      Neftex Exploration Insights : Company
 FLD  .                                  : Field
 UWI  .      DUSWL_K_2081                : Unique Well Identifier (UWI)
 LOC  .                                  : Location
 RWS  .      -999                        : Def_Rw
 WST  .      -999                        : Def_Rwt
 SRVC .                                  : Contractor
~CURVE INFORMATION
#MNEM              UNIT       API CODE   Curve Type Comments
#----------  --------------- ----------  ---------- -----------
 DEPTH      .M                         : Depth       
 GR_API     .API                       : GammaRay    Gamma Ray (API) - Measures the intensity of natural gamma-ray radiation emitted from formations containing radioactive elements, such as K, Th and U
 DT_US_FT   .us/ft                     :             Interval Transit Time: Compressional Wave - Evaluates the time it takes for a compressional wave to traverse a fixed distance
 DTS_US_FT  .us/ft                     :             Interval Transit Time: Shear Wave - Evaluates the time it takes for a shear wave to traverse a fixed distance
 RHOZ_G_CC  .g/cc                      :             Formation Density - Measures the density of formation, including any void space or other materials contained in the subject volume
 NPHI_v/v   .dec                       : Neutron     
 PEF_B_E    .b/e-                      : PEF         Photoelectric Factor - A log of photoelectric absorption properties. Often expressed in an approximation unit barns/electron (b/e-)
 LITH       .                          :             
~A  DEPTH   GR_API   DT_US_FT DTS_US_F~ RHOZ_G_C~  NPHI_v/v  PEF_B_E     LITH   
# ...
2251.2528   35.6670   67.7270  118.4150    2.0680   -0.0210    4.9250   16.0000 
2251.5576   37.7910   67.6240  119.1600    2.0770   -0.0215    4.9490   16.0000 
2251.8624   38.7050   67.7260  119.0790    2.0800   -0.0217    4.9540   16.0000 
2252.1672   38.3550   68.0680  118.7150    2.0920   -0.0214    4.9480   16.0000 
2252.4720   40.4250   67.7860  119.3830    2.1070   -0.0215    4.9540   16.0000 
2252.7768   37.5210   67.5480  119.9790    2.0880   -0.0216    4.9560   16.0000 
2253.0816   35.0550   67.7630  119.1940    2.0820   -0.0223    4.8740   16.0000 
2253.3864   35.1800   67.8080  119.0130    2.0700   -0.0216    4.8950   16.0000 
2253.6912   36.9510   67.9890  119.2780    2.0650   -0.0218    4.8980   16.0000 
2253.9960   38.9550   68.2880  119.7970    2.0570   -0.0215    4.8840   16.0000 
2254.3008   36.9780   68.5480  119.8820    2.0670   -0.0214    4.8520   16.0000 
2254.6056   35.9990   68.2880  119.6570    2.0800   -0.0214    4.8480   16.0000 
2254.9104   36.8660   68.5500  119.6790    2.0730   -0.0215    4.7980   16.0000 
2255.2152   36.1430   68.7930  119.7230    2.0760   -0.0216    4.8270   16.0000 
2255.5200   36.0290   68.7310  119.9060    2.0770   -0.0223    4.8510   16.0000 
2255.8248   41.2430   68.5130  120.5880    2.0730   -0.0224    4.9150   16.0000 
2256.1296   42.3960   68.5150  119.8030    2.0680   -0.0229    5.0080   16.0000 
2256.4344   39.2060   68.0270  119.5570    2.0710   -0.0232    5.0210   16.0000 
2256.7392   36.3150   68.1250  119.5370    2.0600   -0.0234    4.9970   16.0000 
2257.0440   35.4800   68.3500  119.5010    2.0690   -0.0226    4.9310   16.0000 
2257.3488   35.0630   67.7470  119.4200    2.0760   -0.0228    4.9010   16.0000 
2257.6536   32.4860   68.1500  119.4000    2.0680   -0.0228    4.9360   16.0000 
2257.9584   32.2980   67.8870  119.5240    2.0650   -0.0224    4.9780   16.0000 
2258.2632   33.9990   67.6510  118.7980    2.0650   -0.0224    5.0060   16.0000 
2258.5680   37.1810   67.3280  118.6730    2.0750   -0.0225    4.9550   16.0000 
2258.8728   37.4100   67.3600  118.8990    2.0770   -0.0213    4.9450   16.0000 
2259.1776   36.2010   67.2220  119.1010    2.0740   -0.0213    4.9690   16.0000 
2259.4824   36.3410   67.3450  118.9170    2.0600   -0.0214    4.9940   16.0000 
2259.7872   37.8600   66.9600  119.0350    2.0670   -0.0218    4.9920   16.0000 
2260.0920   38.4320   67.4030  118.9520    2.0680   -0.0219    4.9060   16.0000 
2260.3968   38.3100   67.3620  118.7140    2.0850   -0.0213    4.9000   16.0000 
2260.7016   37.1100   67.0040  118.5160    2.0960   -0.0213    4.9530   16.0000 
2261.0064   38.2710   67.3860  118.4150    2.0900   -0.0215    5.0120   16.0000 
2261.3112   40.2620   67.2260  119.0990    2.0830   -0.0215    5.0340   16.0000 
2261.6160   43.7310   67.0860  119.3420    2.0670   -0.0224    5.0120   16.0000 
2261.9208   42.5240   67.1830  119.7630    2.0590   -0.0227    4.9720   16.0000 
2262.2256   39.5700   67.5890  119.6550    2.0630   -0.0225    5.0070   16.0000 
2262.5304   35.8940   68.1160  119.8210    2.0660   -0.0222    4.9470   16.0000 
2262.8352   33.8490   68.4800  120.0060    2.0520   -0.0218    4.9390   16.0000 
2263.1400   36.7550   68.4770  119.6820    2.0560   -0.0223    4.9970   16.0000 
2263.4448   39.1730   68.9770  119.4820    2.0610   -0.0224    5.0300   16.0000 
2263.7496   40.8210   68.6140  119.4220    2.0610   -0.0227    4.8980   16.0000 
2264.0544   39.2120   68.4540  119.5030    2.0540   -0.0231    4.9080   16.0000 
2264.3592   37.1040   68.4930  119.6420    2.0590   -0.0231    4.9520   16.0000 
2264.6640   35.5380   68.3300  119.5830    2.0640   -0.0231    4.9890   16.0000 
2264.9688   33.9330   68.1130  119.8600    2.0700   -0.0217    5.0460   16.0000 
2265.2736   34.1270   67.9690  119.5120    2.0560   -0.0228    5.0920   16.0000 
2265.5784   33.8220   67.8110  119.5340    2.0600   -0.0223    5.0410   16.0000 
2265.8832   32.8670   67.3280  119.5190    2.0590   -0.0227    4.9900   16.0000 
2266.1880   33.4370   67.3310  119.5200    2.0650   -0.0226    5.0200   16.0000 
2266.4928   33.3110   66.6660  119.4810    2.0580   -0.0227    5.0670   16.0000 
2266.7976   32.9580   66.3260  119.3990    2.0650   -0.0229    4.9760   16.0000 
2267.1024   33.7490   66.1670  119.1780    2.0710   -0.0230    5.0170   16.0000 
2267.4072   32.9030   65.4400  119.0600    2.0670   -0.0229    4.9530   16.0000 
2267.7120   31.5830   65.5220  119.0190    2.0730   -0.0225    4.9840   16.0000 
2268.0168   31.8990   65.7390  118.9610    2.0820   -0.0217    4.8900   16.0000 
2268.3216   33.4220   66.1210  118.6370    2.0790   -0.0211    4.8120   16.0000 
2268.6264   29.0330   65.4200  118.3350    2.0720   -0.0208    4.8600   16.0000 
2268.9312   30.7680   66.4220  118.1160    2.0770   -0.0208    4.9530   16.0000 
2269.2360   35.2580   67.3870  117.7560    2.0930   -0.0210    4.9700   16.0000 
2269.5408   38.2790   67.7140  117.6570    2.1120   -0.0210    4.9330   16.0000 
2269.8456   38.9700   66.7240  117.8750    2.1110   -0.0217    4.8860   16.0000 
2270.1504   36.9290   66.9080  118.0800    2.0770   -0.0222    4.8160   16.0000 
2270.4552   36.1400   67.7910  118.3600    2.0680   -0.0227    4.8190   16.0000 
2270.7600   34.0920   66.7050  118.6420    2.0520   -0.0226    4.8690   16.0000 
2271.0648   34.7100   66.7850  119.1620    2.0630   -0.0218    4.9330   16.0000 
2271.3696   35.8050   66.5200  118.9800    2.0580   -0.0218    5.0220   16.0000 
2271.6744   36.4850   66.5030  119.0050    2.0710   -0.0220    5.0320   16.0000 
2271.9792   36.6210   66.4650  118.8460    2.0770   -0.0227    4.9780   16.0000 
2272.2840   36.7040   67.4510  118.8250    2.0550   -0.0230    4.8700   16.0000 
2272.5888   38.1030   67.9140  118.6590    2.0580   -0.0220    4.8780   16.0000 
2272.8936   37.7420   68.1310  119.3020    2.0680   -0.0219    4.9710   16.0000 
2273.1984   37.0200   67.9930  119.7440    2.0600   -0.0216    5.0320   16.0000 
2273.5032   36.4190   67.6320  119.7260    2.0700   -0.0216    4.9880   16.0000 
2273.8080   37.8090   67.7280  119.5630    2.0640   -0.0226    4.9280   16.0000 
2274.1128   38.5550   68.3150  119.8850    2.0460   -0.0219    4.9750   16.0000 
2274.4176   37.7250   68.3130  119.8450    2.0440   -0.0227    4.9130   16.0000 
2274.7224   39.9920   68.1960  120.0090    2.0480   -0.0221    4.9450   16.0000 
2275.0272   37.9860   68.0950  119.0570    2.0490   -0.0222    5.0080   16.0000 
2275.3320   37.5690   67.7930  119.2210    2.0520   -0.0224    5.0020   16.0000 
2275.6368   38.4150   67.5110  119.3400    2.0560   -0.0226    5.0000   16.0000 
2275.9416   41.7630   66.4890  117.8340    2.0460   -0.0227    5.0970   16.0000 
2276.2464   40.0110   63.8960  113.8630    2.0460   -0.0221    5.0140   16.0000 
2276.5512   37.3640   62.7520  107.9910    2.0400   -0.0219    4.9760   16.0000 
2276.8560   36.1520   62.8970  114.1180    2.0500   -0.0218    5.0270   16.0000 
2277.1608   32.7260   63.3190  113.5960    2.0640   -0.0213    5.0520   16.0000 
2277.4656   25.6640   65.2440  115.7470    2.0630   -0.0215    5.0230   16.0000 
2277.7704   21.9840   63.4920  116.1090    2.0620   -0.0210    4.9190   16.0000 
2278.0752   22.0520   64.5620  113.9590    2.0710   -0.0207    4.9800   16.0000 
2278.3800   27.0810   63.7200  110.0790    2.0610   -0.0164    4.9460   16.0000 
2278.6848   28.9640   63.9010  113.8760    2.0820   -0.0093    4.9000   16.0000 
2278.9896   28.9310   64.6470  108.6330    2.1400    0.0028    4.7460   16.0000 
2279.2944   31.2870   54.3160   96.0600    2.4730    0.0140    4.3300   16.0000 
2279.5992   36.1850   48.4270   90.2960    2.8580    0.0303    3.5170   12.0000 
2279.9040   38.6070   46.2500   84.8110    2.8130    0.0415    3.1800   12.0000 
2280.2088   37.6640   46.8760   86.1990    2.8040    0.0468    3.1040   12.0000 
2280.5136   37.1300   47.3830   87.3060    2.8020    0.0399    3.1460   12.0000 
2280.8184   35.0670   46.4180   85.5360    2.7990    0.0342    3.1670   12.0000 
2281.1232   41.6960   47.3800   85.9820    2.7620    0.0362    3.1610   12.0000 
