~VERSION INFORMATION
 VERS.                 2.0:   CWLS LOG ASCII STANDARD - VERSION 2.0
 WRAP.                  NO:   SINGLE LINE PER DEPTH STEP
 CREA.                 05/01/2018 17:11:51
#CREATED USING DSPetro VERSION 5000.10.1.3 BY H191660 ON 05/01/2018 17:11:51
~WELL INFORMATION
#MNEM.UNIT       DATA                          DESCRIPTION MNEMONIC
#---------      ---------------------------   --------------------------
 STRT    .M         1527.0480                 : START DEPTH
 STOP    .M         2383.2312                 : STOP DEPTH
 STEP    .M         0.3048                    : STEP VALUE
 NULL    .      -999.0000                     : NULL VALUE
 DATE    .      05/01/2018                    : LAS file Creation Date
 WELL .      KALIUM_HERSEY_2081          : Well Name
 COMP .      Neftex Exploration Insights : Company
 FLD  .                                  : Field
 UWI  .      DUSWL_K_2081                : Unique Well Identifier (UWI)
 LOC  .                                  : Location
 RWS  .      -999                        : Def_Rw
 WST  .      -999                        : Def_Rwt
 SRVC .                                  : Contractor
~CURVE INFORMATION
#MNEM              UNIT       API CODE   Curve Type Comments
#----------  --------------- ----------  ---------- -----------
 DEPTH      .M                         : Depth       
 GR_API     .API                       : GammaRay    Gamma Ray (API) - Measures the intensity of natural gamma-ray radiation emitted from formations containing radioactive elements, such as K, Th and U
 DT_US_FT   .us/ft                     :             Interval Transit Time: Compressional Wave - Evaluates the time it takes for a compressional wave to traverse a fixed distance
 DTS_US_FT  .us/ft                     :             Interval Transit Time: Shear Wave - Evaluates the time it takes for a shear wave to traverse a fixed distance
 RHOZ_G_CC  .g/cc                      :             Formation Density - Measures the density of formation, including any void space or other materials contained in the subject volume
 NPHI_v/v   .dec                       : Neutron     
 PEF_B_E    .b/e-                      : PEF         Photoelectric Factor - A log of photoelectric absorption properties. Often expressed in an approximation unit barns/electron (b/e-)
 LITH       .                          :             
~A  DEPTH   GR_API   DT_US_FT DTS_US_F~ RHOZ_G_C~  NPHI_v/v  PEF_B_E     LITH   
# ...
1647.7488   28.3970   47.3310   87.5790    2.9830   -0.0041    4.4790    1.0000 
1648.0536   23.9420   48.0780   90.8920    3.0110   -0.0072    4.8170    1.0000 
1648.3584   24.6830   48.7150   92.0370    2.9910   -0.0060    4.9860    1.0000 
1648.6632   27.5280   48.0120   90.0270    2.9860    0.0049    5.0200    1.0000 
1648.9680   32.7870   47.3690   88.0160    2.9630    0.0207    4.5310    1.0000 
1649.2728   37.8660   45.8800   84.4460    2.8850    0.0402    3.4200   12.0000 
1649.5776   38.9630   44.7760   83.4030    2.9090    0.0198    4.0130   12.0000 
1649.8824   33.6630   45.9400   85.9930    2.9800   -0.0051    5.1120    1.0000 
1650.1872   29.6900   46.9220   87.0920    2.9990   -0.0061    6.0910    1.0000 
1650.4920   25.9610   47.6890   89.8390    3.0050   -0.0052    5.7960    1.0000 
1650.7968   25.6680   47.7890   90.3810    3.0000   -0.0015    5.0990    1.0000 
1651.1016   31.1100   47.9450   87.7270    2.9890    0.0079    4.5410    1.0000 
1651.4064   36.9170   46.5820   84.8240    2.9230    0.0083    4.2280    1.0000 
1651.7112   32.7020   45.1970   84.3820    2.9520   -0.0004    4.3770    1.0000 
1652.0160   26.1960   46.3600   86.2640    2.9840   -0.0037    4.6120    1.0000 
1652.3208   29.4050   46.8790   87.8840    2.9690   -0.0025    4.6110    1.0000 
1652.6256   35.3900   47.3810   86.9640    2.9850   -0.0003    4.5670    1.0000 
1652.9304   37.8170   47.3410   86.3660    2.9730   -0.0022    4.5110    1.0000 
1653.2352   35.2920   47.1430   87.0060    2.9870   -0.0083    5.7370    1.0000 
1653.5400   29.3300   47.8980   89.1300    3.0130   -0.0097    6.8120    1.0000 
1653.8448   28.0130   48.8990   91.5130    3.0300   -0.0086    6.4320    1.0000 
1654.1496   36.2900   48.3140   91.0370    2.9510   -0.0045    4.5870    1.0000 
1654.4544   33.4650   48.0930   90.3560    2.8700   -0.0085    4.4350   12.0000 
1654.7592   25.5090   48.7550   91.1940    2.9460   -0.0102    5.2400    1.0000 
1655.0640   19.7250   49.7820   91.6570    2.9980   -0.0105    5.5240    1.0000 
1655.3688   18.1680   49.4970   92.1760    2.9860   -0.0093    5.1830    1.0000 
1655.6736   23.4900   49.0550   92.3720    2.9930   -0.0051    5.2780    1.0000 
1655.9784   33.0930   49.8580   92.5920    2.9430    0.0063    5.3840    1.0000 
1656.2832   39.3810   49.7170   91.9850    2.9160    0.0151    5.1460    1.0000 
1656.5880   38.3060   49.5540   91.4690    2.9140    0.0138    4.4430    1.0000 
1656.8928   37.5330   49.1940   90.8820    2.9230    0.0036    4.6300    1.0000 
1657.1976   35.3120   49.3530   91.5840    2.9490    0.0017    5.0040    1.0000 
1657.5024   36.4130   48.9330   91.8630    2.9880   -0.0016    4.7720    1.0000 
1657.8072   32.1380   48.9120   91.5070    2.9560   -0.0006    4.3080    1.0000 
1658.1120   33.1730   48.6500   90.6570    2.9680   -0.0024    4.8630    1.0000 
1658.4168   33.6680   49.0070   90.9210    2.9850   -0.0032    5.0480    1.0000 
1658.7216   33.8580   49.8280   92.0430    2.9890   -0.0017    4.9780    1.0000 
1659.0264   43.6440   50.4500   92.6390    2.9590    0.0130    5.7300    1.0000 
1659.3312   53.7950   50.7500   92.7820    2.9540    0.0134    5.4190    1.0000 
1659.6360   49.1580   50.5490   92.7400    2.9130   -0.0006    4.7440    1.0000 
1659.9408   31.7910   49.4030   92.5810    2.9660   -0.0074    5.0400    1.0000 
1660.2456   20.3360   49.7150   93.7790    3.0170   -0.0109    5.1930    1.0000 
1660.5504   20.1630   48.5920   92.5950    3.0200   -0.0080    5.0320    1.0000 
1660.8552   26.0250   47.4140   90.7920    2.9760   -0.0021    4.6190    1.0000 
1661.1600   36.4820   46.6260   88.9060    2.9660    0.0024    4.1330    1.0000 
1661.4648   39.2660   46.6860   90.9860    2.9390    0.0033    4.1780   12.0000 
1661.7696   40.0010   47.6940   92.8540    2.9400    0.0006    4.3850    1.0000 
1662.0744   43.6320   49.4370   93.8000    2.9290   -0.0026    4.5680    1.0000 
1662.3792   37.0650   50.0040   94.3820    2.9400   -0.0083    4.7630    1.0000 
1662.6840   30.1350   50.3170   94.6420    2.9930   -0.0068    5.1050    1.0000 
1662.9888   29.3000   50.6760   94.2800    3.0200   -0.0056    5.1700    1.0000 
1663.2936   23.8790   50.1160   92.8320    3.0140   -0.0098    5.1380    1.0000 
1663.5984   20.3900   49.1320   92.2280    3.0060   -0.0085    5.2190    1.0000 
1663.9032   29.0910   48.0480   91.9660    2.9980   -0.0025    5.2190    1.0000 
1664.2080   36.8220   47.1010   93.0850    2.9910    0.0036    5.0180    1.0000 
1664.5128   38.8880   46.9990   93.1280    2.9750   -0.0029    4.7560    1.0000 
1664.8176   34.7370   48.9250   92.0230    2.9830   -0.0106    4.7220    1.0000 
1665.1224   32.1540   49.0490   91.7420    3.0080   -0.0123    5.0700    1.0000 
1665.4272   26.9720   48.1790   90.9750    3.0210   -0.0124    5.2730    1.0000 
1665.7320   19.3220   48.2430   91.8600    3.0330   -0.0111    5.2630    1.0000 
1666.0368   20.4180   49.5470   93.7070    3.0030   -0.0083    5.2170    1.0000 
1666.3416   22.3610   50.3920   94.7930    3.0070   -0.0084    4.9910    1.0000 
1666.6464   22.1310   50.6910   93.8420    3.0080   -0.0084    4.8750    1.0000 
1666.9512   20.0270   49.9010   93.5820    3.0160   -0.0060    4.8330    1.0000 
1667.2560   29.0900   47.6710   90.4310    2.9690    0.0006    4.5460    1.0000 
1667.5608   30.1890   46.1310   87.8230    2.9290    0.0070    3.7710   12.0000 
1667.8656   33.3360   45.8680   85.1310    2.9150    0.0069    3.5280   12.0000 
1668.1704   36.2430   46.1060   86.2160    2.8890    0.0018    3.4730   12.0000 
1668.4752   37.5830   46.4850   88.2410    2.9050    0.0025    3.9690   12.0000 
1668.7800   40.7330   49.2400   94.6990    2.9230    0.0021    4.6880    1.0000 
1669.0848   36.6390   50.7450   95.4450    2.9530   -0.0011    4.7090    1.0000 
1669.3896   33.2700   51.3270   94.2580    2.9640   -0.0030    4.7820    1.0000 
1669.6944   30.7460   50.8060   93.7960    2.9430   -0.0040    4.8480    1.0000 
1669.9992   25.3260   50.4440   94.3980    2.9780   -0.0046    5.0450    1.0000 
1670.3040   23.8880   49.9130   95.0210    3.0020   -0.0057    5.1080   16.0000 
1670.6088   24.1380   48.5680   93.7760    2.0120   -0.0071    5.2510   16.0000 
1670.9136   21.6150   49.5310   93.2750    2.0240   -0.0077    5.5450   16.0000 
1671.2184   17.3430   49.7320   93.6890    2.0100   -0.0063    5.3800   16.0000 
1671.5232   19.8290   47.5850   93.4710    2.9880   -0.0043    5.1820   16.0000 
1671.8280   28.7100   46.3810   89.1570    2.9610    0.0000    4.7420    1.0000 
1672.1328   28.8420   45.6770   85.5010    2.9150    0.0067    4.2590    1.0000 
1672.4376   31.3880   45.9370   84.6160    2.8890    0.0119    3.7250   12.0000 
1672.7424   35.3210   46.6600   86.4430    2.8740    0.0077    3.3550   12.0000 
1673.0472   29.3570   46.8790   88.1930    2.9010    0.0078    3.6070   12.0000 
1673.3520   30.3330   47.4230   89.1730    2.9080    0.0160    3.6350   12.0000 
1673.6568   31.5510   46.1940   84.0350    2.8760    0.0249    3.1720   12.0000 
1673.9616   28.1840   46.0140   82.4480    2.8840    0.0255    3.2500   12.0000 
1674.2664   23.9060   46.1920   81.3830    2.8670    0.0321    3.4150   12.0000 
1674.5712   24.7010   46.5700   83.0650    2.8450    0.0287    3.5910   12.0000 
1674.8760   39.5600   47.0370   85.3130    2.8610    0.0326    3.6250   12.0000 
1675.1808   59.8470   48.2400   88.3420    2.8420    0.0558    3.5390   12.0000 
1675.4856   59.4360   51.8680   96.1880    2.7820    0.0379    3.3950   12.0000 
1675.7904   34.0430   53.6320   99.7800    2.8880    0.0097    3.8130   12.0000 
1676.0952   27.1730   50.9250   95.0230    2.9740    0.0037    4.9420    1.0000 
1676.4000   33.0360   46.8900   87.9830    2.9330    0.0185    4.5470    1.0000 
1676.7048   38.5970   46.9020   83.2630    2.8760    0.0171    3.2900   12.0000 
1677.0096   34.6260   46.2380   84.8250    2.8920    0.0117    3.5230   12.0000 
1677.3144   34.4520   47.1790   86.8100    2.9020    0.0065    3.7990   12.0000 
1677.6192   33.9230   46.9180   86.7720    2.9060    0.0057    3.8390   12.0000 
