~VERSION INFORMATION
 VERS.                 2.0:   CWLS LOG ASCII STANDARD - VERSION 2.0
 WRAP.                  NO:   SINGLE LINE PER DEPTH STEP
 CREA.                 05/01/2018 17:11:51
#CREATED USING DSPetro VERSION 5000.10.1.3 BY H191660 ON 05/01/2018 17:11:51
~WELL INFORMATION
#MNEM.UNIT       DATA                          DESCRIPTION MNEMONIC
#---------      ---------------------------   --------------------------
 STRT    .M         1527.0480                 : START DEPTH
 STOP    .M         2383.2312                 : STOP DEPTH
 STEP    .M         0.3048                    : STEP VALUE
 NULL    .      -999.0000                     : NULL VALUE
 DATE    .      05/01/2018                    : LAS file Creation Date
 WELL .      KALIUM_HERSEY_2081          : Well Name
 COMP .      Neftex Exploration Insights : Company
 FLD  .                                  : Field
 UWI  .      DUSWL_K_2081                : Unique Well Identifier (UWI)
 LOC  .                                  : Location
 RWS  .      -999                        : Def_Rw
 WST  .      -999                        : Def_Rwt
 SRVC .                                  : Contractor
~CURVE INFORMATION
#MNEM              UNIT       API CODE   Curve Type Comments
#----------  --------------- ----------  ---------- -----------
 DEPTH      .M                         : Depth       
 GR_API     .API                       : GammaRay    Gamma Ray (API) - Measures the intensity of natural gamma-ray radiation emitted from formations containing radioactive elements, such as K, Th and U
 DT_US_FT   .us/ft                     :             Interval Transit Time: Compressional Wave - Evaluates the time it takes for a compressional wave to traverse a fixed distance
 DTS_US_FT  .us/ft                     :             Interval Transit Time: Shear Wave - Evaluates the time it takes for a shear wave to traverse a fixed distance
 RHOZ_G_CC  .g/cc                      :             Formation Density - Measures the density of formation, including any void space or other materials contained in the subject volume
 NPHI_v/v   .dec                       : Neutron     
 PEF_B_E    .b/e-                      : PEF         Photoelectric Factor - A log of photoelectric absorption properties. Often expressed in an approximation unit barns/electron (b/e-)
 LITH       .                          :             
~A  DEPTH   GR_API   DT_US_FT DTS_US_F~ RHOZ_G_C~  NPHI_v/v  PEF_B_E     LITH   
# ...
1858.9752   48.6260   67.5200  119.8040    2.1810   -0.0097    4.8820   16.0000 
1859.2800   61.3700   67.4580  119.9060    2.1190    0.0292    4.9750   16.0000 
1859.5848   62.6490   69.9890  119.7390    2.0870    0.0610    4.8280   16.0000 
1859.8896   57.2280   68.5030  118.9170    2.0850    0.0509    4.5450   16.0000 
1860.1944   53.8580   67.2520  117.1760    2.3310    0.0399    4.2120   16.0000 
1860.4992   50.9730   64.3200  113.2170    2.5600    0.0415    3.7410   16.0000 
1860.8040   53.0970   63.7400  114.0410    2.5400    0.0574    3.5960   16.0000 
1861.1088   57.3920   63.7610  116.7500    2.4710    0.0660    3.7330   16.0000 
1861.4136   62.0510   66.0460  114.8370    2.4860    0.0659    3.8700   16.0000 
1861.7184   64.8990   63.5180  113.4310    2.5420    0.0348    3.8450   16.0000 
1862.0232   63.5190   63.4360  114.2790    2.5750    0.0148    3.6880   16.0000 
1862.3280   53.8140   67.0830  116.6050    2.6070    0.0006    3.7950   16.0000 
1862.6328   31.8600   62.1890  111.5640    2.7150   -0.0056    4.0220   16.0000 
1862.9376   25.0500   56.4120  105.5280    2.9030   -0.0044    4.6780   22.0000 
1863.2424   30.9120   51.2760   96.1550    2.8590    0.0043    4.6100   22.0000 
1863.5472   36.4760   51.5390   92.3200    2.7330    0.0352    4.1400   22.0000 
1863.8520   48.4370   51.7790   95.5470    2.7700    0.0478    3.7870   22.0000 
1864.1568   52.0080   55.3470  100.6190    2.8260    0.0024    3.9220   22.0000 
1864.4616   50.5140   57.8530   97.6100    2.7050   -0.0043    3.8140   16.0000 
1864.7664   47.2020   53.4380   96.0490    2.6030    0.0025    3.6650   16.0000 
1865.0712   40.2710   52.8130   96.0670    2.5630    0.0046    3.7740   16.0000 
1865.3760   35.3960   52.8580   97.4950    2.5750    0.0023    3.8750   16.0000 
1865.6808   31.3010   55.0050   96.6290    2.5890    0.0062    3.7070   16.0000 
1865.9856   28.7780   55.2050   99.3150    2.5750    0.0122    3.6000   16.0000 
1866.2904   28.7300   53.2730   98.3330    2.6120    0.0186    3.5530   16.0000 
1866.5952   34.2920   54.3790   99.5810    2.6220    0.0197    3.5170   16.0000 
1866.9000   40.8210   58.1650   99.0190    2.6370    0.0283    3.4010   16.0000 
1867.2048   52.5380   62.6580  106.8570    2.6670    0.0964    3.5960   22.0000 
1867.5096   71.8610   63.3980  111.8880    2.7120    0.1020    3.8370   22.0000 
1867.8144   84.1820   62.5350  110.4670    2.7530    0.0932    3.9320   22.0000 
1868.1192   78.4590   63.7600  115.0970    2.6170    0.0786    4.3020   22.0000 
1868.4240   70.6250   60.7120  109.4010    2.3730    0.0458    4.6720   16.0000 
1868.7288   59.4740   57.7220  105.9480    2.1790   -0.0042    4.8130   16.0000 
1869.0336   48.6810   62.9330  114.6110    2.1050   -0.0163    4.9040   16.0000 
1869.3384   35.1740   67.4830  119.4160    2.0470   -0.0196    4.9300   16.0000 
1869.6432   26.6760   67.7290  119.4330    2.0490   -0.0214    4.8760   16.0000 
1869.9480   27.1700   67.9100  119.2500    2.0580   -0.0217    4.7780   16.0000 
1870.2528   25.3700   69.0110  119.1500    2.0750   -0.0204    4.7360   16.0000 
1870.5576   30.5700   70.1160  116.5040    2.2380    0.0009    4.4720   16.0000 
1870.8624   40.5390   69.0710  114.5930    2.4690    0.0322    3.9280   16.0000 
1871.1672   57.9890   69.4960  115.2180    2.5540    0.0483    3.7430   16.0000 
1871.4720   65.3030   68.1850  117.8270    2.3940    0.0081    4.1090   16.0000 
1871.7768   57.2870   69.2290  118.9310    2.1750   -0.0064    4.5940   16.0000 
1872.0816   51.0230   68.0230  117.1020    2.2740   -0.0013    4.5120   16.0000 
1872.3864   55.9220   63.8260  115.1950    2.4020   -0.0103    4.1120   16.0000 
1872.6912   55.4510   62.6430  115.1740    2.4110   -0.0178    4.3250   16.0000 
1872.9960   43.8120   64.1230  115.7100    2.1970   -0.0206    4.7760   16.0000 
1873.3008   38.2710   66.0370  116.2920    2.1360   -0.0226    4.8440   16.0000 
1873.6056   32.9090   66.2380  116.9530    2.0890   -0.0236    4.9250   16.0000 
1873.9104   32.1350   66.2340  117.4990    2.0650   -0.0230    4.9440   16.0000 
1874.2152   34.2620   67.0940  116.9320    2.0620   -0.0223    4.8860   16.0000 
1874.5200   33.4260   66.8130  116.9900    2.0690   -0.0232    4.8660   16.0000 
1874.8248   33.0750   66.2720  117.0510    2.0850   -0.0235    4.9000   16.0000 
1875.1296   34.4730   66.4480  116.8880    2.0970   -0.0235    4.9590   16.0000 
1875.4344   36.5370   66.9690  116.5890    2.0850   -0.0233    4.9570   16.0000 
1875.7392   36.1850   66.3890  115.9410    2.0870   -0.0241    4.8530   16.0000 
1876.0440   34.3850   63.8160  116.0220    2.0850   -0.0239    4.8300   16.0000 
1876.3488   36.7490   63.2120  115.7570    2.1200   -0.0238    4.7740   16.0000 
1876.6536   37.9650   66.2570  115.9170    2.1310   -0.0241    4.8950   16.0000 
1876.9584   33.8120   67.2840  116.2370    2.0940   -0.0240    4.9930   16.0000 
1877.2632   30.9270   67.2420  116.3370    2.0780   -0.0242    5.0220   16.0000 
1877.5680   33.0500   66.6600  115.9570    2.0620   -0.0246    5.0140   16.0000 
1877.8728   35.5340   65.7400  115.5770    2.0640   -0.0256    5.0610   16.0000 
1878.1776   35.4240   66.5400  115.5760    2.0540   -0.0254    4.9750   16.0000 
1878.4824   33.7460   65.8360  116.4410    2.0440   -0.0254    5.0150   16.0000 
1878.7872   35.8110   67.0390  116.2150    2.0400   -0.0253    4.9170   16.0000 
1879.0920   36.0630   66.9010  116.4760    2.0460   -0.0251    4.9720   16.0000 
1879.3968   35.5280   65.3530  117.0200    2.0470   -0.0253    5.0320   16.0000 
1879.7016   38.3760   66.5180  117.7190    2.0630   -0.0254    4.9910   16.0000 
1880.0064   36.3960   67.3060  117.8040    2.0620   -0.0249    4.9180   16.0000 
1880.3112   34.2930   66.9190  117.5190    2.0530   -0.0246    4.8400   16.0000 
1880.6160   31.4670   67.4940  117.3740    2.0630   -0.0246    4.8010   16.0000 
1880.9208   28.0980   67.1150  117.6310    2.0840   -0.0238    4.9090   16.0000 
1881.2256   26.7810   66.0140  117.3310    2.0800   -0.0251    4.9860   16.0000 
1881.5304   28.2410   65.8690  116.4430    2.0610   -0.0245    4.9260   16.0000 
1881.8352   27.9500   66.7090  116.8480    2.0670   -0.0238    4.9050   16.0000 
1882.1400   30.1350   69.2790  117.3940    2.0590   -0.0233    4.9610   16.0000 
1882.4448   31.9560   68.2120  116.7110    2.1040   -0.0233    5.0200   16.0000 
1882.7496   30.8820   68.4310  118.4910    2.1350   -0.0211    4.9460   16.0000 
1883.0544   29.2620   68.7940  117.4490    2.1240   -0.0210    4.8300   16.0000 
1883.3592   26.9210   67.1290  118.0070    2.1520   -0.0218    4.8900   16.0000 
1883.6640   27.9570   64.1090  115.3380    2.1510   -0.0218    4.9530   16.0000 
1883.9688   38.3490   66.9650  117.3200    2.0770   -0.0201    4.9730   16.0000 
1884.2736   47.8940   69.1260  116.8790    2.0900   -0.0182    4.9400   16.0000 
1884.5784   43.8600   64.6520  114.1870    2.1000   -0.0181    4.8500   16.0000 
1884.8832   28.9650   63.4250  118.3370    2.0910   -0.0198    4.7620   16.0000 
1885.1880   27.2850   64.1120  118.4630    2.0790   -0.0188    4.7180   16.0000 
1885.4928   31.7630   62.9690  111.2180    2.1870   -0.0154    4.6280   16.0000 
1885.7976   37.9290   66.3750  110.7740    2.1910   -0.0140    4.7230   16.0000 
1886.1024   35.7660   65.8710  111.7410    2.1260   -0.0149    4.7930   16.0000 
1886.4072   30.5880   66.7160  113.1250    2.1870   -0.0154    4.7090   16.0000 
1886.7120   26.6750   64.7300  109.1530    2.2780   -0.0162    4.6890   16.0000 
1887.0168   23.1260   62.6070  106.9400    2.3230   -0.0166    4.7800   16.0000 
1887.3216   19.8770   59.6890  105.4970    2.4920   -0.0118    4.9490   16.0000 
1887.6264   16.9310   56.1740  102.0650    2.5170   -0.0136    4.9720   16.0000 
1887.9312   19.2350   55.1760   98.9580    2.5850   -0.0074    4.9860   16.0000 
1888.2360   28.3590   52.7270   94.9830    2.6230    0.0017    4.8880   16.0000 
1888.5408   33.1380   49.0750   90.6900    2.6520    0.0019    4.5470   16.0000 
1888.8456   33.6920   51.5410   86.7720    2.5920    0.0053    3.9750   16.0000 
