~VERSION INFORMATION
 VERS.                 2.0:   CWLS LOG ASCII STANDARD - VERSION 2.0
 WRAP.                  NO:   SINGLE LINE PER DEPTH STEP
 CREA.                 05/01/2018 17:11:51
#CREATED USING DSPetro VERSION 5000.10.1.3 BY H191660 ON 05/01/2018 17:11:51
~WELL INFORMATION
#MNEM.UNIT       DATA                          DESCRIPTION MNEMONIC
#---------      ---------------------------   --------------------------
 STRT    .M         1527.0480                 : START DEPTH
 STOP    .M         2383.2312                 : STOP DEPTH
 STEP    .M         0.3048                    : STEP VALUE
 NULL    .      -999.0000                     : NULL VALUE
 DATE    .      05/01/2018                    : LAS file Creation Date
 WELL .      KALIUM_HERSEY_2081          : Well Name
 COMP .      Neftex Exploration Insights : Company
 FLD  .                                  : Field
 UWI  .      DUSWL_K_2081                : Unique Well Identifier (UWI)
 LOC  .                                  : Location
 RWS  .      -999                        : Def_Rw
 WST  .      -999                        : Def_Rwt
 SRVC .                                  : Contractor
~CURVE INFORMATION
#MNEM              UNIT       API CODE   Curve Type Comments
#----------  --------------- ----------  ---------- -----------
 DEPTH      .M                         : Depth       
 GR_API     .API                       : GammaRay    Gamma Ray (API) - Measures the intensity of natural gamma-ray radiation emitted from formations containing radioactive elements, such as K, Th and U
 DT_US_FT   .us/ft                     :             Interval Transit Time: Compressional Wave - Evaluates the time it takes for a compressional wave to traverse a fixed distance
 DTS_US_FT  .us/ft                     :             Interval Transit Time: Shear Wave - Evaluates the time it takes for a shear wave to traverse a fixed distance
 RHOZ_G_CC  .g/cc                      :             Formation Density - Measures the density of formation, including any void space or other materials contained in the subject volume
 NPHI_v/v   .dec                       : Neutron     
 PEF_B_E    .b/e-                      : PEF         Photoelectric Factor - A log of photoelectric absorption properties. Often expressed in an approximation unit barns/electron (b/e-)
 LITH       .                          :             
~A  DEPTH   GR_API   DT_US_FT DTS_US_F~ RHOZ_G_C~  NPHI_v/v  PEF_B_E     LITH   
# ...
1979.6760   63.4280   71.0170  120.2870    2.0610    0.0564    4.8940   16.0000 
1979.9808   68.5250   69.8280  119.9590    2.2580    0.0797    4.7140   16.0000 
1980.2856   72.1680   68.9970  118.3390    2.7060    0.1121    3.9810   37.0000 
1980.5904   75.7040   70.0830  119.5600    2.6870    0.1231    3.6740   37.0000 
1980.8952   75.1850   70.6240  126.0170    2.6260    0.1232    3.5910   37.0000 
1981.2000   72.1320   72.0900  131.4500    2.6170    0.1279    3.7600   37.0000 
1981.5048   70.6640   70.1190  130.5680    2.6020    0.1483    3.8440   37.0000 
1981.8096   76.7870   68.7280  129.0050    2.6210    0.1492    3.8650   37.0000 
1982.1144   75.0720   69.4720  127.6970    2.6240    0.1559    3.6630   37.0000 
1982.4192   76.4760   70.3120  129.5510    2.6050    0.1433    3.5340   37.0000 
1982.7240   77.5290   72.9570  131.2390    2.5260    0.1289    3.6670   37.0000 
1983.0288   78.7100   71.9000  132.8280    2.5450    0.0964    3.9290   37.0000 
1983.3336   75.4230   69.9510  132.3280    2.4510    0.0623    4.2010   16.0000 
1983.6384   70.2060   68.6700  131.7880    2.2690    0.0581    4.4510   16.0000 
1983.9432   66.3750   69.0860  137.5550    2.1780    0.0509    4.5670   16.0000 
1984.2480   68.5770   73.5050  136.6510    2.1530    0.0493    4.6260   16.0000 
1984.5528   72.2940   73.5670  136.8000    2.1830    0.0561    4.5910   16.0000 
1984.8576   74.7390   72.7250  137.1990    2.2530    0.0620    4.3410   16.0000 
1985.1624   76.1490   72.0990  135.3660    2.3720    0.0748    4.0790   16.0000 
1985.4672   78.5940   73.9710  131.7330    2.5520    0.1269    3.7320   37.0000 
1985.7720   83.0240   69.8090  129.3830    2.5610    0.1501    3.5230   37.0000 
1986.0768   88.1840   68.5320  127.9500    2.5610    0.1623    3.4470   37.0000 
1986.3816   94.4900   67.6490  128.3110    2.5380    0.1582    3.5710   37.0000 
1986.6864   98.0220   71.7570  131.9260    2.5460    0.1551    3.6990   37.0000 
1986.9912   96.1230   72.4530  131.0740    2.5640    0.1578    3.6270   37.0000 
1987.2960   96.5090   70.5860  130.3760    2.5800    0.1700    3.4770   37.0000 
1987.6008   97.4390   70.7530  131.4170    2.5450    0.1551    3.5010   37.0000 
1987.9056   93.5550   70.1870  132.3800    2.5670    0.1509    3.5100   37.0000 
1988.2104   92.9820   70.5310  132.0150    2.6330    0.1483    3.4370   37.0000 
1988.5152   88.3670   71.2100  131.6730    2.6500    0.1482    3.5220   37.0000 
1988.8200   85.8600   70.5010  130.2670    2.6600    0.1390    3.6330   37.0000 
1989.1248   87.9420   69.2860  128.0440    2.6530    0.1268    3.7290   37.0000 
1989.4296   90.7460   68.0320  125.3510    2.6560    0.1302    3.6270   37.0000 
1989.7344   87.3440   66.6260  122.6670    2.6540    0.1433    3.5120   37.0000 
1990.0392   85.2570   65.2830  120.1810    2.6930    0.1310    3.5610   37.0000 
1990.3440   83.2370   65.5860  120.4230    2.6790    0.1430    3.5580   37.0000 
1990.6488   81.2210   70.6420  126.3060    2.6580    0.1673    3.5370   37.0000 
1990.9536   79.0170   69.3700  126.1020    2.6790    0.1722    3.6100   37.0000 
1991.2584   74.0390   68.7080  128.5650    2.6650    0.1156    3.7220   37.0000 
1991.5632   66.9540   72.8510  130.7200    2.7070    0.0242    3.8930   37.0000 
1991.8680   52.8000   71.4610  127.1080    2.8460   -0.0124    4.1410   37.0000 
1992.1728   35.9990   68.7860  123.8750    2.9560   -0.0069    4.5160    1.0000 
1992.4776   27.1010   64.3560  119.7660    2.9140    0.0197    4.5790    1.0000 
1992.7824   26.2250   55.2840  109.1890    2.6650    0.0544    4.1000    1.0000 
1993.0872   36.7580   51.7620  101.8960    2.4740    0.0826    3.8740    1.0000 
1993.3920   56.2160   56.6690  104.1630    2.6070    0.1023    3.7690   37.0000 
1993.6968   81.3920   58.7790  105.3820    2.6410    0.1311    3.6270   37.0000 
1994.0016   93.0740   61.0090  110.0520    2.6360    0.1509    3.7250   37.0000 
1994.3064   93.4640   63.4760  115.6600    2.6420    0.1743    3.8400   37.0000 
1994.6112   92.7740   65.9960  120.8370    2.6180    0.1917    3.7010   37.0000 
1994.9160   93.7620   68.4070  124.5740    2.5460    0.1572    3.5250   37.0000 
1995.2208   97.2350   70.0570  126.1220    2.5520    0.1483    3.5780   37.0000 
1995.5256  101.2980   71.4930  129.3760    2.5450    0.1626    3.7060   37.0000 
1995.8304  106.0940   72.5660  134.7480    2.5810    0.1784    3.7390   37.0000 
1996.1352  108.1770   75.2770  139.3890    2.6190    0.1749    3.6250   37.0000 
1996.4400  101.0270   77.5270  140.0750    2.6170    0.1812    3.5220   37.0000 
1996.7448   95.2670   73.6970  136.3190    2.6420    0.1620    3.6290   37.0000 
1997.0496   89.9250   73.1640  133.7190    2.6580    0.1046    3.6700   37.0000 
1997.3544   86.8200   71.5080  129.7810    2.6800    0.0615    3.6050   37.0000 
1997.6592   82.8020   67.5540  125.3220    2.7480    0.0449    4.0300   37.0000 
1997.9640   80.4810   62.5440  120.3440    2.6960    0.0651    3.8600   37.0000 
1998.2688   88.2390   64.7420  121.4100    2.6110    0.1289    3.5480   37.0000 
1998.5736   92.9750   68.6510  123.8940    2.5830    0.1665    3.5050   37.0000 
1998.8784   95.3550   71.6260  127.4330    2.5670    0.1788    3.5300   37.0000 
1999.1832  100.9430   71.8070  133.0670    2.5650    0.1930    3.5650   37.0000 
1999.4880  106.5770   73.1180  134.3210    2.5450    0.2160    3.6080   37.0000 
1999.7928  109.9890   75.0070  136.8070    2.5430    0.2114    3.6190   37.0000 
2000.0976  106.7040   74.5420  134.2980    2.5540    0.1981    3.6200   37.0000 
2000.4024  101.6060   75.5800  136.1140    2.5640    0.1897    3.6110   37.0000 
2000.7072  100.4190   75.0010  132.5090    2.5590    0.1953    3.6380   37.0000 
2001.0120  100.2120   74.6850  133.5910    2.5930    0.1943    3.6800   37.0000 
2001.3168   99.5840   74.9150  135.0180    2.6370    0.1775    3.6400   37.0000 
2001.6216   89.7210   76.6010  134.6990    2.6320    0.1549    3.5210   37.0000 
2001.9264   80.7590   73.8930  131.9730    2.6490    0.1387    3.6370   37.0000 
2002.2312   76.5620   70.4370  125.1140    2.6830    0.1198    3.8440   37.0000 
2002.5360   72.1830   68.4950  123.1790    2.6950    0.0869    4.0420   37.0000 
2002.8408   81.3870   66.3030  119.7220    2.6810    0.1014    4.0830   37.0000 
2003.1456   87.5760   65.6410  121.7660    2.6830    0.1121    3.8810   37.0000 
2003.4504   94.2390   65.6780  123.4550    2.5680    0.1372    3.5230   37.0000 
2003.7552  100.7880   67.6700  128.3320    2.5300    0.1598    3.4000   37.0000 
2004.0600  103.8980   70.9180  131.1090    2.5550    0.1536    3.4250   37.0000 
2004.3648  101.5700   70.4740  129.9060    2.5370    0.1440    3.4720   37.0000 
2004.6696   93.5780   70.2790  130.1900    2.5130    0.1595    3.4810   37.0000 
2004.9744   98.4950   71.4070  132.5120    2.5290    0.1782    3.5020   37.0000 
2005.2792  102.6210   74.8590  136.1810    2.5510    0.1630    3.4690   37.0000 
2005.5840  102.7200   74.4150  136.6580    2.5630    0.1688    3.3670   37.0000 
2005.8888  100.7610   73.9190  136.3210    2.5590    0.1954    3.4050   37.0000 
2006.1936  107.1260   74.1640  136.4240    2.5720    0.2042    3.4840   37.0000 
2006.4984  105.1080   74.2870  137.1290    2.5850    0.2021    3.5090   37.0000 
2006.8032  102.3620   74.6930  136.6490    2.5910    0.1834    3.5000   37.0000 
2007.1080   98.5850   72.1920  134.2680    2.6410    0.1341    3.6270   37.0000 
2007.4128   90.1670   69.2520  125.7690    2.7030    0.0871    3.8150   37.0000 
2007.7176   93.4580   67.1040  119.9410    2.6620    0.0576    3.7660   37.0000 
2008.0224   99.8750   67.0830  119.5780    2.5670    0.1182    3.6240   37.0000 
2008.3272   99.5550   68.8250  123.3720    2.6030    0.1389    3.6500   37.0000 
2008.6320   91.4420   66.5280  120.3580    2.6370    0.1457    3.7330   37.0000 
2008.9368   74.6990   68.2670  117.6260    2.6920    0.1379    3.8480   37.0000 
2009.2416   52.3440   64.7180  115.8740    2.7020    0.0853    4.0660   37.0000 
2009.5464   38.3150   63.4280  115.9030    2.5990    0.0093    4.3580   16.0000 
