~VERSION INFORMATION
 VERS.                 2.0:   CWLS LOG ASCII STANDARD - VERSION 2.0
 WRAP.                  NO:   SINGLE LINE PER DEPTH STEP
 CREA.                 05/01/2018 17:11:51
#CREATED USING DSPetro VERSION 5000.10.1.3 BY H191660 ON 05/01/2018 17:11:51
~WELL INFORMATION
#MNEM.UNIT       DATA                          DESCRIPTION MNEMONIC
#---------      ---------------------------   --------------------------
 STRT    .M         1527.0480                 : START DEPTH
 STOP    .M         2383.2312                 : STOP DEPTH
 STEP    .M         0.3048                    : STEP VALUE
 NULL    .      -999.0000                     : NULL VALUE
 DATE    .      05/01/2018                    : LAS file Creation Date
 WELL .      KALIUM_HERSEY_2081          : Well Name
 COMP .      Neftex Exploration Insights : Company
 FLD  .                                  : Field
 UWI  .      DUSWL_K_2081                : Unique Well Identifier (UWI)
 LOC  .                                  : Location
 RWS  .      -999                        : Def_Rw
 WST  .      -999                        : Def_Rwt
 SRVC .                                  : Contractor
~CURVE INFORMATION
#MNEM              UNIT       API CODE   Curve Type Comments
#----------  --------------- ----------  ---------- -----------
 DEPTH      .M                         : Depth       
 GR_API     .API                       : GammaRay    Gamma Ray (API) - Measures the intensity of natural gamma-ray radiation emitted from formations containing radioactive elements, such as K, Th and U
 DT_US_FT   .us/ft                     :             Interval Transit Time: Compressional Wave - Evaluates the time it takes for a compressional wave to traverse a fixed distance
 DTS_US_FT  .us/ft                     :             Interval Transit Time: Shear Wave - Evaluates the time it takes for a shear wave to traverse a fixed distance
 RHOZ_G_CC  .g/cc                      :             Formation Density - Measures the density of formation, including any void space or other materials contained in the subject volume
 NPHI_v/v   .dec                       : Neutron     
 PEF_B_E    .b/e-                      : PEF         Photoelectric Factor - A log of photoelectric absorption properties. Often expressed in an approximation unit barns/electron (b/e-)
 LITH       .                          :             
~A  DEPTH   GR_API   DT_US_FT DTS_US_F~ RHOZ_G_C~  NPHI_v/v  PEF_B_E     LITH   
# ...
2281.4280   41.1030   47.0850   85.3160    2.7660    0.0401    3.1030   12.0000 
2281.7328   37.6070   47.1060   87.1010    2.7670    0.0446    3.1240   12.0000 
2282.0376   38.3850   46.5050   86.8590    2.7570    0.0476    3.1760   12.0000 
2282.3424   40.2750   47.3080   86.9600    2.7630    0.0451    3.2870   12.0000 
2282.6472   39.6810   48.5530   88.1080    2.7570    0.0488    3.2870   12.0000 
2282.9520   41.1320   49.4960   91.0610    2.7730    0.0508    3.3360   12.0000 
2283.2568   41.8040   50.5600   93.8110    2.7770    0.0453    3.5930   12.0000 
2283.5616   40.6070   51.2900   96.1200    2.7260    0.0428    3.8880   18.0000 
2283.8664   40.3010   52.0080   96.2440    2.7610    0.0459    4.0410   18.0000 
2284.1712   41.8230   52.2300   96.8670    2.7630    0.0495    3.9190   18.0000 
2284.4760   44.3210   51.7010   97.6300    2.7510    0.0537    3.9000   18.0000 
2284.7808   44.5070   51.7220   97.3320    2.7630    0.0567    3.9160   18.0000 
2285.0856   39.3350   50.1610   96.1210    2.7760    0.0471    3.7820   12.0000 
2285.3904   34.9190   49.0920   96.1860    2.8030    0.0341    3.7260   12.0000 
2285.6952   35.3010   50.0170   97.1100    2.8220    0.0329    3.7140   12.0000 
2286.0000   36.6980   51.2650   97.3920    2.7660    0.0371    3.7560   12.0000 
2286.3048   38.1050   51.4050   96.5670    2.7560    0.0351    3.6000   12.0000 
2286.6096   38.7260   50.8640   95.1190    2.7590    0.0322    3.5180   12.0000 
2286.9144   38.3160   50.6780   93.8950    2.7470    0.0304    3.8950   18.0000 
2287.2192   36.3240   49.7170   94.1180    2.7340    0.0310    3.9690   18.0000 
2287.5240   34.1000   50.6020   96.0230    2.7210    0.0353    4.0190   18.0000 
2287.8288   33.3150   53.0100   96.9690    2.7600    0.0369    4.0420   18.0000 
2288.1336   34.4040   53.4340   95.6870    2.7410    0.0322    3.9760   18.0000 
2288.4384   36.0540   51.9260   94.0570    2.7310    0.0314    4.1430   18.0000 
2288.7432   38.6670   51.9890   93.6960    2.7150    0.0466    4.3030   18.0000 
2289.0480   39.5850   51.7070   93.4340    2.7180    0.0412    4.2230   18.0000 
2289.3528   36.7460   51.6050   92.9310    2.7430    0.0332    4.1340   18.0000 
2289.6576   35.4080   51.2860   93.1090    2.7630    0.0360    3.9880   18.0000 
2289.9624   37.7990   50.5650   93.8740    2.7430    0.0455    3.5980   12.0000 
2290.2672   39.4250   49.2550   93.9800    2.7550    0.0383    3.7050   12.0000 
2290.5720   41.2470   48.7940   93.6380    2.7200    0.0342    4.0270   18.0000 
2290.8768   41.4870   48.1920   93.7930    2.7360    0.0419    4.1840   18.0000 
2291.1816   39.2250   47.5710   93.1730    2.7380    0.0366    3.9610   18.0000 
2291.4864   37.8470   48.2730   93.0320    2.7290    0.0315    4.0500   18.0000 
2291.7912   34.5750   48.6960   94.0570    2.7370    0.0256    4.3580   18.0000 
2292.0960   35.4080   48.7970   94.9440    2.7550    0.0196    4.5790   18.0000 
2292.4008   38.4540   47.7110   94.4200    2.7810    0.0134    4.5050   18.0000 
2292.7056   39.7970   47.4860   94.6050    2.7640    0.0106    4.3080   18.0000 
2293.0104   38.3540   49.0970   95.7660    2.7610    0.0139    3.9550   18.0000 
2293.3152   35.5830   50.4220   96.1260    2.7620    0.0312    3.5370   12.0000 
2293.6200   35.5350   48.9790   93.8570    2.7590    0.0400    3.7400   12.0000 
2293.9248   37.7750   48.2940   92.5120    2.7600    0.0451    3.9110   18.0000 
2294.2296   43.2480   51.0640   92.7130    2.7520    0.0486    4.0080   18.0000 
2294.5344   47.6180   52.0490   91.8690    2.7530    0.0324    3.9740   18.0000 
2294.8392   47.7440   55.8030   97.9150    2.6440    0.0059    4.3870   16.0000 
2295.1440   45.7400   56.6900   99.4230    2.5870    0.0036    4.4700   16.0000 
2295.4488   48.1170   56.3700  100.3030    2.6430    0.0052    4.0060   16.0000 
2295.7536   50.4290   56.1680  103.0570    2.7510   -0.0041    4.1340   18.0000 
2296.0584   49.8920   60.4060  113.4010    2.4210   -0.0152    4.5310   16.0000 
2296.3632   47.8370   62.3370  116.9620    2.1290   -0.0211    4.8020   16.0000 
2296.6680   45.4250   65.2660  117.9440    2.0550   -0.0210    5.0200   16.0000 
2296.9728   41.4480   67.7950  118.9730    2.0460   -0.0210    4.9500   16.0000 
2297.2776   38.1210   68.1830  119.1560    2.0520   -0.0199    4.9540   16.0000 
2297.5824   36.2600   68.0250  118.8940    2.0500   -0.0201    5.0040   16.0000 
2297.8872   37.4760   68.5050  118.9140    2.0320   -0.0204    5.0630   16.0000 
2298.1920   40.0970   68.8040  119.0140    2.0380   -0.0208    5.0370   16.0000 
2298.4968   42.3320   68.5830  119.2780    2.0470   -0.0199    4.9550   16.0000 
2298.8016   43.2650   68.3050  118.9750    2.0530   -0.0205    4.8960   16.0000 
2299.1064   42.8270   68.2640  119.3770    2.0530   -0.0206    4.9440   16.0000 
2299.4112   42.6140   68.3470  119.7410    2.0390   -0.0208    5.0100   16.0000 
2299.7160   40.8740   68.5670  119.6560    2.0450   -0.0204    4.9910   16.0000 
2300.0208   41.6120   68.4630  119.2370    2.0410   -0.0203    4.9910   16.0000 
2300.3256   40.0970   68.3650  119.1990    2.0460   -0.0202    5.0480   16.0000 
2300.6304   39.5640   68.0000  119.1960    2.0450   -0.0201    5.0060   16.0000 
2300.9352   43.2690   68.2630  119.3160    2.0390   -0.0208    5.0400   16.0000 
2301.2400   46.6240   67.2170  119.4780    2.0370   -0.0201    5.0280   16.0000 
2301.5448   47.6420   68.1030  119.4940    2.0390   -0.0208    5.0020   16.0000 
2301.8496   45.9220   67.3740  118.9520    2.0380   -0.0211    5.0170   16.0000 
2302.1544   48.7140   68.0820  118.7500    2.0440   -0.0208    4.8950   16.0000 
2302.4592   47.0660   68.4000  119.0500    2.0400   -0.0210    4.8950   16.0000 
2302.7640   45.6620   68.0780  119.1320    2.0320   -0.0211    4.9400   16.0000 
2303.0688   46.5240   67.1960  118.5670    2.0390   -0.0211    4.9780   16.0000 
2303.3736   48.4280   65.7470  118.3090    2.0450   -0.0213    5.0750   16.0000 
2303.6784   45.4140   65.2910  118.2270    2.0430   -0.0210    5.1540   16.0000 
2303.9832   43.7680   65.4320  118.5060    2.0320   -0.0210    5.1070   16.0000 
2304.2880   43.8200   66.7960  118.6710    2.0330   -0.0212    5.0650   16.0000 
2304.5928   45.9660   66.4370  117.7470    2.0420   -0.0214    4.9980   16.0000 
2304.8976   54.8840   66.2970  117.7300    2.0490   -0.0209    4.9010   16.0000 
2305.2024   46.1460   67.5830  118.6130    2.0420   -0.0203    4.9900   16.0000 
2305.5072   47.8880   67.7250  119.0540    2.0520   -0.0206    5.0150   16.0000 
2305.8120   47.9300   67.7040  119.0730    2.0470   -0.0209    5.0460   16.0000 
2306.1168   49.4360   67.6240  119.3540    2.0360   -0.0210    5.0030   16.0000 
2306.4216   47.6320   67.7990  119.0950    2.0330   -0.0206    5.0500   16.0000 
2306.7264   52.2820   66.9950  118.8940    2.0330   -0.0203    5.0830   16.0000 
2307.0312   55.6280   67.4340  118.7330    2.0350   -0.0206    5.0750   16.0000 
2307.3360   49.1580   68.0620  119.1970    2.0240   -0.0210    5.0350   16.0000 
2307.6408   44.0480   69.0870  120.2450    2.0300   -0.0211    4.9750   16.0000 
2307.9456   48.2780   69.2630  119.5760    2.0270   -0.0196    4.9750   16.0000 
2308.2504   48.3400   69.7470  119.9920    2.0360   -0.0196    5.0750   16.0000 
2308.5552   52.9760   68.0630  119.7960    2.0420   -0.0202    5.1210   16.0000 
2308.8600   44.1620   65.8290  118.6710    2.0440   -0.0189    5.0380   16.0000 
2309.1648   51.2280   66.5590  120.5010    2.0420   -0.0192    5.1050   16.0000 
2309.4696   47.1620   66.9800  120.8440    2.0470   -0.0195    5.0370   16.0000 
2309.7744   52.2120   67.5220  119.6790    2.0520   -0.0188    4.9890   16.0000 
2310.0792   55.1600   68.0460  121.9470    2.0530   -0.0196    5.0340   16.0000 
2310.3840   49.1660   68.3270  117.8670    2.0500   -0.0196    5.0320   16.0000 
2310.6888   63.2360   65.0700  118.2450    2.0460   -0.0191    4.8700   16.0000 
2310.9936   90.1260   67.5820  121.0040    2.0380   -0.0205    4.9990   16.0000 
2311.2984  142.4760   68.0480  127.4760    2.0210   -0.0212    5.2830    4.0000 
