~VERSION INFORMATION
 VERS.                 2.0:   CWLS LOG ASCII STANDARD - VERSION 2.0
 WRAP.                  NO:   SINGLE LINE PER DEPTH STEP
 CREA.                 05/01/2018 17:11:51
#CREATED USING DSPetro VERSION 5000.10.1.3 BY H191660 ON 05/01/2018 17:11:51
~WELL INFORMATION
#MNEM.UNIT       DATA                          DESCRIPTION MNEMONIC
#---------      ---------------------------   --------------------------
 STRT    .M         1527.0480                 : START DEPTH
 STOP    .M         2383.2312                 : STOP DEPTH
 STEP    .M         0.3048                    : STEP VALUE
 NULL    .      -999.0000                     : NULL VALUE
 DATE    .      05/01/2018                    : LAS file Creation Date
 WELL .      KALIUM_HERSEY_2081          : Well Name
 COMP .      Neftex Exploration Insights : Company
 FLD  .                                  : Field
 UWI  .      DUSWL_K_2081                : Unique Well Identifier (UWI)
 LOC  .                                  : Location
 RWS  .      -999                        : Def_Rw
 WST  .      -999                        : Def_Rwt
 SRVC .                                  : Contractor
~CURVE INFORMATION
#MNEM              UNIT       API CODE   Curve Type Comments
#----------  --------------- ----------  ---------- -----------
 DEPTH      .M                         : Depth       
 GR_API     .API                       : GammaRay    Gamma Ray (API) - Measures the intensity of natural gamma-ray radiation emitted from formations containing radioactive elements, such as K, Th and U
 DT_US_FT   .us/ft                     :             Interval Transit Time: Compressional Wave - Evaluates the time it takes for a compressional wave to traverse a fixed distance
 DTS_US_FT  .us/ft                     :             Interval Transit Time: Shear Wave - Evaluates the time it takes for a shear wave to traverse a fixed distance
 RHOZ_G_CC  .g/cc                      :             Formation Density - Measures the density of formation, including any void space or other materials contained in the subject volume
 NPHI_v/v   .dec                       : Neutron     
 PEF_B_E    .b/e-                      : PEF         Photoelectric Factor - A log of photoelectric absorption properties. Often expressed in an approximation unit barns/electron (b/e-)
 LITH       .                          :             
~A  DEPTH   GR_API   DT_US_FT DTS_US_F~ RHOZ_G_C~  NPHI_v/v  PEF_B_E     LITH   
# ...
2341.7784   68.2440   69.0410  118.3020    2.0300   -0.0177    5.1430   16.0000 
2342.0832   42.7540   69.0160  117.1140    2.0400   -0.0176    5.0480   16.0000 
2342.3880   42.3120   67.2870  118.4010    2.0380   -0.0169    5.0190   16.0000 
2342.6928   42.2840   66.6510  119.9670    2.0350   -0.0178    5.0770   16.0000 
2342.9976   37.5000   66.9300  119.3030    2.0350   -0.0183    5.0640   16.0000 
2343.3024   42.5480   64.5390  122.5950    2.0340   -0.0189    5.1250   16.0000 
2343.6072   99.2280   67.6710  129.2690    2.0050   -0.0190    5.1910    4.0000 
2343.9120  218.5240   69.0390  130.0310    1.9720   -0.0196    5.2840    4.0000 
2344.2168  185.9180   69.7630  127.3380    1.9890   -0.0186    5.2480    4.0000 
2344.5216  147.4280   67.6330  124.8640    1.9950   -0.0178    5.1750    4.0000 
2344.8264  138.9240   67.0670  132.5240    1.9930   -0.0180    5.2770    4.0000 
2345.1312  251.8240   66.9490  135.8790    1.9840   -0.0198    5.4470    4.0000 
2345.4360  349.4920   70.2610  132.6230    1.9770   -0.0193    5.5380    4.0000 
2345.7408  289.5240   69.7780  129.4070    1.9960   -0.0189    5.4360    4.0000 
2346.0456  282.4960   69.2980  125.0460    1.9760   -0.0196    5.4630    4.0000 
2346.3504  237.3200   69.9830  123.4230    1.9870   -0.0201    5.3930    4.0000 
2346.6552  171.4020   69.2800  125.3540    1.9970   -0.0198    5.4880    4.0000 
2346.9600  198.0260   69.3640  127.5060    1.9960   -0.0194    5.5840    4.0000 
2347.2648  267.1120   74.2240  125.4160    1.9740   -0.0175    5.7190    4.0000 
2347.5696   95.0580   72.0310  123.0020    1.9940   -0.0171    5.4600    4.0000 
2347.8744   34.3640   69.5730  120.0280    2.0410   -0.0171    5.0960   16.0000 
2348.1792   32.3000   69.5580  119.3270    2.0370   -0.0170    4.9020   16.0000 
2348.4840   31.2220   69.2990  119.6890    2.0340   -0.0174    4.9090   16.0000 
2348.7888   33.1240   69.1220  119.2450    2.0370   -0.0170    4.9770   16.0000 
2349.0936   35.4340   68.7990  119.5670    2.0410   -0.0170    4.9860   16.0000 
2349.3984   33.9400   68.7780  119.7470    2.0370   -0.0165    4.9790   16.0000 
2349.7032   35.6940   68.7600  119.6100    2.0290   -0.0157    4.9400   16.0000 
2350.0080   34.2060   68.7010  119.5900    2.0330   -0.0157    4.9620   16.0000 
2350.3128   30.5130   68.6810  119.5960    2.0350   -0.0161    4.9970   16.0000 
2350.6176   30.9390   68.6670  119.6960    2.0310   -0.0168    5.0310   16.0000 
2350.9224   28.5870   68.8770  119.4930    2.0270   -0.0161    5.1300   16.0000 
2351.2272   27.3210   68.7620  119.8150    2.0250   -0.0168    5.1360   16.0000 
2351.5320   28.0140   68.4570  119.9770    2.0270   -0.0169    5.0220   16.0000 
2351.8368   29.0520   68.5190  120.0140    2.0330   -0.0170    4.9500   16.0000 
2352.1416   29.4150   68.8410  119.7520    2.0350   -0.0169    4.9570   16.0000 
2352.4464   27.9170   68.9030  119.4920    2.0340   -0.0171    4.9710   16.0000 
2352.7512   30.0480   68.7680  119.6940    2.0330   -0.0170    5.0090   16.0000 
2353.0560   33.2010   68.5440  119.4510    2.0280   -0.0172    5.0260   16.0000 
2353.3608   32.3520   68.8430  119.2710    2.0240   -0.0166    4.9520   16.0000 
2353.6656   30.0750   68.8840  118.9460    2.0310   -0.0164    4.8900   16.0000 
2353.9704   29.6670   68.9490  119.1690    2.0360   -0.0168    4.8960   16.0000 
2354.2752   31.4790   68.8470  119.1280    2.0290   -0.0172    4.9690   16.0000 
2354.5800   32.3250   68.4410  119.1090    2.0330   -0.0168    5.0210   16.0000 
2354.8848   31.9880   68.3810  119.2070    2.0330   -0.0161    5.0660   16.0000 
2355.1896   31.2030   68.9010  119.7700    2.0310   -0.0157    5.0680   16.0000 
2355.4944   30.8460   68.7200  120.0930    2.0280   -0.0157    5.0420   16.0000 
2355.7992   30.1490   68.9860  120.0930    2.0370   -0.0156    4.9610   16.0000 
2356.1040   27.9900   68.7820  119.9340    2.0400   -0.0151    4.8670   16.0000 
2356.4088   28.7280   68.7020  119.7320    2.0400   -0.0162    4.8790   16.0000 
2356.7136   29.2640   68.7570  119.6320    2.0360   -0.0157    4.9210   16.0000 
2357.0184   28.7850   68.8600  119.6100    2.0360   -0.0158    4.8710   16.0000 
2357.3232   27.1700   68.9610  119.6320    2.0310   -0.0166    4.9580   16.0000 
2357.6280   26.0730   69.1430  119.5690    2.0370   -0.0171    4.9420   16.0000 
2357.9328   25.9670   69.1270  119.7310    2.0410   -0.0175    4.8800   16.0000 
2358.2376   27.8640   69.1880  119.6490    2.0400   -0.0177    4.8980   16.0000 
2358.5424   28.5830   69.2300  119.6910    2.0340   -0.0173    4.8510   16.0000 
2358.8472   29.0100   69.3230  119.8120    2.0250   -0.0171    4.8780   16.0000 
2359.1520   28.9020   69.4640  119.4490    2.0280   -0.0174    4.8310   16.0000 
2359.4568   26.8010   69.2860  119.5460    2.0320   -0.0170    4.8660   16.0000 
2359.7616   27.3240   68.9860  119.2860    2.0300   -0.0165    4.9200   16.0000 
2360.0664   28.2720   68.8890  119.5070    2.0250   -0.0158    5.0240   16.0000 
2360.3712   26.7090   68.8470  119.7300    2.0270   -0.0163    5.0530   16.0000 
2360.6760   25.3230   68.8310  119.5720    2.0260   -0.0166    4.9850   16.0000 
2360.9808   27.2820   68.9090  119.6360    2.0210   -0.0167    4.9490   16.0000 
2361.2856   28.1820   69.0900  119.8570    2.0230   -0.0164    4.9960   16.0000 
2361.5904   27.1610   69.1320  119.7550    2.0250   -0.0160    5.0440   16.0000 
2361.8952   26.2550   68.8690  119.7750    2.0210   -0.0156    5.0910   16.0000 
2362.2000   25.4190   68.7900  119.7530    2.0330   -0.0158    5.0210   16.0000 
2362.5048   26.7180   68.9290  119.9130    2.0330   -0.0155    4.9590   16.0000 
2362.8096   26.1150   69.0120  119.9360    2.0430   -0.0156    5.0200   16.0000 
2363.1144   24.6080   69.0530  119.9190    2.0390   -0.0169    5.1250   16.0000 
2363.4192   27.3110   69.0880  119.9370    2.0320   -0.0165    5.1000   16.0000 
2363.7240   25.5590   68.9660  119.9210    2.0240   -0.0165    5.0240   16.0000 
2364.0288   28.1690   68.6640  119.7960    2.0340   -0.0163    4.9160   16.0000 
2364.3336   30.2910   68.7420  119.8920    2.0360   -0.0157    4.8210   16.0000 
2364.6384   29.8170   68.8210  119.7690    2.0300   -0.0159    4.9110   16.0000 
2364.9432   27.5100   68.8630  119.7090    2.0290   -0.0158    5.0580   16.0000 
2365.2480   29.8460   68.9440  119.6960    2.0320   -0.0159    5.1280   16.0000 
2365.5528   28.5660   69.0250  119.8340    2.0290   -0.0158    5.1510   16.0000 
2365.8576   27.1220   68.9640  119.7160    2.0350   -0.0159    5.1090   16.0000 
2366.1624   25.7600   68.9430  119.7160    2.0230   -0.0161    5.0010   16.0000 
2366.4672   24.4280   68.9250  119.7350    2.0250   -0.0155    4.9050   16.0000 
2366.7720   26.7510   68.8980  119.6740    2.0460   -0.0157    4.9210   16.0000 
2367.0768   26.5560   68.7780  119.6910    2.0520   -0.0162    4.9680   16.0000 
2367.3816   24.7080   68.6420  119.6910    2.0400   -0.0164    5.0400   16.0000 
2367.6864   26.6520   68.4820  119.7510    2.0450   -0.0167    5.1130   16.0000 
2367.9912   28.2870   68.4030  119.7740    2.0420   -0.0168    5.1330   16.0000 
2368.2960   29.5640   68.5200  119.7730    2.0330   -0.0164    5.1180   16.0000 
2368.6008   28.6140   68.5020  119.7120    2.0280   -0.0165    5.0720   16.0000 
2368.9056   28.3250   68.1040  119.6950    2.0280   -0.0153    5.0210   16.0000 
2369.2104   28.3220   68.0970  119.7360    2.0350   -0.0167    4.9600   16.0000 
2369.5152   30.1460   68.0360  119.7140    2.0350   -0.0178    4.9960   16.0000 
2369.8200   30.6420   68.0220  119.8140    2.0400   -0.0178    4.9760   16.0000 
2370.1248   28.4210   67.8640  119.5950    2.0450   -0.0179    5.0230   16.0000 
2370.4296   29.6280   67.7660  119.6170    2.0410   -0.0180    5.0580   16.0000 
2370.7344   30.7790   67.7040  119.4180    2.0320   -0.0175    5.0540   16.0000 
2371.0392   31.6880   67.5050  119.2570    2.0340   -0.0181    5.0300   16.0000 
2371.3440   32.4210   67.8050  119.3000    2.0460   -0.0180    5.0040   16.0000 
2371.6488   32.6180   67.6630  119.0350    2.0490   -0.0173    4.9580   16.0000 
