~VERSION INFORMATION
 VERS.                 2.0:   CWLS LOG ASCII STANDARD - VERSION 2.0
 WRAP.                  NO:   SINGLE LINE PER DEPTH STEP
 CREA.                 05/01/2018 17:11:51
#CREATED USING DSPetro VERSION 5000.10.1.3 BY H191660 ON 05/01/2018 17:11:51
~WELL INFORMATION
#MNEM.UNIT       DATA                          DESCRIPTION MNEMONIC
#---------      ---------------------------   --------------------------
 STRT    .M         1527.0480                 : START DEPTH
 STOP    .M         2383.2312                 : STOP DEPTH
 STEP    .M         0.3048                    : STEP VALUE
 NULL    .      -999.0000                     : NULL VALUE
 DATE    .      05/01/2018                    : LAS file Creation Date
 WELL .      KALIUM_HERSEY_2081          : Well Name
 COMP .      Neftex Exploration Insights : Company
 FLD  .                                  : Field
 UWI  .      DUSWL_K_2081                : Unique Well Identifier (UWI)
 LOC  .                                  : Location
 RWS  .      -999                        : Def_Rw
 WST  .      -999                        : Def_Rwt
 SRVC .                                  : Contractor
~CURVE INFORMATION
#MNEM              UNIT       API CODE   Curve Type Comments
#----------  --------------- ----------  ---------- -----------
 DEPTH      .M                         : Depth       
 GR_API     .API                       : GammaRay    Gamma Ray (API) - Measures the intensity of natural gamma-ray radiation emitted from formations containing radioactive elements, such as K, Th and U
 DT_US_FT   .us/ft                     :             Interval Transit Time: Compressional Wave - Evaluates the time it takes for a compressional wave to traverse a fixed distance
 DTS_US_FT  .us/ft                     :             Interval Transit Time: Shear Wave - Evaluates the time it takes for a shear wave to traverse a fixed distance
 RHOZ_G_CC  .g/cc                      :             Formation Density - Measures the density of formation, including any void space or other materials contained in the subject volume
 NPHI_v/v   .dec                       : Neutron     
 PEF_B_E    .b/e-                      : PEF         Photoelectric Factor - A log of photoelectric absorption properties. Often expressed in an approximation unit barns/electron (b/e-)
 LITH       .                          :             
~A  DEPTH   GR_API   DT_US_FT DTS_US_F~ RHOZ_G_C~  NPHI_v/v  PEF_B_E     LITH   
# ...
1919.3256   33.8670   68.1430  115.9760    2.0740   -0.0236    5.0290   16.0000 
1919.6304   30.5000   67.8020  116.8400    2.0700   -0.0234    5.0350   16.0000 
1919.9352   26.6490   67.7770  118.2990    2.0450   -0.0237    4.9800   16.0000 
1920.2400   26.5550   67.9310  117.4580    2.0430   -0.0250    4.9970   16.0000 
1920.5448   26.2830   70.4170  116.2540    2.0420   -0.0259    5.0020   16.0000 
1920.8496   27.5210   69.7970  116.9760    2.0470   -0.0257    5.0110   16.0000 
1921.1544   30.0240   64.4250  116.8950    2.0520   -0.0255    5.0340   16.0000 
1921.4592   32.7710   64.7630  118.7620    2.0580   -0.0251    5.0170   16.0000 
1921.7640   29.0550   65.9470  119.2590    2.0380   -0.0213    4.9440   16.0000 
1922.0688   26.0030   66.5600  118.6790    2.0440   -0.0215    4.9720   16.0000 
1922.3736   26.8190   66.6700  119.2210    2.1220   -0.0235    4.8590   16.0000 
1922.6784   28.6080   68.3380  120.5030    2.2040   -0.0232    4.8080   16.0000 
1922.9832   29.9040   71.3920  117.9030    2.1580   -0.0221    4.8370   16.0000 
1923.2880   30.4760   67.1740  114.2290    2.0630   -0.0221    4.8960   16.0000 
1923.5928   31.4070   61.8940  113.3470    2.0390   -0.0201    4.9660   16.0000 
1923.8976   35.5380   62.9410  115.5790    2.0410   -0.0204    5.0010   16.0000 
1924.2024   36.1670   64.8080  117.7420    2.0400   -0.0230    5.0120   16.0000 
1924.5072   33.3050   63.9030  116.6430    2.0430   -0.0233    4.9670   16.0000 
1924.8120   28.6340   67.7820  117.4620    2.0380   -0.0239    4.8630   16.0000 
1925.1168   26.9100   66.6140  114.5960    2.0350   -0.0231    4.8460   16.0000 
1925.4216   29.7180   62.7650  112.0500    2.1050   -0.0207    4.8050   16.0000 
1925.7264   33.5430   61.7440  112.2340    2.0630   -0.0171    4.8560   16.0000 
1926.0312   35.3910   64.2590  114.6380    2.1100   -0.0173    4.7410   16.0000 
1926.3360   33.8450   66.5290  117.5540    2.2230   -0.0194    4.6230   16.0000 
1926.6408   27.9650   68.4610  120.0710    2.0630   -0.0214    4.7830   16.0000 
1926.9456   26.8470   70.0270  123.3620    2.0940   -0.0231    4.9020   16.0000 
1927.2504   27.4230   69.8860  120.9900    2.0690   -0.0234    4.8370   16.0000 
1927.5552   34.6320   68.1710  118.3410    2.0620   -0.0107    4.8600   16.0000 
1927.8600   45.5250   61.2000  109.5060    2.0690    0.0071    4.7830   16.0000 
1928.1648   51.5850   58.2040  101.3140    2.2710    0.0137    4.5710   16.0000 
1928.4696   58.1280   58.4330  101.5000    2.6590    0.0419    4.2350   22.0000 
1928.7744   61.8990   58.9330  103.1670    2.6930    0.0637    4.0170   22.0000 
1929.0792   64.8840   59.4750  103.2530    2.7570    0.0735    3.8150   22.0000 
1929.3840   67.3280   59.4590  103.0250    2.7590    0.0656    3.8540   22.0000 
1929.6888   67.6580   58.9450  103.8240    2.7750    0.0532    3.8610   22.0000 
1929.9936   64.1930   58.5820  104.3310    2.7900    0.0486    3.7360   22.0000 
1930.2984   56.6790   59.1150  104.4490    2.7820    0.0434    3.9580   22.0000 
1930.6032   50.9180   57.3760  105.3540    2.7900    0.0574    4.2320   22.0000 
1930.9080   52.6980   60.2740  109.1540    2.7980    0.0847    4.4540   22.0000 
1931.2128   58.7670   60.7030  110.0440    2.7950    0.1019    4.2080   22.0000 
1931.5176   60.3030   62.4480  110.2010    2.7600    0.1125    3.8990   22.0000 
1931.8224   62.9270   63.2530  110.9020    2.7940    0.1202    3.7520   22.0000 
1932.1272   67.2990   63.5280  110.1770    2.7420    0.1524    3.7070   22.0000 
1932.4320   69.0740   60.5140  109.2390    2.7050    0.1608    3.5690   22.0000 
1932.7368   64.1750   60.5540  108.5130    2.7240    0.1223    3.5980   22.0000 
1933.0416   65.8260   57.7080  108.1400    2.7170    0.1078    3.6360   22.0000 
1933.3464   66.5150   58.0920  107.9950    2.7210    0.1024    3.5990   22.0000 
1933.6512   65.2830   59.4830  105.9920    2.7240    0.0975    3.6920   22.0000 
1933.9560   63.8010   56.0670  102.2210    2.7050    0.0858    3.6470   22.0000 
1934.2608   66.1190   55.2110  101.5000    2.7230    0.0736    3.6620   22.0000 
1934.5656   65.9040   53.3800   99.7900    2.7270    0.0610    3.6230   22.0000 
1934.8704   52.4850   51.1690   98.1650    2.6660    0.0476    3.5790   22.0000 
1935.1752   44.1300   50.6930   96.2350    2.6860    0.0394    3.7850   22.0000 
1935.4800   45.3120   50.9120   94.2880    2.7800    0.0371    4.2400   22.0000 
1935.7848   32.5530   51.1790   96.7950    2.7880    0.0577    4.0880   22.0000 
1936.0896   25.5200   51.4140   97.8790    2.7080    0.0356    3.5940   22.0000 
1936.3944   17.8940   52.8130   95.4080    2.7750   -0.0063    3.7750   22.0000 
1936.6992   20.1540   50.8000   93.2460    2.8820   -0.0086    4.4150   22.0000 
1937.0040   29.4150   49.9860   92.2720    2.9760   -0.0058    5.0940    1.0000 
1937.3088   44.6520   50.4100   91.7310    2.9940    0.0153    5.2640    1.0000 
1937.6136   53.8470   52.6480   91.5030    2.9940    0.0919    5.0020    1.0000 
1937.9184   54.7250   54.4320   92.7400    2.9300    0.0869    4.5190    1.0000 
1938.2232   50.9540   54.4610   94.2610    2.8250    0.0692    3.9680   22.0000 
1938.5280   42.9540   52.5080   95.4160    2.7670    0.0681    3.5630   22.0000 
1938.8328   34.7820   51.0840   93.2560    2.7800    0.0737    3.3760   22.0000 
1939.1376   30.5850   49.1770   91.8890    2.8230    0.0854    3.4990   22.0000 
1939.4424   26.8790   50.9590   91.9480    2.8020    0.1190    3.5540   22.0000 
1939.7472   25.8860   51.5710   92.0690    2.7250    0.1177    3.4430   22.0000 
1940.0520   37.6760   53.8000   93.9380    2.7180    0.1189    3.3730   22.0000 
1940.3568   51.4010   56.6110   97.6840    2.7330    0.1061    3.3500   22.0000 
1940.6616   64.9460   59.2970  104.7920    2.7280    0.1011    3.3960   22.0000 
1940.9664   65.6960   60.6100  111.3020    2.7490    0.1031    3.5390   22.0000 
1941.2712   57.7020   59.1270  109.1660    2.8020    0.1046    3.7890   22.0000 
1941.5760   40.5350   57.6570  106.3240    2.9460    0.0801    4.2360    1.0000 
1941.8808   26.7600   56.3170  103.1650    2.9410    0.0434    4.1950    1.0000 
1942.1856   27.4590   54.7930   95.9190    2.7390    0.1074    3.5720   22.0000 
1942.4904   40.3310   53.5280   92.9410    2.7480    0.1302    3.3860   22.0000 
1942.7952   57.9080   55.6450   97.0080    2.7420    0.0925    3.4950   22.0000 
1943.1000   59.3930   59.8080  108.5780    2.7010    0.0796    3.5340   22.0000 
1943.4048   46.3970   59.4560  110.3910    2.5630    0.0774    3.5940   18.0000 
1943.7096   38.6490   57.7750  106.9320    2.5980    0.1057    3.5420   22.0000 
1944.0144   40.2440   57.3920  103.6410    2.7120    0.1103    3.4050   22.0000 
1944.3192   53.1180   60.9250  101.5710    2.6990    0.1080    3.2790   22.0000 
1944.6240   57.1260   58.8930  100.2590    2.7020    0.1162    3.2380   22.0000 
1944.9288   49.8650   56.5690   99.8200    2.7030    0.0902    3.4460   22.0000 
1945.2336   51.8810   56.7340   99.6620    2.7530    0.0860    3.6160   22.0000 
1945.5384   63.6150   55.8160  100.5080    2.7800    0.1380    3.6850   22.0000 
1945.8432   66.1190   56.4130  101.7980    2.7420    0.1495    3.5230   22.0000 
1946.1480   58.3710   58.8040  104.9940    2.7250    0.1293    3.3070   22.0000 
1946.4528   53.2730   61.3240  105.1170    2.7400    0.1091    3.4210   22.0000 
1946.7576   55.1130   58.1430  101.3520    2.7630    0.1124    3.5750   22.0000 
1947.0624   53.4590   53.4800   97.0720    2.7610    0.1027    3.4810   22.0000 
1947.3672   39.5390   52.5990   95.5530    2.7680    0.0984    3.2390   22.0000 
1947.6720   31.4360   52.6030   95.8590    2.7670    0.1374    3.4130   18.0000 
1947.9768   28.8680   52.0030   94.4540    2.8050    0.1790    3.6230   18.0000 
1948.2816   34.8120   51.7270   93.0290    2.7270    0.1714    3.6860   18.0000 
1948.5864   41.4780   52.3080   94.2500    2.6480    0.1749    3.4480   18.0000 
1948.8912   39.8750   54.7750   97.5650    2.6810    0.1127    3.3470   18.0000 
1949.1960   31.7640   57.5010   98.9390    2.7350    0.0245    3.3130   18.0000 
