~VERSION INFORMATION
 VERS.                 2.0:   CWLS LOG ASCII STANDARD - VERSION 2.0
 WRAP.                  NO:   SINGLE LINE PER DEPTH STEP
 CREA.                 20/03/2018 14:52:55
#CREATED USING DSPetro VERSION 5000.10.1.3 BY H191660 ON 20/03/2018 14:52:55
~WELL INFORMATION
#MNEM.UNIT       DATA                          DESCRIPTION MNEMONIC
#---------      ---------------------------   --------------------------
 STRT    .FT        30.0000                   : START DEPTH
 STOP    .FT        11591.0000                : STOP DEPTH
 STEP    .FT        0.5000                    : STEP VALUE
 NULL    .      -999.0000                     : NULL VALUE
 DATE    .      20/03/2018                    : LAS file Creation Date
 WELL .      UNIVERSITY_20-18            : Well Name
 COMP .      Neftex Exploration Insights : Company
 FLD  .      WAR-WINK, S. (WOLFCAMP)     : Field
 UWI  .      210                         : Unique Well Identifier (UWI)
 LOC  .                                  : Location
 RWS  .      -999                        : Def_Rw
 WST  .      -999                        : Def_Rwt
 SRVC .                                  : Contractor
~CURVE INFORMATION
#MNEM              UNIT       API CODE   Curve Type Comments
#----------  --------------- ----------  ---------- -----------
 DEPTH      .FT                        : Depth       
 BS         .inch                      : BitSize     
 CAL_INCH   .inch                      :             Caliper Log - A representation of the measured diameter of a borehole along its depth
 CGR_API    .API                       : GammaRay    Corrected / Computed Gamma Ray - Radiation with the Uranium component removed. Also known as a 'carbonate gamma ray'
 GR2_API    .API                       :             Gamma Ray (API) - Measures the intensity of natural gamma-ray radiation emitted from formations containing radioactive elements, such as K, Th and U
 K_%        .PC                        :             Potassium Abundance (SGR) - The quantitative elemental abundace of Potassium derived from the Spectral Gamma Ray Log. Also wt_%
 TH_PPM     .ppm                       : Spectral    Thorium Abundance (SGR) - The quantitative elemental abundace of Thorium derived from the Spectral Gamma Ray Log
 U_PPM      .ppm                       :             Uranium Abundance (SGR) - The quantitative elemental abundace of Uranium derived from the Spectral Gamma Ray Log
 LLD_OHMM   .ohmm                      :             Laterlog Deep Resistivity - Measurement made several feet into the formation; generally considered a measurement of the undisturbed formation
 LLS_OHMM   .ohmm                      :             Laterlog Shallow Resistivity - one to two feet into the formation; generally considered to measure the formation
 MSFL_OHMM  .ohmm                      :             Micro-Spherically Focused Log - Measurement involves only the first few inches of the formation immediately adjacent to the borehole
 DRHO_G_CC  .g/cc                      :             Density Correction - Investigates the correction to the Bulk Density log; used as an indication of hole condition to validate the Bulk Density measure
 NPHI_RATIO .ratio                     :             Neutron Porosity - Measured with an neutron logging device calibrated to a given matrix (limestone, sandstone and dolomite)
 RHOB_G_CC  .g/cc                      :             Bulk Density - Measures the density of bulk material, including any void space or other materials contained in the subject volume
 PEF_B_E    .b/e-                      : PEF         Photoelectric Factor - A log of photoelectric absorption properties. Often expressed in an approximation unit barns/electron (b/e-)
 LITH       .                          : LITH        Lithology Curve
~A  DEPTH     BS     CAL_INCH  CGR_API   GR2_API     K_%      TH_PPM    U_PPM    LLD_OHMM  LLS_OHMM MSFL_OHM~ DRHO_G_C~ NPHI_RAT~ RHOB_G_C~  PEF_B_E     LITH   
# ...
8455.0000    7.8700    8.8500   47.5269   92.6544    2.1105    5.6152    5.9953  107.2116   76.7253   43.2142    0.0238    0.1424    2.6352    3.3711   37.0000 
8455.5000    7.8700    8.8994   43.0682   81.4719    1.8985    5.1547    5.0821   90.5023   64.8483   51.4502    0.0241    0.1407    2.6653    3.5840   37.0000 
8456.0000    7.8700    8.9427   40.5789   76.5935    1.7705    4.9435    4.4557   81.1070   58.0498   49.8500    0.0237    0.1164    2.6728    3.4598   37.0000 
8456.5000    7.8700    8.9641   39.5576   71.6617    1.7052    4.9179    3.9636   90.3941   70.7891   41.2134    0.0229    0.1124    2.6535    3.2207   37.0000 
8457.0000    7.8700    8.9881   39.3923   62.6223    1.6736    5.0134    3.5442   82.8407   63.0483   39.0874    0.0230    0.0956    2.6318    3.1488   36.0000 
8457.5000    7.8700    9.0122   38.9555   58.8993    1.6400    5.0293    3.2020   71.1284   57.7736   37.8934    0.0219    0.0849    2.6213    3.0782   36.0000 
8458.0000    7.8700    9.0186   39.4976   60.3086    1.6454    5.1818    2.9243   60.0293   49.1308   31.6305    0.0187    0.0872    2.6047    2.9753   36.0000 
8458.5000    7.8700    9.0529   40.9387   61.6075    1.6999    5.3969    2.7105   50.7819   42.2241   25.6100    0.0188    0.0974    2.5871    2.9043   36.0000 
8459.0000    7.8700    9.0686   41.4695   58.7517    1.7278    5.4395    2.4817   43.8736   35.6469   21.4967    0.0200    0.1032    2.5815    2.8595   36.0000 
8459.5000    7.8700    9.0721   43.3104   55.7755    1.8150    5.6308    2.3543   38.6136   31.7704   19.9088    0.0192    0.1072    2.5797    2.8773   36.0000 
8460.0000    7.8700    9.0880   43.7173   57.5497    1.8372    5.6592    2.2279   36.6774   30.0680   18.4206    0.0155    0.1079    2.5728    2.9274   36.0000 
8460.5000    7.8700    9.0974   42.9674   57.4460    1.7951    5.6124    2.1814   36.1768   29.9979   16.6286    0.0088    0.1053    2.5660    2.9537   36.0000 
8461.0000    7.8700    9.1000   41.9656   56.3781    1.7482    5.5054    2.1681   34.9563   28.7138   13.2428    0.0036    0.1022    2.5700    2.9880   36.0000 
8461.5000    7.8700    9.1021   42.1899   57.3792    1.7478    5.5813    2.2302   34.8552   28.2191   10.1438   -0.0013    0.1063    2.5686    2.9991   36.0000 
8462.0000    7.8700    9.0966   45.6972   62.8902    1.8845    6.0862    2.4657   38.2769   29.9142   10.9074   -0.0061    0.1131    2.5575    2.9148   36.0000 
8462.5000    7.8700    9.0943   54.2500   76.4764    2.2396    7.2140    2.9504   44.7059   34.5040   18.8054   -0.0069    0.1188    2.5575    2.8631   36.0000 
8463.0000    7.8700    9.0935   62.9178   90.8324    2.5977    8.3651    3.3613   56.5972   45.8096   41.3943   -0.0065    0.1319    2.5639    2.9376   36.0000 
8463.5000    7.8700    9.0793   67.3298   94.3245    2.7731    8.9838    3.4690   65.4895   53.3237   52.2214   -0.0076    0.1342    2.5690    3.0256   37.0000 
8464.0000    7.8700    9.0705   66.2881   86.3699    2.7123    8.9298    3.3781   71.4211   57.4780   34.8804   -0.0068    0.1228    2.5716    3.0348   37.0000 
8464.5000    7.8700    9.0519   60.6439   76.7577    2.4583    8.2787    3.0677   71.8950   53.9250   30.1154   -0.0060    0.1147    2.5679    3.0113   37.0000 
8465.0000    7.8700    9.0493   55.5533   71.4075    2.2364    7.6578    2.7901   68.7164   54.3826   45.8912   -0.0074    0.1027    2.5681    3.0015   37.0000 
8465.5000    7.8700    9.0288   52.0476   67.5706    2.0971    7.1658    2.6668   68.1230   53.0079   58.2259   -0.0071    0.0983    2.5783    2.9637   37.0000 
8466.0000    7.8700    9.0180   47.7815   66.8909    1.9379    6.5181    2.5425   66.7370   53.4116   43.0381   -0.0052    0.1044    2.5846    2.8979   36.0000 
8466.5000    7.8700    9.0033   45.3003   67.0514    1.8572    6.0850    2.6410   61.0814   48.4617   34.9526   -0.0031    0.1093    2.5791    2.8612   36.0000 
8467.0000    7.8700    8.9912   41.7046   60.1614    1.7311    5.5012    2.7547   51.5253   40.6936   28.2460    0.0016    0.1047    2.5730    2.8505   36.0000 
8467.5000    7.8700    8.9812   39.3926   56.4048    1.6431    5.1581    2.9152   49.4936   36.4181   24.1325    0.0051    0.1015    2.5650    2.8166   36.0000 
8468.0000    7.8700    8.9685   37.2667   56.3779    1.5653    4.8283    2.9861   49.4443   38.0569   24.5787    0.0026    0.1013    2.5589    2.7625   36.0000 
8468.5000    7.8700    8.9497   35.7877   53.6158    1.5101    4.6037    3.0198   50.8342   38.5314   27.4437   -0.0017    0.0965    2.5684    2.7758   36.0000 
8469.0000    7.8700    8.9192   34.9392   52.2598    1.4690    4.5197    3.0494   61.7098   46.9077   40.4002   -0.0043    0.0840    2.5771    2.8252   36.0000 
8469.5000    7.8700    8.9025   34.4915   51.5736    1.4502    4.4616    3.0728   76.0308   58.6321   47.4768   -0.0067    0.0754    2.5765    2.8318   36.0000 
8470.0000    7.8700    8.8982   33.7724   52.5211    1.4152    4.3914    3.1040   80.2893   61.9438   51.6802   -0.0092    0.0748    2.5723    2.8709   36.0000 
8470.5000    7.8700    8.8659   34.5649   57.5834    1.4439    4.5156    3.3002   91.2041   70.4823   46.3912   -0.0069    0.0731    2.5632    2.8632   37.0000 
8471.0000    7.8700    8.8489   39.3455   64.3297    1.6391    5.1617    3.8259   99.6326   72.4919   60.7774   -0.0010    0.0793    2.5645    2.7604   36.0000 
8471.5000    7.8700    8.8272   44.1637   74.4943    1.8370    5.8071    4.5070  118.2783   85.8867   83.1026    0.0038    0.0916    2.5757    2.8211   36.0000 
8472.0000    7.8700    8.8167   47.1582   84.8762    1.9672    6.1740    4.9713  157.4129  116.1891  135.4491    0.0087    0.1021    2.5932    3.0918   37.0000 
8472.5000    7.8700    8.7978   45.5852   84.4412    1.9105    5.9258    5.0181  194.1670  144.2760  219.5162    0.0136    0.1083    2.6167    3.3504   37.0000 
8473.0000    7.8700    8.7899   40.6076   77.6147    1.6860    5.3543    4.6639  238.4249  182.8609  221.9447    0.0150    0.1024    2.6207    3.4343   37.0000 
8473.5000    7.8700    8.7755   35.4083   72.2477    1.4544    4.7436    4.2473  324.5418  236.5606  251.6632    0.0137    0.0938    2.6142    3.2924   37.0000 
8474.0000    7.8700    8.7581   31.5769   64.0719    1.2791    4.3153    3.9236  401.7257  318.8657  464.8349    0.0129    0.0813    2.6217    3.2342   37.0000 
8474.5000    7.8700    8.7522   31.5495   57.9353    1.2744    4.3285    4.0549  514.7366  424.4389  954.2027    0.0112    0.0750    2.6291    3.4213   37.0000 
8475.0000    7.8700    8.7503   34.1622   65.2741    1.3819    4.6774    4.5547  694.1467  649.5457  944.8824    0.0106    0.0772    2.6188    3.4272   37.0000 
8475.5000    7.8700    8.7587   38.5711   82.5797    1.5573    5.2952    5.1869  686.5358  656.7360  905.0938    0.0144    0.0985    2.6026    3.2720   37.0000 
8476.0000    7.8700    8.7722   41.2636   92.3725    1.6518    5.7326    5.6481  689.5629  629.9437  722.7828    0.0158    0.1103    2.5929    3.3279   37.0000 
8476.5000    7.8700    8.8055   40.4973   88.9175    1.6100    5.6785    5.4539  677.6148  641.3757  124.2850    0.0126    0.1163    2.5844    3.4388   37.0000 
8477.0000    7.8700    8.8177   38.4958   80.5141    1.5190    5.4524    4.9436  612.6060  585.0234   65.4960    0.0121    0.1125    2.5856    3.4338   37.0000 
8477.5000    7.8700    8.8195   37.2948   72.0203    1.4571    5.3509    4.5622  544.3294  509.9795   72.1840    0.0134    0.1072    2.5965    3.3757   37.0000 
8478.0000    7.8700    8.8329   37.6173   68.8128    1.4567    5.4592    4.3136  503.5271  455.4612  268.9678    0.0130    0.1038    2.6049    3.3225   37.0000 
8478.5000    7.8700    8.8305   40.5216   69.9779    1.5400    6.0190    4.4028  359.2634  403.2586  527.6228    0.0143    0.1081    2.6137    3.4598   37.0000 
8479.0000    7.8700    8.8256   44.8324   74.8996    1.6813    6.7660    4.6107  228.7527  170.2691   93.5957    0.0163    0.1067    2.6251    3.7418   37.0000 
8479.5000    7.8700    8.8396   48.0779   86.8820    1.7804    7.3633    4.6574  227.8118  171.8493   33.2858    0.0176    0.1072    2.6298    3.7761   37.0000 
