~VERSION INFORMATION
 VERS.                 2.0:   CWLS LOG ASCII STANDARD - VERSION 2.0
 WRAP.                  NO:   SINGLE LINE PER DEPTH STEP
 CREA.                 20/03/2018 14:52:55
#CREATED USING DSPetro VERSION 5000.10.1.3 BY H191660 ON 20/03/2018 14:52:55
~WELL INFORMATION
#MNEM.UNIT       DATA                          DESCRIPTION MNEMONIC
#---------      ---------------------------   --------------------------
 STRT    .FT        30.0000                   : START DEPTH
 STOP    .FT        11591.0000                : STOP DEPTH
 STEP    .FT        0.5000                    : STEP VALUE
 NULL    .      -999.0000                     : NULL VALUE
 DATE    .      20/03/2018                    : LAS file Creation Date
 WELL .      UNIVERSITY_20-18            : Well Name
 COMP .      Neftex Exploration Insights : Company
 FLD  .      WAR-WINK, S. (WOLFCAMP)     : Field
 UWI  .      210                         : Unique Well Identifier (UWI)
 LOC  .                                  : Location
 RWS  .      -999                        : Def_Rw
 WST  .      -999                        : Def_Rwt
 SRVC .                                  : Contractor
~CURVE INFORMATION
#MNEM              UNIT       API CODE   Curve Type Comments
#----------  --------------- ----------  ---------- -----------
 DEPTH      .FT                        : Depth       
 BS         .inch                      : BitSize     
 CAL_INCH   .inch                      :             Caliper Log - A representation of the measured diameter of a borehole along its depth
 CGR_API    .API                       : GammaRay    Corrected / Computed Gamma Ray - Radiation with the Uranium component removed. Also known as a 'carbonate gamma ray'
 GR2_API    .API                       :             Gamma Ray (API) - Measures the intensity of natural gamma-ray radiation emitted from formations containing radioactive elements, such as K, Th and U
 K_%        .PC                        :             Potassium Abundance (SGR) - The quantitative elemental abundace of Potassium derived from the Spectral Gamma Ray Log. Also wt_%
 TH_PPM     .ppm                       : Spectral    Thorium Abundance (SGR) - The quantitative elemental abundace of Thorium derived from the Spectral Gamma Ray Log
 U_PPM      .ppm                       :             Uranium Abundance (SGR) - The quantitative elemental abundace of Uranium derived from the Spectral Gamma Ray Log
 LLD_OHMM   .ohmm                      :             Laterlog Deep Resistivity - Measurement made several feet into the formation; generally considered a measurement of the undisturbed formation
 LLS_OHMM   .ohmm                      :             Laterlog Shallow Resistivity - one to two feet into the formation; generally considered to measure the formation
 MSFL_OHMM  .ohmm                      :             Micro-Spherically Focused Log - Measurement involves only the first few inches of the formation immediately adjacent to the borehole
 DRHO_G_CC  .g/cc                      :             Density Correction - Investigates the correction to the Bulk Density log; used as an indication of hole condition to validate the Bulk Density measure
 NPHI_RATIO .ratio                     :             Neutron Porosity - Measured with an neutron logging device calibrated to a given matrix (limestone, sandstone and dolomite)
 RHOB_G_CC  .g/cc                      :             Bulk Density - Measures the density of bulk material, including any void space or other materials contained in the subject volume
 PEF_B_E    .b/e-                      : PEF         Photoelectric Factor - A log of photoelectric absorption properties. Often expressed in an approximation unit barns/electron (b/e-)
 LITH       .                          : LITH        Lithology Curve
~A  DEPTH     BS     CAL_INCH  CGR_API   GR2_API     K_%      TH_PPM    U_PPM    LLD_OHMM  LLS_OHMM MSFL_OHM~ DRHO_G_C~ NPHI_RAT~ RHOB_G_C~  PEF_B_E     LITH   
# ...
10630.0000    7.8700    8.9885    7.4487   36.1846    0.2889    1.0777    3.7872  693.0733  575.4977  571.4743    0.0033    0.0429    2.6033    4.4658   18.0000 
10630.5000    7.8700    9.0047    7.5310   35.0260    0.3000    1.0521    3.6607  729.4274  611.7117  469.4311    0.0027    0.0433    2.6050    4.3456   18.0000 
10631.0000    7.8700    9.0198    7.8060   31.6406    0.3179    1.0575    3.4455  772.1348  693.8209  555.8177    0.0060    0.0443    2.6173    4.1541   18.0000 
10631.5000    7.8700    9.0437    8.2723   29.8180    0.3446    1.0843    3.3894  666.1467  626.5447 14817.8535    0.0121    0.0413    2.6244    4.1292   18.0000 
10632.0000    7.8700    9.0643    8.7068   33.3634    0.3715    1.0995    3.2759  700.5515  742.7535  793.1000    0.0170    0.0398    2.6141    4.1922   18.0000 
10632.5000    7.8700    9.0755    9.7695   37.3241    0.4161    1.2373    3.3592  508.2504  537.2159  807.6994    0.0220    0.0428    2.6093    4.2884   18.0000 
10633.0000    7.8700    9.0860   10.9020   39.9256    0.4566    1.4174    3.4423  401.4543  378.7729  505.2547    0.0232    0.0465    2.6180    4.4073   18.0000 
10633.5000    7.8700    9.1128   12.2883   41.5265    0.5127    1.6071    3.4727  344.0988  341.4277  303.9389    0.0191    0.0498    2.6235    4.4021   18.0000 
10634.0000    7.8700    9.1415   13.7932   40.1098    0.5672    1.8432    3.6238  238.5275  242.7974  208.7253    0.0133    0.0557    2.6143    4.2823   18.0000 
10634.5000    7.8700    9.1785   15.2648   41.6795    0.6207    2.0730    3.8322  190.9719  196.2273  125.0253    0.0101    0.0569    2.5988    4.1704   18.0000 
10635.0000    7.8700    9.1995   16.4309   47.1674    0.6614    2.2636    4.0122  167.9885  166.4856  114.8806    0.0110    0.0613    2.5935    4.1426   18.0000 
10635.5000    7.8700    9.2116   17.5572   49.2666    0.7048    2.4280    4.3561  134.0812  140.2748  122.3497    0.0132    0.0701    2.5921    4.1627   18.0000 
10636.0000    7.8700    9.2170   16.6882   48.2319    0.6851    2.2354    4.2828  111.3200  103.4233   62.2022    0.0163    0.0705    2.5965    4.1056   18.0000 
10636.5000    7.8700    9.2488   14.6470   43.4743    0.6120    1.9112    3.8212  133.7010  126.6203   85.9652    0.0178    0.0602    2.6103    4.0875   18.0000 
10637.0000    7.8700    9.2641   12.3337   33.3971    0.5221    1.5773    3.1959  160.7774  156.2297  145.8566    0.0142    0.0571    2.6227    4.3232   18.0000 
10637.5000    7.8700    9.2708   11.6111   27.6588    0.4926    1.4798    2.9746  164.0607  187.2989 19998.3242    0.0091    0.0515    2.6228    4.5969   18.0000 
10638.0000    7.8700    9.2897   13.3356   34.7632    0.5646    1.7050    3.3426  129.5315  161.7502  286.7291    0.0081    0.0544    2.5875    4.4437   18.0000 
10638.5000    7.8700    9.3176   16.2539   49.1326    0.6949    2.0463    4.0316   85.4783   85.3444   37.0465    0.0077    0.0993    2.5357    3.9168   18.0000 
10639.0000    7.8700    9.3531   19.0533   58.7247    0.8182    2.3816    4.6597   63.6566   63.2896   29.9615    0.0051    0.1411    2.5063    3.4585   22.0000 
10639.5000    7.8700    9.3798   20.1996   60.7635    0.8696    2.5146    4.7229   55.3037   51.8057   50.9660    0.0060    0.1304    2.4861    3.2300   27.0000 
10640.0000    7.8700    9.3890   19.2874   54.2015    0.8213    2.4436    4.2998   67.7486   63.2716   75.7064    0.0094    0.1271    2.4867    3.3359   27.0000 
10640.5000    7.8700    9.3856   17.0462   43.1232    0.7199    2.1880    3.6440   95.3661   88.8525   50.7955    0.0107    0.0982    2.5396    3.7891   18.0000 
10641.0000    7.8700    9.3908   13.5670   35.8110    0.5644    1.7821    2.8564  206.6146  240.0121   64.1993    0.0105    0.0508    2.6000    4.3030   18.0000 
10641.5000    7.8700    9.3978   10.8822   32.2418    0.4446    1.4681    2.3557  566.1283  812.1449 2851.5605    0.0118    0.0378    2.6315    4.6562   18.0000 
10642.0000    7.8700    9.4052    9.7237   28.3448    0.3918    1.3377    2.2258  855.4180  967.8857 19999.2754    0.0123    0.0381    2.6440    4.8334   18.0000 
10642.5000    7.8700    9.4081    9.1435   27.5345    0.3640    1.2788    2.2862 1104.5820 1192.1082 20000.0000    0.0099    0.0366    2.6363    4.9741   18.0000 
10643.0000    7.8700    9.4115    9.1719   29.5466    0.3658    1.2799    2.4990 1163.8782 1019.0750 20000.0000    0.0097    0.0408    2.6158    5.0437   18.0000 
10643.5000    7.8700    9.4201    8.7758   30.7785    0.3521    1.2143    2.5932 1203.1965  939.4374 20000.0000    0.0121    0.0466    2.6091    4.8984   18.0000 
10644.0000    7.8700    9.4383    7.7687   27.9562    0.3194    1.0385    2.4700 1328.0277 1067.4630 20000.0000    0.0122    0.0422    2.6215    4.7088   18.0000 
10644.5000    7.8700    9.4444    7.1190   22.8976    0.3075    0.8813    2.3501 1445.0753 1312.7164 20000.0000    0.0108    0.0377    2.6372    4.6589   18.0000 
10645.0000    7.8700    9.4494    7.0391   22.0505    0.3167    0.8112    2.2905 1405.6550 1189.1158 20000.0000    0.0077    0.0342    2.6418    4.6345   18.0000 
10645.5000    7.8700    9.4575    7.5964   25.2175    0.3553    0.8113    2.4300 1484.1343 1299.3440 20000.0000    0.0064    0.0320    2.6325    4.5540   18.0000 
10646.0000    7.8700    9.4530    8.7188   26.7510    0.4097    0.9223    2.7633  931.4412  796.1288 20000.0000    0.0128    0.0362    2.6286    4.5768   18.0000 
10646.5000    7.8700    9.4692   10.0505   27.1764    0.4720    1.0642    3.0773  795.7930  653.3818 20000.0000    0.0193    0.0390    2.6286    4.6595   18.0000 
10647.0000    7.8700    9.4825   12.1518   31.9842    0.5539    1.3667    3.5027  525.7856  524.3044 19999.2695    0.0221    0.0452    2.6158    4.5459   18.0000 
10647.5000    7.8700    9.4891   14.3874   40.8395    0.6374    1.7053    3.8875  343.3245  251.9402 2778.7866    0.0243    0.0535    2.6010    4.3053   18.0000 
10648.0000    7.8700    9.4932   16.0292   46.7555    0.6984    1.9557    4.1042  255.5071  225.1853 3007.7942    0.0239    0.0596    2.5981    4.2078   18.0000 
10648.5000    7.8700    9.4988   17.4588   49.8601    0.7624    2.1220    4.3596  137.7327  123.1688 1426.0885    0.0209    0.0611    2.6018    4.2409   18.0000 
10649.0000    7.8700    9.4947   18.7059   55.4807    0.8239    2.2402    4.6817  117.2420   95.2572  308.9541    0.0177    0.0664    2.5894    4.1273   18.0000 
10649.5000    7.8700    9.4879   19.6088   60.8641    0.8671    2.3321    4.8863  106.1851   86.9206   97.4037    0.0149    0.0794    2.5589    3.8957   18.0000 
10650.0000    7.8700    9.4857   19.4328   58.6377    0.8589    2.3131    4.9705   95.1038   74.9393   88.3050    0.0149    0.0838    2.5521    3.8589   18.0000 
10650.5000    7.8700    9.4787   18.4474   51.0782    0.8145    2.2001    4.7752   94.2587   91.2449  397.8862    0.0167    0.0717    2.5795    3.9659   18.0000 
10651.0000    7.8700    9.4790   17.9229   48.6710    0.7891    2.1477    4.7527   86.2329   70.0728 1023.6664    0.0134    0.0676    2.5936    3.9675   18.0000 
10651.5000    7.8700    9.4659   17.7000   52.1460    0.7768    2.1331    4.7445   92.5868   75.1971  102.1891    0.0065    0.0658    2.5792    3.9004   18.0000 
10652.0000    7.8700    9.4510   17.3290   54.6901    0.7482    2.1466    4.4712  101.4135   79.9996  103.0604    0.0034    0.0737    2.5783    3.9761   18.0000 
10652.5000    7.8700    9.4434   16.5147   48.5837    0.7027    2.0949    4.0223   95.7963   80.9567  235.9021    0.0019    0.0722    2.5995    4.1483   18.0000 
10653.0000    7.8700    9.4399   15.3322   42.9123    0.6500    1.9564    3.4886  142.9505  123.2934  898.7823   -0.0012    0.0559    2.6009    4.1864   18.0000 
10653.5000    7.8700    9.4321   15.0107   42.5102    0.6434    1.8820    3.1225  172.9730  137.5232  129.3138   -0.0022    0.0545    2.5855    4.1174   18.0000 
10654.0000    7.8700    9.4167   15.1486   40.8898    0.6499    1.8962    2.9068  153.9512  128.1671  129.6138   -0.0002    0.0534    2.5879    4.1243   18.0000 
10654.5000    7.8700    9.4015   14.7041   38.3688    0.6206    1.8895    2.6980  155.8615  123.3665  362.1357    0.0015    0.0472    2.5930    4.2223   18.0000 
