~VERSION INFORMATION
 VERS.                 2.0:   CWLS LOG ASCII STANDARD - VERSION 2.0
 WRAP.                  NO:   SINGLE LINE PER DEPTH STEP
 CREA.                 20/03/2018 14:52:55
#CREATED USING DSPetro VERSION 5000.10.1.3 BY H191660 ON 20/03/2018 14:52:55
~WELL INFORMATION
#MNEM.UNIT       DATA                          DESCRIPTION MNEMONIC
#---------      ---------------------------   --------------------------
 STRT    .FT        30.0000                   : START DEPTH
 STOP    .FT        11591.0000                : STOP DEPTH
 STEP    .FT        0.5000                    : STEP VALUE
 NULL    .      -999.0000                     : NULL VALUE
 DATE    .      20/03/2018                    : LAS file Creation Date
 WELL .      UNIVERSITY_20-18            : Well Name
 COMP .      Neftex Exploration Insights : Company
 FLD  .      WAR-WINK, S. (WOLFCAMP)     : Field
 UWI  .      210                         : Unique Well Identifier (UWI)
 LOC  .                                  : Location
 RWS  .      -999                        : Def_Rw
 WST  .      -999                        : Def_Rwt
 SRVC .                                  : Contractor
~CURVE INFORMATION
#MNEM              UNIT       API CODE   Curve Type Comments
#----------  --------------- ----------  ---------- -----------
 DEPTH      .FT                        : Depth       
 BS         .inch                      : BitSize     
 CAL_INCH   .inch                      :             Caliper Log - A representation of the measured diameter of a borehole along its depth
 CGR_API    .API                       : GammaRay    Corrected / Computed Gamma Ray - Radiation with the Uranium component removed. Also known as a 'carbonate gamma ray'
 GR2_API    .API                       :             Gamma Ray (API) - Measures the intensity of natural gamma-ray radiation emitted from formations containing radioactive elements, such as K, Th and U
 K_%        .PC                        :             Potassium Abundance (SGR) - The quantitative elemental abundace of Potassium derived from the Spectral Gamma Ray Log. Also wt_%
 TH_PPM     .ppm                       : Spectral    Thorium Abundance (SGR) - The quantitative elemental abundace of Thorium derived from the Spectral Gamma Ray Log
 U_PPM      .ppm                       :             Uranium Abundance (SGR) - The quantitative elemental abundace of Uranium derived from the Spectral Gamma Ray Log
 LLD_OHMM   .ohmm                      :             Laterlog Deep Resistivity - Measurement made several feet into the formation; generally considered a measurement of the undisturbed formation
 LLS_OHMM   .ohmm                      :             Laterlog Shallow Resistivity - one to two feet into the formation; generally considered to measure the formation
 MSFL_OHMM  .ohmm                      :             Micro-Spherically Focused Log - Measurement involves only the first few inches of the formation immediately adjacent to the borehole
 DRHO_G_CC  .g/cc                      :             Density Correction - Investigates the correction to the Bulk Density log; used as an indication of hole condition to validate the Bulk Density measure
 NPHI_RATIO .ratio                     :             Neutron Porosity - Measured with an neutron logging device calibrated to a given matrix (limestone, sandstone and dolomite)
 RHOB_G_CC  .g/cc                      :             Bulk Density - Measures the density of bulk material, including any void space or other materials contained in the subject volume
 PEF_B_E    .b/e-                      : PEF         Photoelectric Factor - A log of photoelectric absorption properties. Often expressed in an approximation unit barns/electron (b/e-)
 LITH       .                          : LITH        Lithology Curve
~A  DEPTH     BS     CAL_INCH  CGR_API   GR2_API     K_%      TH_PPM    U_PPM    LLD_OHMM  LLS_OHMM MSFL_OHM~ DRHO_G_C~ NPHI_RAT~ RHOB_G_C~  PEF_B_E     LITH   
# ...
7130.0000    7.8700    9.3937   44.7255   54.4528    2.0774    4.8496    2.7588    5.3798    4.5122    3.9292    0.0010    0.1418    2.4846    2.3816   36.0000 
7130.5000    7.8700    9.3341   45.8092   56.1168    2.1156    5.0248    2.8596    6.4560    5.6394    6.2402   -0.0004    0.1333    2.4943    2.4621   36.0000 
7131.0000    7.8700    9.3118   45.7926   56.8869    2.1106    5.0430    2.8328    7.4402    6.3452    5.0859   -0.0021    0.1319    2.4937    2.4840   36.0000 
7131.5000    7.8700    9.2632   44.1555   57.1144    2.0370    4.8538    2.6331    7.5922    6.3624    3.9064   -0.0014    0.1314    2.4885    2.4537   36.0000 
7132.0000    7.8700    9.1975   42.1842   54.9282    1.9471    4.6324    2.4606    6.9923    5.4723    4.7169   -0.0005    0.1201    2.4910    2.4879   36.0000 
7132.5000    7.8700    9.1688   39.5876   49.8325    1.8348    4.3114    2.2246    9.1776    7.4385    5.0482    0.0023    0.1061    2.5099    2.5986   36.0000 
7133.0000    7.8700    9.1031   35.2364   43.4412    1.6235    3.8834    1.9490   10.4101    8.9166    8.9307    0.0049    0.0863    2.5375    2.7429   27.0000 
7133.5000    7.8700    9.0634   33.1503   41.6232    1.5260    3.6596    1.8179    9.6948    8.3302   12.3293    0.0031    0.0777    2.5473    2.8053   27.0000 
7134.0000    7.8700    9.0689   32.2135   44.6698    1.4966    3.4912    1.7981   10.4231    8.6196    7.9160    0.0026    0.0829    2.5346    2.6826   27.0000 
7134.5000    7.8700    9.0517   33.4233   48.4263    1.5640    3.5695    1.8816    9.2560    7.3011    4.6368    0.0011    0.0910    2.5167    2.5469   36.0000 
7135.0000    7.8700    9.0308   35.4644   52.0924    1.6750    3.7140    2.0076    8.8664    6.9846    4.7032   -0.0005    0.1055    2.5117    2.5092   36.0000 
7135.5000    7.8700    9.0053   36.8141   54.1716    1.7503    3.8002    2.1671   10.2144    8.2602    6.3554    0.0032    0.1023    2.5194    2.5188   36.0000 
7136.0000    7.8700    8.9844   36.7882   55.7216    1.7752    3.6737    2.2331   13.1217   10.6226    6.7288    0.0069    0.0918    2.5387    2.6340   36.0000 
7136.5000    7.8700    8.9522   34.9729   54.3925    1.7040    3.4143    2.1342   15.3453   12.4507    8.8310    0.0093    0.0822    2.5731    2.8261   36.0000 
7137.0000    7.8700    8.9508   32.2471   49.7321    1.5908    3.0550    1.9869   19.0492   15.4451    9.0012    0.0122    0.0698    2.5955    2.9259   36.0000 
7137.5000    7.8700    8.8997   30.7546   46.6720    1.5156    2.9211    1.9434   20.6401   17.4403   12.2072    0.0150    0.0627    2.5984    2.9218   36.0000 
7138.0000    7.8700    8.8702   30.3681   47.3852    1.4940    2.8966    2.1800   22.2860   17.4417   12.4821    0.0155    0.0715    2.5932    2.9523   36.0000 
7138.5000    7.8700    8.8232   30.7044   50.0535    1.5042    2.9588    2.5486   25.9441   21.4969   12.5808    0.0126    0.0743    2.5849    3.0341   36.0000 
7139.0000    7.8700    8.7833   30.4494   51.7743    1.4733    3.0216    2.8711   23.5176   20.1299   14.3194    0.0079    0.0727    2.5899    3.0636   36.0000 
7139.5000    7.8700    8.7483   30.8429   49.3839    1.4755    3.1408    3.1619   21.6120   17.2448   13.2422    0.0027    0.0665    2.5872    2.9706   36.0000 
7140.0000    7.8700    8.7271   30.7907   48.7780    1.4530    3.2305    3.3136   22.9837   17.8114   12.4995    0.0043    0.0717    2.5688    2.7802   36.0000 
7140.5000    7.8700    8.7144   29.8689   53.2039    1.3967    3.1942    3.4711   22.1854   17.0726   14.2484    0.0104    0.0768    2.5607    2.6369   36.0000 
7141.0000    7.8700    8.6909   27.9338   54.0276    1.2995    3.0195    3.6088   23.0682   18.0774   21.0369    0.0086    0.0763    2.5591    2.6325   36.0000 
7141.5000    7.8700    8.6816   25.6079   53.3179    1.1845    2.8000    3.7584   27.1370   21.6013   18.6984    0.0054    0.0738    2.5491    2.6807   36.0000 
7142.0000    7.8700    8.6475   26.3279   57.9283    1.2082    2.9244    4.3394   29.8768   21.9656   19.4276    0.0078    0.0807    2.5285    2.6652   36.0000 
7142.5000    7.8700    8.6284   30.4547   69.8542    1.3898    3.4196    5.3686   38.2475   26.9293   22.5229    0.0086    0.1036    2.5097    2.6283   36.0000 
7143.0000    7.8700    8.6131   37.9561   94.0403    1.7219    4.3108    6.8694   54.2388   39.5431   37.8346    0.0087    0.1244    2.5046    2.7292   36.0000 
7143.5000    7.8700    8.5933   44.6199  117.0309    2.0185    5.0944    8.0614   96.0020   75.3096  111.3937    0.0120    0.1474    2.5084    2.9256   36.0000 
7144.0000    7.8700    8.5666   48.2889  121.0290    2.1642    5.6097    8.7426  250.4693  263.0226  257.3354    0.0116    0.1509    2.5160    3.0742   37.0000 
7144.5000    7.8700    8.5551   50.8865  126.5200    2.2561    6.0277    9.1568  666.3884 1201.8979  282.3568    0.0064    0.1526    2.5151    3.2033   37.0000 
7145.0000    7.8700    8.5484   54.1785  139.8884    2.3520    6.6554    9.6933  736.9573 1115.3472   95.8521    0.0044    0.1598    2.4995    3.3357   37.0000 
7145.5000    7.8700    8.5372   61.0945  148.2187    2.5898    7.8012   10.7730  673.4182  896.3886  108.0311   -0.0022    0.1667    2.4897    3.3616   37.0000 
7146.0000    7.8700    8.5254   67.8760  158.6209    2.8073    8.9997   12.0114  608.8181  801.9216  164.4379   -0.0117    0.1529    2.4977    3.2450   37.0000 
7146.5000    7.8700    8.5308   68.3674  166.4748    2.7577    9.3966   12.5078  339.4851  417.7019  295.6357   -0.0076    0.1490    2.5104    3.2908   37.0000 
7147.0000    7.8700    8.5279   60.6201  150.5012    2.3946    8.5720   11.4328  257.7887  239.4613  104.5247   -0.0002    0.1398    2.5276    3.5678   37.0000 
7147.5000    7.8700    8.4990   45.6443  108.1959    1.7645    6.6375    8.9192  235.5970  220.0213  100.3663    0.0043    0.0923    2.5679    3.5447   37.0000 
7148.0000    7.8700    8.4688   31.0939   67.6615    1.1886    4.5852    6.0735  216.2180  200.2255  124.4577    0.0111    0.0475    2.6111    3.1652   27.0000 
7148.5000    7.8700    8.4604   21.7105   46.9000    0.8247    3.2259    4.2241  222.4249  239.1922  219.5880    0.0157    0.0282    2.6348    2.9833   27.0000 
7149.0000    7.8700    8.4791   19.5926   40.5419    0.7456    2.9051    3.8359  250.2404  274.7085  155.2663    0.0179    0.0285    2.6385    3.1136   27.0000 
7149.5000    7.8700    8.5154   23.0563   45.3196    0.8771    3.4202    4.4970  231.3153  236.4222  137.6382    0.0191    0.0437    2.6269    3.2457   27.0000 
7150.0000    7.8700    8.5472   28.4752   60.9046    1.0773    4.2523    5.5378  235.5388  226.9329  129.9766    0.0223    0.0697    2.6193    3.2610   37.0000 
7150.5000    7.8700    8.5748   33.4582   79.6534    1.2668    4.9918    6.3893  253.5868  249.7327  169.2400    0.0244    0.0928    2.6159    3.3069   37.0000 
7151.0000    7.8700    8.5943   36.4019   88.5458    1.3939    5.3564    6.6304  274.6573  280.1567  266.0670    0.0234    0.0969    2.6029    3.4297   37.0000 
7151.5000    7.8700    8.6256   36.2829   86.9323    1.4123    5.2298    6.0951  311.9500  310.4470  200.8942    0.0218    0.0931    2.5790    3.4916   37.0000 
7152.0000    7.8700    8.6510   36.2875   80.0990    1.4317    5.1393    5.4622  384.8582  357.2345  194.5392    0.0180    0.0871    2.5626    3.5290   37.0000 
7152.5000    7.8700    8.6592   35.7755   74.0791    1.4200    5.0267    4.9476  432.0922  400.1363  304.3100    0.0223    0.0872    2.5684    3.5742   37.0000 
7153.0000    7.8700    8.6738   36.4661   69.4320    1.4415    5.1516    4.9027  524.9232  577.0129 2326.0581    0.0344    0.0989    2.5844    3.5615   37.0000 
7153.5000    7.8700    8.6926   35.9361   66.4121    1.4071    5.1404    4.8264  647.1470  822.1970 17891.5762    0.0317    0.0953    2.5991    3.6307   37.0000 
7154.0000    7.8700    8.7188   33.5974   63.9177    1.3033    4.8642    4.4822  647.9504  676.8376 1266.0790    0.0187    0.0837    2.6124    3.6469   37.0000 
7154.5000    7.8700    8.7461   30.9590   56.9171    1.1976    4.4980    3.9890  365.3193  394.5672  573.2395    0.0142    0.0722    2.6302    3.4375   37.0000 
