~VERSION INFORMATION
 VERS.                 2.0:   CWLS LOG ASCII STANDARD - VERSION 2.0
 WRAP.                  NO:   SINGLE LINE PER DEPTH STEP
 CREA.                 20/03/2018 14:52:55
#CREATED USING DSPetro VERSION 5000.10.1.3 BY H191660 ON 20/03/2018 14:52:55
~WELL INFORMATION
#MNEM.UNIT       DATA                          DESCRIPTION MNEMONIC
#---------      ---------------------------   --------------------------
 STRT    .FT        30.0000                   : START DEPTH
 STOP    .FT        11591.0000                : STOP DEPTH
 STEP    .FT        0.5000                    : STEP VALUE
 NULL    .      -999.0000                     : NULL VALUE
 DATE    .      20/03/2018                    : LAS file Creation Date
 WELL .      UNIVERSITY_20-18            : Well Name
 COMP .      Neftex Exploration Insights : Company
 FLD  .      WAR-WINK, S. (WOLFCAMP)     : Field
 UWI  .      210                         : Unique Well Identifier (UWI)
 LOC  .                                  : Location
 RWS  .      -999                        : Def_Rw
 WST  .      -999                        : Def_Rwt
 SRVC .                                  : Contractor
~CURVE INFORMATION
#MNEM              UNIT       API CODE   Curve Type Comments
#----------  --------------- ----------  ---------- -----------
 DEPTH      .FT                        : Depth       
 BS         .inch                      : BitSize     
 CAL_INCH   .inch                      :             Caliper Log - A representation of the measured diameter of a borehole along its depth
 CGR_API    .API                       : GammaRay    Corrected / Computed Gamma Ray - Radiation with the Uranium component removed. Also known as a 'carbonate gamma ray'
 GR2_API    .API                       :             Gamma Ray (API) - Measures the intensity of natural gamma-ray radiation emitted from formations containing radioactive elements, such as K, Th and U
 K_%        .PC                        :             Potassium Abundance (SGR) - The quantitative elemental abundace of Potassium derived from the Spectral Gamma Ray Log. Also wt_%
 TH_PPM     .ppm                       : Spectral    Thorium Abundance (SGR) - The quantitative elemental abundace of Thorium derived from the Spectral Gamma Ray Log
 U_PPM      .ppm                       :             Uranium Abundance (SGR) - The quantitative elemental abundace of Uranium derived from the Spectral Gamma Ray Log
 LLD_OHMM   .ohmm                      :             Laterlog Deep Resistivity - Measurement made several feet into the formation; generally considered a measurement of the undisturbed formation
 LLS_OHMM   .ohmm                      :             Laterlog Shallow Resistivity - one to two feet into the formation; generally considered to measure the formation
 MSFL_OHMM  .ohmm                      :             Micro-Spherically Focused Log - Measurement involves only the first few inches of the formation immediately adjacent to the borehole
 DRHO_G_CC  .g/cc                      :             Density Correction - Investigates the correction to the Bulk Density log; used as an indication of hole condition to validate the Bulk Density measure
 NPHI_RATIO .ratio                     :             Neutron Porosity - Measured with an neutron logging device calibrated to a given matrix (limestone, sandstone and dolomite)
 RHOB_G_CC  .g/cc                      :             Bulk Density - Measures the density of bulk material, including any void space or other materials contained in the subject volume
 PEF_B_E    .b/e-                      : PEF         Photoelectric Factor - A log of photoelectric absorption properties. Often expressed in an approximation unit barns/electron (b/e-)
 LITH       .                          : LITH        Lithology Curve
~A  DEPTH     BS     CAL_INCH  CGR_API   GR2_API     K_%      TH_PPM    U_PPM    LLD_OHMM  LLS_OHMM MSFL_OHM~ DRHO_G_C~ NPHI_RAT~ RHOB_G_C~  PEF_B_E     LITH   
# ...
10205.0000    7.8700    8.8162   13.1455   26.2088    0.4644    2.1175    2.0896  467.0846  422.6964  600.1990    0.0152    0.0363    2.6463    4.5152   18.0000 
10205.5000    7.8700    8.8396   14.8435   30.4339    0.5312    2.3588    2.3037  403.9980  326.7242  307.6641    0.0144    0.0453    2.6177    4.2654   18.0000 
10206.0000    7.8700    8.8702   15.7020   33.7516    0.5643    2.4841    2.4577  386.7587  300.0680  360.8648    0.0108    0.0572    2.5563    3.7011   18.0000 
10206.5000    7.8700    8.8844   14.5705   31.4047    0.5332    2.2596    2.3304  405.8299  320.2380 19999.2031    0.0093    0.0634    2.5234    3.3182   18.0000 
10207.0000    7.8700    8.8957   12.1274   26.5032    0.4466    1.8674    2.0275  526.7721  479.3086 19999.2676    0.0127    0.0536    2.5644    3.4022   18.0000 
10207.5000    7.8700    8.8876   10.2037   22.4187    0.3701    1.5979    1.7811  854.4225  876.8328 1956.6880    0.0152    0.0408    2.6282    3.8085   18.0000 
10208.0000    7.8700    8.9140    9.8193   20.5104    0.3554    1.5414    1.7263 1137.2758 1339.0710 1640.3776    0.0146    0.0325    2.6488    4.1609   18.0000 
10208.5000    7.8700    8.9298   11.8082   23.8719    0.4209    1.8842    2.0525  750.3156 1037.3604  971.8414    0.0150    0.0353    2.6382    4.1935   18.0000 
10209.0000    7.8700    8.9322   16.3040   32.2421    0.5840    2.5882    2.7537  227.9785  278.7615  761.1563    0.0109    0.0525    2.6257    4.0627   18.0000 
10209.5000    7.8700    8.9468   22.2882   48.7846    0.8177    3.4465    3.6420  122.9276  106.1665   76.7027    0.0027    0.0758    2.5940    3.8331   18.0000 
10210.0000    7.8700    8.9492   26.1643   65.8522    0.9782    3.9590    4.1899  109.2459   85.1179   40.3638    0.0016    0.0958    2.5543    3.4477   22.0000 
10210.5000    7.8700    8.9557   28.0601   62.3673    1.0659    4.1660    4.4738  105.2783   84.2328   46.5301    0.0050    0.0949    2.5551    3.3359   22.0000 
10211.0000    7.8700    8.9593   29.9384   52.2908    1.1459    4.4040    4.7219   93.7888   83.7759  154.2083    0.0044    0.0818    2.5766    3.6509   22.0000 
10211.5000    7.8700    8.9812   31.9864   61.6045    1.2322    4.6678    5.1132   96.6986   82.6391   52.2601    0.0014    0.0903    2.5620    3.8084   22.0000 
10212.0000    7.8700    8.9842   34.6571   75.7794    1.3502    4.9855    5.5397   91.3110   74.5649   28.4133   -0.0005    0.1204    2.5251    3.6052   22.0000 
10212.5000    7.8700    9.0005   33.7163   74.6847    1.3367    4.7404    5.4339   85.4767   74.3040   31.2214    0.0012    0.1254    2.5223    3.5074   22.0000 
10213.0000    7.8700    9.0013   31.2284   61.8423    1.2565    4.3033    5.0807   91.7583   95.1849   61.8191    0.0065    0.1125    2.5515    3.6915   22.0000 
10213.5000    7.8700    9.0126   30.8835   55.7993    1.2527    4.2079    5.0394   95.9558  117.2038   74.9835    0.0083    0.1030    2.5753    3.8477   22.0000 
10214.0000    7.8700    9.0204   33.8680   65.0063    1.3824    4.5735    5.4543   75.9441   89.8411   32.0485    0.0054    0.1098    2.5794    3.7867   22.0000 
10214.5000    7.8700    9.0301   37.8002   83.9689    1.5529    5.0568    6.0498   60.3149   62.7361   19.2318    0.0053    0.1324    2.5645    3.6111   37.0000 
10215.0000    7.8700    9.0422   40.0887   92.4961    1.6564    5.3182    6.4217   56.2952   56.0871   22.1202    0.0049    0.1456    2.5554    3.4961   37.0000 
10215.5000    7.8700    9.0328   39.2270   83.9327    1.6318    5.1515    6.3469   48.8239   52.3118   45.3953   -0.0023    0.1486    2.5640    3.4935   37.0000 
10216.0000    7.8700    9.0304   37.8277   79.6812    1.5704    4.9831    6.2214   48.3784   46.2279   37.2450   -0.0093    0.1240    2.5673    3.4976   37.0000 
10216.5000    7.8700    9.0454   34.3420   78.1630    1.4338    4.4851    5.7364   62.1347   54.2641   25.6666   -0.0091    0.1159    2.5640    3.4828   37.0000 
10217.0000    7.8700    9.0208   27.4418   57.8107    1.1487    3.5700    4.6410   78.8121   61.7870   33.0914   -0.0051    0.1015    2.5738    3.6128   37.0000 
10217.5000    7.8700    9.0128   19.5308   31.9410    0.8249    2.5059    3.3313  127.6080  113.1296  569.6549   -0.0011    0.0539    2.5983    3.9104   37.0000 
10218.0000    7.8700    9.0110   11.9423   19.5496    0.5103    1.5041    2.0815  405.2279  704.4408 19999.2109    0.0022    0.0268    2.6336    4.1899   18.0000 
10218.5000    7.8700    9.0322    7.9037   15.5988    0.3434    0.9686    1.4292 2049.6445 3494.2520 20000.0000    0.0025    0.0192    2.6573    4.3045   18.0000 
10219.0000    7.8700    9.0267    7.2123   15.3709    0.3206    0.8496    1.3533 2079.8430 3134.2336 20000.0000    0.0011    0.0182    2.6502    4.2462   18.0000 
10219.5000    7.8700    9.0380    6.9929   16.1209    0.3174    0.7927    1.3938 2063.4290 3229.5039 20000.0000    0.0014    0.0185    2.6368    4.2678   18.0000 
10220.0000    7.8700    9.0294    7.2784   15.9870    0.3358    0.7991    1.5519 1975.2880 2929.9697 20000.0000    0.0013    0.0196    2.6321    4.4816   18.0000 
10220.5000    7.8700    9.0349    7.1882   15.8532    0.3282    0.8056    1.5742 1838.6823 2356.3320 20000.0000    0.0001    0.0224    2.6302    4.5563   18.0000 
10221.0000    7.8700    9.0363    6.9635   17.9791    0.3135    0.8014    1.5974 1907.0343 2772.4834 20000.0000    0.0012    0.0232    2.6345    4.4208   18.0000 
10221.5000    7.8700    9.0334    6.9044   20.5068    0.3052    0.8211    1.6153 1617.5029 2040.0989 20000.0000    0.0053    0.0254    2.6445    4.3613   18.0000 
10222.0000    7.8700    9.0454    7.1982   21.3338    0.3114    0.8886    1.7875 1378.2720 1771.8118 19999.2910    0.0081    0.0259    2.6448    4.3781   18.0000 
10222.5000    7.8700    9.0306    7.7193   22.3516    0.3307    0.9681    2.1589 1163.7540 1276.2317 2584.5254    0.0091    0.0291    2.6344    4.3226   18.0000 
10223.0000    7.8700    9.0412    8.4751   23.3962    0.3597    1.0793    2.4770 1027.0425 1068.8834 1387.4602    0.0102    0.0338    2.6234    4.2510   18.0000 
10223.5000    7.8700    9.0261    9.0356   24.6318    0.3865    1.1361    2.7358  881.3813  944.5643 1256.0129    0.0100    0.0362    2.6196    4.2325   18.0000 
10224.0000    7.8700    9.0322    9.0863   28.3982    0.3878    1.1466    2.8685  786.9977  788.8005 1243.6301    0.0046    0.0352    2.6170    4.1977   18.0000 
10224.5000    7.8700    9.0317    9.0112   32.1078    0.3764    1.1763    3.0016  752.9108  809.6570  917.9114   -0.0013    0.0368    2.6029    4.0387   18.0000 
10225.0000    7.8700    9.0312    8.9226   32.3121    0.3591    1.2289    3.0528  668.6476  669.8868  993.6466   -0.0002    0.0397    2.5844    3.8484   18.0000 
10225.5000    7.8700    9.0372    9.2268   31.7865    0.3546    1.3503    3.0843  652.8096  665.6095 1079.9180    0.0018    0.0421    2.5791    3.8710   18.0000 
10226.0000    7.8700    9.0372    8.9910   31.3612    0.3316    1.3820    2.8816  717.5695  732.2001  846.5230    0.0001    0.0369    2.5947    4.0458   18.0000 
10226.5000    7.8700    9.0365    9.0317   28.8067    0.3230    1.4364    2.7293  736.2664  820.1622 1894.6489    0.0001    0.0378    2.6048    4.1271   18.0000 
10227.0000    7.8700    9.0433    9.4400   26.8383    0.3307    1.5341    2.8509  581.8934  691.9779 3920.4353    0.0017    0.0412    2.5957    4.0585   18.0000 
10227.5000    7.8700    9.0428    9.8785   31.9974    0.3440    1.6151    3.0515  521.8126  529.4809  369.4997    0.0013    0.0440    2.5816    3.9038   18.0000 
10228.0000    7.8700    9.0443   10.5198   37.0708    0.3707    1.6993    3.3168  451.1158  474.9641  323.0100   -0.0005    0.0508    2.5710    3.8286   18.0000 
10228.5000    7.8700    9.0496   10.8542   36.3418    0.3871    1.7311    3.3019  339.5917  319.9825  361.8254    0.0004    0.0554    2.5694    3.8885   18.0000 
10229.0000    7.8700    9.0531   11.2552   36.6766    0.4017    1.7937    3.1649  363.3537  365.6820  278.5717    0.0033    0.0525    2.5738    3.9371   18.0000 
10229.5000    7.8700    9.0549   12.3673   36.7797    0.4370    1.9917    3.1699  379.0620  402.8641  283.1920    0.0060    0.0556    2.5830    3.9885   18.0000 
