~VERSION INFORMATION
 VERS.                 2.0:   CWLS LOG ASCII STANDARD - VERSION 2.0
 WRAP.                  NO:   SINGLE LINE PER DEPTH STEP
 CREA.                 20/03/2018 14:52:55
#CREATED USING DSPetro VERSION 5000.10.1.3 BY H191660 ON 20/03/2018 14:52:55
~WELL INFORMATION
#MNEM.UNIT       DATA                          DESCRIPTION MNEMONIC
#---------      ---------------------------   --------------------------
 STRT    .FT        30.0000                   : START DEPTH
 STOP    .FT        11591.0000                : STOP DEPTH
 STEP    .FT        0.5000                    : STEP VALUE
 NULL    .      -999.0000                     : NULL VALUE
 DATE    .      20/03/2018                    : LAS file Creation Date
 WELL .      UNIVERSITY_20-18            : Well Name
 COMP .      Neftex Exploration Insights : Company
 FLD  .      WAR-WINK, S. (WOLFCAMP)     : Field
 UWI  .      210                         : Unique Well Identifier (UWI)
 LOC  .                                  : Location
 RWS  .      -999                        : Def_Rw
 WST  .      -999                        : Def_Rwt
 SRVC .                                  : Contractor
~CURVE INFORMATION
#MNEM              UNIT       API CODE   Curve Type Comments
#----------  --------------- ----------  ---------- -----------
 DEPTH      .FT                        : Depth       
 BS         .inch                      : BitSize     
 CAL_INCH   .inch                      :             Caliper Log - A representation of the measured diameter of a borehole along its depth
 CGR_API    .API                       : GammaRay    Corrected / Computed Gamma Ray - Radiation with the Uranium component removed. Also known as a 'carbonate gamma ray'
 GR2_API    .API                       :             Gamma Ray (API) - Measures the intensity of natural gamma-ray radiation emitted from formations containing radioactive elements, such as K, Th and U
 K_%        .PC                        :             Potassium Abundance (SGR) - The quantitative elemental abundace of Potassium derived from the Spectral Gamma Ray Log. Also wt_%
 TH_PPM     .ppm                       : Spectral    Thorium Abundance (SGR) - The quantitative elemental abundace of Thorium derived from the Spectral Gamma Ray Log
 U_PPM      .ppm                       :             Uranium Abundance (SGR) - The quantitative elemental abundace of Uranium derived from the Spectral Gamma Ray Log
 LLD_OHMM   .ohmm                      :             Laterlog Deep Resistivity - Measurement made several feet into the formation; generally considered a measurement of the undisturbed formation
 LLS_OHMM   .ohmm                      :             Laterlog Shallow Resistivity - one to two feet into the formation; generally considered to measure the formation
 MSFL_OHMM  .ohmm                      :             Micro-Spherically Focused Log - Measurement involves only the first few inches of the formation immediately adjacent to the borehole
 DRHO_G_CC  .g/cc                      :             Density Correction - Investigates the correction to the Bulk Density log; used as an indication of hole condition to validate the Bulk Density measure
 NPHI_RATIO .ratio                     :             Neutron Porosity - Measured with an neutron logging device calibrated to a given matrix (limestone, sandstone and dolomite)
 RHOB_G_CC  .g/cc                      :             Bulk Density - Measures the density of bulk material, including any void space or other materials contained in the subject volume
 PEF_B_E    .b/e-                      : PEF         Photoelectric Factor - A log of photoelectric absorption properties. Often expressed in an approximation unit barns/electron (b/e-)
 LITH       .                          : LITH        Lithology Curve
~A  DEPTH     BS     CAL_INCH  CGR_API   GR2_API     K_%      TH_PPM    U_PPM    LLD_OHMM  LLS_OHMM MSFL_OHM~ DRHO_G_C~ NPHI_RAT~ RHOB_G_C~  PEF_B_E     LITH   
# ...
8005.0000    7.8700    8.6282   46.0311  116.8601    1.9817    5.7119    8.4206  391.3809  358.7744 1553.2863   -0.0006    0.1338    2.5533    2.9897   37.0000 
8005.5000    7.8700    8.6180   42.0211  100.7664    1.8209    5.1578    7.7764  425.9623  365.0742  469.5245   -0.0010    0.1240    2.5530    3.1398   37.0000 
8006.0000    7.8700    8.5999   38.7396   82.6607    1.6853    4.7236    7.2619  510.7341  458.8111  523.3047    0.0007    0.1094    2.5780    3.5501   37.0000 
8006.5000    7.8700    8.6111   37.2715   80.8795    1.6201    4.5512    6.9991  529.5744  501.5989 2657.7666    0.0018    0.0911    2.6042    3.7706   37.0000 
8007.0000    7.8700    8.5823   39.0905   90.6017    1.6899    4.8170    7.1678  652.0612  779.8601 1265.1660    0.0010    0.0962    2.6085    3.5200   37.0000 
8007.5000    7.8700    8.5631   42.1120   97.6326    1.8132    5.2244    7.5030  658.9547  665.0607  634.2797    0.0024    0.1015    2.6069    3.2362   37.0000 
8008.0000    7.8700    8.5835   43.8623  101.6537    1.8907    5.4312    7.3707  540.6431  481.2834  423.4380    0.0028    0.1132    2.6070    3.1448   37.0000 
8008.5000    7.8700    8.5730   44.0828  102.5608    1.9032    5.4446    6.9238  490.8172  425.1242  449.3500    0.0027    0.1174    2.6080    3.0656   37.0000 
8009.0000    7.8700    8.5451   42.1099   95.6807    1.8334    5.1276    6.1935  488.1053  433.5090  437.9301    0.0037    0.1100    2.6067    3.0450   37.0000 
8009.5000    7.8700    8.5228   39.8121   85.1379    1.7394    4.8192    5.4550  474.5514  416.0437  510.1685    0.0040    0.1107    2.6088    3.0801   37.0000 
8010.0000    7.8700    8.5216   38.8475   78.6361    1.6997    4.6912    4.9962  421.8414  382.4783  380.2472    0.0055    0.0930    2.6207    3.0511   37.0000 
8010.5000    7.8700    8.5288   38.9057   77.0054    1.7066    4.6775    4.8203  346.0724  292.2235  327.0525    0.0048    0.0808    2.6297    3.0329   37.0000 
8011.0000    7.8700    8.5605   40.0895   74.8123    1.7612    4.8069    4.9378  316.9025  266.4271  263.6315    0.0032    0.0825    2.6286    3.1865   37.0000 
8011.5000    7.8700    8.5758   40.1319   69.2247    1.7770    4.7460    5.0442  273.1716  231.6098  356.6356    0.0054    0.0861    2.6360    3.4785   37.0000 
8012.0000    7.8700    8.6028   39.7167   69.7168    1.7812    4.5899    5.1516  226.8369  201.2558  205.8603    0.0058    0.0887    2.6442    3.5299   37.0000 
8012.5000    7.8700    8.6014   38.7832   75.4582    1.7566    4.3998    5.1209  169.5670  142.8119  118.9540    0.0050    0.0818    2.6432    3.2413   37.0000 
8013.0000    7.8700    8.6030   36.1889   72.6159    1.6419    4.0921    4.7057  154.3907  126.3408   90.2083    0.0076    0.0729    2.6531    3.0834   36.0000 
8013.5000    7.8700    8.5936   34.4163   62.9637    1.5597    3.9002    4.3167  139.6130  121.4186  106.3469    0.0072    0.0591    2.6624    3.2047   36.0000 
8014.0000    7.8700    8.5952   32.8431   56.2643    1.4776    3.7732    3.9664  132.8122  114.0880  116.3067    0.0041    0.0515    2.6476    3.2548   36.0000 
8014.5000    7.8700    8.6040   33.4464   56.9741    1.4903    3.9110    3.8886  133.6444  120.6357  109.9564    0.0063    0.0494    2.6296    3.0982   36.0000 
8015.0000    7.8700    8.6128   35.7162   62.4882    1.5849    4.2075    4.0722  124.5945  110.5001   83.9907    0.0092    0.0587    2.6328    2.9334   36.0000 
8015.5000    7.8700    8.6217   37.2144   68.2600    1.6456    4.4113    4.0979  108.5407   98.3424   80.6702    0.0093    0.0603    2.6380    2.8913   36.0000 
8016.0000    7.8700    8.6409   35.4406   68.9462    1.5587    4.2415    3.7811  110.9825   96.6528   66.8195    0.0094    0.0611    2.6378    3.0179   36.0000 
8016.5000    7.8700    8.6412   33.1781   57.5665    1.4563    3.9841    3.3501  103.3606  101.3415   76.4378    0.0081    0.0567    2.6454    3.3608   36.0000 
8017.0000    7.8700    8.6475   31.0302   47.2850    1.3516    3.7758    3.0827   75.8752   71.3185   42.9760    0.0057    0.0499    2.6575    3.6136   36.0000 
8017.5000    7.8700    8.6567   31.5459   50.5759    1.3688    3.8636    3.1172   58.5429   54.6609   29.3051    0.0035    0.0509    2.6573    3.3932   36.0000 
8018.0000    7.8700    8.6640   34.0180   56.6658    1.4695    4.1973    3.3908   47.3952   43.8247   21.3358    0.0057    0.0576    2.6396    2.9998   36.0000 
8018.5000    7.8700    8.6651   35.0244   59.2170    1.4672    4.5389    3.4613   39.1653   36.5268   23.3032    0.0106    0.0600    2.6254    2.8829   36.0000 
8019.0000    7.8700    8.6600   34.8532   58.0619    1.4135    4.7375    3.2865   37.2167   35.1992   22.4372    0.0122    0.0562    2.6210    2.9640   36.0000 
8019.5000    7.8700    8.6510   34.1853   53.9005    1.3358    4.8865    3.1162   35.8529   35.4549   23.1861    0.0112    0.0513    2.6201    3.0369   36.0000 
8020.0000    7.8700    8.6349   33.1303   52.2733    1.2745    4.8311    2.9973   36.7949   35.2064   21.6578    0.0086    0.0501    2.6271    3.0489   36.0000 
8020.5000    7.8700    8.6360   34.8577   53.7565    1.3433    5.0719    3.0876   40.4179   39.5179   25.9557    0.0039    0.0509    2.6281    2.9914   36.0000 
8021.0000    7.8700    8.6283   40.2122   58.9630    1.5499    5.8495    3.5005   45.9997   43.3462   31.3738   -0.0032    0.0566    2.6086    2.8589   36.0000 
8021.5000    7.8700    8.6368   50.5414   73.8084    1.9507    7.3398    4.2427   53.6650   53.6062   38.0795   -0.0039    0.0762    2.5934    2.7453   36.0000 
8022.0000    7.8700    8.6496   61.4571  101.0609    2.3685    8.9413    4.9928   62.0041   58.1325   24.5564    0.0066    0.1034    2.5804    2.7371   36.0000 
8022.5000    7.8700    8.6633   70.3573  118.1992    2.6973   10.3038    5.4868   68.4284   63.1666   25.1092    0.0149    0.1300    2.5364    2.6494   37.0000 
8023.0000    7.8700    8.6017   75.4546  114.2794    2.8811   11.1051    5.6463   52.8030   53.1408   26.1142    0.0291    0.1444    2.4813    2.4173   37.0000 
8023.5000    7.8700    8.5450   76.9007  113.0104    2.9110   11.4383    5.5370   48.9423   40.5365   15.5823    0.0718    0.1372    2.4816    2.3782   37.0000 
8024.0000    7.8700    8.6508   74.3466  112.7856    2.8073   11.0915    5.1516   52.6209   44.4852    9.0035    0.0950    0.1416    2.5358    2.5776   37.0000 
8024.5000    7.8700    8.6142   67.3527   96.2599    2.5450   10.0395    4.5255   53.5819   45.9090   10.4860    0.0546    0.1136    2.5805    2.7135   37.0000 
8025.0000    7.8700    8.6311   57.5731   76.5571    2.1649    8.6319    3.8345   66.0311   67.9319   63.2148    0.0148    0.0750    2.6147    2.7538   36.0000 
8025.5000    7.8700    8.6521   51.6837   70.1989    1.9339    7.7941    3.3948   78.0286   72.9577   55.0038    0.0105    0.0650    2.6387    2.8027   36.0000 
8026.0000    7.8700    8.6742   49.7786   70.1251    1.8523    7.5560    3.2961   74.8593   64.9907   30.3986    0.0108    0.0663    2.6377    2.8427   36.0000 
8026.5000    7.8700    8.6971   49.2290   69.8103    1.8313    7.4752    3.2973   78.0475   67.6367   29.2480    0.0078    0.0740    2.6392    2.8480   36.0000 
8027.0000    7.8700    8.7028   47.5370   67.8114    1.7732    7.1953    3.2109   87.9851   74.2707   32.4893    0.0045    0.0705    2.6558    2.9718   36.0000 
8027.5000    7.8700    8.7110   42.5376   60.4157    1.5947    6.4005    2.9475  107.8778   99.9298   78.2021    0.0017    0.0608    2.6701    3.3593   36.0000 
8028.0000    7.8700    8.7034   37.4581   53.2645    1.4002    5.6556    2.7644  127.4482  108.3106  119.3327   -0.0028    0.0501    2.6699    3.6021   36.0000 
8028.5000    7.8700    8.7262   33.9972   53.8335    1.2851    5.0656    2.8996  132.1414  110.0451  126.4349   -0.0043    0.0462    2.6539    3.3307   36.0000 
8029.0000    7.8700    8.7371   31.7184   57.5497    1.2312    4.5732    3.1407  139.3732  108.7162  103.7793    0.0020    0.0519    2.6348    2.9735   36.0000 
8029.5000    7.8700    8.7538   30.0168   57.4927    1.2096    4.1169    3.3751  157.0243  116.4750   79.0014    0.0073    0.0543    2.6266    3.0168   36.0000 
