~VERSION INFORMATION
 VERS.                 2.0:   CWLS LOG ASCII STANDARD - VERSION 2.0
 WRAP.                  NO:   SINGLE LINE PER DEPTH STEP
 CREA.                 20/03/2018 14:52:55
#CREATED USING DSPetro VERSION 5000.10.1.3 BY H191660 ON 20/03/2018 14:52:55
~WELL INFORMATION
#MNEM.UNIT       DATA                          DESCRIPTION MNEMONIC
#---------      ---------------------------   --------------------------
 STRT    .FT        30.0000                   : START DEPTH
 STOP    .FT        11591.0000                : STOP DEPTH
 STEP    .FT        0.5000                    : STEP VALUE
 NULL    .      -999.0000                     : NULL VALUE
 DATE    .      20/03/2018                    : LAS file Creation Date
 WELL .      UNIVERSITY_20-18            : Well Name
 COMP .      Neftex Exploration Insights : Company
 FLD  .      WAR-WINK, S. (WOLFCAMP)     : Field
 UWI  .      210                         : Unique Well Identifier (UWI)
 LOC  .                                  : Location
 RWS  .      -999                        : Def_Rw
 WST  .      -999                        : Def_Rwt
 SRVC .                                  : Contractor
~CURVE INFORMATION
#MNEM              UNIT       API CODE   Curve Type Comments
#----------  --------------- ----------  ---------- -----------
 DEPTH      .FT                        : Depth       
 BS         .inch                      : BitSize     
 CAL_INCH   .inch                      :             Caliper Log - A representation of the measured diameter of a borehole along its depth
 CGR_API    .API                       : GammaRay    Corrected / Computed Gamma Ray - Radiation with the Uranium component removed. Also known as a 'carbonate gamma ray'
 GR2_API    .API                       :             Gamma Ray (API) - Measures the intensity of natural gamma-ray radiation emitted from formations containing radioactive elements, such as K, Th and U
 K_%        .PC                        :             Potassium Abundance (SGR) - The quantitative elemental abundace of Potassium derived from the Spectral Gamma Ray Log. Also wt_%
 TH_PPM     .ppm                       : Spectral    Thorium Abundance (SGR) - The quantitative elemental abundace of Thorium derived from the Spectral Gamma Ray Log
 U_PPM      .ppm                       :             Uranium Abundance (SGR) - The quantitative elemental abundace of Uranium derived from the Spectral Gamma Ray Log
 LLD_OHMM   .ohmm                      :             Laterlog Deep Resistivity - Measurement made several feet into the formation; generally considered a measurement of the undisturbed formation
 LLS_OHMM   .ohmm                      :             Laterlog Shallow Resistivity - one to two feet into the formation; generally considered to measure the formation
 MSFL_OHMM  .ohmm                      :             Micro-Spherically Focused Log - Measurement involves only the first few inches of the formation immediately adjacent to the borehole
 DRHO_G_CC  .g/cc                      :             Density Correction - Investigates the correction to the Bulk Density log; used as an indication of hole condition to validate the Bulk Density measure
 NPHI_RATIO .ratio                     :             Neutron Porosity - Measured with an neutron logging device calibrated to a given matrix (limestone, sandstone and dolomite)
 RHOB_G_CC  .g/cc                      :             Bulk Density - Measures the density of bulk material, including any void space or other materials contained in the subject volume
 PEF_B_E    .b/e-                      : PEF         Photoelectric Factor - A log of photoelectric absorption properties. Often expressed in an approximation unit barns/electron (b/e-)
 LITH       .                          : LITH        Lithology Curve
~A  DEPTH     BS     CAL_INCH  CGR_API   GR2_API     K_%      TH_PPM    U_PPM    LLD_OHMM  LLS_OHMM MSFL_OHM~ DRHO_G_C~ NPHI_RAT~ RHOB_G_C~  PEF_B_E     LITH   
# ...
11080.0000    7.8700    9.0468   20.8473   41.8401    0.8804    2.6763    2.4384   57.4753   45.7999    3.8603    0.0010    0.0751    2.6381    4.5783   18.0000 
11080.5000    7.8700    9.0502   20.6567   34.0392    0.8621    2.7002    2.4571   65.6355   61.6707    1.2048   -0.0005    0.0590    2.6712    5.2286   18.0000 
11081.0000    7.8700    9.0496   25.2490   44.9160    1.0352    3.3888    2.9292   70.5319   65.8143    2.1521   -0.0098    0.0837    2.6344    5.0029   18.0000 
11081.5000    7.8700    9.0558   34.0692   65.4750    1.3651    4.7230    3.7514   71.2393   65.6597    7.3322   -0.0104    0.1293    2.5468    4.1160   18.0000 
11082.0000    7.8700    9.0715   42.7926   78.1160    1.6865    6.0662    4.4819   34.6202   26.6110   11.0898   -0.0053    0.1827    2.4741    3.2790   37.0000 
11082.5000    7.8700    9.0765   49.3199   85.1190    1.9338    7.0384    4.9842   28.1278   21.0382    6.6659   -0.0052    0.2093    2.4526    2.8596   37.0000 
11083.0000    7.8700    9.0865   51.4755   91.2671    2.0319    7.2816    5.2292   27.8483   20.6149    5.2909    0.0006    0.2063    2.4601    2.8075   37.0000 
11083.5000    7.8700    9.0881   49.9481   89.4444    1.9833    7.0102    5.2143   27.4742   20.0616    5.5816    0.0109    0.1992    2.4664    2.9522   37.0000 
11084.0000    7.8700    9.0835   45.6119   81.2574    1.8087    6.4130    4.8823   30.5643   21.2136    7.7303    0.0145    0.1971    2.4847    3.2054   37.0000 
11084.5000    7.8700    9.0836   40.6885   72.4775    1.6055    5.7583    4.3631   36.9167   25.7869   12.3537    0.0162    0.1757    2.5324    3.4867   22.0000 
11085.0000    7.8700    9.0794   37.7249   65.2686    1.4824    5.3685    3.9539   40.9481   28.4077   12.2440    0.0173    0.1534    2.5670    3.6926   22.0000 
11085.5000    7.8700    9.0795   35.5399   63.3532    1.3991    5.0452    3.5483   42.5492   29.2765   10.4307    0.0119    0.1475    2.5564    3.7149   22.0000 
11086.0000    7.8700    9.0786   34.7892   59.1313    1.3690    4.9413    3.3186   48.7895   34.4165    8.7964    0.0056    0.1448    2.5421    3.6431   22.0000 
11086.5000    7.8700    9.0753   34.7195   53.6060    1.3616    4.9537    3.1713   55.9561   44.9994   11.9255    0.0005    0.1373    2.5513    3.6782   22.0000 
11087.0000    7.8700    9.0724   35.5041   52.1497    1.3829    5.1103    3.0992   60.2572   47.7064   11.9914   -0.0063    0.1320    2.5578    3.6969   22.0000 
11087.5000    7.8700    9.0749   36.6635   57.0509    1.4142    5.3429    3.1564   60.5608   46.4289    9.6196   -0.0134    0.1513    2.5412    3.4476   22.0000 
11088.0000    7.8700    9.0673   37.5731   62.8598    1.4406    5.5168    3.2733   55.2975   44.3287    9.2205   -0.0174    0.1554    2.5207    3.1386   22.0000 
11088.5000    7.8700    9.0705   38.5192   68.2381    1.4608    5.7322    3.5220   44.4856   33.8612    9.5593   -0.0179    0.1596    2.5107    3.0642   22.0000 
11089.0000    7.8700    9.0695   40.8321   74.6850    1.5291    6.1683    3.9479   40.8912   29.3020    9.3004   -0.0171    0.1608    2.4885    3.0385   22.0000 
11089.5000    7.8700    9.0693   42.1384   76.8236    1.5678    6.4144    4.2621   34.4258   24.2652    7.6618   -0.0139    0.1840    2.4568    2.9398   22.0000 
11090.0000    7.8700    9.0673   41.1189   71.8076    1.5255    6.2799    4.2240   31.3815   21.2361    7.1834   -0.0099    0.1760    2.4424    2.8631   22.0000 
11090.5000    7.8700    9.0619   37.2478   63.0414    1.3815    5.6906    3.8134   35.8200   23.0120    5.5229   -0.0082    0.1570    2.4531    2.8200   22.0000 
11091.0000    7.8700    9.0689   29.8906   56.0222    1.1202    4.5113    3.0919   48.9711   29.9695    8.6469   -0.0051    0.1459    2.5032    3.0772   22.0000 
11091.5000    7.8700    9.0530   24.3788   45.2290    0.9270    3.6161    2.5850   63.0477   50.7346   25.9406    0.0002    0.1024    2.5790    3.8877   22.0000 
11092.0000    7.8700    9.0474   22.1928   36.1295    0.8553    3.2379    2.4400   68.6332   57.3045   25.5962   -0.0009    0.0766    2.6110    4.5680   18.0000 
11092.5000    7.8700    9.0481   21.7778   41.3633    0.8532    3.1113    2.4891   78.5989   63.6781   14.3599   -0.0015    0.0935    2.5790    4.3020   18.0000 
11093.0000    7.8700    9.0446   23.7547   45.8950    0.9365    3.3661    2.8158   82.5441   65.5526   17.9722    0.0031    0.1080    2.5582    3.8165   18.0000 
11093.5000    7.8700    9.0510   26.6805   45.8134    1.0406    3.8336    3.2132   45.6045   39.9247   23.0239    0.0006    0.1058    2.5679    3.9285   18.0000 
11094.0000    7.8700    9.0508   32.1573   59.1604    1.2380    4.6979    3.9053   31.3127   26.1204   11.5087   -0.0068    0.1246    2.5305    3.9071   18.0000 
11094.5000    7.8700    9.0593   38.3301   77.3129    1.4556    5.6948    4.7212   26.4622   20.8753    5.8027   -0.0100    0.1871    2.4663    3.3618   18.0000 
11095.0000    7.8700    9.0610   42.5040   84.7356    1.6001    6.3815    5.3133   21.0544   16.3761    4.7019   -0.0075    0.2118    2.4471    2.9490   37.0000 
11095.5000    7.8700    9.0600   41.9168   82.6733    1.5683    6.3393    5.3792   18.9406   14.9686    5.7319   -0.0035    0.1983    2.4614    2.9490   37.0000 
11096.0000    7.8700    9.0566   37.4564   74.6160    1.3932    5.7033    5.0038   22.8055   19.5142    9.8719   -0.0012    0.1775    2.4939    3.2246   37.0000 
11096.5000    7.8700    9.0517   32.0532   62.3847    1.1885    4.8984    4.4049   27.0810   24.2567   16.7330    0.0016    0.1441    2.5326    3.5951   22.0000 
11097.0000    7.8700    9.0405   28.0580   55.8806    1.0498    4.2430    4.0245   30.5375   27.6569   18.9171   -0.0006    0.1296    2.5501    3.8019   22.0000 
11097.5000    7.8700    9.0525   25.3697   55.0207    0.9629    3.7714    3.8016   33.3001   30.9449   19.1746   -0.0074    0.1380    2.5466    3.7822   22.0000 
11098.0000    7.8700    9.0541   25.1879   53.8409    0.9634    3.7097    3.8114   30.9979   27.6301   17.4292   -0.0096    0.1349    2.5393    3.6837   22.0000 
11098.5000    7.8700    9.0519   24.9933   55.2328    0.9612    3.6558    3.7176   34.8183   28.4835   24.1161   -0.0105    0.1338    2.5324    3.6801   22.0000 
11099.0000    7.8700    9.0568   24.4263   54.0515    0.9444    3.5492    3.4739   38.4927   31.6120   56.7549   -0.0074    0.1252    2.5504    3.8705   22.0000 
11099.5000    7.8700    9.0444   24.6826   49.0688    0.9671    3.5257    3.3672   37.0497   32.5115  380.1694    0.0045    0.1190    2.5817    4.0273   22.0000 
11100.0000    7.8700    9.0380   25.4199   49.9240    1.0195    3.5192    3.3981   29.1044   25.5523   25.6575    0.0124    0.1430    2.5494    3.7804   22.0000 
11100.5000    7.8700    9.0458   28.2037   58.9483    1.1474    3.8277    3.7304   25.8772   19.6000   10.3635    0.0115    0.1602    2.4806    3.3612   22.0000 
11101.0000    7.8700    9.0545   30.4718   62.1476    1.2515    4.0795    4.0016   23.5220   18.0345   11.8483    0.0073    0.1738    2.4676    3.4025   22.0000 
11101.5000    7.8700    9.0463   33.6200   55.7381    1.3809    4.5004    4.3327   22.2991   17.9662   21.8134    0.0032    0.1656    2.5018    3.7479   22.0000 
11102.0000    7.8700    9.0559   37.4141   55.4283    1.5253    5.0626    4.4830   22.1138   18.6183   20.8795    0.0009    0.1618    2.5171    3.6669   22.0000 
11102.5000    7.8700    9.0566   40.1229   66.6610    1.6092    5.5550    4.4483   22.8125   17.8861    9.9962    0.0018    0.1848    2.4978    3.2364   22.0000 
11103.0000    7.8700    9.0640   41.1251   72.4964    1.6343    5.7653    4.3222   23.2156   18.1456   10.6617    0.0074    0.1956    2.4952    3.1788   22.0000 
11103.5000    7.8700    9.0589   41.8115   66.7296    1.6601    5.8687    4.1928   22.7142   19.3839   16.5275    0.0135    0.1853    2.5233    3.5364   22.0000 
11104.0000    7.8700    9.0594   43.4172   64.0061    1.7360    6.0364    4.2068   22.5764   20.5221   19.9295    0.0165    0.1803    2.5348    3.6477   22.0000 
11104.5000    7.8700    9.0634   47.0841   74.5507    1.8988    6.4695    4.4068   18.1584   16.6435   11.7424    0.0195    0.2084    2.5100    3.3329   22.0000 
