~VERSION INFORMATION
 VERS.                 2.0:   CWLS LOG ASCII STANDARD - VERSION 2.0
 WRAP.                  NO:   SINGLE LINE PER DEPTH STEP
 CREA.                 20/03/2018 14:52:55
#CREATED USING DSPetro VERSION 5000.10.1.3 BY H191660 ON 20/03/2018 14:52:55
~WELL INFORMATION
#MNEM.UNIT       DATA                          DESCRIPTION MNEMONIC
#---------      ---------------------------   --------------------------
 STRT    .FT        30.0000                   : START DEPTH
 STOP    .FT        11591.0000                : STOP DEPTH
 STEP    .FT        0.5000                    : STEP VALUE
 NULL    .      -999.0000                     : NULL VALUE
 DATE    .      20/03/2018                    : LAS file Creation Date
 WELL .      UNIVERSITY_20-18            : Well Name
 COMP .      Neftex Exploration Insights : Company
 FLD  .      WAR-WINK, S. (WOLFCAMP)     : Field
 UWI  .      210                         : Unique Well Identifier (UWI)
 LOC  .                                  : Location
 RWS  .      -999                        : Def_Rw
 WST  .      -999                        : Def_Rwt
 SRVC .                                  : Contractor
~CURVE INFORMATION
#MNEM              UNIT       API CODE   Curve Type Comments
#----------  --------------- ----------  ---------- -----------
 DEPTH      .FT                        : Depth       
 BS         .inch                      : BitSize     
 CAL_INCH   .inch                      :             Caliper Log - A representation of the measured diameter of a borehole along its depth
 CGR_API    .API                       : GammaRay    Corrected / Computed Gamma Ray - Radiation with the Uranium component removed. Also known as a 'carbonate gamma ray'
 GR2_API    .API                       :             Gamma Ray (API) - Measures the intensity of natural gamma-ray radiation emitted from formations containing radioactive elements, such as K, Th and U
 K_%        .PC                        :             Potassium Abundance (SGR) - The quantitative elemental abundace of Potassium derived from the Spectral Gamma Ray Log. Also wt_%
 TH_PPM     .ppm                       : Spectral    Thorium Abundance (SGR) - The quantitative elemental abundace of Thorium derived from the Spectral Gamma Ray Log
 U_PPM      .ppm                       :             Uranium Abundance (SGR) - The quantitative elemental abundace of Uranium derived from the Spectral Gamma Ray Log
 LLD_OHMM   .ohmm                      :             Laterlog Deep Resistivity - Measurement made several feet into the formation; generally considered a measurement of the undisturbed formation
 LLS_OHMM   .ohmm                      :             Laterlog Shallow Resistivity - one to two feet into the formation; generally considered to measure the formation
 MSFL_OHMM  .ohmm                      :             Micro-Spherically Focused Log - Measurement involves only the first few inches of the formation immediately adjacent to the borehole
 DRHO_G_CC  .g/cc                      :             Density Correction - Investigates the correction to the Bulk Density log; used as an indication of hole condition to validate the Bulk Density measure
 NPHI_RATIO .ratio                     :             Neutron Porosity - Measured with an neutron logging device calibrated to a given matrix (limestone, sandstone and dolomite)
 RHOB_G_CC  .g/cc                      :             Bulk Density - Measures the density of bulk material, including any void space or other materials contained in the subject volume
 PEF_B_E    .b/e-                      : PEF         Photoelectric Factor - A log of photoelectric absorption properties. Often expressed in an approximation unit barns/electron (b/e-)
 LITH       .                          : LITH        Lithology Curve
~A  DEPTH     BS     CAL_INCH  CGR_API   GR2_API     K_%      TH_PPM    U_PPM    LLD_OHMM  LLS_OHMM MSFL_OHM~ DRHO_G_C~ NPHI_RAT~ RHOB_G_C~  PEF_B_E     LITH   
# ...
6255.0000    7.8700   13.2447   25.9676   32.5332    1.2020    2.8367    2.1866    2.3535    1.1473    0.8575    0.0876    0.2940    2.2751    2.2461   11.0000 
6255.5000    7.8700   13.1850   26.5830   34.6691    1.2359    2.8783    2.2047    2.4772    1.2426    0.9513    0.0313    0.2806    2.3269    2.3097   27.0000 
6256.0000    7.8700   13.1863   28.3678   37.9602    1.3180    3.0754    2.2263    2.5150    1.2382    0.9545    0.0213    0.2710    2.3458    2.4017   27.0000 
6256.5000    7.8700   13.2417   29.6756   36.9592    1.3657    3.2795    2.1929    2.5580    1.2595    0.8404    0.0263    0.2751    2.3476    2.3726   27.0000 
6257.0000    7.8700   13.2456   30.8965   37.1400    1.4020    3.5090    2.1433    2.5679    1.2323    0.9070    0.0296    0.2823    2.3390    2.3288   27.0000 
6257.5000    7.8700   13.1938   31.8828   38.2749    1.4150    3.7716    2.1832    2.7209    1.3215    1.1046    0.0357    0.2731    2.3468    2.3508   27.0000 
6258.0000    7.8700   13.1870   31.9792   36.7684    1.4015    3.8672    2.2030    2.7327    1.3576    1.0883    0.0370    0.2701    2.3656    2.3930   27.0000 
6258.5000    7.8700   13.1878   31.6774   36.4804    1.3840    3.8513    2.2691    2.7150    1.2945    0.9207    0.0350    0.2664    2.3689    2.4231   27.0000 
6259.0000    7.8700   13.2233   30.8316   35.6635    1.3370    3.7959    2.2173    2.4741    1.1660    0.7240    0.0382    0.2723    2.3548    2.4176   27.0000 
6259.5000    7.8700   13.2492   29.4307   33.4807    1.2788    3.6115    2.0861    2.2657    1.1027    0.6988    0.0432    0.2842    2.3425    2.3983   27.0000 
6260.0000    7.8700   13.2766   28.4493   33.5510    1.2271    3.5342    1.9981    2.1995    1.0389    0.7652    0.0417    0.2702    2.3412    2.3757   27.0000 
6260.5000    7.8700   13.2916   27.7174   35.8945    1.1977    3.4330    1.9988    2.3609    1.0902    0.7972    0.0324    0.2927    2.3471    2.3887   27.0000 
6261.0000    7.8700   13.2735   28.6944   38.0674    1.2280    3.6104    2.0892    2.5984    1.1943    0.9042    0.0261    0.2798    2.3604    2.4511   27.0000 
6261.5000    7.8700   13.2412   29.9644   40.2604    1.2780    3.7908    2.2813    3.0408    1.3632    1.0155    0.0283    0.2796    2.3766    2.5164   27.0000 
6262.0000    7.8700   13.1329   31.1475   41.1978    1.3209    3.9765    2.4179    3.3517    1.5279    1.2900    0.0316    0.2750    2.3924    2.5949   27.0000 
6262.5000    7.8700   13.0091   31.2210   39.5138    1.3257    3.9777    2.4838    3.4137    1.5763    1.5033    0.0326    0.2771    2.4040    2.6586   27.0000 
6263.0000    7.8700   13.0460   30.5031   37.6390    1.3022    3.8531    2.4920    3.2474    1.5112    1.3776    0.0330    0.2826    2.3942    2.6395   27.0000 
6263.5000    7.8700   13.1102   29.9014   38.1947    1.2685    3.8153    2.4802    2.9120    1.3205    1.0477    0.0304    0.3028    2.3640    2.5391   27.0000 
6264.0000    7.8700   13.1802   29.0533   39.7046    1.2171    3.7803    2.4435    2.7005    1.2308    0.9466    0.0232    0.3036    2.3297    2.4167   27.0000 
6264.5000    7.8700   13.2262   28.0716   39.1823    1.1511    3.7706    2.3992    2.7565    1.2460    1.0675    0.0190    0.3014    2.3172    2.3467   27.0000 
6265.0000    7.8700   13.2602   27.1189   38.2047    1.0999    3.7001    2.3844    2.9019    1.3222    1.2971    0.0165    0.2996    2.3379    2.3563   27.0000 
6265.5000    7.8700   13.2690   27.5486   38.4725    1.1031    3.8262    2.3570    3.1149    1.4061    1.3985    0.0109    0.2677    2.3609    2.4108   27.0000 
6266.0000    7.8700   13.3198   29.1948   38.0440    1.1570    4.1119    2.4680    3.2798    1.4897    1.3376    0.0094    0.2746    2.3646    2.4849   27.0000 
6266.5000    7.8700   13.3660   30.3454   37.5553    1.2005    4.2842    2.6463    3.2638    1.4934    1.3402    0.0103    0.3175    2.3579    2.5547   27.0000 
6267.0000    7.8700   13.4072   30.8267   39.7883    1.2165    4.3664    2.7279    3.0664    1.4362    1.3414    0.0080    0.3164    2.3510    2.5860   27.0000 
6267.5000    7.8700   13.4488   30.4236   42.8551    1.2097    4.2661    2.8066    2.8225    1.3304    1.0989    0.0080    0.2973    2.3393    2.5288   27.0000 
6268.0000    7.8700   13.5015   30.0794   43.1230    1.1948    4.2236    2.6902    2.7077    1.2697    0.9314    0.0119    0.2955    2.3227    2.3860   27.0000 
6268.5000    7.8700   13.5121   29.3448   41.4523    1.1570    4.1613    2.4906    2.6184    1.2223    0.9300    0.0177    0.3109    2.3219    2.3047   27.0000 
6269.0000    7.8700   13.5192   29.1453   39.9993    1.1475    4.1410    2.4153    2.6343    1.2418    0.9623    0.0248    0.3224    2.3468    2.3719   27.0000 
6269.5000    7.8700   13.5129   29.7138   39.1622    1.1756    4.1946    2.3860    2.6252    1.2597    0.9900    0.0307    0.3239    2.3760    2.4835   37.0000 
6270.0000    7.8700   13.3970   29.0404   39.0350    1.1720    3.9899    2.3042    2.5376    1.2331    0.8731    0.0367    0.4335    2.3813    2.5189   37.0000 
6270.5000    7.8700   13.4009   28.8095   37.0731    1.1851    3.8519    2.1691    2.3944    1.1777    0.7200    0.0419    0.4035    2.3622    2.4802   37.0000 
6271.0000    7.8700   13.3559   27.5075   35.0307    1.1443    3.6172    1.9538    2.2297    1.1061    0.5973    0.0427    0.3535    2.3488    2.4427   37.0000 
6271.5000    7.8700   13.2892   26.5296   34.8198    1.1104    3.4565    1.8148    2.1218    1.0655    0.5748    0.0398    0.3056    2.3357    2.4302   27.0000 
6272.0000    7.8700   13.6581   27.4415   35.1412    1.1485    3.5754    1.9153    2.0563    1.0428    0.4878    0.0754    0.3192    2.3297    2.4576   27.0000 
6272.5000    7.8700   13.9536   28.2281   34.2306    1.1789    3.6899    2.0420    2.0165    1.0290    0.4654    0.1779    0.3238    2.3530    2.5251   11.0000 
6273.0000    7.8700   14.4725   29.9888   34.3410    1.2449    3.9558    2.2530    1.9791    1.0169    0.4701    0.2678    0.3125    2.3381    2.5424   11.0000 
6273.5000    7.8700   14.8617   29.8947   35.5865    1.2306    3.9927    2.3187    1.9615    1.0092    0.4682    0.2828    0.3058    2.2652    2.4612   11.0000 
6274.0000    7.8700   14.7889   28.8888   37.2003    1.1910    3.8500    2.2676    2.0157    1.0391    0.4934    0.2635    0.2969    2.2126    2.3737   11.0000 
6274.5000    7.8700   14.6604   27.3448   38.2884    1.1367    3.6000    2.2108    1.9502    1.0329    0.6796    0.2547    0.2903    2.2614    2.3932   11.0000 
6275.0000    7.8700   13.7337   26.4162   37.9302    1.1222    3.3629    2.1662    1.9000    1.0031    0.6710    0.2563    0.2939    2.3483    2.4306   11.0000 
6275.5000    7.8700   15.3027   27.5995   36.6278    1.1875    3.4425    2.2670    1.8365    0.9789    0.4653    0.2832    0.3040    2.3633    2.3079   11.0000 
6276.0000    7.8700   15.4816   27.7872   34.9336    1.2059    3.4170    2.2564    1.7310    0.9216    0.4536    0.3238    0.2986    2.3198    2.0305   11.0000 
6276.5000    7.8700   15.3131   28.2405   33.9259    1.2214    3.4924    2.1863    1.6775    0.9214    0.4151    0.3196    0.2773    2.2287    1.7734   11.0000 
6277.0000    7.8700   14.9430   28.0957   32.2552    1.2076    3.5101    2.0930    1.6975    0.9286    0.4535    0.2893    0.3213    2.1372    1.6625   11.0000 
6277.5000    7.8700   14.9637   28.1274   30.4273    1.2047    3.5346    2.0657    1.6488    0.9228    0.4473    0.2676    0.3383    2.0804    1.6344   11.0000 
6278.0000    7.8700   15.0527   27.2320   31.8735    1.1672    3.4179    2.0266    1.6152    0.9084    0.2220    0.2517    0.3245    2.0852    1.6504   11.0000 
6278.5000    7.8700   14.6530   25.1385   32.4494    1.0857    3.1160    1.9982    1.5739    0.8858    0.1000    0.2410    0.3243    2.1659    1.7118   11.0000 
6279.0000    7.8700   15.4079   23.9804   31.5656    1.0476    2.9157    2.0277    1.5048    0.8717    0.1000    0.2213    0.3206    2.2212    1.7490   11.0000 
6279.5000    7.8700   15.2783   23.5767   33.8824    1.0419    2.8100    2.0747    1.5079    0.8773    0.2611    0.1976    0.3109    2.2027    1.7967   11.0000 
