~VERSION INFORMATION
 VERS.                 2.0:   CWLS LOG ASCII STANDARD - VERSION 2.0
 WRAP.                  NO:   SINGLE LINE PER DEPTH STEP
 CREA.                 20/03/2018 14:52:55
#CREATED USING DSPetro VERSION 5000.10.1.3 BY H191660 ON 20/03/2018 14:52:55
~WELL INFORMATION
#MNEM.UNIT       DATA                          DESCRIPTION MNEMONIC
#---------      ---------------------------   --------------------------
 STRT    .FT        30.0000                   : START DEPTH
 STOP    .FT        11591.0000                : STOP DEPTH
 STEP    .FT        0.5000                    : STEP VALUE
 NULL    .      -999.0000                     : NULL VALUE
 DATE    .      20/03/2018                    : LAS file Creation Date
 WELL .      UNIVERSITY_20-18            : Well Name
 COMP .      Neftex Exploration Insights : Company
 FLD  .      WAR-WINK, S. (WOLFCAMP)     : Field
 UWI  .      210                         : Unique Well Identifier (UWI)
 LOC  .                                  : Location
 RWS  .      -999                        : Def_Rw
 WST  .      -999                        : Def_Rwt
 SRVC .                                  : Contractor
~CURVE INFORMATION
#MNEM              UNIT       API CODE   Curve Type Comments
#----------  --------------- ----------  ---------- -----------
 DEPTH      .FT                        : Depth       
 BS         .inch                      : BitSize     
 CAL_INCH   .inch                      :             Caliper Log - A representation of the measured diameter of a borehole along its depth
 CGR_API    .API                       : GammaRay    Corrected / Computed Gamma Ray - Radiation with the Uranium component removed. Also known as a 'carbonate gamma ray'
 GR2_API    .API                       :             Gamma Ray (API) - Measures the intensity of natural gamma-ray radiation emitted from formations containing radioactive elements, such as K, Th and U
 K_%        .PC                        :             Potassium Abundance (SGR) - The quantitative elemental abundace of Potassium derived from the Spectral Gamma Ray Log. Also wt_%
 TH_PPM     .ppm                       : Spectral    Thorium Abundance (SGR) - The quantitative elemental abundace of Thorium derived from the Spectral Gamma Ray Log
 U_PPM      .ppm                       :             Uranium Abundance (SGR) - The quantitative elemental abundace of Uranium derived from the Spectral Gamma Ray Log
 LLD_OHMM   .ohmm                      :             Laterlog Deep Resistivity - Measurement made several feet into the formation; generally considered a measurement of the undisturbed formation
 LLS_OHMM   .ohmm                      :             Laterlog Shallow Resistivity - one to two feet into the formation; generally considered to measure the formation
 MSFL_OHMM  .ohmm                      :             Micro-Spherically Focused Log - Measurement involves only the first few inches of the formation immediately adjacent to the borehole
 DRHO_G_CC  .g/cc                      :             Density Correction - Investigates the correction to the Bulk Density log; used as an indication of hole condition to validate the Bulk Density measure
 NPHI_RATIO .ratio                     :             Neutron Porosity - Measured with an neutron logging device calibrated to a given matrix (limestone, sandstone and dolomite)
 RHOB_G_CC  .g/cc                      :             Bulk Density - Measures the density of bulk material, including any void space or other materials contained in the subject volume
 PEF_B_E    .b/e-                      : PEF         Photoelectric Factor - A log of photoelectric absorption properties. Often expressed in an approximation unit barns/electron (b/e-)
 LITH       .                          : LITH        Lithology Curve
~A  DEPTH     BS     CAL_INCH  CGR_API   GR2_API     K_%      TH_PPM    U_PPM    LLD_OHMM  LLS_OHMM MSFL_OHM~ DRHO_G_C~ NPHI_RAT~ RHOB_G_C~  PEF_B_E     LITH   
# ...
9755.0000    7.8700    8.9554   33.4498   87.2368    1.3433    4.6258    6.5307   81.3474   65.4907   40.0811   -0.0076    0.1460    2.4975    3.3267   37.0000 
9755.5000    7.8700    8.9606   32.7666   83.9929    1.3153    4.5338    6.3677   91.2360   72.1178   44.4334   -0.0068    0.1448    2.4846    3.3079   37.0000 
9756.0000    7.8700    8.9483   33.5106   82.7339    1.3422    4.6506    6.3419  107.1297   85.6576   44.1592   -0.0069    0.1441    2.4633    3.2215   37.0000 
9756.5000    7.8700    8.9442   34.4081   82.5563    1.3599    4.8620    6.3046  115.3964  104.2053   47.6048   -0.0042    0.1604    2.4491    3.0848   37.0000 
9757.0000    7.8700    8.9486   35.0503   78.9608    1.3819    4.9689    6.2700   65.5824   61.4792   65.4214    0.0031    0.1735    2.4318    2.9791   37.0000 
9757.5000    7.8700    8.9516   36.5324   79.8550    1.4297    5.2294    6.4978   59.8767   42.5741   19.2469    0.0162    0.1670    2.3808    2.9049   37.0000 
9758.0000    7.8700    8.9681   39.8876   90.5017    1.5643    5.6942    7.1694   60.5673   42.1470   19.1204    0.0233    0.1756    2.3326    2.8577   37.0000 
9758.5000    7.8700    8.9481   44.2785  108.0983    1.7231    6.3845    7.8228   62.2781   42.2620   36.1588    0.0142    0.1892    2.3588    2.9000   37.0000 
9759.0000    7.8700    8.9482   45.8045  112.9929    1.7708    6.6600    7.8856  105.4953  103.2833   82.8159    0.0061    0.1534    2.4364    3.0870   37.0000 
9759.5000    7.8700    8.9527   43.8639   99.2164    1.6685    6.5075    7.2679  157.6111  115.4274   71.1940    0.0038    0.1438    2.4684    3.2080   37.0000 
9760.0000    7.8700    8.9595   40.1942   86.1124    1.4994    6.1032    6.5072  163.8102  118.2292   68.2835    0.0051    0.1538    2.4550    3.0718   37.0000 
9760.5000    7.8700    8.9556   37.8812   80.9094    1.3836    5.8919    6.1754  161.2205  115.1477   82.7061    0.0086    0.1583    2.4505    2.8860   37.0000 
9761.0000    7.8700    8.9656   37.4050   80.0254    1.3461    5.9135    6.2384  146.9782  115.2643   91.0131    0.0110    0.1594    2.4581    2.8642   37.0000 
9761.5000    7.8700    8.9649   36.9064   82.3021    1.3327    5.8127    6.2844  117.6346   87.5070   59.5701    0.0150    0.1591    2.4719    2.9612   37.0000 
9762.0000    7.8700    8.9695   38.5602   88.1311    1.4112    5.9840    6.5582  110.3424   75.5386   37.9676    0.0193    0.1619    2.4801    3.0444   37.0000 
9762.5000    7.8700    8.9712   40.5185   95.7510    1.4964    6.2237    6.8668  107.1795   73.2982   36.1529    0.0190    0.1527    2.4757    3.0999   37.0000 
9763.0000    7.8700    8.9733   42.1908  100.5051    1.5650    6.4484    7.1844  106.7951   71.9492   45.7996    0.0170    0.1483    2.4897    3.2320   37.0000 
9763.5000    7.8700    8.9738   41.8131   97.9674    1.5399    6.4433    7.1127  124.7496   86.3493   74.9862    0.0123    0.1357    2.5162    3.3889   37.0000 
9764.0000    7.8700    8.9653   39.0808   91.5827    1.4415    6.0118    6.5743  150.3501  106.2628   74.3750    0.0031    0.1444    2.5193    3.3859   37.0000 
9764.5000    7.8700    8.9756   37.4211   83.3668    1.3796    5.7596    6.1792  156.8650  108.4431   78.5993   -0.0013    0.1415    2.5058    3.2388   37.0000 
9765.0000    7.8700    8.9840   37.4812   77.3941    1.3813    5.7710    5.9778  159.0749  112.0474   71.2376   -0.0001    0.1517    2.4907    3.1531   37.0000 
9765.5000    7.8700    8.9796   38.5324   81.2443    1.4295    5.8883    6.0727  158.4660  104.9479   73.1216    0.0014    0.1580    2.4718    3.1300   37.0000 
9766.0000    7.8700    8.9910   41.4309   92.0047    1.5489    6.2748    6.5908  161.3028  118.5856   76.8246   -0.0009    0.1640    2.4492    3.0460   37.0000 
9766.5000    7.8700    8.9874   44.5528  102.6246    1.6967    6.6002    6.9841  133.5766   95.6841   71.8407   -0.0037    0.1640    2.4408    3.0134   37.0000 
9767.0000    7.8700    8.9987   48.5272  110.6798    1.8641    7.1126    7.4452  111.1077   77.0591   54.5575   -0.0030    0.1554    2.4550    3.0685   37.0000 
9767.5000    7.8700    9.0123   52.0646  110.3420    2.0110    7.5790    7.7092  105.6061   71.1954   35.9815   -0.0041    0.1658    2.4714    3.0416   37.0000 
9768.0000    7.8700    9.0048   54.8955  109.3479    2.1155    8.0138    7.9119   90.7869   63.3313   42.7374   -0.0075    0.1705    2.4685    3.0088   37.0000 
9768.5000    7.8700    9.0048   55.6602  114.8115    2.1184    8.2516    8.0968   84.9091   58.6068   39.4867   -0.0096    0.1695    2.4582    3.1357   37.0000 
9769.0000    7.8700    9.0138   54.5267  116.9474    2.0587    8.1623    8.1333   93.4297   64.4108   36.2648   -0.0097    0.1638    2.4674    3.3042   37.0000 
9769.5000    7.8700    9.0105   50.6312  112.3437    1.9050    7.6104    7.8866  102.9400   71.6734   50.2999   -0.0101    0.1609    2.4866    3.3964   37.0000 
9770.0000    7.8700    9.0068   44.9252   98.3661    1.7053    6.6818    7.3333  115.6523   84.0751   65.2370   -0.0105    0.1571    2.4861    3.3440   37.0000 
9770.5000    7.8700    9.0118   39.9043   86.2130    1.5470    5.7814    6.6979  140.2440  105.6720   66.9982   -0.0096    0.1633    2.4696    3.1428   37.0000 
9771.0000    7.8700    9.0167   37.5585   87.1401    1.4825    5.3164    6.4824  127.2937  102.8461   62.7121   -0.0083    0.1666    2.4641    3.0404   37.0000 
9771.5000    7.8700    9.0176   37.5588   93.2366    1.5032    5.2183    6.5867   90.1773   70.4678   37.7630   -0.0051    0.1644    2.4743    3.1103   37.0000 
9772.0000    7.8700    9.0381   38.2681   96.0054    1.5317    5.3160    6.7833   74.4754   52.1857   24.1584   -0.0009    0.1674    2.4867    3.1599   37.0000 
9772.5000    7.8700    9.0362   38.0525   94.3616    1.5299    5.2539    6.8396   72.1586   48.4244   25.3535    0.0033    0.1614    2.4986    3.1370   37.0000 
9773.0000    7.8700    9.0372   36.6777   91.3383    1.4800    5.0384    6.4974   79.4719   54.0218   42.8802    0.0106    0.1548    2.5122    3.2133   37.0000 
9773.5000    7.8700    9.0399   36.0103   86.7416    1.4710    4.8615    6.2238  105.1552   77.4149   86.9425    0.0222    0.1418    2.5181    3.3837   37.0000 
9774.0000    7.8700    9.0284   36.6353   84.3177    1.5120    4.8727    6.1477  149.5197  116.1538  124.6574    0.0291    0.1426    2.4917    3.3047   37.0000 
9774.5000    7.8700    9.0473   38.4338   87.0295    1.5969    5.0614    6.2882  156.7308  121.9077   77.8402    0.0238    0.1580    2.4381    2.9779   37.0000 
9775.0000    7.8700    9.0489   41.0520   91.8774    1.7152    5.3606    6.6344  130.5413   95.9782   57.3867    0.0150    0.1733    2.3994    2.7713   37.0000 
9775.5000    7.8700    9.0444   43.6270   97.8403    1.8127    5.7448    6.8552  116.7509   82.1474   51.1169    0.0104    0.1819    2.3931    2.7520   37.0000 
9776.0000    7.8700    9.0585   45.6369  103.3912    1.8775    6.0985    7.0162  117.0965   81.5289   52.5382    0.0060    0.1828    2.4070    2.8343   37.0000 
9776.5000    7.8700    9.0511   45.5328  104.2113    1.8597    6.1486    6.9098  127.8341   86.6204   68.7282    0.0022    0.1623    2.4235    3.0147   22.0000 
9777.0000    7.8700    9.0637   41.5871   95.1047    1.6993    5.6122    6.4786  154.4138  107.5689   95.6010    0.0017    0.1502    2.4354    3.1976   22.0000 
9777.5000    7.8700    9.0583   37.5550   78.7367    1.5317    5.0815    6.0388  171.3735  122.6512  118.3727    0.0018    0.1463    2.4434    3.2364   36.0000 
9778.0000    7.8700    9.0620   34.1493   73.3531    1.3872    4.6475    5.7043  174.3749  125.1497   99.9180    0.0014    0.1368    2.4404    3.1036   36.0000 
9778.5000    7.8700    9.0756   34.0532   79.8646    1.3815    4.6430    5.8054  144.1220  106.8244   74.6234    0.0027    0.1591    2.4325    2.9352   36.0000 
9779.0000    7.8700    9.0875   35.3947   85.0742    1.4452    4.7817    5.9881  123.7882   83.9745   55.3910    0.0107    0.1763    2.4290    2.8708   36.0000 
9779.5000    7.8700    9.0849   35.5616   89.0916    1.4680    4.7284    5.9753  128.6568   86.9670   52.5908    0.0171    0.1692    2.4314    2.9371   36.0000 
