~VERSION INFORMATION
 VERS.                 2.0:   CWLS LOG ASCII STANDARD - VERSION 2.0
 WRAP.                  NO:   SINGLE LINE PER DEPTH STEP
 CREA.                 20/03/2018 14:52:55
#CREATED USING DSPetro VERSION 5000.10.1.3 BY H191660 ON 20/03/2018 14:52:55
~WELL INFORMATION
#MNEM.UNIT       DATA                          DESCRIPTION MNEMONIC
#---------      ---------------------------   --------------------------
 STRT    .FT        30.0000                   : START DEPTH
 STOP    .FT        11591.0000                : STOP DEPTH
 STEP    .FT        0.5000                    : STEP VALUE
 NULL    .      -999.0000                     : NULL VALUE
 DATE    .      20/03/2018                    : LAS file Creation Date
 WELL .      UNIVERSITY_20-18            : Well Name
 COMP .      Neftex Exploration Insights : Company
 FLD  .      WAR-WINK, S. (WOLFCAMP)     : Field
 UWI  .      210                         : Unique Well Identifier (UWI)
 LOC  .                                  : Location
 RWS  .      -999                        : Def_Rw
 WST  .      -999                        : Def_Rwt
 SRVC .                                  : Contractor
~CURVE INFORMATION
#MNEM              UNIT       API CODE   Curve Type Comments
#----------  --------------- ----------  ---------- -----------
 DEPTH      .FT                        : Depth       
 BS         .inch                      : BitSize     
 CAL_INCH   .inch                      :             Caliper Log - A representation of the measured diameter of a borehole along its depth
 CGR_API    .API                       : GammaRay    Corrected / Computed Gamma Ray - Radiation with the Uranium component removed. Also known as a 'carbonate gamma ray'
 GR2_API    .API                       :             Gamma Ray (API) - Measures the intensity of natural gamma-ray radiation emitted from formations containing radioactive elements, such as K, Th and U
 K_%        .PC                        :             Potassium Abundance (SGR) - The quantitative elemental abundace of Potassium derived from the Spectral Gamma Ray Log. Also wt_%
 TH_PPM     .ppm                       : Spectral    Thorium Abundance (SGR) - The quantitative elemental abundace of Thorium derived from the Spectral Gamma Ray Log
 U_PPM      .ppm                       :             Uranium Abundance (SGR) - The quantitative elemental abundace of Uranium derived from the Spectral Gamma Ray Log
 LLD_OHMM   .ohmm                      :             Laterlog Deep Resistivity - Measurement made several feet into the formation; generally considered a measurement of the undisturbed formation
 LLS_OHMM   .ohmm                      :             Laterlog Shallow Resistivity - one to two feet into the formation; generally considered to measure the formation
 MSFL_OHMM  .ohmm                      :             Micro-Spherically Focused Log - Measurement involves only the first few inches of the formation immediately adjacent to the borehole
 DRHO_G_CC  .g/cc                      :             Density Correction - Investigates the correction to the Bulk Density log; used as an indication of hole condition to validate the Bulk Density measure
 NPHI_RATIO .ratio                     :             Neutron Porosity - Measured with an neutron logging device calibrated to a given matrix (limestone, sandstone and dolomite)
 RHOB_G_CC  .g/cc                      :             Bulk Density - Measures the density of bulk material, including any void space or other materials contained in the subject volume
 PEF_B_E    .b/e-                      : PEF         Photoelectric Factor - A log of photoelectric absorption properties. Often expressed in an approximation unit barns/electron (b/e-)
 LITH       .                          : LITH        Lithology Curve
~A  DEPTH     BS     CAL_INCH  CGR_API   GR2_API     K_%      TH_PPM    U_PPM    LLD_OHMM  LLS_OHMM MSFL_OHM~ DRHO_G_C~ NPHI_RAT~ RHOB_G_C~  PEF_B_E     LITH   
# ...
7580.0000    7.8700    8.6360   40.5606   93.9462    1.8171    4.7153    6.1557  323.1575  230.6175  202.9781    0.0044    0.1469    2.5418    3.3853   22.0000 
7580.5000    7.8700    8.6261   35.4613   80.5912    1.6336    3.9095    5.5377  305.3131  222.9904  359.7435    0.0015    0.1073    2.5592    3.1512   36.0000 
7581.0000    7.8700    8.6302   30.2722   69.0470    1.4284    3.1763    4.9193  324.6385  237.5857  261.3703   -0.0010    0.0806    2.5774    3.0782   36.0000 
7581.5000    7.8700    8.6575   27.6380   58.6648    1.3263    2.7947    4.5063  346.3311  250.0649  211.2423    0.0044    0.0720    2.5904    3.1648   36.0000 
7582.0000    7.8700    8.6729   26.4581   52.5614    1.2771    2.6400    4.3089  349.8380  258.7067  251.5106    0.0161    0.0688    2.5927    3.2580   36.0000 
7582.5000    7.8700    8.6952   27.0887   53.2176    1.3083    2.6996    4.2721  329.9818  250.2182  249.0871    0.0279    0.0768    2.5897    3.2893   36.0000 
7583.0000    7.8700    8.7374   28.6416   61.3733    1.3824    2.8586    4.3588  335.4868  237.1664  135.8288    0.0381    0.0854    2.6071    3.3867   36.0000 
7583.5000    7.8700    8.7983   29.6489   69.4973    1.4219    3.0024    4.3475  323.0246  235.2103  115.9014    0.0362    0.1000    2.6270    3.6804   22.0000 
7584.0000    7.8700    8.8579   29.9088   63.7644    1.4242    3.0771    4.1725  281.6424  198.9541  224.9239    0.0210    0.0979    2.6305    3.9984   22.0000 
7584.5000    7.8700    8.8835   30.2204   54.4177    1.4351    3.1278    4.0149  236.0096  173.4483  213.3560    0.0041    0.0815    2.6269    3.9309   22.0000 
7585.0000    7.8700    8.9112   32.1353   59.4858    1.5263    3.3247    3.9190  162.9201  114.1633  101.0854   -0.0087    0.0770    2.6001    3.4566   36.0000 
7585.5000    7.8700    8.9522   36.2641   72.0870    1.7242    3.7434    4.0565  137.1658   91.8621   68.8912   -0.0072    0.0971    2.5600    2.9489   36.0000 
7586.0000    7.8700    8.9798   42.0359   80.3896    1.9829    4.4138    4.3437  135.1619   92.8011   81.2869    0.0016    0.1085    2.5490    2.8060   36.0000 
7586.5000    7.8700    8.9922   49.0786   89.7568    2.2909    5.2682    4.8545  111.0978   85.9269  102.3116   -0.0021    0.1218    2.5616    3.1664   36.0000 
7587.0000    7.8700    9.0318   52.6051  100.5939    2.4322    5.7571    5.0811   58.2278   47.2875   50.5689   -0.0091    0.1363    2.5683    3.4633   36.0000 
7587.5000    7.8700    9.0606   51.2066   95.4755    2.3478    5.6977    4.8064   35.2472   26.6721   22.8637   -0.0068    0.1361    2.5543    3.2091   36.0000 
7588.0000    7.8700    9.0932   45.3158   77.1575    2.0715    5.0719    4.1491   30.4250   22.7763   14.9137    0.0054    0.1281    2.5300    2.8517   36.0000 
7588.5000    7.8700    9.0966   39.1511   63.7164    1.7931    4.3659    3.4894   24.9592   18.9962   11.8870    0.0230    0.1229    2.5206    2.8170   36.0000 
7589.0000    7.8700    9.1067   36.4431   57.9611    1.6837    3.9941    3.2267   19.7426   15.5839   10.8124    0.0257    0.1225    2.5167    2.8735   36.0000 
7589.5000    7.8700    9.1059   36.2721   57.6234    1.6980    3.8704    3.2025   17.6783   14.4382   10.4544    0.0159    0.1180    2.5021    2.8075   36.0000 
7590.0000    7.8700    9.1038   36.1050   58.0011    1.6976    3.8172    3.0946   17.0967   14.1879   10.0769    0.0135    0.1170    2.4899    2.7139   36.0000 
7590.5000    7.8700    9.0989   35.9827   57.7138    1.6897    3.8144    2.9565   16.7573   14.1489    9.9733    0.0142    0.1154    2.4873    2.6744   36.0000 
7591.0000    7.8700    9.1006   36.8678   58.0914    1.7209    3.9576    2.8773   17.6505   14.6863    9.8721    0.0146    0.1125    2.4956    2.6865   36.0000 
7591.5000    7.8700    9.0948   37.1683   55.8135    1.7268    4.0285    2.8801   20.8940   17.7645   12.1011    0.0183    0.0987    2.5271    2.7682   36.0000 
7592.0000    7.8700    9.0910   37.7663   53.4452    1.7607    4.0639    2.9567   26.9983   22.9449   17.9550    0.0214    0.0842    2.5735    2.9290   36.0000 
7592.5000    7.8700    9.0879   37.5914   54.4696    1.7512    4.0517    3.0019   35.5734   31.1180   34.5787    0.0206    0.0715    2.6006    3.1105   36.0000 
7593.0000    7.8700    9.0938   37.4652   54.8130    1.7447    4.0412    3.0649   42.9977   40.8417   48.1808    0.0130    0.0734    2.6007    3.2300   36.0000 
7593.5000    7.8700    9.0938   37.6264   53.3749    1.7547    4.0465    3.0699   34.2980   31.0087   28.1297    0.0023    0.0823    2.5871    3.2153   36.0000 
7594.0000    7.8700    9.1029   37.8551   54.9056    1.7596    4.0984    3.1740   26.8020   22.3594   16.3472   -0.0009    0.0988    2.5604    3.0302   36.0000 
7594.5000    7.8700    9.1139   39.3031   59.8271    1.8158    4.3079    3.4120   22.8685   17.7645   12.5030    0.0012    0.1110    2.5366    2.8114   36.0000 
7595.0000    7.8700    9.1164   41.7569   65.2811    1.9053    4.6904    3.8084   22.0077   17.2933   14.5472    0.0027    0.1180    2.5332    2.7155   36.0000 
7595.5000    7.8700    9.1112   42.2745   70.5542    1.9153    4.8131    4.1555   22.7338   17.9149   16.4526    0.0048    0.1142    2.5395    2.6983   36.0000 
7596.0000    7.8700    9.1001   40.8709   70.9580    1.8447    4.6864    4.3864   24.6386   18.9959   17.1973    0.0037    0.1127    2.5394    2.6625   36.0000 
7596.5000    7.8700    9.0938   38.4230   66.8883    1.7412    4.3726    4.4993   28.0137   21.1505   16.4651    0.0018    0.1107    2.5330    2.6395   36.0000 
7597.0000    7.8700    9.0779   37.2247   66.4525    1.6908    4.2177    4.6484   29.6050   22.3893   18.6758    0.0034    0.1008    2.5378    2.6954   36.0000 
7597.5000    7.8700    9.0705   38.1442   72.2960    1.7220    4.3720    5.0045   30.4871   22.9712   21.9444    0.0055    0.0999    2.5501    2.7493   36.0000 
7598.0000    7.8700    9.0600   40.2483   79.2527    1.8102    4.6453    5.3489   35.9929   26.6805   27.0868    0.0093    0.1049    2.5596    2.7636   36.0000 
7598.5000    7.8700    9.0209   43.3054   88.4148    1.9348    5.0596    5.8366   55.3221   40.4910   35.5085    0.0157    0.1036    2.5759    2.8819   36.0000 
7599.0000    7.8700    8.9810   44.7391   94.8448    1.9871    5.2829    6.1415   70.0385   51.9125   47.8537    0.0208    0.1069    2.5930    3.1195   36.0000 
7599.5000    7.8700    8.9561   44.8888   92.1634    1.9849    5.3424    6.2418   73.0091   53.7793   50.9098    0.0232    0.0910    2.6040    3.2340   36.0000 
7600.0000    7.8700    8.8939   43.9170   88.4954    1.9289    5.2886    6.2432   78.9335   55.7471   45.8573    0.0229    0.0823    2.6041    3.0717   36.0000 
7600.5000    7.8700    8.8448   45.9890   90.4623    2.0102    5.5842    6.5571   89.2099   58.8610   47.8851    0.0192    0.0861    2.5869    2.8317   36.0000 
7601.0000    7.8700    8.8178   53.1143  105.7373    2.3099    6.5053    7.5837  109.2508   73.6429   71.4037    0.0138    0.1044    2.5709    2.8031   36.0000 
7601.5000    7.8700    8.8141   61.8422  128.8965    2.6659    7.6863    8.7591  141.6879   97.0907  150.9486    0.0089    0.1287    2.5606    2.9260   36.0000 
7602.0000    7.8700    8.7871   65.5569  137.8176    2.8004    8.2695    9.3025  216.4962  162.5433  320.6522    0.0039    0.1518    2.5488    2.9569   37.0000 
7602.5000    7.8700    8.7505   64.5278  126.7235    2.7390    8.2225    9.1449  304.6474  224.4366  258.9423    0.0003    0.1580    2.5453    2.9580   37.0000 
7603.0000    7.8700    8.7568   61.0691  118.4854    2.5868    7.8073    8.6304  303.8997  222.6750  213.5167   -0.0002    0.1712    2.5430    3.0645   37.0000 
7603.5000    7.8700    8.7560   56.3869  119.3947    2.3892    7.2051    8.0336  307.9208  234.6011  243.7299    0.0011    0.1701    2.5419    3.1475   37.0000 
7604.0000    7.8700    8.7467   51.4539  108.2016    2.1841    6.5564    7.3793  310.6483  243.7410  239.4202    0.0037    0.1473    2.5620    3.1069   37.0000 
7604.5000    7.8700    8.7349   45.3715   86.7077    1.9293    5.7651    6.5397  314.4122  254.0049  235.9250    0.0074    0.0963    2.5907    2.9819   36.0000 
