~VERSION INFORMATION
 VERS.                 2.0:   CWLS LOG ASCII STANDARD - VERSION 2.0
 WRAP.                  NO:   SINGLE LINE PER DEPTH STEP
 CREA.                 20/03/2018 14:52:55
#CREATED USING DSPetro VERSION 5000.10.1.3 BY H191660 ON 20/03/2018 14:52:55
~WELL INFORMATION
#MNEM.UNIT       DATA                          DESCRIPTION MNEMONIC
#---------      ---------------------------   --------------------------
 STRT    .FT        30.0000                   : START DEPTH
 STOP    .FT        11591.0000                : STOP DEPTH
 STEP    .FT        0.5000                    : STEP VALUE
 NULL    .      -999.0000                     : NULL VALUE
 DATE    .      20/03/2018                    : LAS file Creation Date
 WELL .      UNIVERSITY_20-18            : Well Name
 COMP .      Neftex Exploration Insights : Company
 FLD  .      WAR-WINK, S. (WOLFCAMP)     : Field
 UWI  .      210                         : Unique Well Identifier (UWI)
 LOC  .                                  : Location
 RWS  .      -999                        : Def_Rw
 WST  .      -999                        : Def_Rwt
 SRVC .                                  : Contractor
~CURVE INFORMATION
#MNEM              UNIT       API CODE   Curve Type Comments
#----------  --------------- ----------  ---------- -----------
 DEPTH      .FT                        : Depth       
 BS         .inch                      : BitSize     
 CAL_INCH   .inch                      :             Caliper Log - A representation of the measured diameter of a borehole along its depth
 CGR_API    .API                       : GammaRay    Corrected / Computed Gamma Ray - Radiation with the Uranium component removed. Also known as a 'carbonate gamma ray'
 GR2_API    .API                       :             Gamma Ray (API) - Measures the intensity of natural gamma-ray radiation emitted from formations containing radioactive elements, such as K, Th and U
 K_%        .PC                        :             Potassium Abundance (SGR) - The quantitative elemental abundace of Potassium derived from the Spectral Gamma Ray Log. Also wt_%
 TH_PPM     .ppm                       : Spectral    Thorium Abundance (SGR) - The quantitative elemental abundace of Thorium derived from the Spectral Gamma Ray Log
 U_PPM      .ppm                       :             Uranium Abundance (SGR) - The quantitative elemental abundace of Uranium derived from the Spectral Gamma Ray Log
 LLD_OHMM   .ohmm                      :             Laterlog Deep Resistivity - Measurement made several feet into the formation; generally considered a measurement of the undisturbed formation
 LLS_OHMM   .ohmm                      :             Laterlog Shallow Resistivity - one to two feet into the formation; generally considered to measure the formation
 MSFL_OHMM  .ohmm                      :             Micro-Spherically Focused Log - Measurement involves only the first few inches of the formation immediately adjacent to the borehole
 DRHO_G_CC  .g/cc                      :             Density Correction - Investigates the correction to the Bulk Density log; used as an indication of hole condition to validate the Bulk Density measure
 NPHI_RATIO .ratio                     :             Neutron Porosity - Measured with an neutron logging device calibrated to a given matrix (limestone, sandstone and dolomite)
 RHOB_G_CC  .g/cc                      :             Bulk Density - Measures the density of bulk material, including any void space or other materials contained in the subject volume
 PEF_B_E    .b/e-                      : PEF         Photoelectric Factor - A log of photoelectric absorption properties. Often expressed in an approximation unit barns/electron (b/e-)
 LITH       .                          : LITH        Lithology Curve
~A  DEPTH     BS     CAL_INCH  CGR_API   GR2_API     K_%      TH_PPM    U_PPM    LLD_OHMM  LLS_OHMM MSFL_OHM~ DRHO_G_C~ NPHI_RAT~ RHOB_G_C~  PEF_B_E     LITH   
# ...
5380.0000    7.8700   11.5973   43.7167   64.8551    1.8395    5.6498    2.5884    4.4896    3.0124    2.4113    0.0377    0.2166    2.4631    2.7574   36.0000 
5380.5000    7.8700   11.6158   39.3264   56.1805    1.6365    5.1695    2.3495    3.6454    2.3624    1.8911    0.0365    0.2096    2.4547    2.6635   36.0000 
5381.0000    7.8700   11.6081   36.1850   51.8916    1.4916    4.8237    2.1716    3.2618    2.1185    1.7008    0.0246    0.2009    2.4448    2.6248   36.0000 
5381.5000    7.8700   11.5946   35.8499   49.6852    1.4644    4.8425    2.1062    3.1380    2.0541    1.6576    0.0177    0.2090    2.4335    2.6058   36.0000 
5382.0000    7.8700   11.5791   36.7446   49.2935    1.4988    4.9736    2.1336    3.1287    2.0814    1.6872    0.0136    0.2188    2.4256    2.5877   36.0000 
5382.5000    7.8700   11.5782   37.5247   48.9654    1.5229    5.1158    2.1297    3.1638    2.1154    1.6794    0.0090    0.2183    2.4248    2.5767   36.0000 
5383.0000    7.8700   11.5834   38.2567   50.4552    1.5510    5.2231    2.1948    3.2311    2.1624    1.6602    0.0085    0.2313    2.4259    2.5949   27.0000 
5383.5000    7.8700   11.5889   39.2099   53.7096    1.5670    5.4608    2.2178    3.3385    2.2474    1.7570    0.0117    0.2262    2.4329    2.6159   36.0000 
5384.0000    7.8700   11.6120   40.4852   54.7038    1.6023    5.7128    2.1308    3.2052    2.1798    1.7473    0.0137    0.2058    2.4412    2.6112   36.0000 
5384.5000    7.8700   11.6345   40.7672   50.9374    1.5991    5.8207    1.9013    3.1131    2.1139    1.6012    0.0136    0.2254    2.4273    2.6075   36.0000 
5385.0000    7.8700   11.6638   39.7597   49.3537    1.5454    5.7443    1.6881    2.9873    2.0291    1.4059    0.0115    0.2329    2.3983    2.6072   36.0000 
5385.5000    7.8700   11.6826   39.3922   50.1204    1.5252    5.7193    1.5713    2.7964    1.8726    1.3867    0.0106    0.2326    2.3856    2.5983   36.0000 
5386.0000    7.8700   11.7012   40.7493   48.9788    1.5714    5.9466    1.5621    2.7026    1.8152    1.3904    0.0123    0.2382    2.3911    2.5686   36.0000 
5386.5000    7.8700   11.7255   42.7810   48.1819    1.6467    6.2574    1.6064    2.6899    1.7968    1.3801    0.0138    0.2395    2.3954    2.5526   36.0000 
5387.0000    7.8700   11.7556   44.4876   48.3728    1.7127    6.5055    1.6348    2.6959    1.7929    1.3802    0.0142    0.2502    2.3945    2.5851   36.0000 
5387.5000    7.8700   11.7717   44.8675   50.2577    1.7201    6.5956    1.5336    2.6609    1.7751    1.3533    0.0132    0.2521    2.3951    2.5694   27.0000 
5388.0000    7.8700   11.7962   44.1475   50.5222    1.6839    6.5303    1.4358    2.6348    1.7610    1.3331    0.0121    0.2504    2.3976    2.4935   27.0000 
5388.5000    7.8700   11.8222   44.3504   50.8168    1.6829    6.6022    1.3466    2.6196    1.7414    1.3195    0.0121    0.2475    2.3972    2.4957   27.0000 
5389.0000    7.8700   11.8461   44.9758   49.8392    1.7135    6.6622    1.3503    2.5843    1.7159    1.3181    0.0136    0.2381    2.3948    2.5802   36.0000 
5389.5000    7.8700   11.8596   45.7025   47.5158    1.7668    6.6486    1.4123    2.5875    1.7245    1.3419    0.0160    0.2397    2.3981    2.6101   36.0000 
5390.0000    7.8700   11.8872   46.0216   48.1183    1.8012    6.5900    1.4406    2.6044    1.7201    1.3732    0.0196    0.2423    2.4055    2.5850   36.0000 
5390.5000    7.8700   11.9144   45.2369   48.1786    1.7889    6.3903    1.4133    2.6222    1.7414    1.3871    0.0233    0.2390    2.4095    2.5864   36.0000 
5391.0000    7.8700   11.9250   45.9144   45.9254    1.8275    6.4300    1.3593    2.6240    1.7415    1.3857    0.0247    0.2403    2.4101    2.5840   27.0000 
5391.5000    7.8700   11.9335   46.4983   46.2736    1.8594    6.4705    1.3641    2.5931    1.7176    1.3586    0.0249    0.2422    2.4076    2.5466   27.0000 
5392.0000    7.8700   11.9362   47.3570   49.6785    1.8915    6.6008    1.4381    2.5747    1.7130    1.3499    0.0240    0.2588    2.4051    2.5176   27.0000 
5392.5000    7.8700   11.9378   46.4462   51.3558    1.8411    6.5404    1.5355    2.5134    1.6796    1.3642    0.0231    0.2541    2.4070    2.5468   27.0000 
5393.0000    7.8700   11.9416   45.1293   48.7812    1.7618    6.4838    1.5887    2.4473    1.6371    1.3365    0.0246    0.2446    2.4032    2.5814   36.0000 
5393.5000    7.8700   11.9344   44.3218   44.9612    1.7188    6.4221    1.6450    2.3946    1.6045    1.2711    0.0262    0.2381    2.3919    2.5420   27.0000 
5394.0000    7.8700   11.9335   44.3458   45.1319    1.7083    6.4798    1.7092    2.3465    1.5740    1.2489    0.0264    0.2383    2.3876    2.4871   27.0000 
5394.5000    7.8700   11.9312   45.1727   48.6138    1.7249    6.6732    1.7647    2.3187    1.5529    1.2566    0.0241    0.2407    2.3872    2.4911   27.0000 
5395.0000    7.8700   11.9238   45.8843   51.5232    1.7464    6.8050    1.8313    2.3498    1.5550    1.2733    0.0160    0.2458    2.3850    2.4808   27.0000 
5395.5000    7.8700   11.9167   45.0891   50.9139    1.7009    6.7597    1.8387    2.3802    1.5908    1.3141    0.0067    0.2378    2.3881    2.3866   27.0000 
5396.0000    7.8700   11.8971   44.6117   50.1238    1.6807    6.6985    1.8634    2.4437    1.6285    1.3563    0.0039    0.2337    2.3929    2.3355   27.0000 
5396.5000    7.8700   11.8772   43.0733   50.2644    1.6121    6.5178    1.8875    2.5018    1.6717    1.4105    0.0052    0.2400    2.3908    2.4204   27.0000 
5397.0000    7.8700   11.8625   42.1651   48.3192    1.5715    6.4120    1.8557    2.5552    1.7080    1.4557    0.0069    0.2310    2.3860    2.5403   36.0000 
5397.5000    7.8700   11.8082   41.0259   45.9186    1.5432    6.1716    1.8454    2.6079    1.7367    1.4446    0.0094    0.2332    2.3846    2.6153   36.0000 
5398.0000    7.8700   11.8008   41.5736   44.2379    1.5735    6.2078    1.8656    2.6721    1.7876    1.4983    0.0137    0.2289    2.3941    2.6085   36.0000 
5398.5000    7.8700   11.7839   42.2470   44.4187    1.6048    6.2806    1.9665    2.7452    1.8310    1.5748    0.0174    0.2198    2.4150    2.5313   27.0000 
5399.0000    7.8700   11.7466   41.9813   46.4945    1.5822    6.3004    2.0783    2.7988    1.8821    1.7343    0.0197    0.2126    2.4269    2.4987   27.0000 
5399.5000    7.8700   11.7052   40.8636   47.9141    1.5239    6.2094    2.0942    2.7989    1.8935    1.7098    0.0207    0.2204    2.4229    2.5382   27.0000 
5400.0000    7.8700   11.6881   40.3928   47.5491    1.4998    6.1691    2.1254    2.7583    1.8612    1.6215    0.0201    0.2303    2.4130    2.5361   27.0000 
5400.5000    7.8700   11.6666   41.6525   48.2924    1.5303    6.4387    2.1496    2.6953    1.8283    1.5430    0.0185    0.2290    2.4066    2.4859   27.0000 
5401.0000    7.8700   11.6439   43.7408   48.4698    1.5796    6.8920    2.2440    2.6647    1.8111    1.5637    0.0163    0.2244    2.4071    2.4707   27.0000 
5401.5000    7.8700   11.6119   46.3788   47.9041    1.6597    7.3793    2.3617    2.6698    1.8305    1.5873    0.0133    0.2192    2.4074    2.5001   27.0000 
5402.0000    7.8700   11.5793   46.4685   50.6963    1.6667    7.3758    2.3129    2.6610    1.8321    1.6261    0.0105    0.2122    2.4072    2.5459   27.0000 
5402.5000    7.8700   11.5542   45.4471   53.3747    1.6711    7.0185    2.1615    2.6755    1.8484    1.6225    0.0092    0.2068    2.4137    2.5675   27.0000 
5403.0000    7.8700   11.5323   44.3173   53.2777    1.6711    6.6468    1.9842    2.6891    1.8755    1.5999    0.0102    0.2155    2.4230    2.5405   27.0000 
5403.5000    7.8700   11.3843   42.2605   52.0724    1.6233    6.1974    1.7947    2.7309    1.9165    1.6568    0.0128    0.2111    2.4271    2.5102   27.0000 
5404.0000    7.8700   11.3757   42.2397   50.6762    1.6307    6.1556    1.7333    2.8317    1.9878    1.7407    0.0147    0.2131    2.4304    2.5538   27.0000 
5404.5000    7.8700   11.3721   43.4356   50.5323    1.6837    6.2971    1.7695    2.9467    2.0871    1.8305    0.0175    0.2008    2.4381    2.6501   36.0000 
