~VERSION INFORMATION
 VERS.                 2.0:   CWLS LOG ASCII STANDARD - VERSION 2.0
 WRAP.                  NO:   SINGLE LINE PER DEPTH STEP
 CREA.                 20/03/2018 14:52:55
#CREATED USING DSPetro VERSION 5000.10.1.3 BY H191660 ON 20/03/2018 14:52:55
~WELL INFORMATION
#MNEM.UNIT       DATA                          DESCRIPTION MNEMONIC
#---------      ---------------------------   --------------------------
 STRT    .FT        30.0000                   : START DEPTH
 STOP    .FT        11591.0000                : STOP DEPTH
 STEP    .FT        0.5000                    : STEP VALUE
 NULL    .      -999.0000                     : NULL VALUE
 DATE    .      20/03/2018                    : LAS file Creation Date
 WELL .      UNIVERSITY_20-18            : Well Name
 COMP .      Neftex Exploration Insights : Company
 FLD  .      WAR-WINK, S. (WOLFCAMP)     : Field
 UWI  .      210                         : Unique Well Identifier (UWI)
 LOC  .                                  : Location
 RWS  .      -999                        : Def_Rw
 WST  .      -999                        : Def_Rwt
 SRVC .                                  : Contractor
~CURVE INFORMATION
#MNEM              UNIT       API CODE   Curve Type Comments
#----------  --------------- ----------  ---------- -----------
 DEPTH      .FT                        : Depth       
 BS         .inch                      : BitSize     
 CAL_INCH   .inch                      :             Caliper Log - A representation of the measured diameter of a borehole along its depth
 CGR_API    .API                       : GammaRay    Corrected / Computed Gamma Ray - Radiation with the Uranium component removed. Also known as a 'carbonate gamma ray'
 GR2_API    .API                       :             Gamma Ray (API) - Measures the intensity of natural gamma-ray radiation emitted from formations containing radioactive elements, such as K, Th and U
 K_%        .PC                        :             Potassium Abundance (SGR) - The quantitative elemental abundace of Potassium derived from the Spectral Gamma Ray Log. Also wt_%
 TH_PPM     .ppm                       : Spectral    Thorium Abundance (SGR) - The quantitative elemental abundace of Thorium derived from the Spectral Gamma Ray Log
 U_PPM      .ppm                       :             Uranium Abundance (SGR) - The quantitative elemental abundace of Uranium derived from the Spectral Gamma Ray Log
 LLD_OHMM   .ohmm                      :             Laterlog Deep Resistivity - Measurement made several feet into the formation; generally considered a measurement of the undisturbed formation
 LLS_OHMM   .ohmm                      :             Laterlog Shallow Resistivity - one to two feet into the formation; generally considered to measure the formation
 MSFL_OHMM  .ohmm                      :             Micro-Spherically Focused Log - Measurement involves only the first few inches of the formation immediately adjacent to the borehole
 DRHO_G_CC  .g/cc                      :             Density Correction - Investigates the correction to the Bulk Density log; used as an indication of hole condition to validate the Bulk Density measure
 NPHI_RATIO .ratio                     :             Neutron Porosity - Measured with an neutron logging device calibrated to a given matrix (limestone, sandstone and dolomite)
 RHOB_G_CC  .g/cc                      :             Bulk Density - Measures the density of bulk material, including any void space or other materials contained in the subject volume
 PEF_B_E    .b/e-                      : PEF         Photoelectric Factor - A log of photoelectric absorption properties. Often expressed in an approximation unit barns/electron (b/e-)
 LITH       .                          : LITH        Lithology Curve
~A  DEPTH     BS     CAL_INCH  CGR_API   GR2_API     K_%      TH_PPM    U_PPM    LLD_OHMM  LLS_OHMM MSFL_OHM~ DRHO_G_C~ NPHI_RAT~ RHOB_G_C~  PEF_B_E     LITH   
# ...
4955.0000   11.0000    8.1950 -999.0000   11.0419 -999.0000 -999.0000 -999.0000    2.3479    0.9634    0.1000   -0.7467    0.0593    2.0173   10.0559    3.0000 
4955.5000   11.0000    8.1957 -999.0000   10.1781 -999.0000 -999.0000 -999.0000    2.3691    0.9767    0.1000   -0.7381    0.0626    2.0090   10.0894    3.0000 
4956.0000   11.0000    8.2008 -999.0000   11.0218 -999.0000 -999.0000 -999.0000    2.3868    0.9876    0.1000   -0.7263    0.0558    2.0318   10.1597    3.0000 
4956.5000   11.0000    8.2042 -999.0000   11.3298 -999.0000 -999.0000 -999.0000    2.4273    0.9946    0.1000   -0.7206    0.0573    2.0831   10.0262    3.0000 
4957.0000   11.0000    8.1975 -999.0000   10.6535 -999.0000 -999.0000 -999.0000    2.4494    1.0148    0.1000   -0.7170    0.0577    2.1143    9.8143    3.0000 
4957.5000   11.0000    8.1947 -999.0000   10.8544 -999.0000 -999.0000 -999.0000    2.4444    1.0227    0.1000   -0.7146    0.0570    2.1173    9.8046    3.0000 
4958.0000   11.0000    8.1958 -999.0000   11.9593 -999.0000 -999.0000 -999.0000    2.5139    1.0393    0.1000   -0.7200    0.0541    2.1211    9.9120    3.0000 
4958.5000   11.0000    8.1949 -999.0000   11.9727 -999.0000 -999.0000 -999.0000    2.5272    1.0569    0.1000   -0.7288    0.0564    2.1250    9.9957    3.0000 
4959.0000   11.0000    8.1904 -999.0000   10.9749 -999.0000 -999.0000 -999.0000    2.5440    1.0738    0.1000   -0.7329    0.0573    2.1116   10.1308    3.0000 
4959.5000   11.0000    8.1918 -999.0000    9.5152 -999.0000 -999.0000 -999.0000    2.5817    1.0949    0.1000   -0.7338    0.0559    2.0934   10.1717    3.0000 
4960.0000   11.0000    8.1942 -999.0000    8.8958 -999.0000 -999.0000 -999.0000    2.5905    1.1116    0.1000   -0.7336    0.0541    2.0946   10.0116    3.0000 
4960.5000   11.0000    8.1949 -999.0000    9.1603 -999.0000 -999.0000 -999.0000    2.6694    1.1354    0.1000   -0.7316    0.0547    2.1029    9.8187    3.0000 
4961.0000   11.0000    8.1965 -999.0000    9.1469 -999.0000 -999.0000 -999.0000    2.6989    1.1619    0.1000   -0.7284    0.0603    2.1170    9.6499    3.0000 
4961.5000   11.0000    8.1999 -999.0000    9.7060 -999.0000 -999.0000 -999.0000    2.7608    1.1871    0.1000   -0.7286    0.0599    2.1297    9.5568    3.0000 
4962.0000   11.0000    8.1959 -999.0000    9.4147 -999.0000 -999.0000 -999.0000    2.7884    1.2061    0.1000   -0.7313    0.0581    2.1356    9.7211    3.0000 
4962.5000   11.0000    8.1885 -999.0000    9.6290 -999.0000 -999.0000 -999.0000    2.7800    1.2325    0.1000   -0.7312    0.0562    2.1457   10.0717    3.0000 
4963.0000   11.0000    8.1819 -999.0000   10.0442 -999.0000 -999.0000 -999.0000    2.8587    1.2596    0.1000   -0.7330    0.0582    2.1471   10.1558    3.0000 
4963.5000   11.0000    8.1838 -999.0000    8.8456 -999.0000 -999.0000 -999.0000    2.8843    1.2896    0.1000   -0.7413    0.0551    2.1403    9.8751    3.0000 
4964.0000   11.0000    8.1763 -999.0000    8.8958 -999.0000 -999.0000 -999.0000    2.9077    1.3224    0.1000   -0.7459    0.0540    2.1378    9.6621    3.0000 
4964.5000   11.0000    8.1844 -999.0000   10.2618 -999.0000 -999.0000 -999.0000    2.9418    1.3622    0.1000   -0.7470    0.0519    2.1427    9.7901    3.0000 
4965.0000   11.0000    8.1835 -999.0000   10.6234 -999.0000 -999.0000 -999.0000    3.0171    1.3920    0.1000   -0.7606    0.0547    2.1539   10.2040    3.0000 
4965.5000   11.0000    8.1863 -999.0000   11.2093 -999.0000 -999.0000 -999.0000    3.0353    1.4350    0.1000   -0.7746    0.0544    2.1793   10.4668    3.0000 
4966.0000   11.0000    8.1846    2.6299   11.7751    0.1044    0.3697    0.9125    3.0994    1.4845    0.1000   -0.7723    0.0575    2.2006   10.3047    3.0000 
4966.5000   11.0000    8.1900    2.8300   10.7104    0.1198    0.3627    1.0167    3.1391    1.5340    0.1000   -0.7666    0.0584    2.1844   10.0654    3.0000 
4967.0000   11.0000    8.1905    2.9568   11.1591    0.1324    0.3442    1.0701    3.1802    1.5742    0.1000   -0.7631    0.0603    2.1507    9.8884    3.0000 
4967.5000   11.0000    8.1808    3.2450   12.0898    0.1500    0.3554    1.1053    3.2257    1.6245    0.1000   -0.7497    0.0588    2.1411    9.6712    3.0000 
4968.0000   11.0000    8.1875    3.4978   11.2260    0.1594    0.3942    1.0942    3.2956    1.6740    0.1000   -0.7290    0.0561    2.1624    9.6554    3.0000 
4968.5000   11.0000    8.1861    3.3337   11.1859    0.1495    0.3872    1.0495    3.3404    1.7274    0.1000   -0.7116    0.0586    2.1751    9.8842    3.0000 
4969.0000   11.0000    8.1906    3.3011   11.7751    0.1360    0.4404    1.0507    3.3581    1.7799    0.1000   -0.6983    0.0586    2.1634    9.9155    3.0000 
4969.5000   11.0000    8.1934    3.3937   10.1781    0.1282    0.5080    1.0753    3.4689    1.8533    0.1000   -0.6890    0.0583    2.1525    9.7459    3.0000 
4970.0000   11.0000    8.1925    3.5918   10.3924    0.1286    0.5713    1.0769    3.5246    1.9218    0.1000   -0.6816    0.0585    2.1530    9.7112    3.0000 
4970.5000   11.0000    8.1872    3.7397   12.5485    0.1297    0.6148    1.0368    3.6127    2.0076    0.1000   -0.6747    0.0566    2.1605    9.7154    3.0000 
4971.0000   11.0000    8.1875    3.7704   12.3677    0.1295    0.6260    0.9491    3.6695    2.0819    0.1000   -0.6729    0.0539    2.1631    9.6548    3.0000 
4971.5000   11.0000    8.1870    3.6929   10.5263    0.1200    0.6455    0.9034    3.7586    2.1873    0.1000   -0.6756    0.0520    2.1638    9.6075    3.0000 
4972.0000   11.0000    8.1946    3.9022   10.6569    0.1215    0.7074    0.9052    3.7841    2.2882    0.1000   -0.6788    0.0520    2.1746    9.6262    3.0000 
4972.5000   11.0000    8.1916    4.1256   11.5475    0.1236    0.7705    0.9539    3.8298    2.4003    0.1000   -0.6905    0.0542    2.1789    9.6936    3.0000 
4973.0000   11.0000    8.1848    4.1117   10.5899    0.1194    0.7860    0.9769    3.9381    2.5165    0.1000   -0.7055    0.0559    2.1826    9.7528    3.0000 
4973.5000   11.0000    8.1882    4.0745   11.0285    0.1179    0.7809    0.9334    4.2256    2.5928    0.1000   -0.7093    0.0565    2.1968    9.8446    3.0000 
4974.0000   11.0000    8.1834    3.8347   11.7517    0.1122    0.7290    0.8306    4.4711    2.7183    0.1000   -0.7070    0.0529    2.2070    9.8195    3.0000 
4974.5000   11.0000    8.1774    3.7617   10.9113    0.1128    0.7023    0.7248    4.5752    2.8439    0.1000   -0.7017    0.0515    2.2140    9.5733    3.0000 
4975.0000   11.0000    8.1895    3.9664   10.0844    0.1171    0.7490    0.7020    4.6852    3.0152    0.1000   -0.6943    0.0496    2.2211    9.4696    3.0000 
4975.5000   11.0000    8.1952    4.4466   10.1346    0.1265    0.8625    0.7408    4.8347    3.2259    0.1000   -0.6917    0.0482    2.2211    9.6497    3.0000 
4976.0000   11.0000    8.2008    4.8828   10.1044    0.1276    1.0007    0.7562    4.8947    3.4350    0.1000   -0.6920    0.0501    2.2208    9.8649    3.0000 
4976.5000   11.0000    8.1953    5.3687    9.8868    0.1244    1.1758    0.7677    5.2561    3.6938    0.1000   -0.6906    0.0514    2.2294    9.9879    3.0000 
4977.0000   11.0000    8.1913    5.7105    9.9672    0.1186    1.3158    0.7086    5.4341    3.9588    0.1000   -0.6841    0.0493    2.2383    9.9890    3.0000 
4977.5000   11.0000    8.1994    5.8724   10.2886    0.1117    1.4018    0.6332    5.6110    4.1984    0.1000   -0.6741    0.0483    2.2489    9.8624    3.0000 
4978.0000   11.0000    8.2013    6.3537   10.0777    0.1161    1.5393    0.6102    5.7828    4.4900    0.1000   -0.6690    0.0500    2.2615    9.7549    3.0000 
4978.5000   11.0000    8.2122    6.3756   11.2495    0.1207    1.5247    0.5861    5.9329    4.7912    0.1000   -0.6646    0.0507    2.2722    9.7539    3.0000 
4979.0000   11.0000    8.2095    6.8092   12.6053    0.1331    1.6088    0.6524    6.2035    5.1653    0.1000   -0.6536    0.0499    2.2855    9.6308    3.0000 
4979.5000   11.0000    8.2035    6.6606   11.2260    0.1377    1.5381    0.6950    6.4212    5.5437    0.1000   -0.6429    0.0493    2.3018    9.3886    3.0000 
