~VERSION INFORMATION
 VERS.                 2.0:   CWLS LOG ASCII STANDARD - VERSION 2.0
 WRAP.                  NO:   SINGLE LINE PER DEPTH STEP
 CREA.                 20/03/2018 14:52:55
#CREATED USING DSPetro VERSION 5000.10.1.3 BY H191660 ON 20/03/2018 14:52:55
~WELL INFORMATION
#MNEM.UNIT       DATA                          DESCRIPTION MNEMONIC
#---------      ---------------------------   --------------------------
 STRT    .FT        30.0000                   : START DEPTH
 STOP    .FT        11591.0000                : STOP DEPTH
 STEP    .FT        0.5000                    : STEP VALUE
 NULL    .      -999.0000                     : NULL VALUE
 DATE    .      20/03/2018                    : LAS file Creation Date
 WELL .      UNIVERSITY_20-18            : Well Name
 COMP .      Neftex Exploration Insights : Company
 FLD  .      WAR-WINK, S. (WOLFCAMP)     : Field
 UWI  .      210                         : Unique Well Identifier (UWI)
 LOC  .                                  : Location
 RWS  .      -999                        : Def_Rw
 WST  .      -999                        : Def_Rwt
 SRVC .                                  : Contractor
~CURVE INFORMATION
#MNEM              UNIT       API CODE   Curve Type Comments
#----------  --------------- ----------  ---------- -----------
 DEPTH      .FT                        : Depth       
 BS         .inch                      : BitSize     
 CAL_INCH   .inch                      :             Caliper Log - A representation of the measured diameter of a borehole along its depth
 CGR_API    .API                       : GammaRay    Corrected / Computed Gamma Ray - Radiation with the Uranium component removed. Also known as a 'carbonate gamma ray'
 GR2_API    .API                       :             Gamma Ray (API) - Measures the intensity of natural gamma-ray radiation emitted from formations containing radioactive elements, such as K, Th and U
 K_%        .PC                        :             Potassium Abundance (SGR) - The quantitative elemental abundace of Potassium derived from the Spectral Gamma Ray Log. Also wt_%
 TH_PPM     .ppm                       : Spectral    Thorium Abundance (SGR) - The quantitative elemental abundace of Thorium derived from the Spectral Gamma Ray Log
 U_PPM      .ppm                       :             Uranium Abundance (SGR) - The quantitative elemental abundace of Uranium derived from the Spectral Gamma Ray Log
 LLD_OHMM   .ohmm                      :             Laterlog Deep Resistivity - Measurement made several feet into the formation; generally considered a measurement of the undisturbed formation
 LLS_OHMM   .ohmm                      :             Laterlog Shallow Resistivity - one to two feet into the formation; generally considered to measure the formation
 MSFL_OHMM  .ohmm                      :             Micro-Spherically Focused Log - Measurement involves only the first few inches of the formation immediately adjacent to the borehole
 DRHO_G_CC  .g/cc                      :             Density Correction - Investigates the correction to the Bulk Density log; used as an indication of hole condition to validate the Bulk Density measure
 NPHI_RATIO .ratio                     :             Neutron Porosity - Measured with an neutron logging device calibrated to a given matrix (limestone, sandstone and dolomite)
 RHOB_G_CC  .g/cc                      :             Bulk Density - Measures the density of bulk material, including any void space or other materials contained in the subject volume
 PEF_B_E    .b/e-                      : PEF         Photoelectric Factor - A log of photoelectric absorption properties. Often expressed in an approximation unit barns/electron (b/e-)
 LITH       .                          : LITH        Lithology Curve
~A  DEPTH     BS     CAL_INCH  CGR_API   GR2_API     K_%      TH_PPM    U_PPM    LLD_OHMM  LLS_OHMM MSFL_OHM~ DRHO_G_C~ NPHI_RAT~ RHOB_G_C~  PEF_B_E     LITH   
# ...
9330.0000    7.8700    8.5019    9.6433   22.7936    0.3144    1.6800    1.7913  655.4036  577.9612  438.0146    0.0164    0.0337    2.5988    3.5034   18.0000 
9330.5000    7.8700    8.4706    9.2764   23.0279    0.3050    1.6036    1.8413  623.9665  505.5628  315.7350    0.0190    0.0373    2.6034    3.7075   18.0000 
9331.0000    7.8700    8.4769    8.3447   23.4296    0.2773    1.4288    1.7548  684.4991  568.3110  441.4407    0.0260    0.0341    2.5882    3.6492   18.0000 
9331.5000    7.8700    8.4659    7.7876   21.5615    0.2645    1.3061    1.7463  764.7878  615.3383 19999.2754    0.0375    0.0322    2.5720    3.5039   18.0000 
9332.0000    7.8700    8.4593    7.0308   18.8764    0.2340    1.2022    1.6413  882.6921  749.7102 19999.3828    0.0369    0.0373    2.5673    3.7048   18.0000 
9332.5000    7.8700    8.4147    6.4265   17.0282    0.2074    1.1298    1.5159 1095.5665  954.4524 3397.1233    0.0242    0.0405    2.5498    3.8691   18.0000 
9333.0000    7.8700    8.3953    6.0259   15.9066    0.1959    1.0526    1.3705 1136.3223  959.2987  866.7308    0.0155    0.0438    2.5285    3.5772   18.0000 
9333.5000    7.8700    8.3819    5.9488   15.7392    0.1965    1.0244    1.2899 1182.3552 1032.2328 1316.7670    0.0109    0.0501    2.5152    3.1160   27.0000 
9334.0000    7.8700    8.3616    6.2590   16.7436    0.2075    1.0740    1.3787 1261.2363 1125.1930 1254.3887    0.0079    0.0498    2.5145    3.0207   27.0000 
9334.5000    7.8700    8.3562    6.2855   17.9021    0.1979    1.1284    1.4970 1241.9253 1107.9474  885.5312    0.0096    0.0440    2.5398    3.2801   27.0000 
9335.0000    7.8700    8.3501    6.0419   18.1832    0.1783    1.1410    1.5563 1311.6487 1156.6936  839.4848    0.0123    0.0359    2.5761    3.3913   27.0000 
9335.5000    7.8700    8.3505    5.5638   16.6499    0.1551    1.0942    1.5847 1264.8955 1170.2384 1404.2054    0.0075    0.0325    2.5887    3.1850   27.0000 
9336.0000    7.8700    8.3379    5.2991   15.9870    0.1471    1.0449    1.6107 1178.4906 1057.9946 1872.8715    0.0006    0.0323    2.5751    2.8672   27.0000 
9336.5000    7.8700    8.3560    5.2525   16.2448    0.1484    1.0232    1.6683 1134.5813 1018.8332 1732.6615   -0.0011    0.0333    2.5543    2.6933   27.0000 
9337.0000    7.8700    8.3569    5.2469   17.5304    0.1493    1.0171    1.7729  994.1360  876.9841  877.8064    0.0006    0.0331    2.5393    2.7200   27.0000 
9337.5000    7.8700    8.3838    5.0678   18.8662    0.1422    0.9919    1.8608  881.0070  743.0897  125.4719    0.0044    0.0321    2.5449    2.8167   27.0000 
9338.0000    7.8700    8.4158    4.9051   17.5874    0.1360    0.9679    1.9516  827.6494  689.2720  125.8015    0.0077    0.0328    2.5797    3.2611   27.0000 
9338.5000    7.8700    8.4362    4.6491   16.7906    0.1297    0.9138    1.9625  840.6876  703.4260  549.9760    0.0117    0.0335    2.6189    4.0494   18.0000 
9339.0000    7.8700    8.4617    4.4879   18.1162    0.1271    0.8732    1.9026  876.0024  751.9470  982.7515    0.0165    0.0371    2.6391    4.4873   18.0000 
9339.5000    7.8700    8.4765    4.3434   17.1019    0.1175    0.8711    1.7459 1008.1620  903.4708 1942.7605    0.0160    0.0366    2.6504    4.5438   18.0000 
9340.0000    7.8700    8.4680    4.5006   15.9737    0.1156    0.9320    1.6541 1058.3893 1053.1261  843.4828    0.0129    0.0318    2.6536    4.6269   18.0000 
9340.5000    7.8700    8.4505    4.6146   17.0751    0.1116    0.9881    1.5505 1086.7854  988.5948 1013.4902    0.0094    0.0304    2.6256    4.5329   18.0000 
9341.0000    7.8700    8.4482    4.4459   18.0995    0.1015    0.9809    1.4362 1208.1647 1162.3573 1296.2048    0.0041    0.0334    2.5842    4.0875   18.0000 
9341.5000    7.8700    8.4227    4.1808   15.8363    0.0967    0.9165    1.2830 1241.2947 1291.3975 19999.3066    0.0015    0.0361    2.5706    3.7513   18.0000 
9342.0000    7.8700    8.4278    3.7739   13.0141    0.0852    0.8372    1.1729 1050.1682 1082.3595 19999.2754   -0.0009    0.0327    2.5676    3.5755   18.0000 
9342.5000    7.8700    8.3867    3.8407   14.3264    0.0884    0.8440    1.2063  973.2130  937.5330  500.4453   -0.0026    0.0335    2.5551    3.1640   27.0000 
9343.0000    7.8700    8.3423    4.2927   17.1554    0.1012    0.9319    1.3502  820.4199  741.3179  181.4308   -0.0003    0.0379    2.5575    2.8509   27.0000 
9343.5000    7.8700    8.3265    4.7585   18.4645    0.1192    0.9997    1.5202  731.5624  627.8552  181.0476    0.0030    0.0386    2.5672    2.7612   27.0000 
9344.0000    7.8700    8.3078    4.8549   18.7123    0.1321    0.9703    1.5668  808.0404  730.1630  517.2959    0.0104    0.0369    2.5659    2.5493   27.0000 
9344.5000    7.8700    8.3109    5.0273   18.1163    0.1562    0.9125    1.5802  875.2593  822.0558  954.5914    0.0176    0.0361    2.5752    2.5137   27.0000 
9345.0000    7.8700    8.3090    5.2854   17.0784    0.1797    0.8855    1.6036  916.9024  885.9103 2029.8744    0.0163    0.0334    2.5972    2.8565   27.0000 
9345.5000    7.8700    8.3101    5.7692   17.1119    0.2048    0.9258    1.6202  987.0747  966.6263  935.7039    0.0124    0.0316    2.6056    3.2108   27.0000 
9346.0000    7.8700    8.3119    6.1023   17.0316    0.2067    1.0264    1.6025  943.5352  913.2272 1065.3323    0.0096    0.0310    2.5903    3.4463   37.0000 
9346.5000    7.8700    8.3256    6.1474   16.9747    0.1967    1.0885    1.5168  982.6786  912.9611 1256.2551    0.0054    0.0290    2.5738    3.5555   18.0000 
9347.0000    7.8700    8.3133    5.7824   16.9546    0.1747    1.0730    1.3728 1047.9399 1105.1791 2471.6838    0.0032    0.0269    2.5812    3.5787   18.0000 
9347.5000    7.8700    8.3319    5.8188   16.4791    0.1729    1.0936    1.3077 1058.5648 1055.8320 19999.3496    0.0038    0.0234    2.6023    3.8156   18.0000 
9348.0000    7.8700    8.3489    6.1425   16.2716    0.1877    1.1298    1.3165 1064.0695 1167.6321 19999.2793    0.0036    0.0238    2.6029    3.9931   18.0000 
9348.5000    7.8700    8.3480    6.2164   16.1711    0.1975    1.1076    1.3353 1001.9023 1012.3434  628.9941    0.0044    0.0286    2.5846    3.8132   18.0000 
9349.0000    7.8700    8.3500    6.3304   16.1176    0.2116    1.0778    1.3658  838.6637  761.1111  416.2811    0.0062    0.0319    2.5756    3.6532   18.0000 
9349.5000    7.8700    8.3419    6.3748   16.9947    0.2234    1.0367    1.3929  722.4331  714.9469  561.7632    0.0069    0.0331    2.5795    3.6808   18.0000 
9350.0000    7.8700    8.3471    6.6038   18.1030    0.2465    1.0022    1.4784  647.8677  585.0795  569.2356    0.0080    0.0357    2.5894    3.7246   18.0000 
9350.5000    7.8700    8.3137    6.6949   18.9534    0.2633    0.9523    1.5604  665.6722  573.0556  864.2126    0.0087    0.0340    2.5813    3.4384   27.0000 
9351.0000    7.8700    8.3138    6.3491   19.4119    0.2598    0.8554    1.5639  782.7166  707.0728  639.2938    0.0097    0.0353    2.5645    2.9502   27.0000 
9351.5000    7.8700    8.2802    5.6366   16.9278    0.2364    0.7322    1.4524  889.5038  903.3747 1092.3124    0.0081    0.0343    2.5743    2.9833   27.0000 
9352.0000    7.8700    8.2854    4.9664   14.4034    0.2132    0.6215    1.2706 1123.7694 1212.1748 1958.9215    0.0039    0.0279    2.5925    3.4077   27.0000 
9352.5000    7.8700    8.2840    4.8502   14.0419    0.2123    0.5877    1.2399 1128.1151 1190.9597  983.4653    0.0020    0.0265    2.5946    3.5495   18.0000 
9353.0000    7.8700    8.2870    4.9326   15.0562    0.2192    0.5823    1.2574  890.3408  870.7726  813.0946   -0.0017    0.0282    2.5844    3.4422   27.0000 
9353.5000    7.8700    8.2982    5.5606   16.3519    0.2464    0.6597    1.4356  718.7135  616.9626  310.2277   -0.0048    0.0315    2.5805    3.4242   27.0000 
9354.0000    7.8700    8.3159    6.0372   17.2793    0.2544    0.7783    1.5970  745.9868  611.6104  246.7702   -0.0030    0.0330    2.5782    3.4170   27.0000 
9354.5000    7.8700    8.3416    6.0786   17.4332    0.2375    0.8724    1.6604  767.4218  687.0034  248.2622    0.0000    0.0332    2.5644    3.1442   27.0000 
