~VERSION INFORMATION
 VERS.                 2.0:   CWLS LOG ASCII STANDARD - VERSION 2.0
 WRAP.                  NO:   SINGLE LINE PER DEPTH STEP
 CREA.                 20/03/2018 14:52:55
#CREATED USING DSPetro VERSION 5000.10.1.3 BY H191660 ON 20/03/2018 14:52:55
~WELL INFORMATION
#MNEM.UNIT       DATA                          DESCRIPTION MNEMONIC
#---------      ---------------------------   --------------------------
 STRT    .FT        30.0000                   : START DEPTH
 STOP    .FT        11591.0000                : STOP DEPTH
 STEP    .FT        0.5000                    : STEP VALUE
 NULL    .      -999.0000                     : NULL VALUE
 DATE    .      20/03/2018                    : LAS file Creation Date
 WELL .      UNIVERSITY_20-18            : Well Name
 COMP .      Neftex Exploration Insights : Company
 FLD  .      WAR-WINK, S. (WOLFCAMP)     : Field
 UWI  .      210                         : Unique Well Identifier (UWI)
 LOC  .                                  : Location
 RWS  .      -999                        : Def_Rw
 WST  .      -999                        : Def_Rwt
 SRVC .                                  : Contractor
~CURVE INFORMATION
#MNEM              UNIT       API CODE   Curve Type Comments
#----------  --------------- ----------  ---------- -----------
 DEPTH      .FT                        : Depth       
 BS         .inch                      : BitSize     
 CAL_INCH   .inch                      :             Caliper Log - A representation of the measured diameter of a borehole along its depth
 CGR_API    .API                       : GammaRay    Corrected / Computed Gamma Ray - Radiation with the Uranium component removed. Also known as a 'carbonate gamma ray'
 GR2_API    .API                       :             Gamma Ray (API) - Measures the intensity of natural gamma-ray radiation emitted from formations containing radioactive elements, such as K, Th and U
 K_%        .PC                        :             Potassium Abundance (SGR) - The quantitative elemental abundace of Potassium derived from the Spectral Gamma Ray Log. Also wt_%
 TH_PPM     .ppm                       : Spectral    Thorium Abundance (SGR) - The quantitative elemental abundace of Thorium derived from the Spectral Gamma Ray Log
 U_PPM      .ppm                       :             Uranium Abundance (SGR) - The quantitative elemental abundace of Uranium derived from the Spectral Gamma Ray Log
 LLD_OHMM   .ohmm                      :             Laterlog Deep Resistivity - Measurement made several feet into the formation; generally considered a measurement of the undisturbed formation
 LLS_OHMM   .ohmm                      :             Laterlog Shallow Resistivity - one to two feet into the formation; generally considered to measure the formation
 MSFL_OHMM  .ohmm                      :             Micro-Spherically Focused Log - Measurement involves only the first few inches of the formation immediately adjacent to the borehole
 DRHO_G_CC  .g/cc                      :             Density Correction - Investigates the correction to the Bulk Density log; used as an indication of hole condition to validate the Bulk Density measure
 NPHI_RATIO .ratio                     :             Neutron Porosity - Measured with an neutron logging device calibrated to a given matrix (limestone, sandstone and dolomite)
 RHOB_G_CC  .g/cc                      :             Bulk Density - Measures the density of bulk material, including any void space or other materials contained in the subject volume
 PEF_B_E    .b/e-                      : PEF         Photoelectric Factor - A log of photoelectric absorption properties. Often expressed in an approximation unit barns/electron (b/e-)
 LITH       .                          : LITH        Lithology Curve
~A  DEPTH     BS     CAL_INCH  CGR_API   GR2_API     K_%      TH_PPM    U_PPM    LLD_OHMM  LLS_OHMM MSFL_OHM~ DRHO_G_C~ NPHI_RAT~ RHOB_G_C~  PEF_B_E     LITH   
# ...
11505.0000    7.8700    8.2323   30.8719 -999.0000    1.3171    3.8874    8.2817   81.6225   63.7939  160.3215   -0.0013    0.1878    2.4786    3.9099 -999.0000 
11505.5000    7.8700    8.3471   31.3278 -999.0000    1.3424    3.9171    8.4187  130.0035  108.3330  229.6072    0.0013    0.1819    2.5292    4.1971 -999.0000 
11506.0000    7.8700    8.3610   31.7581 -999.0000    1.3699    3.9278    8.6132  145.6395  128.4376   80.0221    0.0080    0.1144    2.5934    4.4855 -999.0000 
11506.5000    7.8700    8.3772   32.1329 -999.0000    1.3939    3.9371    8.7261   96.5417   72.2641   57.2784    0.0102    0.1083    2.5930    4.4976 -999.0000 
11507.0000    7.8700    8.3918   32.4589 -999.0000    1.4099    3.9681    8.7093   90.9991   67.7037   35.4528    0.0044    0.1293    2.5067    4.1393 -999.0000 
11507.5000    7.8700    8.3652   33.0755 -999.0000    1.4249    4.0998    8.6476   69.4710   44.3957   30.8662    0.0079    0.1210    2.4279    3.6830 -999.0000 
11508.0000    7.8700    8.3550   32.4373 -999.0000    1.4056    3.9814    8.6838   63.6840   40.1773   29.0454    0.0191    0.1784    2.4249    3.4386 -999.0000 
11508.5000    7.8700    8.1882   31.9218 -999.0000    1.3814    3.9274    8.8042   59.2086   42.2946   32.2791    0.0205    0.2125    2.4614    3.4034 -999.0000 
11509.0000    7.8700    8.1647   31.4621 -999.0000    1.3730    3.8161    8.9630   56.0917   38.8175   35.6603    0.0083    0.2114    2.4753    3.4638 -999.0000 
11509.5000    7.8700    8.1709   30.6764 -999.0000    1.3682    3.5808    9.0554   48.8994   29.0741   21.2442   -0.0014    0.1983    2.4573    3.5985 -999.0000 
11510.0000    7.8700    8.1668   29.8607 -999.0000    1.3604    3.3501    9.2192   41.0592   25.2267   14.9119    0.0034    0.1987    2.4567    3.7026 -999.0000 
11510.5000    7.8700    8.1897   27.4789 -999.0000    1.2740    2.9781    9.5957   39.0355   27.3635   12.1557    0.0099    0.1936    2.4930    3.6299 -999.0000 
11511.0000    7.8700    8.1344   24.8385 -999.0000    1.1435    2.7300   10.0658   41.3991   31.7438   13.1841    0.0070    0.1820    2.5334    3.4993 -999.0000 
11511.5000    7.8700    8.1365   23.4037 -999.0000    1.1299    2.3238   10.3169   46.1182   36.0169   12.8064    0.0062    0.1619    2.5647    3.4741 -999.0000 
11512.0000    7.8700    8.1352   22.2509 -999.0000    1.1407    1.8939   10.7663   51.4428   41.7537   13.8603    0.0137    0.1538    2.5923    3.4744 -999.0000 
11512.5000    7.8700    8.1560 -999.0000 -999.0000 -999.0000 -999.0000 -999.0000   52.3257   43.7795   15.6984    0.0160    0.1517    2.6056    3.4224 -999.0000 
11513.0000    7.8700    8.1694 -999.0000 -999.0000 -999.0000 -999.0000 -999.0000   49.0055   42.0695   17.0611    0.0082    0.1520    2.6038    3.3592 -999.0000 
11513.5000    7.8700    8.1782 -999.0000 -999.0000 -999.0000 -999.0000 -999.0000   43.2656   36.5680   16.5366    0.0030    0.1655    2.5945    3.3757 -999.0000 
11514.0000    7.8700    8.1794 -999.0000 -999.0000 -999.0000 -999.0000 -999.0000   36.0215   26.3074   11.5445    0.0117    0.1730    2.5774    3.4742 -999.0000 
11514.5000    7.8700    8.1877 -999.0000 -999.0000 -999.0000 -999.0000 -999.0000   34.7875   22.7550   10.8942    0.0261    0.1712    2.5469    3.4567 -999.0000 
11515.0000    7.8700    8.4642 -999.0000 -999.0000 -999.0000 -999.0000 -999.0000   36.0315   22.5949   13.7483    0.0304    0.1611    2.5150    3.2620 -999.0000 
11515.5000    7.8700    8.4846 -999.0000 -999.0000 -999.0000 -999.0000 -999.0000   42.2208   25.8682   18.3513    0.0223    0.1585    2.4961    3.1199 -999.0000 
11516.0000    7.8700    8.4842 -999.0000 -999.0000 -999.0000 -999.0000 -999.0000   57.3674   36.2526   24.9916    0.0162    0.1552    2.4867    3.1761 -999.0000 
11516.5000    7.8700    8.3743 -999.0000 -999.0000 -999.0000 -999.0000 -999.0000   53.8069   40.6838   28.9019    0.0195    0.1611    2.4921    3.3582 -999.0000 
11517.0000    7.8700    8.0411 -999.0000 -999.0000 -999.0000 -999.0000 -999.0000   52.1670   41.6306   18.8824    0.0234    0.1617    2.5121    3.5021 -999.0000 
11517.5000    7.8700    8.0040 -999.0000 -999.0000 -999.0000 -999.0000 -999.0000   53.8095   45.7066   13.7772    0.0271    0.1592    2.5346    3.4927 -999.0000 
11518.0000    7.8700    8.0130 -999.0000 -999.0000 -999.0000 -999.0000 -999.0000   45.7719   46.4522   20.5267    0.0311    0.1600    2.5379    3.4748 -999.0000 
11518.5000    7.8700    8.0492 -999.0000 -999.0000 -999.0000 -999.0000 -999.0000   40.4931   40.8008   29.6572    0.0303    0.1616    2.5121    3.6014 -999.0000 
11519.0000    7.8700    8.0365 -999.0000 -999.0000 -999.0000 -999.0000 -999.0000   45.0276   43.0144   12.2247    0.0284    0.1566    2.4920    3.7699 -999.0000 
11519.5000    7.8700    8.0068 -999.0000 -999.0000 -999.0000 -999.0000 -999.0000   45.6831   43.4865   13.7374    0.0284    0.1584    2.4932    3.8628 -999.0000 
11520.0000    7.8700    8.0012 -999.0000 -999.0000 -999.0000 -999.0000 -999.0000   44.6908   42.9939   21.3397    0.0252    0.1585    2.5005    3.8681 -999.0000 
11520.5000    7.8700    7.9932 -999.0000 -999.0000 -999.0000 -999.0000 -999.0000   62.6870   74.4640   54.3999    0.0185    0.1579    2.4987    3.8687 -999.0000 
11521.0000    7.8700    8.0044 -999.0000 -999.0000 -999.0000 -999.0000 -999.0000   56.0663   57.8601   38.5643    0.0139    0.1603    2.4786    3.8327 -999.0000 
11521.5000    7.8700    7.9969 -999.0000 -999.0000 -999.0000 -999.0000 -999.0000   52.6551   53.3882   29.3521    0.0112    0.1602    2.4539    3.6854 -999.0000 
11522.0000    7.8700    8.0002 -999.0000 -999.0000 -999.0000 -999.0000 -999.0000   46.6262   47.7071   25.7287    0.0108 -999.0000    2.4416    3.5785 -999.0000 
11522.5000    7.8700    8.0052 -999.0000 -999.0000 -999.0000 -999.0000 -999.0000   40.0630   40.6287   22.2690    0.0161 -999.0000    2.4672    3.5673 -999.0000 
11523.0000    7.8700    7.9976 -999.0000 -999.0000 -999.0000 -999.0000 -999.0000   42.9295   43.3958   24.3297    0.0171 -999.0000    2.5195    3.5786 -999.0000 
11523.5000    7.8700    8.0103 -999.0000 -999.0000 -999.0000 -999.0000 -999.0000   44.7021   45.0208   24.8328    0.0098 -999.0000    2.5420    3.6186 -999.0000 
11524.0000    7.8700    7.9001 -999.0000 -999.0000 -999.0000 -999.0000 -999.0000   47.5200   46.2054   37.1490    0.0051 -999.0000    2.5293    3.6566 -999.0000 
11524.5000    7.8700    7.7678 -999.0000 -999.0000 -999.0000 -999.0000 -999.0000   69.4996   68.3520   83.8505    0.0098 -999.0000    2.4868    3.6764 -999.0000 
11525.0000    7.8700    6.9616 -999.0000 -999.0000 -999.0000 -999.0000 -999.0000  112.7118  133.5624  209.1091    0.0514 -999.0000    2.4086    3.7022 -999.0000 
11525.5000    7.8700    4.5001 -999.0000 -999.0000 -999.0000 -999.0000 -999.0000   98.6619  108.7642   82.5918    0.1494 -999.0000    2.3781    3.7108 -999.0000 
11526.0000    7.8700    4.5000 -999.0000 -999.0000 -999.0000 -999.0000 -999.0000   98.2690  107.6947   26.0919    0.2350 -999.0000    2.4220    3.6677 -999.0000 
11526.5000    7.8700    4.5000 -999.0000 -999.0000 -999.0000 -999.0000 -999.0000   90.1995   99.6778   22.6170    0.2596 -999.0000    2.4572    3.5820 -999.0000 
11527.0000    7.8700    4.5000 -999.0000 -999.0000 -999.0000 -999.0000 -999.0000   50.8568   43.3364   21.6401    0.2782 -999.0000    2.4863    3.5259 -999.0000 
11527.5000    7.8700    4.5000 -999.0000 -999.0000 -999.0000 -999.0000 -999.0000   51.9579   42.1124   33.7315    0.3101 -999.0000    2.5268    3.5724 -999.0000 
11528.0000    7.8700    4.5000 -999.0000 -999.0000 -999.0000 -999.0000 -999.0000   58.3057   52.4199   27.8509    0.3264 -999.0000    2.5516    3.6892 -999.0000 
11528.5000    7.8700    4.5000 -999.0000 -999.0000 -999.0000 -999.0000 -999.0000   77.6140   66.1796   29.1987    0.3273 -999.0000    2.5660    3.7841 -999.0000 
11529.0000    7.8700    4.5000 -999.0000 -999.0000 -999.0000 -999.0000 -999.0000  103.8814   88.7989   35.5888    0.3238 -999.0000    2.5923    3.8410 -999.0000 
11529.5000    7.8700    4.5000 -999.0000 -999.0000 -999.0000 -999.0000 -999.0000  120.0115  105.0124  115.9119    0.3027 -999.0000    2.6121    3.8837 -999.0000 
