~VERSION INFORMATION
 VERS.                 2.0:   CWLS LOG ASCII STANDARD - VERSION 2.0
 WRAP.                  NO:   SINGLE LINE PER DEPTH STEP
 CREA.                 20/03/2018 14:52:55
#CREATED USING DSPetro VERSION 5000.10.1.3 BY H191660 ON 20/03/2018 14:52:55
~WELL INFORMATION
#MNEM.UNIT       DATA                          DESCRIPTION MNEMONIC
#---------      ---------------------------   --------------------------
 STRT    .FT        30.0000                   : START DEPTH
 STOP    .FT        11591.0000                : STOP DEPTH
 STEP    .FT        0.5000                    : STEP VALUE
 NULL    .      -999.0000                     : NULL VALUE
 DATE    .      20/03/2018                    : LAS file Creation Date
 WELL .      UNIVERSITY_20-18            : Well Name
 COMP .      Neftex Exploration Insights : Company
 FLD  .      WAR-WINK, S. (WOLFCAMP)     : Field
 UWI  .      210                         : Unique Well Identifier (UWI)
 LOC  .                                  : Location
 RWS  .      -999                        : Def_Rw
 WST  .      -999                        : Def_Rwt
 SRVC .                                  : Contractor
~CURVE INFORMATION
#MNEM              UNIT       API CODE   Curve Type Comments
#----------  --------------- ----------  ---------- -----------
 DEPTH      .FT                        : Depth       
 BS         .inch                      : BitSize     
 CAL_INCH   .inch                      :             Caliper Log - A representation of the measured diameter of a borehole along its depth
 CGR_API    .API                       : GammaRay    Corrected / Computed Gamma Ray - Radiation with the Uranium component removed. Also known as a 'carbonate gamma ray'
 GR2_API    .API                       :             Gamma Ray (API) - Measures the intensity of natural gamma-ray radiation emitted from formations containing radioactive elements, such as K, Th and U
 K_%        .PC                        :             Potassium Abundance (SGR) - The quantitative elemental abundace of Potassium derived from the Spectral Gamma Ray Log. Also wt_%
 TH_PPM     .ppm                       : Spectral    Thorium Abundance (SGR) - The quantitative elemental abundace of Thorium derived from the Spectral Gamma Ray Log
 U_PPM      .ppm                       :             Uranium Abundance (SGR) - The quantitative elemental abundace of Uranium derived from the Spectral Gamma Ray Log
 LLD_OHMM   .ohmm                      :             Laterlog Deep Resistivity - Measurement made several feet into the formation; generally considered a measurement of the undisturbed formation
 LLS_OHMM   .ohmm                      :             Laterlog Shallow Resistivity - one to two feet into the formation; generally considered to measure the formation
 MSFL_OHMM  .ohmm                      :             Micro-Spherically Focused Log - Measurement involves only the first few inches of the formation immediately adjacent to the borehole
 DRHO_G_CC  .g/cc                      :             Density Correction - Investigates the correction to the Bulk Density log; used as an indication of hole condition to validate the Bulk Density measure
 NPHI_RATIO .ratio                     :             Neutron Porosity - Measured with an neutron logging device calibrated to a given matrix (limestone, sandstone and dolomite)
 RHOB_G_CC  .g/cc                      :             Bulk Density - Measures the density of bulk material, including any void space or other materials contained in the subject volume
 PEF_B_E    .b/e-                      : PEF         Photoelectric Factor - A log of photoelectric absorption properties. Often expressed in an approximation unit barns/electron (b/e-)
 LITH       .                          : LITH        Lithology Curve
~A  DEPTH     BS     CAL_INCH  CGR_API   GR2_API     K_%      TH_PPM    U_PPM    LLD_OHMM  LLS_OHMM MSFL_OHM~ DRHO_G_C~ NPHI_RAT~ RHOB_G_C~  PEF_B_E     LITH   
# ...
5830.0000    7.8700   10.7371   38.0995   46.0259    1.6508    4.6980    1.7329    3.5001    2.5598    2.3068    0.0034    0.1887    2.4492    2.4063   27.0000 
5830.5000    7.8700   10.7760   37.5026   44.9344    1.6338    4.5821    1.6826    3.4299    2.5540    2.2661    0.0017    0.1929    2.4617    2.4286   27.0000 
5831.0000    7.8700   10.8112   37.9858   46.7823    1.6545    4.6427    1.6886    3.3906    2.5019    2.0034    0.0010    0.1922    2.4617    2.4059   27.0000 
5831.5000    7.8700   10.8672   37.6199   46.2533    1.6315    4.6316    1.6974    3.3644    2.5350    1.7884    0.0007    0.2041    2.4493    2.3921   27.0000 
5832.0000    7.8700   10.9259   36.1353   42.4065    1.5549    4.5069    1.6013    3.4196    2.5867    2.0996   -0.0012    0.2000    2.4503    2.4501   27.0000 
5832.5000    7.8700   10.9664   34.3076   40.4914    1.4360    4.4699    1.4681    3.5701    2.7700    2.4252   -0.0035    0.1957    2.4613    2.5742   27.0000 
5833.0000    7.8700   11.0062   33.0745   39.7482    1.3446    4.4983    1.3696    3.5351    2.9987    2.4025   -0.0057    0.1937    2.4645    2.6597   27.0000 
5833.5000    7.8700   11.0570   33.0838   39.2928    1.3127    4.6526    1.3261    3.3937    2.8107    2.0194   -0.0093    0.1952    2.4584    2.6653   27.0000 
5834.0000    7.8700   11.0921   32.0499   38.9044    1.2638    4.5445    1.3303    3.2097    2.6706    1.5308   -0.0105    0.2097    2.4464    2.6747   27.0000 
5834.5000    7.8700   11.1128   31.5296   39.3564    1.2624    4.3803    1.3504    2.9317    2.4837    1.4348   -0.0079    0.1935    2.4349    2.6928   27.0000 
5835.0000    7.8700   11.1429   31.3441   39.9591    1.2702    4.2821    1.3499    2.9033    2.4722    1.7151   -0.0048    0.1940    2.4350    2.6985   36.0000 
5835.5000    7.8700   11.1627   31.7444   40.7927    1.2915    4.3128    1.4359    2.9295    2.4640    1.7143    0.0003    0.2169    2.4485    2.6734   27.0000 
5836.0000    7.8700   11.1678   31.3294   41.9276    1.2800    4.2307    1.5074    2.9131    2.4206    1.5738    0.0097    0.2121    2.4566    2.6199   27.0000 
5836.5000    7.8700   11.1645   30.8177   40.0696    1.2644    4.1362    1.5183    2.9739    2.3532    1.3816    0.0192    0.2040    2.4526    2.6342   27.0000 
5837.0000    7.8700   11.1200   30.2803   37.2271    1.2675    3.9451    1.5111    3.6079    2.7395    1.5002    0.0235    0.1873    2.4563    2.7219   36.0000 
5837.5000    7.8700   11.0365   29.7172   36.0821    1.2596    3.7972    1.4498    4.6572    3.5169    4.0269    0.0252    0.1688    2.5001    2.8599   36.0000 
5838.0000    7.8700   10.8559   31.7281   38.2081    1.3570    3.9966    1.4942    7.0908    5.2495   12.0799    0.0303    0.1231    2.5876    3.0832   36.0000 
5838.5000    7.8700   10.2724   38.1904   46.7391    1.6273    4.8391    1.7934   19.3299   16.3644   31.8432    0.0363    0.1160    2.6474    3.3318   37.0000 
5839.0000    7.8700    9.9172   47.6478   62.3040    2.0170    6.1006    2.1638   34.6323   26.0039   23.9646    0.0411    0.1312    2.6489    3.4495   37.0000 
5839.5000    7.8700    9.8657   56.1151   77.7082    2.3734    7.1943    2.5342   34.1101   24.3246   24.1681    0.0449    0.1515    2.6419    3.4387   37.0000 
5840.0000    7.8700    9.6780   58.2302   83.9590    2.4686    7.4384    2.7059   34.0678   24.2246   27.2114    0.0451    0.1448    2.6490    3.4095   37.0000 
5840.5000    7.8700    9.5593   54.2019   76.6504    2.3036    6.8964    2.5719   34.2719   26.0255   30.2417    0.0406    0.1215    2.6586    3.3203   37.0000 
5841.0000    7.8700    9.5439   48.3968   64.8721    2.0609    6.1388    2.3995   32.2343   24.7261   28.4273    0.0327    0.0947    2.6572    3.1738   36.0000 
5841.5000    7.8700    9.5417   42.5169   58.8020    1.8225    5.3362    2.1753   29.6427   22.3024   22.2335    0.0265    0.0709    2.6478    3.0153   36.0000 
5842.0000    7.8700    9.5344   40.2460   53.6359    1.7364    4.9976    2.0535   25.3124   19.6220   19.5034    0.0223    0.0685    2.6369    2.9251   36.0000 
5842.5000    7.8700    9.5352   39.4846   50.3482    1.7150    4.8488    1.9711   22.6096   17.7163   16.9827    0.0172    0.0684    2.6264    2.9930   36.0000 
5843.0000    7.8700    9.5344   40.3977   51.3492    1.7628    4.9224    1.9434   20.3228   16.5922   14.7235    0.0134    0.0711    2.6171    3.0177   36.0000 
5843.5000    7.8700    9.5277   40.1988   51.6472    1.7704    4.8206    1.9172   15.8783   13.5648   12.6173    0.0129    0.0827    2.6074    2.9062   36.0000 
5844.0000    7.8700    9.5299   38.7647   51.8045    1.7188    4.5936    1.8303   13.7379   11.6270    9.5791    0.0136    0.0875    2.5956    2.9063   36.0000 
5844.5000    7.8700    9.5253   38.1429   51.2220    1.6903    4.5248    1.7432   13.2581   11.2345    8.0489    0.0140    0.0850    2.5860    3.0314   36.0000 
5845.0000    7.8700    9.5322   37.3591   48.7276    1.6478    4.4686    1.6304   12.4635   11.1990    8.4719    0.0131    0.0820    2.5848    3.0665   36.0000 
5845.5000    7.8700    9.5386   36.9747   47.9308    1.6208    4.4701    1.5669   11.7963   10.8198    8.2571    0.0106    0.0793    2.5811    3.0625   36.0000 
5846.0000    7.8700    9.5414   36.9156   48.2254    1.6121    4.4920    1.5255   11.7814   10.7975    6.9909    0.0073    0.0835    2.5689    3.1154   36.0000 
5846.5000    7.8700    9.5500   37.5865   48.7109    1.6277    4.6385    1.5924   11.1657   10.2831    6.7739    0.0057    0.0904    2.5650    3.1237   36.0000 
5847.0000    7.8700    9.5709   39.2981   50.0468    1.6663    5.0185    1.7524   10.1339    9.3198    7.0312    0.0081    0.0939    2.5720    3.0939   36.0000 
5847.5000    7.8700    9.6030   40.0535   51.0813    1.6731    5.2348    1.9617   10.3863    9.2973    6.8911    0.0112    0.1027    2.5815    3.0922   36.0000 
5848.0000    7.8700    9.6182   40.0128   51.8716    1.6464    5.3481    2.1967   11.4963    9.9300    7.3527    0.0142    0.1109    2.5965    3.1177   36.0000 
5848.5000    7.8700    9.6443   38.0604   55.0890    1.5607    5.1127    2.3607   13.1892   11.3752    9.7849    0.0208    0.1093    2.6188    3.1489   36.0000 
5849.0000    7.8700    9.6762   37.9859   58.1960    1.5519    5.1301    2.6510   16.6731   14.3772   12.4002    0.0231    0.1093    2.6413    3.1306   36.0000 
5849.5000    7.8700    9.6769   39.6461   60.3222    1.5995    5.4500    3.0928   21.3839   17.9709   15.3892    0.0146    0.1110    2.6383    3.0854   36.0000 
5850.0000    7.8700    9.6795   43.1906   69.3183    1.7180    6.0536    3.7242   25.3442   20.6226   18.4406    0.0173    0.1277    2.6019    3.0574   36.0000 
5850.5000    7.8700    9.6754   48.7646   84.2304    1.8986    7.0301    4.4818   30.1932   24.1086   25.2092    0.0508    0.1517    2.5636    3.0779   37.0000 
5851.0000    7.8700    9.6225   51.6340   93.1494    1.9446    7.7561    5.0617   37.1349   30.2967   37.2976    0.0802    0.1760    2.5489    3.1787   37.0000 
5851.5000    7.8700    9.5972   49.7894   88.8874    1.8186    7.7472    5.0637   43.0327   34.7221   40.6046    0.0723    0.1877    2.5824    3.3182   37.0000 
5852.0000    7.8700    9.5275   45.3318   75.2310    1.6052    7.2939    4.8836   49.5145   39.2383   40.0891    0.0515    0.1907    2.6524    3.4421   37.0000 
5852.5000    7.8700    9.4607   39.9391   65.8934    1.3840    6.5696    4.5203   52.0107   42.0348   44.8155    0.0392    0.1686    2.6925    3.5235   37.0000 
5853.0000    7.8700    9.4727   38.0038   67.7781    1.3160    6.2557    4.6048   53.1196   42.7686   50.0293    0.0325    0.1745    2.6915    3.6585   37.0000 
5853.5000    7.8700    9.4621   38.6573   70.3126    1.3462    6.3273    4.9286   54.8166   44.8694   51.9339    0.0308    0.1821    2.6849    3.8879   37.0000 
5854.0000    7.8700    9.4673   39.4873   71.9263    1.3847    6.4178    5.3298   55.5497   44.9753   53.3550    0.0281    0.1593    2.6703    3.9788   37.0000 
5854.5000    7.8700    9.4607   39.0742   75.0031    1.3703    6.3501    5.5351   56.1415   46.1005   52.8429    0.0221    0.1498    2.6545    3.8136   37.0000 
