~VERSION INFORMATION
 VERS.                 2.0:   CWLS LOG ASCII STANDARD - VERSION 2.0
 WRAP.                  NO:   SINGLE LINE PER DEPTH STEP
 CREA.                 20/03/2018 14:52:55
#CREATED USING DSPetro VERSION 5000.10.1.3 BY H191660 ON 20/03/2018 14:52:55
~WELL INFORMATION
#MNEM.UNIT       DATA                          DESCRIPTION MNEMONIC
#---------      ---------------------------   --------------------------
 STRT    .FT        30.0000                   : START DEPTH
 STOP    .FT        11591.0000                : STOP DEPTH
 STEP    .FT        0.5000                    : STEP VALUE
 NULL    .      -999.0000                     : NULL VALUE
 DATE    .      20/03/2018                    : LAS file Creation Date
 WELL .      UNIVERSITY_20-18            : Well Name
 COMP .      Neftex Exploration Insights : Company
 FLD  .      WAR-WINK, S. (WOLFCAMP)     : Field
 UWI  .      210                         : Unique Well Identifier (UWI)
 LOC  .                                  : Location
 RWS  .      -999                        : Def_Rw
 WST  .      -999                        : Def_Rwt
 SRVC .                                  : Contractor
~CURVE INFORMATION
#MNEM              UNIT       API CODE   Curve Type Comments
#----------  --------------- ----------  ---------- -----------
 DEPTH      .FT                        : Depth       
 BS         .inch                      : BitSize     
 CAL_INCH   .inch                      :             Caliper Log - A representation of the measured diameter of a borehole along its depth
 CGR_API    .API                       : GammaRay    Corrected / Computed Gamma Ray - Radiation with the Uranium component removed. Also known as a 'carbonate gamma ray'
 GR2_API    .API                       :             Gamma Ray (API) - Measures the intensity of natural gamma-ray radiation emitted from formations containing radioactive elements, such as K, Th and U
 K_%        .PC                        :             Potassium Abundance (SGR) - The quantitative elemental abundace of Potassium derived from the Spectral Gamma Ray Log. Also wt_%
 TH_PPM     .ppm                       : Spectral    Thorium Abundance (SGR) - The quantitative elemental abundace of Thorium derived from the Spectral Gamma Ray Log
 U_PPM      .ppm                       :             Uranium Abundance (SGR) - The quantitative elemental abundace of Uranium derived from the Spectral Gamma Ray Log
 LLD_OHMM   .ohmm                      :             Laterlog Deep Resistivity - Measurement made several feet into the formation; generally considered a measurement of the undisturbed formation
 LLS_OHMM   .ohmm                      :             Laterlog Shallow Resistivity - one to two feet into the formation; generally considered to measure the formation
 MSFL_OHMM  .ohmm                      :             Micro-Spherically Focused Log - Measurement involves only the first few inches of the formation immediately adjacent to the borehole
 DRHO_G_CC  .g/cc                      :             Density Correction - Investigates the correction to the Bulk Density log; used as an indication of hole condition to validate the Bulk Density measure
 NPHI_RATIO .ratio                     :             Neutron Porosity - Measured with an neutron logging device calibrated to a given matrix (limestone, sandstone and dolomite)
 RHOB_G_CC  .g/cc                      :             Bulk Density - Measures the density of bulk material, including any void space or other materials contained in the subject volume
 PEF_B_E    .b/e-                      : PEF         Photoelectric Factor - A log of photoelectric absorption properties. Often expressed in an approximation unit barns/electron (b/e-)
 LITH       .                          : LITH        Lithology Curve
~A  DEPTH     BS     CAL_INCH  CGR_API   GR2_API     K_%      TH_PPM    U_PPM    LLD_OHMM  LLS_OHMM MSFL_OHM~ DRHO_G_C~ NPHI_RAT~ RHOB_G_C~  PEF_B_E     LITH   
# ...
6705.0000    7.8700   10.3157   45.6180   59.4181    2.0010    5.5090    3.0592    3.5567    2.5772    2.0159   -0.0036    0.1595    2.4485    2.4679   36.0000 
6705.5000    7.8700   10.2615   50.3475   63.6131    2.1786    6.2219    3.2639    4.9562    3.5016    3.6851    0.0005    0.1548    2.4839    2.5829   36.0000 
6706.0000    7.8700   10.1903   54.3915   68.9667    2.3244    6.8602    3.4077    8.0499    5.9710    7.0786    0.0087    0.1477    2.5066    2.7452   36.0000 
6706.5000    7.8700   10.0621   57.4012   75.4919    2.4079    7.4537    3.3766   10.5308    8.2450   10.4215    0.0202    0.1368    2.5186    2.8413   36.0000 
6707.0000    7.8700    9.9946   57.2260   78.5587    2.3689    7.5816    3.2632   10.9974    8.3755    7.7655    0.0331    0.1242    2.5429    2.8652   36.0000 
6707.5000    7.8700    9.9412   54.3200   73.9652    2.2411    7.2322    3.0534   11.4030    7.8508    5.1672    0.0365    0.1061    2.5615    2.9544   36.0000 
6708.0000    7.8700    9.8199   49.4671   65.5182    2.0440    6.5712    2.6673   12.2417    8.8743    7.4075    0.0345    0.0773    2.5854    3.1740   37.0000 
6708.5000    7.8700    9.6737   45.2461   56.8502    1.8725    5.9967    2.2898   12.9867   10.0588   12.4226    0.0332    0.0562    2.6295    3.4373   37.0000 
6709.0000    7.8700    9.6104   44.6871   56.0466    1.8356    5.9878    2.0737   13.9178   11.3013   10.9155    0.0232    0.0536    2.6361    3.4918   37.0000 
6709.5000    7.8700    9.5993   45.4537   60.8274    1.8675    6.0885    2.0576   12.8747   10.1001    5.9052    0.0142    0.0619    2.5995    3.2211   36.0000 
6710.0000    7.8700    9.6172   46.2089   60.8811    1.9028    6.1694    2.0326   11.0936    7.8058    5.0297    0.0149    0.0734    2.5818    2.9083   36.0000 
6710.5000    7.8700    9.6192   45.7273   59.4346    1.8839    6.1009    2.0114   13.0879    9.2626    5.5776    0.0160    0.0638    2.5867    2.8176   36.0000 
6711.0000    7.8700    9.6151   42.0564   55.8891    1.7182    5.6796    1.8870   16.0224   12.0835    9.0054    0.0158    0.0518    2.6041    2.9877   36.0000 
6711.5000    7.8700    9.5828   40.6427   51.5602    1.6254    5.6553    1.9127   20.6086   16.3704   13.1860    0.0147    0.0450    2.6320    3.2584   36.0000 
6712.0000    7.8700    9.5595   40.6131   51.9754    1.5886    5.8201    2.0667   28.8364   24.0154   14.2735    0.0108    0.0429    2.6351    3.3192   36.0000 
6712.5000    7.8700    9.6332   40.8207   56.5854    1.5775    5.9412    2.2672   26.2463   21.3132   14.1589    0.0052    0.0505    2.6154    3.1768   36.0000 
6713.0000    7.8700    9.7180   41.6770   58.1456    1.5973    6.1287    2.6104   23.3284   17.6939   15.1848    0.0006    0.0527    2.6040    3.0559   36.0000 
6713.5000    7.8700    9.7085   39.8326   55.8357    1.5230    5.8745    2.7833   26.0526   21.5361   18.0916    0.0005    0.0534    2.6083    3.0804   36.0000 
6714.0000    7.8700    9.7626   38.6675   56.9874    1.4751    5.7189    2.9962   25.4911   20.8382   17.6042    0.0003    0.0555    2.6245    3.2662   36.0000 
6714.5000    7.8700    9.6557   38.8058   62.9803    1.4806    5.7383    3.2140   25.0699   20.6867   15.1962   -0.0018    0.0614    2.6333    3.2592   36.0000 
6715.0000    7.8700    9.6322   41.4189   70.6609    1.5817    6.1177    3.4904   26.0345   20.9046   13.1121    0.0043    0.0748    2.6206    2.9371   36.0000 
6715.5000    7.8700    9.5766   47.6910   80.4406    1.8216    7.0427    4.1153   26.7391   19.6676   17.6987    0.0145    0.0897    2.6030    2.7869   36.0000 
6716.0000    7.8700    9.5568   55.2116   95.6843    2.1239    8.0818    5.0127   33.9751   25.9727   24.5959    0.0206    0.1101    2.5966    2.9383   36.0000 
6716.5000    7.8700    9.6104   64.9823  116.6127    2.5210    9.4113    6.1816   44.6381   35.0174   53.2186    0.0216    0.1401    2.5888    3.1875   37.0000 
6717.0000    7.8700    9.6287   71.4686  131.6888    2.8027   10.2079    7.0235   67.9352   54.2292   74.7733    0.0195    0.1730    2.5831    3.4541   37.0000 
6717.5000    7.8700    9.6888   75.2189  132.1276    2.9594   10.6977    7.4109  110.1040   95.4208   93.2874    0.0201    0.1812    2.5958    3.6950   37.0000 
6718.0000    7.8700    9.6789   74.5222  124.1059    2.9354   10.5823    7.3953  124.1759  100.4011   84.3584    0.0195    0.1671    2.6105    3.8729   37.0000 
6718.5000    7.8700    9.6751   71.8181  120.1385    2.8197   10.2423    7.3022  124.9286  102.2408   78.0277    0.0162    0.1616    2.6084    3.8343   37.0000 
6719.0000    7.8700    9.6898   70.5100  120.6003    2.7406   10.1874    7.3556  118.6078   96.2505   71.8252    0.0143    0.1612    2.5973    3.6211   37.0000 
6719.5000    7.8700    9.7026   67.1143  115.4845    2.5583    9.9356    7.0770   91.6812   74.7292   78.4441    0.0103    0.1687    2.5892    3.4465   37.0000 
6720.0000    7.8700    9.7075   63.6908  106.0263    2.3662    9.7211    6.6887   79.4011   64.3095   55.4180    0.0055    0.1525    2.5915    3.3322   37.0000 
6720.5000    7.8700    9.6902   57.6113   96.2600    2.0876    9.0437    6.0415   56.7173   47.6063   41.2274    0.0051    0.1309    2.5964    3.2234   37.0000 
6721.0000    7.8700    9.6796   51.6818   87.7258    1.8472    8.2340    5.4651   38.9223   30.0397   24.7847    0.0049    0.1286    2.5904    3.0605   37.0000 
6721.5000    7.8700    9.6919   45.7261   79.5866    1.6315    7.2987    4.8274   34.0666   24.4586   17.1422    0.0038    0.1100    2.5900    2.8932   36.0000 
6722.0000    7.8700    9.7035   40.3089   69.0873    1.4528    6.3645    4.2049   31.3669   23.5099   20.0674    0.0054    0.0847    2.6032    2.9037   36.0000 
6722.5000    7.8700    9.7232   37.2036   61.5107    1.3684    5.7437    3.8557   28.4896   21.3118   19.3511    0.0051    0.0803    2.6104    3.0841   36.0000 
6723.0000    7.8700    9.7629   37.7219   62.8902    1.4086    5.7234    3.8354   29.3029   21.6775   16.6835    0.0017    0.0843    2.6001    3.1417   36.0000 
6723.5000    7.8700    9.8108   42.6934   74.3404    1.6060    6.4216    4.1835   31.3066   21.8092   14.4417    0.0005    0.1039    2.5880    3.0683   37.0000 
6724.0000    7.8700    9.8538   50.1464   91.1039    1.8705    7.6183    4.7291   31.8309   22.6724   20.4784    0.0004    0.1158    2.5856    3.1272   37.0000 
6724.5000    7.8700    9.8892   56.5033  102.9223    2.0958    8.6400    5.0945   27.9756   21.5374   22.1290    0.0014    0.1290    2.5768    3.2326   37.0000 
6725.0000    7.8700    9.9337   58.0061  100.8935    2.1421    8.9145    5.1291   19.3114   14.8785   15.0425    0.0066    0.1451    2.5599    3.1486   37.0000 
6725.5000    7.8700    9.9855   54.4832   89.5236    2.0071    8.3968    4.7307   14.1017    9.1250    8.0328    0.0113    0.1326    2.5478    2.8664   36.0000 
6726.0000    7.8700   10.0253   47.4701   72.5826    1.7430    7.3430    3.9930   13.4569    8.2597    6.7329    0.0125    0.1153    2.5519    2.6412   36.0000 
6726.5000    7.8700   10.0716   39.4930   55.6583    1.4384    6.1646    3.1936   15.3598    9.4525    9.5804    0.0148    0.0877    2.5826    2.7136   36.0000 
6727.0000    7.8700   10.1358   33.3024   45.3296    1.2147    5.1899    2.6116   19.7050   13.1365   24.9581    0.0175    0.0589    2.6285    3.0299   36.0000 
6727.5000    7.8700   10.1874   30.3012   41.5093    1.1100    4.6997    2.3226   19.3817   18.4007   33.4501    0.0188    0.0479    2.6564    3.3368   27.0000 
6728.0000    7.8700   10.2863   30.8402   43.0093    1.1460    4.7059    2.2617    9.1767    6.9315   10.4060    0.0185    0.0621    2.6385    3.4075   27.0000 
6728.5000    7.8700   10.3959   32.9990   46.8795    1.2374    4.9822    2.3150    5.4710    3.6797    3.8005    0.0138    0.0962    2.5675    3.2275   27.0000 
6729.0000    7.8700   10.4951   36.4863   51.8146    1.3854    5.4268    2.3816    3.8713    2.5361    1.5478    0.0081    0.1448    2.4864    2.9169   27.0000 
6729.5000    7.8700   10.5538   39.4259   56.1937    1.5342    5.6876    2.4732    3.1308    2.0873    1.2914    0.0051    0.1727    2.4507    2.6395   36.0000 
