~VERSION INFORMATION
 VERS.                 2.0:   CWLS LOG ASCII STANDARD - VERSION 2.0
 WRAP.                  NO:   SINGLE LINE PER DEPTH STEP
 CREA.                 20/03/2018 14:52:55
#CREATED USING DSPetro VERSION 5000.10.1.3 BY H191660 ON 20/03/2018 14:52:55
~WELL INFORMATION
#MNEM.UNIT       DATA                          DESCRIPTION MNEMONIC
#---------      ---------------------------   --------------------------
 STRT    .FT        30.0000                   : START DEPTH
 STOP    .FT        11591.0000                : STOP DEPTH
 STEP    .FT        0.5000                    : STEP VALUE
 NULL    .      -999.0000                     : NULL VALUE
 DATE    .      20/03/2018                    : LAS file Creation Date
 WELL .      UNIVERSITY_20-18            : Well Name
 COMP .      Neftex Exploration Insights : Company
 FLD  .      WAR-WINK, S. (WOLFCAMP)     : Field
 UWI  .      210                         : Unique Well Identifier (UWI)
 LOC  .                                  : Location
 RWS  .      -999                        : Def_Rw
 WST  .      -999                        : Def_Rwt
 SRVC .                                  : Contractor
~CURVE INFORMATION
#MNEM              UNIT       API CODE   Curve Type Comments
#----------  --------------- ----------  ---------- -----------
 DEPTH      .FT                        : Depth       
 BS         .inch                      : BitSize     
 CAL_INCH   .inch                      :             Caliper Log - A representation of the measured diameter of a borehole along its depth
 CGR_API    .API                       : GammaRay    Corrected / Computed Gamma Ray - Radiation with the Uranium component removed. Also known as a 'carbonate gamma ray'
 GR2_API    .API                       :             Gamma Ray (API) - Measures the intensity of natural gamma-ray radiation emitted from formations containing radioactive elements, such as K, Th and U
 K_%        .PC                        :             Potassium Abundance (SGR) - The quantitative elemental abundace of Potassium derived from the Spectral Gamma Ray Log. Also wt_%
 TH_PPM     .ppm                       : Spectral    Thorium Abundance (SGR) - The quantitative elemental abundace of Thorium derived from the Spectral Gamma Ray Log
 U_PPM      .ppm                       :             Uranium Abundance (SGR) - The quantitative elemental abundace of Uranium derived from the Spectral Gamma Ray Log
 LLD_OHMM   .ohmm                      :             Laterlog Deep Resistivity - Measurement made several feet into the formation; generally considered a measurement of the undisturbed formation
 LLS_OHMM   .ohmm                      :             Laterlog Shallow Resistivity - one to two feet into the formation; generally considered to measure the formation
 MSFL_OHMM  .ohmm                      :             Micro-Spherically Focused Log - Measurement involves only the first few inches of the formation immediately adjacent to the borehole
 DRHO_G_CC  .g/cc                      :             Density Correction - Investigates the correction to the Bulk Density log; used as an indication of hole condition to validate the Bulk Density measure
 NPHI_RATIO .ratio                     :             Neutron Porosity - Measured with an neutron logging device calibrated to a given matrix (limestone, sandstone and dolomite)
 RHOB_G_CC  .g/cc                      :             Bulk Density - Measures the density of bulk material, including any void space or other materials contained in the subject volume
 PEF_B_E    .b/e-                      : PEF         Photoelectric Factor - A log of photoelectric absorption properties. Often expressed in an approximation unit barns/electron (b/e-)
 LITH       .                          : LITH        Lithology Curve
~A  DEPTH     BS     CAL_INCH  CGR_API   GR2_API     K_%      TH_PPM    U_PPM    LLD_OHMM  LLS_OHMM MSFL_OHM~ DRHO_G_C~ NPHI_RAT~ RHOB_G_C~  PEF_B_E     LITH   
# ...
8880.0000    7.8700    8.9957   20.8236   52.4840    0.7902    3.0989    3.5123  258.4164  174.8480   13.2626    0.0271    0.0854    2.5594    3.8059   18.0000 
8880.5000    7.8700    8.9351   21.9918   49.8125    0.8359    3.2660    3.8126  283.7185  196.1492   11.8659    0.0382    0.0786    2.5402    3.7429   18.0000 
8881.0000    7.8700    8.9263   23.1547   50.8204    0.8713    3.4804    4.1063  281.1203  185.6232   14.9564    0.0466    0.0780    2.5414    3.6677   18.0000 
8881.5000    7.8700    8.9092   24.2132   57.6233    0.8865    3.7565    4.3946  294.7662  199.9680    8.9507    0.0382    0.0822    2.5467    3.6842   18.0000 
8882.0000    7.8700    8.9055   23.8736   61.1420    0.8448    3.8428    4.4076  293.8631  192.6632    7.1264    0.0199    0.0876    2.5538    3.6927   18.0000 
8882.5000    7.8700    8.8984   22.0668   55.6413    0.7673    3.6166    4.1347  313.8563  212.6514   15.0285    0.0115    0.0707    2.5723    3.6896   18.0000 
8883.0000    7.8700    8.8977   20.8942   47.7102    0.7211    3.4500    3.8999  326.4728  248.2042   84.8702    0.0143    0.0545    2.5922    3.8131   18.0000 
8883.5000    7.8700    8.9016   20.4525   49.7489    0.7169    3.3247    3.8842  297.7500  212.6287   75.9143    0.0162    0.0617    2.5835    3.8961   18.0000 
8884.0000    7.8700    8.9022   21.2942   54.3891    0.7627    3.3842    4.1983  258.6897  177.2739   54.9202    0.0141    0.0774    2.5520    3.6902   18.0000 
8884.5000    7.8700    8.9145   21.3816   55.9494    0.7910    3.2785    4.3665  239.9970  158.7663   52.0123    0.0154    0.0904    2.5379    3.3592   37.0000 
8885.0000    7.8700    8.9127   21.6364   57.3990    0.8137    3.2547    4.4826  225.4484  151.5655   39.8960    0.0180    0.0896    2.5528    3.2295   27.0000 
8885.5000    7.8700    8.9057   21.8462   57.1011    0.8372    3.2122    4.5097  228.0498  158.4860   28.4617    0.0158    0.0782    2.5680    3.3086   27.0000 
8886.0000    7.8700    8.8946   22.2755   56.1703    0.8569    3.2597    4.5031  247.6745  173.1022   30.0753    0.0132    0.0797    2.5631    3.3815   18.0000 
8886.5000    7.8700    8.8752   21.8284   53.5253    0.8458    3.1652    4.4351  242.3150  168.1767   52.4895    0.0118    0.0861    2.5495    3.3958   18.0000 
8887.0000    7.8700    8.8719   20.2020   47.5324    0.7907    2.8920    4.1436  276.7095  188.5195  116.1576    0.0089    0.0911    2.5449    3.4199   18.0000 
8887.5000    7.8700    8.8685   17.9508   41.4692    0.6989    2.5869    3.6692  334.8925  254.0734  190.1384    0.0065    0.0810    2.5404    3.3725   27.0000 
8888.0000    7.8700    8.8756   16.3779   37.9939    0.6344    2.3759    3.4003  417.3376  334.8353  810.7179    0.0082    0.0740    2.5190    3.2764   27.0000 
8888.5000    7.8700    8.9588   16.3244   37.0967    0.6257    2.3995    3.4055  472.7290  441.1937  961.4812    0.0154    0.0681    2.5148    3.3853   27.0000 
8889.0000    7.8700    8.9357   18.4288   41.5364    0.7000    2.7393    3.8867  419.9634  395.5576  413.0210    0.0200    0.0818    2.5382    3.5290   18.0000 
8889.5000    7.8700    8.9641   22.3881   55.9931    0.8460    3.3485    4.7997  155.2862  148.4417  118.1532    0.0197    0.1315    2.5388    3.3692   37.0000 
8890.0000    7.8700    8.9646   27.7251   77.3097    1.0497    4.1371    5.8124   91.6808   66.2695   37.9238    0.0245    0.1884    2.5134    3.1190   37.0000 
8890.5000    7.8700    8.9733   32.5935   90.5577    1.2442    4.8155    6.5917   81.8104   55.7283   29.9201    0.0283    0.1927    2.4891    3.0152   37.0000 
8891.0000    7.8700    8.9670   33.9229   87.3505    1.3188    4.8985    6.6662   81.3442   54.6813   42.8421    0.0265    0.1803    2.4872    3.0312   37.0000 
8891.5000    7.8700    8.9467   31.4991   74.2867    1.2421    4.4654    5.9814   88.9382   60.3730  117.6181    0.0282    0.1514    2.5236    3.1657   37.0000 
8892.0000    7.8700    8.9433   27.8895   62.3746    1.1043    3.9321    5.1647  163.8970  128.6825  176.0284    0.0294    0.1058    2.5602    3.3283   37.0000 
8892.5000    7.8700    8.9547   25.3222   59.6021    1.0032    3.5672    4.5011  230.8585  179.1339  153.5543    0.0251    0.1031    2.5619    3.3292   37.0000 
8893.0000    7.8700    8.9803   24.9106   58.1021    0.9762    3.5604    4.1937  232.9177  172.4309  134.4790    0.0208    0.1146    2.5442    3.2195   37.0000 
8893.5000    7.8700    8.9996   25.4270   54.7744    0.9759    3.7313    4.0462  231.2256  169.2786  141.4727    0.0179    0.1135    2.5326    3.2631   37.0000 
8894.0000    7.8700    9.0362   27.1758   56.5288    1.0234    4.0814    4.0921  209.9354  165.8879  136.9942    0.0150    0.1171    2.5329    3.4203   37.0000 
8894.5000    7.8700    9.0689   30.3358   64.4972    1.1123    4.6985    4.2862  171.8717  116.3674   75.6490    0.0130    0.1262    2.5164    3.3488   37.0000 
8895.0000    7.8700    9.0981   35.0119   77.0555    1.2603    5.5342    4.7532  145.8042   95.4142   54.8565    0.0087    0.1710    2.4698    2.9606   37.0000 
8895.5000    7.8700    9.1367   40.3244   87.7893    1.4341    6.4567    5.2285  130.9933   85.0057   52.0124   -0.0017    0.1935    2.4163    2.6163   37.0000 
8896.0000    7.8700    9.1730   44.6197   92.9787    1.5643    7.2516    5.6900  123.7261   82.2165   45.0922    0.0108    0.1917    2.3806    2.6432   37.0000 
8896.5000    7.8700    9.2043   46.2709   93.5813    1.6186    7.5372    5.9417  122.7267   79.5564   42.1057    0.0704    0.2018    2.3747    2.8785   37.0000 
8897.0000    7.8700    9.2541   45.5509   86.3095    1.5640    7.5595    5.8204  118.0881   76.7677   36.4765    0.1337    0.2032    2.3871    3.0319   37.0000 
8897.5000    7.8700    9.3291   41.9925   77.4006    1.4306    7.0220    5.4023  117.8523   77.3327   12.7907    0.1509    0.1932    2.4214    3.1013   37.0000 
8898.0000    7.8700    9.3271   37.8964   75.0032    1.2914    6.3354    4.9533  125.8094   83.4086    5.6144    0.1239    0.1870    2.4597    3.1619   37.0000 
8898.5000    7.8700    9.3379   35.4436   73.4899    1.2153    5.8901    4.6244  133.5333   90.8822    6.7430    0.1019    0.1762    2.4762    3.1611   37.0000 
8899.0000    7.8700    9.3371   35.4728   71.3037    1.2143    5.9044    4.5868  133.2762   91.8798   15.3573    0.1167    0.1881    2.4924    3.0191   37.0000 
8899.5000    7.8700    9.3544   36.7984   71.5481    1.2528    6.1578    4.6734  123.6293   86.1728   17.1091    0.1361    0.1875    2.4714    2.8151   37.0000 
8900.0000    7.8700    9.4158   38.4048   74.0088    1.2999    6.4622    4.7758  108.4668   75.4192    2.4573    0.1344    0.2025    2.4049    2.7078   37.0000 
8900.5000    7.8700    9.4927   40.8202   76.7878    1.3649    6.9487    5.1034   81.8839   56.9438    0.8255    0.1069    0.2056    2.3823    2.7324   37.0000 
8901.0000    7.8700    9.5544   43.6859   82.5530    1.4419    7.5255    5.3824   59.5761   40.5100    3.2793    0.0661    0.2040    2.4168    2.8430   37.0000 
8901.5000    7.8700    9.5099   46.7289   86.8452    1.5373    8.0738    5.6992   50.5750   31.6257    7.6027    0.0448    0.1949    2.4664    2.9476   37.0000 
8902.0000    7.8700    9.4933   48.7258   87.2605    1.6087    8.3919    5.9077   48.1960   30.2478    7.3978    0.0295    0.1952    2.4921    2.9681   37.0000 
8902.5000    7.8700    9.4614   48.6881   88.1076    1.6206    8.3227    5.9015   45.4466   28.5526    3.6394    0.0117    0.2053    2.4811    2.9412   37.0000 
8903.0000    7.8700    9.4904   47.7967   90.5583    1.6109    8.0757    5.9915   47.7473   29.8459    4.8477    0.0106    0.2183    2.4705    2.9453   37.0000 
8903.5000    7.8700    9.4799   46.4185   93.7957    1.5815    7.7620    5.9253   56.7730   35.8685    4.4642    0.0138    0.2133    2.4719    2.9743   37.0000 
8904.0000    7.8700    9.4909   44.3205   92.1819    1.5379    7.2785    5.6335   60.6867   38.3203    3.6155    0.0142    0.2210    2.4717    2.9438   37.0000 
8904.5000    7.8700    9.4787   41.2082   85.6031    1.4533    6.6562    5.2570   66.6422   42.2106    2.4135    0.0149    0.1968    2.4670    2.9456   37.0000 
