~VERSION INFORMATION
 VERS.                 2.0:   CWLS LOG ASCII STANDARD - VERSION 2.0
 WRAP.                  NO:   SINGLE LINE PER DEPTH STEP
 CREA.                 04/06/2018 10:30:07
#CREATED USING DSPetro VERSION 5000.10.1.3 BY H191660 ON 04/06/2018 10:30:07
~WELL INFORMATION
#MNEM.UNIT       DATA                          DESCRIPTION MNEMONIC
#---------      ---------------------------   --------------------------
 STRT    .M         1867.0524                 : START DEPTH
 STOP    .M         3624.9864                 : STOP DEPTH
 STEP    .M         0.1524                    : STEP VALUE
 NULL    .      -999.0000                     : NULL VALUE
 DATE    .      04/06/2018                    : LAS file Creation Date
 WELL .      34_8_1                      : Well Name
 COMP .      Neftex Exploration Insights : Company
 FLD  .      VISUND                      : Field
 UWI  .      YNOWL_340801                : Unique Well Identifier (UWI)
 LOC  .                                  : Location
 RWS  .      -999                        : Def_Rw
 WST  .      -999                        : Def_Rwt
 SRVC .                                  : Contractor
~CURVE INFORMATION
#MNEM                UNIT       API CODE   Curve Type Comments
#----------    --------------- ----------  ---------- -----------
 DEPTH        .M                         : Depth       
 CAL_INCH     .inch                      :             Caliper Log - A representation of the measured diameter of a borehole along its depth
 GR_API       .API                       : GammaRay    Gamma Ray (API) - Measures the intensity of natural gamma-ray radiation emitted from formations containing radioactive elements, such as K, Th and U
 AC_US_FT     .us/ft                     :             Unspecified Acoustic log - No accroynm or method of attainment is specified
 RS_OHMM      .ohmm                      :             Unspecified Shallow Resistivity - No accroynm or method of attainment is specified
 RM_OHMM      .ohm.m                     :             Unspecified Medium Resistivity - No accroynm or method of attainment is specified
 RD_OHMM      .ohmm                      :             Unspecified Deep Resistivity - No accroynm or method of attainment is specified - units of ohmm
 NEUT_P_RATIO .ratio                     :             Unspecified Neutron Porosity Log - No accroynm or method of attainment is specified
 RHOB_G_CC    .g/cc                      :             Bulk Density - Measures the density of bulk material, including any void space or other materials contained in the subject volume
 LITH         .                          : LITH        Lithology Curve
~A  DEPTH  CAL_INCH   GR_API   AC_US_FT  RS_OHMM   RM_OHMM   RD_OHMM  NEUT_P_R~ RHOB_G_C~    LITH   
# ...
3025.2924   11.0301   99.8129   98.3264 -999.0000    2.3595    1.6882    0.3568    2.5052   37.0000 
3025.4448   11.0252   98.9068   98.1599 -999.0000    2.3412    1.7999    0.3421    2.4972   37.0000 
3025.5972   11.0073  106.6614   98.2431 -999.0000    2.2977    1.8310    0.3331    2.4959   37.0000 
3025.7496   10.9902  107.2872   98.7427 -999.0000    2.2977    1.8768    0.3214    2.5004   37.0000 
3025.9020   10.9902  110.1261   98.8260 -999.0000    2.2977    2.0010    0.2979    2.5073   37.0000 
3026.0544   10.9902  107.4800   98.8260 -999.0000    2.2977    1.9282    0.2958    2.5085   37.0000 
3026.2068   10.9902  105.2399   98.8260 -999.0000    2.2987    1.8801    0.2932    2.4991   37.0000 
3026.3592   10.9524  101.8768   98.8301 -999.0000    2.3043    1.8321    0.2912    2.4963   37.0000 
3026.5116   10.9197  106.1800  100.1582 -999.0000    2.1839    1.8057    0.3009    2.4916   37.0000 
3026.6640   10.9103  107.8633   99.1492 -999.0000    2.1380    1.7476    0.3082    2.4986   37.0000 
3026.8164   10.8974  110.6791   98.6185 -999.0000    2.1380    1.7476    0.3200    2.5209   37.0000 
3026.9688   10.8660  114.7298   98.0766 -999.0000    2.1888    1.7519    0.3275    2.5265   37.0000 
3027.1212   10.8457  116.6359   97.4105 -999.0000    2.2198    1.7782    0.3102    2.5268   37.0000 
3027.2736   10.8105  120.0653   97.6279 -999.0000    2.2428    1.8018    0.3047    2.5207   37.0000 
3027.4260   10.8105  114.2272   98.5100 -999.0000    2.3110    1.8101    0.2865    2.5089   37.0000 
3027.5784   10.7780  112.8790   99.2088 -999.0000    2.2648    1.8185    0.2941    2.5093   37.0000 
3027.7308   10.7280  107.8784  100.1909 -999.0000    2.2211    1.8195    0.2975    2.5176   37.0000 
3027.8832   10.6984  108.8071  100.4080 -999.0000    2.1943    1.8091    0.3066    2.5197   37.0000 
3028.0356   10.5906  109.5039  100.5154 -999.0000    2.1798    1.7513    0.3140    2.5194   37.0000 
3028.1880   10.7628  106.4386  101.0885 -999.0000    2.1753    1.7944    0.3197    2.4848   37.0000 
3028.3404   10.8647  104.7168  100.2609 -999.0000    2.1698    1.8143    0.3338    2.4858   37.0000 
3028.4928   11.0007   98.1294   99.7352 -999.0000    2.1671    1.8143    0.3480    2.4894   37.0000 
3028.6452   10.8431  101.3944   98.7978 -999.0000    2.1196    1.8645    0.3369    2.4955   37.0000 
3028.7976   10.7713  103.3021   97.8189 -999.0000    2.3078    1.9206    0.3347    2.5046   37.0000 
3028.9500   10.6283  108.8175   94.8293 -999.0000    2.4145    1.9250    0.3187    2.5137   37.0000 
3029.1024   10.5635  105.8897   94.8905 -999.0000    2.4523    1.9780    0.2952    2.5217   37.0000 
3029.2548   10.4823  103.9107   95.3562 -999.0000    2.5887    1.9895    0.2910    2.5279   37.0000 
3029.4072   10.3809  104.4014   95.8922 -999.0000    2.7023    2.0671    0.2890    2.5334   37.0000 
3029.5596   10.3117  100.1619   97.7852 -999.0000    2.6062    2.0969    0.3013    2.5380   37.0000 
3029.7120   10.2607  105.7871   97.1426 -999.0000    2.5850    2.2324    0.3275    2.5413   37.0000 
3029.8644   10.1668  102.7840   96.4113 -999.0000    2.5487    2.2260    0.3236    2.5395   37.0000 
3030.0168   10.0406  100.6625   96.3281 -999.0000    2.6357    2.2059    0.3190    2.5376   37.0000 
3030.1692    9.9867  100.2006   96.3281 -999.0000    2.6563    2.1945    0.3243    2.5364   37.0000 
3030.3216    9.9329  102.7797   96.4918 -999.0000    2.7788    2.1690    0.3272    2.5355   37.0000 
3030.4740    9.8618  105.8818   96.7508 -999.0000    2.7604    2.1633    0.3348    2.5355   37.0000 
3030.6264    9.8358  105.8416   96.9109 -999.0000    2.7182    2.1942    0.3281    2.5355   37.0000 
3030.7788    9.7649  105.9025   95.5347 -999.0000    2.6618    2.2141    0.3223    2.5361   37.0000 
3030.9312    9.6640  114.1325   94.3534 -999.0000    2.6092    2.2251    0.2977    2.5375   37.0000 
3031.0836    9.5929  110.2882   93.8301 -999.0000    2.6942    2.2167    0.2912    2.5384   37.0000 
3031.2360    9.5499  107.8728   95.0866 -999.0000    2.7418    2.1747    0.3075    2.5343   37.0000 
3031.3884    9.4810  108.3847   95.5787 -999.0000    2.8199    2.1403    0.3157    2.5311   37.0000 
3031.5408    9.3883  108.9459   95.4954 -999.0000    2.8074    2.1319    0.3255    2.5305   37.0000 
3031.6932    9.3704  110.1647   95.2456 -999.0000    2.6764    2.0975    0.3120    2.5309   37.0000 
3031.8456    9.3525  104.1527   95.0791 -999.0000    2.5455    1.9952    0.3043    2.5309   37.0000 
3031.9980    9.3177   98.6962   95.5787 -999.0000    2.4549    1.9667    0.3040    2.5309   37.0000 
3032.1504    9.3114  106.5715   97.2112 -999.0000    2.4046    1.9554    0.3109    2.5298   37.0000 
3032.3028    9.3115  112.5091   98.4097 -999.0000    2.2196    1.9319    0.3162    2.5266   37.0000 
3032.4552    9.3329  117.0808   98.4097 -999.0000    2.2005    1.9053    0.3230    2.5239   37.0000 
3032.6076    9.3602  117.2595   98.0954 -999.0000    2.3471    1.8988    0.3250    2.5240   37.0000 
3032.7600    9.3716  103.4472   97.8276 -999.0000    2.3648    1.8944    0.3183    2.5292   37.0000 
3032.9124    9.3991  105.9760   97.6443 -999.0000    2.4774    1.8987    0.3193    2.5430   37.0000 
3033.0648    9.4942  108.3429   97.5284 -999.0000    2.5280    1.9086    0.3203    2.5308   37.0000 
3033.2172    9.5126  108.0496   97.4105 -999.0000    2.4835    1.9122    0.3069    2.5273   37.0000 
3033.3696    9.5486  107.7656   97.4401 -999.0000    2.4748    1.8944    0.2958    2.5215   37.0000 
3033.5220    9.6173  106.4169   97.9891 -999.0000    2.3866    1.8944    0.3162    2.5185   37.0000 
3033.6744    9.6461  115.2936   99.1209 -999.0000    2.3612    1.8848    0.3356    2.5132   37.0000 
3033.8268    9.6641  114.5212   99.4808 -999.0000    2.2324    1.8835    0.3380    2.5092   37.0000 
3033.9792    9.6513  112.9019   99.0376 -999.0000    2.2371    1.8615    0.3219    2.5081   37.0000 
3034.1316    9.6236  117.2614   98.4391 -999.0000    2.2997    1.8451    0.3190    2.5080   37.0000 
3034.2840    9.6119  105.5958   98.1599 -999.0000    2.3768    1.8406    0.3343    2.5092   37.0000 
3034.4364    9.6078  107.2753   98.6612 -999.0000    2.4339    1.8326    0.3328    2.5291   37.0000 
3034.5888    9.5919  109.0415  100.6005 -999.0000    2.3103    1.8195    0.3310    2.5288   37.0000 
3034.7412    9.5920  110.1998  101.6646 -999.0000    2.2797    1.8213    0.3608    2.5277   37.0000 
3034.8936    9.6099  111.1373  102.5033 -999.0000    2.2205    1.8300    0.3485    2.5266   37.0000 
3035.0460    9.6279   97.0011  103.1557 -999.0000    2.1526    1.8619    0.3425    2.5263   37.0000 
3035.1984    9.6459   95.7567  100.5166 -999.0000    2.0804    1.8118    0.3360    2.5421   37.0000 
3035.3508    9.6166   94.4673   98.7455 -999.0000    2.2412    1.7830    0.3493    2.5573   37.0000 
3035.5032    9.5726   92.8340   97.4664 -999.0000    2.2911    1.7781    0.3469    2.5762   37.0000 
3035.6556    9.5444   91.8257   95.4739 -999.0000    2.4330    1.7845    0.3338    2.5905   37.0000 
3035.8080    9.5208   96.1456   95.1685 -999.0000    2.3497    1.8448    0.3628    2.6017   37.0000 
3035.9604    9.4886   97.2011   94.9958 -999.0000    2.2019    1.9019    0.3491    2.6324   22.0000 
3036.1128    9.4722  101.3690   94.2465 -999.0000    2.0219    1.9843    0.3419    2.6385   22.0000 
3036.2652    9.4723  100.9943   93.0017 -999.0000    2.0950    2.0334    0.2996    2.6414   22.0000 
3036.4176    9.5073  100.7955   91.1468 -999.0000    2.2800    2.1236    0.2818    2.5814   22.0000 
3036.5700    9.5278   94.9206   90.8326 -999.0000    2.4596    2.2831    0.2633    2.5388   37.0000 
3036.7224    9.5457   99.9722   90.4163 -999.0000    3.4990    2.3482    0.2600    2.5278   37.0000 
3036.8748    9.5978   89.9211   90.1659 -999.0000    3.5066    2.5070    0.2558    2.5213   37.0000 
3037.0272    9.6510   90.1713   89.7584 -999.0000    3.5091    2.6547    0.2586    2.5166   37.0000 
3037.1796    9.6870   90.4184   89.5837 -999.0000    3.3439    2.8534    0.2608    2.5126   37.0000 
3037.3320    9.7229   95.4217   89.2858 -999.0000    3.3863    2.9183    0.2626    2.5126   37.0000 
