~VERSION INFORMATION
 VERS.                 2.0:   CWLS LOG ASCII STANDARD - VERSION 2.0
 WRAP.                  NO:   SINGLE LINE PER DEPTH STEP
 CREA.                 04/06/2018 10:30:07
#CREATED USING DSPetro VERSION 5000.10.1.3 BY H191660 ON 04/06/2018 10:30:07
~WELL INFORMATION
#MNEM.UNIT       DATA                          DESCRIPTION MNEMONIC
#---------      ---------------------------   --------------------------
 STRT    .M         1867.0524                 : START DEPTH
 STOP    .M         3624.9864                 : STOP DEPTH
 STEP    .M         0.1524                    : STEP VALUE
 NULL    .      -999.0000                     : NULL VALUE
 DATE    .      04/06/2018                    : LAS file Creation Date
 WELL .      34_8_1                      : Well Name
 COMP .      Neftex Exploration Insights : Company
 FLD  .      VISUND                      : Field
 UWI  .      YNOWL_340801                : Unique Well Identifier (UWI)
 LOC  .                                  : Location
 RWS  .      -999                        : Def_Rw
 WST  .      -999                        : Def_Rwt
 SRVC .                                  : Contractor
~CURVE INFORMATION
#MNEM                UNIT       API CODE   Curve Type Comments
#----------    --------------- ----------  ---------- -----------
 DEPTH        .M                         : Depth       
 CAL_INCH     .inch                      :             Caliper Log - A representation of the measured diameter of a borehole along its depth
 GR_API       .API                       : GammaRay    Gamma Ray (API) - Measures the intensity of natural gamma-ray radiation emitted from formations containing radioactive elements, such as K, Th and U
 AC_US_FT     .us/ft                     :             Unspecified Acoustic log - No accroynm or method of attainment is specified
 RS_OHMM      .ohmm                      :             Unspecified Shallow Resistivity - No accroynm or method of attainment is specified
 RM_OHMM      .ohm.m                     :             Unspecified Medium Resistivity - No accroynm or method of attainment is specified
 RD_OHMM      .ohmm                      :             Unspecified Deep Resistivity - No accroynm or method of attainment is specified - units of ohmm
 NEUT_P_RATIO .ratio                     :             Unspecified Neutron Porosity Log - No accroynm or method of attainment is specified
 RHOB_G_CC    .g/cc                      :             Bulk Density - Measures the density of bulk material, including any void space or other materials contained in the subject volume
 LITH         .                          : LITH        Lithology Curve
~A  DEPTH  CAL_INCH   GR_API   AC_US_FT  RS_OHMM   RM_OHMM   RD_OHMM  NEUT_P_R~ RHOB_G_C~    LITH   
# ...
2098.7004   13.8584   77.8734  114.5368 -999.0000    1.6564    1.5765    0.3353    2.2817   37.0000 
2098.8528   14.1109   80.8989  115.4922 -999.0000    1.6728    1.6001    0.3317    2.2858   37.0000 
2099.0052   13.9926   81.7108  116.7774 -999.0000    1.7050    1.4764    0.3288    2.2893   37.0000 
2099.1576   13.7398   83.2539  117.5229 -999.0000    1.7426    1.4943    0.3214    2.2934   37.0000 
2099.3100   13.6371   84.2491  117.7731 -999.0000    1.7453    1.5072    0.3361    2.2934   37.0000 
2099.4624   13.7412   84.9080  117.8566 -999.0000    1.5909    1.5237    0.3276    2.2934   37.0000 
2099.6148   13.9479   86.2496  118.1068 -999.0000    1.5909    1.4220    0.3183    2.3207   37.0000 
2099.7672   14.1657   82.6981  117.9399 -999.0000    1.5909    1.4261    0.3212    2.3200   37.0000 
2099.9196   14.5253   80.6152  118.3239 -999.0000    1.5909    1.4369    0.3348    2.3177   37.0000 
2100.0720   15.0870   80.2778  118.7740 -999.0000    1.5910    1.4535    0.3270    2.3104   37.0000 
2100.2244   15.1431   77.8714  116.4368 -999.0000    1.5910    1.5467    0.3261    2.3079   37.0000 
2100.3768   15.2292   73.6250  114.9797 -999.0000    1.5691    1.5220    0.3261    2.3195   37.0000 
2100.5292   15.1631   74.1302  113.7655 -999.0000    1.5547    1.5019    0.3261    2.3437   37.0000 
2100.6816   14.9399   76.1615  111.6017 -999.0000    2.0591    1.4902    0.3191    2.3526   37.0000 
2100.8340   14.8304   78.4371  113.5592 -999.0000    2.0542    1.4839    0.3156    2.3148   37.0000 
2100.9864   14.8404   79.7927  115.1968 -999.0000    1.8561    1.4763    0.3036    2.3061   37.0000 
2101.1388   15.1561   85.0000  117.3569 -999.0000    1.7905    1.5212    0.3170    2.3054   37.0000 
2101.2912   15.4080   82.9141  116.1893 -999.0000    1.6326    1.5371    0.3278    2.3059   37.0000 
2101.4436   15.6243   82.3604  116.1894 -999.0000    1.5864    1.5613    0.3363    2.3074   37.0000 
2101.5960   15.7855   82.0224  114.8108 -999.0000    1.6838    1.5710    0.3608    2.3207   37.0000 
2101.7484   15.9010   80.3164  113.5207 -999.0000    1.7740    1.5728    0.3321    2.3246   37.0000 
2101.9008   15.9645   79.3497  112.6033 -999.0000    1.8725    1.5564    0.3197    2.3285   37.0000 
2102.0532   16.0166   79.3668  113.4651 -999.0000    2.0030    1.5459    0.3075    2.3334   37.0000 
2102.2056   15.4745   78.2500  115.2208 -999.0000    1.9599    1.5314    0.2794    2.3337   37.0000 
2102.3580   15.0150   81.1451  116.6318 -999.0000    1.8294    1.5053    0.3011    2.3235   37.0000 
2102.5104   15.0050   82.3750  117.0161 -999.0000    1.7150    1.4916    0.3086    2.3179   37.0000 
2102.6628   15.0200   78.8112  117.0242 -999.0000    1.6058    1.4848    0.3195    2.3152   37.0000 
2102.8152   15.0861   76.0284  116.5880 -999.0000    1.5593    1.4851    0.3374    2.3116   37.0000 
2102.9676   15.1150   72.1250  116.0700 -999.0000    1.5832    1.5005    0.3451    2.3131   37.0000 
2103.1200   14.8850   74.1483  115.0244 -999.0000    1.7518    1.5162    0.3623    2.3286   37.0000 
2103.2724   14.7354   74.7852  114.5281 -999.0000    1.7720    1.5320    0.3532    2.3354   37.0000 
2103.4248   14.7224   76.6745  114.0414 -999.0000    1.8666    1.5425    0.3494    2.3474   37.0000 
2103.5772   14.7050   80.0852  114.4755 -999.0000    1.9546    1.5505    0.3460    2.3336   37.0000 
2103.7296   14.0524   79.1761  115.1486 -999.0000    1.8878    1.5548    0.3449    2.3300   37.0000 
2103.8820   14.4015   77.6250  115.8873 -999.0000    1.8208    1.5836    0.3411    2.3281   37.0000 
2104.0344   14.3559   77.6250  116.4413 -999.0000    1.7875    1.5504    0.3452    2.3266   37.0000 
2104.1868   14.2838   81.7435  116.5248 -999.0000    1.6810    1.5261    0.3467    2.3255   37.0000 
2104.3392   14.3116   84.5000  115.8576 -999.0000    1.6325    1.5017    0.3463    2.3206   37.0000 
2104.4916   14.4559   81.2500  115.3754 -999.0000    1.6328    1.4934    0.3604    2.3131   37.0000 
2104.6440   14.7288   81.2500  116.4560 -999.0000    1.6389    1.4274    0.3730    2.2915   37.0000 
2104.7964   14.7152   77.5000  118.6103 -999.0000    1.6467    1.4463    0.3778    2.2867   37.0000 
2104.9488   14.6232   84.2563  119.1109 -999.0000    1.6517    1.4615    0.3788    2.2860   37.0000 
2105.1012   14.5031   86.8394  119.4624 -999.0000    1.6613    1.4723    0.3671    2.2859   37.0000 
2105.2536   14.4470   94.3750  117.1927 -999.0000    1.6839    1.4764    0.3574    2.2891   37.0000 
2105.4060   14.3969   85.4220  116.9426 -999.0000    1.7162    1.4764    0.3497    2.3106   37.0000 
2105.5584   14.3550   83.9026  116.8593 -999.0000    1.7396    1.4726    0.3322    2.3183   37.0000 
2105.7108   14.3774   75.5000  116.8594 -999.0000    1.7396    1.4563    0.3340    2.3167   37.0000 
2105.8632   14.4639   76.1795  116.8595 -999.0000    1.7386    1.4345    0.3407    2.3136   37.0000 
2106.0156   14.5833   78.2587  117.6621 -999.0000    1.6848    1.4345    0.3304    2.3129   37.0000 
2106.1680   14.6250   79.7235  119.0283 -999.0000    1.6332    1.4277    0.3179    2.3188   37.0000 
2106.3204   14.6350   81.0778  118.6894 -999.0000    1.5379    1.4203    0.3502    2.3250   37.0000 
2106.4728   14.5956   82.8232  117.6382 -999.0000    1.5108    1.4181    0.3629    2.3242   37.0000 
2106.6252   14.4637   83.8521  116.3369 -999.0000    1.5836    1.4224    0.4015    2.3231   37.0000 
2106.7776   14.3064   85.8750  116.3494 -999.0000    1.6731    1.4334    0.3945    2.3220   37.0000 
2106.9300   14.4216   81.5750  116.7970 -999.0000    1.7099    1.4483    0.3870    2.3216   37.0000 
2107.0824   14.5331   76.4462  116.8603 -999.0000    1.7000    1.4595    0.3816    2.3221   37.0000 
2107.2348   14.6853   77.2500  115.4424 -999.0000    1.6780    1.4640    0.3733    2.3245   37.0000 
2107.3872   14.7780   79.1099  115.7053 -999.0000    1.6709    1.4932    0.3705    2.3536   37.0000 
2107.5396   15.1350   79.6169  115.9431 -999.0000    1.6939    1.4855    0.3570    2.3582   37.0000 
2107.6920   14.6850   84.7500  116.7772 -999.0000    1.8446    1.4850    0.3406    2.3563   37.0000 
2107.8444   14.4526   78.8750  117.0276 -999.0000    1.7864    1.4850    0.3424    2.3530   37.0000 
2107.9968   14.2633   83.7493  116.1406 -999.0000    1.6514    1.5070    0.3477    2.3504   37.0000 
2108.1492   14.1935   86.5000  113.9977 -999.0000    1.5671    1.5290    0.3591    2.3418   37.0000 
2108.3016   14.1550   87.3750  112.9580 -999.0000    1.5350    1.5410    0.3628    2.3512   37.0000 
2108.4540   14.1550   78.1747  111.7286 -999.0000    1.5632    1.5551    0.3472    2.3666   37.0000 
2108.6064   14.1550   76.1863  110.5941 -999.0000    1.9682    1.5958    0.3431    2.3897   37.0000 
2108.7588   14.0377   73.2658  108.7290 -999.0000    2.1288    1.5912    0.3352    2.4052   37.0000 
2108.9112   13.9416   70.3451  108.7290 -999.0000    2.1839    1.5591    0.3183    2.4052   37.0000 
2109.0636   13.9056   67.3750  109.6010 -999.0000    2.0483    1.5491    0.3034    2.4052   37.0000 
2109.2160   13.8950   74.5284  110.7310 -999.0000    1.7128    1.5356    0.3104    2.3665   37.0000 
2109.3684   14.2597   76.5567  117.0702 -999.0000    1.6333    1.5240    0.3206    2.3409   37.0000 
2109.5208   14.6026   83.1250  116.7367 -999.0000    1.5480    1.5040    0.3315    2.3362   37.0000 
2109.6732   14.8042   82.3538  116.5700 -999.0000    1.5145    1.4885    0.3396    2.3300   37.0000 
2109.8256   15.2250   75.0000  118.1296 -999.0000    1.6517    1.4765    0.3475    2.3170   37.0000 
2109.9780   15.2250   75.9450  118.0094 -999.0000    1.7039    1.4781    0.3581    2.3138   37.0000 
2110.1304   15.2250   76.8553  116.4452 -999.0000    1.7371    1.5064    0.3656    2.3192   37.0000 
2110.2828   15.2250   77.8750  115.7891 -999.0000    1.7946    1.5363    0.3575    2.3287   37.0000 
2110.4352   15.6969   78.1250  114.8429 -999.0000    1.8716    1.5830    0.3506    2.3366   37.0000 
2110.5876   16.0649   77.9372  114.6927 -999.0000    1.9163    1.5995    0.3393    2.3592   37.0000 
2110.7400   15.9421   74.0000  114.2768 -999.0000    1.9792    1.5785    0.3344    2.3639   37.0000 
