~VERSION INFORMATION
 VERS.                 2.0:   CWLS LOG ASCII STANDARD - VERSION 2.0
 WRAP.                  NO:   SINGLE LINE PER DEPTH STEP
 CREA.                 04/06/2018 10:30:07
#CREATED USING DSPetro VERSION 5000.10.1.3 BY H191660 ON 04/06/2018 10:30:07
~WELL INFORMATION
#MNEM.UNIT       DATA                          DESCRIPTION MNEMONIC
#---------      ---------------------------   --------------------------
 STRT    .M         1867.0524                 : START DEPTH
 STOP    .M         3624.9864                 : STOP DEPTH
 STEP    .M         0.1524                    : STEP VALUE
 NULL    .      -999.0000                     : NULL VALUE
 DATE    .      04/06/2018                    : LAS file Creation Date
 WELL .      34_8_1                      : Well Name
 COMP .      Neftex Exploration Insights : Company
 FLD  .      VISUND                      : Field
 UWI  .      YNOWL_340801                : Unique Well Identifier (UWI)
 LOC  .                                  : Location
 RWS  .      -999                        : Def_Rw
 WST  .      -999                        : Def_Rwt
 SRVC .                                  : Contractor
~CURVE INFORMATION
#MNEM                UNIT       API CODE   Curve Type Comments
#----------    --------------- ----------  ---------- -----------
 DEPTH        .M                         : Depth       
 CAL_INCH     .inch                      :             Caliper Log - A representation of the measured diameter of a borehole along its depth
 GR_API       .API                       : GammaRay    Gamma Ray (API) - Measures the intensity of natural gamma-ray radiation emitted from formations containing radioactive elements, such as K, Th and U
 AC_US_FT     .us/ft                     :             Unspecified Acoustic log - No accroynm or method of attainment is specified
 RS_OHMM      .ohmm                      :             Unspecified Shallow Resistivity - No accroynm or method of attainment is specified
 RM_OHMM      .ohm.m                     :             Unspecified Medium Resistivity - No accroynm or method of attainment is specified
 RD_OHMM      .ohmm                      :             Unspecified Deep Resistivity - No accroynm or method of attainment is specified - units of ohmm
 NEUT_P_RATIO .ratio                     :             Unspecified Neutron Porosity Log - No accroynm or method of attainment is specified
 RHOB_G_CC    .g/cc                      :             Bulk Density - Measures the density of bulk material, including any void space or other materials contained in the subject volume
 LITH         .                          : LITH        Lithology Curve
~A  DEPTH  CAL_INCH   GR_API   AC_US_FT  RS_OHMM   RM_OHMM   RD_OHMM  NEUT_P_R~ RHOB_G_C~    LITH   
# ...
2452.2684   16.3539   66.8740  107.4750    0.2207    1.7729    1.7208    0.2644    2.3635   11.0000 
2452.4208   16.4686   66.4304  107.0615    0.2158    1.7729    1.7179    0.2624    2.3627   11.0000 
2452.5732   16.6344   65.0189  106.7085    0.2112    1.7781    1.7135    0.2670    2.3627   11.0000 
2452.7256   14.7254   66.2760  106.8110    0.2074    1.7882    1.7078    0.2734    2.3668   11.0000 
2452.8780   14.5315   66.4714  107.0691    0.2035    1.9003    1.7593    0.2750    2.3702   11.0000 
2453.0304   14.1846   64.1480  107.0691    0.2026    1.9261    1.7781    0.2796    2.3660   11.0000 
2453.1828   14.2297   64.1965  107.0382    0.2030    1.9330    1.7877    0.2757    2.3648   11.0000 
2453.3352   14.3000   64.8737  106.8883    0.2037    1.9330    1.8309    0.2727    2.3670   37.0000 
2453.4876   14.3247   71.5654  106.7383    0.2055    1.9330    1.8405    0.2704    2.3677   37.0000 
2453.6400   11.7842   71.7215  106.5883    0.2498    1.9416    1.8500    0.2654    2.3596   37.0000 
2453.7924   11.7337   65.8900  106.5375    0.2680    1.9732    1.8597    0.2690    2.3556   37.0000 
2453.9448   11.6877   66.2586  106.4497    0.3028    2.0111    1.8472    0.2719    2.3544   37.0000 
2454.0972   11.6653   67.5509  106.3276    0.3110    2.0242    1.8406    0.2738    2.3535   37.0000 
2454.2496   11.6557   69.5958  106.0765    0.5134    2.0413    1.8354    0.2749    2.3531   37.0000 
2454.4020   11.6553   72.6934  106.4604    0.5530    2.0417    1.8300    0.2749    2.3534   37.0000 
2454.5544   11.6553   73.1473  107.0482    0.3951    2.0324    1.8270    0.2833    2.3547   37.0000 
2454.7068   11.6641   74.3131  107.5494    0.3799    2.0197    1.8135    0.2864    2.3639   37.0000 
2454.8592   11.6753   71.1785  107.5687    0.3548    2.0028    1.7846    0.2941    2.3660   37.0000 
2455.0116   11.6753   69.4798  107.5687    0.3262    1.9668    1.7479    0.2946    2.3681   37.0000 
2455.1640   11.6295   66.5191  107.5687    0.3090    1.9465    1.7386    0.2894    2.3723   37.0000 
2455.3164   11.5935   65.4767  107.5687    0.2939    1.9209    1.7139    0.2595    2.3761   36.0000 
2455.4688   11.5575   69.5438  107.8511    0.2649    1.8913    1.6674    0.2606    2.3776   37.0000 
2455.6212   11.5254   73.5524  108.0011    0.2734    1.8599    1.6441    0.2622    2.3781   37.0000 
2455.7736   11.5254   75.6557  108.3166    0.2871    1.8406    1.6217    0.2654    2.3773   37.0000 
2455.9260   11.5224   72.1203  108.6341    0.3198    1.8232    1.5884    0.2766    2.3721   37.0000 
2456.0784   11.5041   69.3251  108.8337    0.2938    1.8133    1.5637    0.2764    2.3693   37.0000 
2456.2308   11.4775   69.8200  109.2000    0.2820    1.7966    1.5521    0.2757    2.3701   37.0000 
2456.3832   11.4255   70.4057  109.7336    0.2686    1.7873    1.5281    0.2750    2.3758   37.0000 
2456.5356   11.3955   69.9729  110.1499    0.2879    1.7501    1.5045    0.2736    2.3765   37.0000 
2456.6880   11.3775   68.6339  110.0831    0.3324    1.7426    1.4967    0.2844    2.3762   37.0000 
2456.8404   11.3645   68.1932  109.7823    0.3566    1.7426    1.4958    0.2954    2.3752   37.0000 
2456.9928   11.3555   69.8480  109.4163    0.4003    1.7426    1.4838    0.2883    2.3746   37.0000 
2457.1452   11.3456   68.2978  109.0331    0.4949    1.7426    1.4787    0.2829    2.3744   37.0000 
2457.2976   11.3356   67.6590  108.9842    0.3364    1.7577    1.4830    0.2801    2.3765   37.0000 
2457.4500   11.3356   66.3159  110.4511    0.2900    1.7577    1.4907    0.2822    2.3802   37.0000 
2457.6024   11.3356   65.0396  110.5662    0.2984    1.7546    1.4985    0.2837    2.3850   37.0000 
2457.7548   11.3356   67.4566  110.2968    0.3080    1.7455    1.5063    0.2853    2.3869   37.0000 
2457.9072   11.3377   68.5356  109.8114    0.3349    1.7376    1.5160    0.2770    2.3863   37.0000 
2458.0596   11.3658   70.9721  109.0650    0.3566    1.7378    1.5396    0.2693    2.3797   36.0000 
2458.2120   11.4018   70.9524  108.7651    0.4032    1.7651    1.5476    0.2519    2.3752   36.0000 
2458.3644   11.4378   70.8050  107.9265    0.4526    1.7678    1.5557    0.2549    2.3744   36.0000 
2458.5168   11.4646   70.4929  107.1446    0.4236    1.7751    1.5831    0.2589    2.3755   37.0000 
2458.6692   11.4798   69.9005  106.6994    0.4177    1.7781    1.5993    0.2721    2.3827   37.0000 
2458.8216   11.5058   69.5956  105.9867    0.4151    1.7886    1.6356    0.2837    2.3948   37.0000 
2458.9740   11.5154   73.2123  106.0404    0.4017    1.8566    1.5991    0.2852    2.3971   37.0000 
2459.1264   11.5154   75.7182  107.2563    0.4178    1.8455    1.5908    0.2926    2.3987   37.0000 
2459.2788   11.5154   75.7182  107.1648    0.4187    1.8361    1.5807    0.2867    2.3994   37.0000 
2459.4312   11.5154   75.0712  106.6528    0.4041    1.8171    1.5716    0.2842    2.3975   37.0000 
2459.5836   11.5154   74.2695  107.5734    0.3987    1.7929    1.6123    0.2824    2.3952   37.0000 
2459.7360   11.5154   72.7845  108.3739    0.3976    1.7678    1.6207    0.2809    2.3933   37.0000 
2459.8884   11.5154   64.0865  108.1297    0.4093    1.8052    1.6368    0.2814    2.3914   37.0000 
2460.0408   11.5154   63.7366  107.7465    0.4328    1.8938    1.6746    0.2790    2.3899   37.0000 
2460.1932   11.5254   62.5060  107.9212    0.4480    2.0958    1.6882    0.2766    2.3898   37.0000 
2460.3456   11.5661   62.0442  108.2348    0.4552    2.0614    1.6983    0.2751    2.3919   37.0000 
2460.4980   11.6437   58.6699  108.3181    0.4318    2.0215    1.7119    0.2729    2.3926   37.0000 
2460.6504   11.6935   64.6948  107.8486    0.3198    1.9692    1.7176    0.2704    2.3843   37.0000 
2460.8028   11.7927   69.3485  107.5524    0.3087    1.9392    1.7220    0.2692    2.3803   37.0000 
2460.9552   11.8425   67.3189  106.8225    0.2672    1.9274    1.7352    0.2682    2.3781   37.0000 
2461.1076   11.8859   73.5793  106.2260    0.2698    1.9274    1.7176    0.2669    2.3782   37.0000 
2461.2600   11.8951   73.0161  105.7760    0.3154    1.9536    1.7176    0.2669    2.3809   37.0000 
2461.4124   11.7095   68.5991  105.3261    0.3334    1.9740    1.7176    0.2661    2.3824   37.0000 
2461.5648   11.5165   72.0860  104.7197    0.3741    2.0003    1.7176    0.2644    2.3819   36.0000 
2461.7172   11.3655   78.9655  105.3608    0.3927    2.0183    1.7238    0.2634    2.3790   36.0000 
2461.8696   11.3555   71.4946  106.2527    0.4038    2.0183    1.7381    0.2689    2.3773   36.0000 
2462.0220   11.3855   64.1653  106.7694    0.4252    2.0215    1.7605    0.2741    2.3776   36.0000 
2462.1744   11.3955   66.8798  107.0313    0.4920    2.0280    1.7814    0.2682    2.3833   36.0000 
2462.3268   11.3955   68.6815  106.2483    0.4907    2.0353    1.7954    0.2689    2.3835   36.0000 
2462.4792   11.3630   70.9224  105.4052    0.4864    2.0565    1.8249    0.2697    2.3804   36.0000 
2462.6316   11.3182   74.8439  106.2457    0.4850    2.0934    1.8622    0.2707    2.3685   36.0000 
2462.7840   11.2942   69.7232  106.6290    0.5279    2.1345    1.8719    0.2639    2.3681   36.0000 
2462.9364   11.2690   64.9147  106.1532    0.5499    2.1628    1.9441    0.2550    2.3795   36.0000 
2463.0888   11.2265   69.6929  105.7369    0.5585    2.1514    1.9441    0.2556    2.3798   36.0000 
2463.2412   11.2057   70.6491  105.7803    0.5621    2.1104    1.9441    0.2561    2.3798   36.0000 
2463.3936   11.1757   74.6761  105.9138    0.5177    2.0886    1.9624    0.2513    2.3598   36.0000 
2463.5460   11.1684   74.4238  106.1532    0.4767    2.0773    1.9978    0.2484    2.3601   36.0000 
2463.6984   11.1641   74.1822  106.2365    0.4652    2.1257    2.0300    0.2435    2.3610   36.0000 
2463.8508   11.1557   73.9122  105.2373    0.4475    2.1809    2.0386    0.2429    2.3785   36.0000 
2464.0032   11.1506   74.5361  105.2373    0.4097    2.2593    2.0417    0.2421    2.3785   36.0000 
2464.1556   11.2656   75.2897  102.7394    0.3819    2.3726    1.9720    0.2482    2.3785   36.0000 
2464.3080   11.2582   74.3546  102.7394    0.5690    2.4182    1.9618    0.2651    2.3785   36.0000 
