~VERSION INFORMATION
 VERS.                 2.0:   CWLS LOG ASCII STANDARD - VERSION 2.0
 WRAP.                  NO:   SINGLE LINE PER DEPTH STEP
 CREA.                 04/06/2018 10:30:07
#CREATED USING DSPetro VERSION 5000.10.1.3 BY H191660 ON 04/06/2018 10:30:07
~WELL INFORMATION
#MNEM.UNIT       DATA                          DESCRIPTION MNEMONIC
#---------      ---------------------------   --------------------------
 STRT    .M         1867.0524                 : START DEPTH
 STOP    .M         3624.9864                 : STOP DEPTH
 STEP    .M         0.1524                    : STEP VALUE
 NULL    .      -999.0000                     : NULL VALUE
 DATE    .      04/06/2018                    : LAS file Creation Date
 WELL .      34_8_1                      : Well Name
 COMP .      Neftex Exploration Insights : Company
 FLD  .      VISUND                      : Field
 UWI  .      YNOWL_340801                : Unique Well Identifier (UWI)
 LOC  .                                  : Location
 RWS  .      -999                        : Def_Rw
 WST  .      -999                        : Def_Rwt
 SRVC .                                  : Contractor
~CURVE INFORMATION
#MNEM                UNIT       API CODE   Curve Type Comments
#----------    --------------- ----------  ---------- -----------
 DEPTH        .M                         : Depth       
 CAL_INCH     .inch                      :             Caliper Log - A representation of the measured diameter of a borehole along its depth
 GR_API       .API                       : GammaRay    Gamma Ray (API) - Measures the intensity of natural gamma-ray radiation emitted from formations containing radioactive elements, such as K, Th and U
 AC_US_FT     .us/ft                     :             Unspecified Acoustic log - No accroynm or method of attainment is specified
 RS_OHMM      .ohmm                      :             Unspecified Shallow Resistivity - No accroynm or method of attainment is specified
 RM_OHMM      .ohm.m                     :             Unspecified Medium Resistivity - No accroynm or method of attainment is specified
 RD_OHMM      .ohmm                      :             Unspecified Deep Resistivity - No accroynm or method of attainment is specified - units of ohmm
 NEUT_P_RATIO .ratio                     :             Unspecified Neutron Porosity Log - No accroynm or method of attainment is specified
 RHOB_G_CC    .g/cc                      :             Bulk Density - Measures the density of bulk material, including any void space or other materials contained in the subject volume
 LITH         .                          : LITH        Lithology Curve
~A  DEPTH  CAL_INCH   GR_API   AC_US_FT  RS_OHMM   RM_OHMM   RD_OHMM  NEUT_P_R~ RHOB_G_C~    LITH   
# ...
3256.9404   10.6364   86.7456   89.2181 -999.0000    4.1455    3.1773    0.2818    2.5341   37.0000 
3257.0928   10.6364   83.9930   88.8301 -999.0000    4.1455    3.2105    0.2834    2.5341   37.0000 
3257.2452   10.6365   83.4153   88.0709 -999.0000    4.2543    3.2439    0.2854    2.5790   37.0000 
3257.3976   10.6365   90.5280   88.2494 -999.0000    4.3394    3.3208    0.2878    2.6102   37.0000 
3257.5500   10.6365   92.2239   89.4618 -999.0000    4.4195    3.3017    0.2784    2.7053   22.0000 
3257.7024   10.6502   98.4158   87.2378 -999.0000    4.2872    3.2140    0.2791    2.7068   22.0000 
3257.8548   10.6683   91.4615   84.9767 -999.0000    4.1060    3.1484    0.2668    2.7068   22.0000 
3258.0072   10.6961   83.4788   86.5563 -999.0000    3.9171    3.0599    0.2667    2.6415   37.0000 
3258.1596   10.7244   95.4951   89.4114 -999.0000    3.7743    2.9752    0.2703    2.5478   37.0000 
3258.3120   10.7483   95.0738   89.7114 -999.0000    3.7054    2.9083    0.2737    2.5353   37.0000 
3258.4644   10.7844   94.5709   93.7410 -999.0000    3.5702    2.8586    0.2772    2.5349   37.0000 
3258.6168   10.8186   94.2920   93.5745 -999.0000    3.4373    2.8422    0.2813    2.5341   37.0000 
3258.7692   10.8367   97.5423   93.4913 -999.0000    3.4373    2.8422    0.2855    2.5341   37.0000 
3258.9216   10.8368   94.2216   93.3248 -999.0000    3.4175    2.7004    0.2933    2.5408   37.0000 
3259.0740   10.8687   90.9920   93.1044 -999.0000    3.4287    2.6678    0.2984    2.5503   37.0000 
3259.2264   10.8769   91.2801   92.9917 -999.0000    3.4416    2.6273    0.3093    2.5524   37.0000 
3259.3788   10.8769   90.7926   92.9919 -999.0000    3.4545    2.5975    0.2979    2.5519   37.0000 
3259.5312   10.8568   87.1057   93.3983 -999.0000    3.4715    2.5575    0.2908    2.5456   37.0000 
3259.6836   10.8289   82.7934   94.0705 -999.0000    3.3761    2.5229    0.2793    2.5410   37.0000 
3259.8360   10.8170   88.1672   93.5235 -999.0000    3.1880    2.5003    0.2928    2.5387   37.0000 
3259.9884   10.8087   90.3246   93.1594 -999.0000    3.1226    2.4854    0.2988    2.5387   37.0000 
3260.1408   10.7727   92.8491   93.0910 -999.0000    3.0629    2.4607    0.3123    2.5405   37.0000 
3260.2932   10.7369   97.6692   93.1114 -999.0000    3.0629    2.4607    0.3008    2.5490   37.0000 
3260.4456   10.7189   95.1069   93.3267 -999.0000    3.0629    2.4845    0.2925    2.5499   37.0000 
3260.5980   10.7009   93.4509   92.4610 -999.0000    3.1175    2.4997    0.2854    2.5387   37.0000 
3260.7504   10.6829   89.8571   92.9277 -999.0000    3.1584    2.5127    0.2706    2.5374   37.0000 
3260.9028   10.6772   93.1262   93.1188 -999.0000    3.2559    2.5576    0.2778    2.5378   37.0000 
3261.0552   10.6772   93.8013   93.3610 -999.0000    3.3661    2.6182    0.2815    2.5409   37.0000 
3261.2076   10.6772   98.0453   93.4110 -999.0000    3.4472    2.6625    0.2918    2.5434   37.0000 
3261.3600   10.6773   94.7434   92.4445 -999.0000    3.5138    2.6941    0.2903    2.5449   37.0000 
3261.5124   10.6773   93.5706   91.9525 -999.0000    3.5652    2.7388    0.2845    2.5472   37.0000 
3261.6648   10.6773   91.1875   91.9527 -999.0000    3.5971    2.7946    0.2853    2.5491   37.0000 
3261.8172   10.6783   89.1085   91.9529 -999.0000    3.5785    2.8238    0.2855    2.5435   37.0000 
3261.9696   10.7144   92.7930   92.1198 -999.0000    3.5419    2.8674    0.2797    2.5411   37.0000 
3262.1220   10.7340   91.2027   92.4534 -999.0000    3.5531    2.8997    0.2792    2.5395   37.0000 
3262.2744   10.7975   96.3278   92.5933 -999.0000    3.5857    2.9189    0.2611    2.5416   37.0000 
3262.4268   10.7823   95.4820   92.3477 -999.0000    3.6858    2.9435    0.2616    2.5458   37.0000 
3262.5792   10.7675   94.8282   90.1090 -999.0000    3.7897    2.9585    0.2625    2.5542   37.0000 
3262.7316   10.7403  103.0472   90.3285 -999.0000    4.0265    2.9524    0.2639    2.5618   37.0000 
3262.8840   10.7142   96.0675   90.4121 -999.0000    4.0037    2.9414    0.2648    2.5676   37.0000 
3263.0364   10.6882   88.2351   87.9247 -999.0000    3.9058    2.9309    0.2573    2.5763   37.0000 
3263.1888   10.6876   88.2352   88.5378 -999.0000    3.8298    2.8735    0.2581    2.5766   37.0000 
3263.3412   10.7000   88.2354   89.6918 -999.0000    3.7903    2.8586    0.2613    2.5697   37.0000 
3263.4936   10.7541   86.2389   90.7463 -999.0000    3.6755    2.8161    0.2719    2.5473   37.0000 
3263.6460   10.8418   83.7359   90.8753 -999.0000    3.5795    2.7491    0.2805    2.5433   37.0000 
3263.7984   10.9023   96.8298   91.2527 -999.0000    3.5293    2.7088    0.2861    2.5412   37.0000 
3263.9508   10.9436   93.4646   92.0370 -999.0000    3.4358    2.6643    0.2971    2.5360   37.0000 
3264.1032   10.9578   93.2364   92.6648 -999.0000    3.3140    2.6163    0.3040    2.5313   37.0000 
3264.2556   10.9579   92.7054   93.5644 -999.0000    3.2232    2.5760    0.3152    2.5252   37.0000 
3264.4080   10.9579  101.4868   93.7287 -999.0000    3.1687    2.5397    0.3015    2.5241   37.0000 
3264.5604   10.9679  110.1120   94.2695 -999.0000    3.1156    2.5155    0.3027    2.5241   37.0000 
3264.7128   11.0010  109.4493   94.6424 -999.0000    3.1167    2.5024    0.3031    2.5333   37.0000 
3264.8652   11.0201  102.5811   94.8325 -999.0000    3.1329    2.4895    0.2953    2.5325   37.0000 
3265.0176   11.0562  104.0271   94.7493 -999.0000    3.1810    2.4885    0.2927    2.5308   37.0000 
3265.1700   11.1265  104.7905   94.6235 -999.0000    3.2023    2.4991    0.2869    2.5295   37.0000 
3265.3224   11.1683  106.7379   94.3701 -999.0000    3.2065    2.5121    0.2813    2.5345   37.0000 
3265.4748   11.2308  101.7175   94.2497 -999.0000    3.2277    2.5173    0.2936    2.5558   37.0000 
3265.6272   11.2917   97.8535   94.2122 -999.0000    3.2614    2.5365    0.2999    2.5558   37.0000 
3265.7796   11.3782   96.2291   93.7626 -999.0000    3.2882    2.5611    0.3102    2.5422   37.0000 
3265.9320   11.3437   92.5270   93.7502 -999.0000    3.3053    2.5576    0.3052    2.5376   37.0000 
3266.0844   11.2777   92.1139   93.7503 -999.0000    3.3965    2.5464    0.2966    2.5366   37.0000 
3266.2368   11.2316   92.1141   93.5264 -999.0000    3.3516    2.5469    0.2912    2.5387   37.0000 
3266.3892   11.1483   91.4892   93.4173 -999.0000    3.2248    2.5602    0.2880    2.5416   37.0000 
3266.5416   11.0602  101.1797   93.4175 -999.0000    3.0331    2.5610    0.2919    2.5366   37.0000 
3266.6940   10.9539  111.4896   93.4177 -999.0000    3.0979    2.5720    0.2859    2.5374   37.0000 
3266.8464   10.9229  105.2720   93.4178 -999.0000    3.1302    2.5758    0.2789    2.5426   37.0000 
3266.9988   10.9453   99.8112   93.4180 -999.0000    3.1720    2.5838    0.2780    2.5520   37.0000 
3267.1512   10.9929   97.1777   93.4182 -999.0000    3.2329    2.5972    0.2846    2.5585   37.0000 
3267.3036   11.0375   97.4783   93.4184 -999.0000    3.2761    2.6107    0.2915    2.5662   37.0000 
3267.4560   11.0736   97.8900   93.4186 -999.0000    3.3584    2.6317    0.2765    2.5611   37.0000 
3267.6084   11.1785   98.6854   93.4188 -999.0000    3.4328    2.6707    0.2803    2.5472   37.0000 
3267.7608   11.1786   99.1160   93.3083 -999.0000    3.4887    2.6986    0.2865    2.5433   37.0000 
3267.9132   11.1153  102.3227   93.2524 -999.0000    3.4954    2.7268    0.2955    2.5429   37.0000 
3268.0656   11.0793  107.4289   93.1756 -999.0000    3.4953    2.7552    0.2885    2.5433   37.0000 
3268.2180   11.0610  100.1982   92.9657 -999.0000    3.4752    2.7840    0.2901    2.5445   37.0000 
3268.3704   11.0430  100.6972   92.7095 -999.0000    3.4752    2.8024    0.2916    2.5497   37.0000 
3268.5228   11.0387  101.3512   92.5597 -999.0000    3.5553    2.8443    0.2928    2.5462   37.0000 
3268.6752   11.0387   96.4255   92.3807 -999.0000    3.6596    2.9041    0.2939    2.5449   37.0000 
3268.8276   11.0388   94.1173   91.7813 -999.0000    3.7496    2.9527    0.2866    2.5373   37.0000 
3268.9800   11.0466   97.9164   91.6105 -999.0000    3.8218    2.9880    0.2693    2.5334   37.0000 
