~VERSION INFORMATION
 VERS.                 2.0:   CWLS LOG ASCII STANDARD - VERSION 2.0
 WRAP.                  NO:   SINGLE LINE PER DEPTH STEP
 CREA.                 04/06/2018 10:30:07
#CREATED USING DSPetro VERSION 5000.10.1.3 BY H191660 ON 04/06/2018 10:30:07
~WELL INFORMATION
#MNEM.UNIT       DATA                          DESCRIPTION MNEMONIC
#---------      ---------------------------   --------------------------
 STRT    .M         1867.0524                 : START DEPTH
 STOP    .M         3624.9864                 : STOP DEPTH
 STEP    .M         0.1524                    : STEP VALUE
 NULL    .      -999.0000                     : NULL VALUE
 DATE    .      04/06/2018                    : LAS file Creation Date
 WELL .      34_8_1                      : Well Name
 COMP .      Neftex Exploration Insights : Company
 FLD  .      VISUND                      : Field
 UWI  .      YNOWL_340801                : Unique Well Identifier (UWI)
 LOC  .                                  : Location
 RWS  .      -999                        : Def_Rw
 WST  .      -999                        : Def_Rwt
 SRVC .                                  : Contractor
~CURVE INFORMATION
#MNEM                UNIT       API CODE   Curve Type Comments
#----------    --------------- ----------  ---------- -----------
 DEPTH        .M                         : Depth       
 CAL_INCH     .inch                      :             Caliper Log - A representation of the measured diameter of a borehole along its depth
 GR_API       .API                       : GammaRay    Gamma Ray (API) - Measures the intensity of natural gamma-ray radiation emitted from formations containing radioactive elements, such as K, Th and U
 AC_US_FT     .us/ft                     :             Unspecified Acoustic log - No accroynm or method of attainment is specified
 RS_OHMM      .ohmm                      :             Unspecified Shallow Resistivity - No accroynm or method of attainment is specified
 RM_OHMM      .ohm.m                     :             Unspecified Medium Resistivity - No accroynm or method of attainment is specified
 RD_OHMM      .ohmm                      :             Unspecified Deep Resistivity - No accroynm or method of attainment is specified - units of ohmm
 NEUT_P_RATIO .ratio                     :             Unspecified Neutron Porosity Log - No accroynm or method of attainment is specified
 RHOB_G_CC    .g/cc                      :             Bulk Density - Measures the density of bulk material, including any void space or other materials contained in the subject volume
 LITH         .                          : LITH        Lithology Curve
~A  DEPTH  CAL_INCH   GR_API   AC_US_FT  RS_OHMM   RM_OHMM   RD_OHMM  NEUT_P_R~ RHOB_G_C~    LITH   
# ...
2220.6204   13.5409   82.5659  117.2981 -999.0000    1.3066    1.0773    0.3126    2.3582   37.0000 
2220.7728   13.5409   82.5990  117.2483 -999.0000    1.3238    1.0821    0.3316    2.3630   37.0000 
2220.9252   13.5408   82.6198  117.4998 -999.0000    1.3228    1.0823    0.3366    2.3770   37.0000 
2221.0776   13.5608   85.2947  117.8838 -999.0000    1.3024    1.0879    0.3587    2.3797   37.0000 
2221.2300   13.6445   88.5985  118.0174 -999.0000    1.2948    1.0830    0.3479    2.3826   37.0000 
2221.3824   13.7403   83.1271  117.5144 -999.0000    1.2936    1.0774    0.3438    2.3814   37.0000 
2221.5348   13.9124   81.4731  117.1980 -999.0000    1.3280    1.0678    0.3335    2.3788   37.0000 
2221.6872   13.9507   75.5978  116.0823 -999.0000    1.3511    1.0635    0.3263    2.3704   37.0000 
2221.8396   13.5928   81.4817  116.8972 -999.0000    1.4349    1.0607    0.3642    2.3663   37.0000 
2221.9920   13.4806   81.5941  116.9142 -999.0000    1.3975    1.0552    0.3507    2.3627   37.0000 
2222.1444   13.4406   84.5974  117.2644 -999.0000    1.3314    1.0512    0.3468    2.3569   37.0000 
2222.2968   13.4405   83.3633  117.3147 -999.0000    1.2795    1.0512    0.3470    2.3530   37.0000 
2222.4492   13.4405   80.9719  117.1646 -999.0000    1.2352    1.0515    0.3564    2.3467   37.0000 
2222.6016   13.4405   80.7217  116.5321 -999.0000    1.2485    1.0570    0.3544    2.3437   37.0000 
2222.7540   13.4405   85.3466  116.1004 -999.0000    1.2728    1.0625    0.3501    2.3405   37.0000 
2222.9064   13.4404   85.2522  117.4141 -999.0000    1.2898    1.0850    0.3385    2.3397   37.0000 
2223.0588   13.4404   84.6937  118.0819 -999.0000    1.3047    1.0615    0.3328    2.3405   37.0000 
2223.2112   13.4404   84.0960  118.0828 -999.0000    1.3047    1.0539    0.3549    2.3427   37.0000 
2223.3636   13.4403   83.7208  118.3836 -999.0000    1.2889    1.0457    0.3624    2.3439   37.0000 
2223.5160   13.4403   86.2129  118.8193 -999.0000    1.2734    1.0349    0.3770    2.3451   37.0000 
2223.6684   13.4403   87.9809  118.9159 -999.0000    1.2494    1.0257    0.3780    2.3468   37.0000 
2223.8208   13.4402   88.9899  118.8148 -999.0000    1.2329    1.0222    0.3644    2.3480   37.0000 
2223.9732   13.4402   88.5384  118.5806 -999.0000    1.2175    1.0275    0.3590    2.3612   37.0000 
2224.1256   13.4402   85.5948  118.2139 -999.0000    1.2140    1.0329    0.3520    2.3626   37.0000 
2224.2780   13.4401   86.5861  117.9147 -999.0000    1.2120    1.0382    0.3405    2.3626   37.0000 
2224.4304   13.4401   87.5450  117.8147 -999.0000    1.2390    1.0436    0.3535    2.3600   37.0000 
2224.5828   13.4455   89.4693  117.2890 -999.0000    1.2699    1.0451    0.3450    2.3514   37.0000 
2224.7352   13.4501   84.6728  117.4558 -999.0000    1.2896    1.0484    0.3395    2.3493   37.0000 
2224.8876   13.4546   80.8439  117.6226 -999.0000    1.2933    1.0511    0.3328    2.3494   37.0000 
2225.0400   13.4648   81.4653  117.6225 -999.0000    1.2933    1.0511    0.3387    2.3566   37.0000 
2225.1924   13.4700   82.8838  117.6225 -999.0000    1.2933    1.0511    0.3413    2.3639   37.0000 
2225.3448   13.4699   83.9908  117.6224 -999.0000    1.2933    1.0511    0.3390    2.3643   37.0000 
2225.4972   13.4699   85.6013  116.7490 -999.0000    1.2933    1.0514    0.3367    2.3532   37.0000 
2225.6496   13.4699   76.0930  116.4493 -999.0000    1.2933    1.0510    0.3353    2.3526   37.0000 
2225.8020   13.4698   80.2152  116.2876 -999.0000    1.2933    1.0555    0.3300    2.3526   37.0000 
2225.9544   13.4698   81.4164  116.2876 -999.0000    1.2839    1.0679    0.3426    2.3639   37.0000 
2226.1068   13.4698   83.7475  116.3591 -999.0000    1.2711    1.0734    0.3468    2.3647   37.0000 
2226.2592   13.4761   85.2702  116.4352 -999.0000    1.2560    1.0826    0.3323    2.3655   37.0000 
2226.4116   13.4797   88.3420  115.9538 -999.0000    1.2529    1.0938    0.3305    2.3668   37.0000 
2226.5640   13.4797   83.7168  115.3171 -999.0000    1.3120    1.1029    0.3190    2.3679   37.0000 
2226.7164   13.4797   84.0196  113.9182 -999.0000    1.3197    1.1174    0.3210    2.3694   37.0000 
2226.8688   13.4796   80.3414  112.5528 -999.0000    1.3297    1.1492    0.3238    2.3809   37.0000 
2227.0212   13.4796   83.4223  111.9497 -999.0000    1.3989    1.1663    0.3008    2.3947   37.0000 
2227.1736   13.4796   85.5545  111.4538 -999.0000    1.4340    1.1723    0.3095    2.3959   37.0000 
2227.3260   13.4795   87.4608  112.1632 -999.0000    1.4594    1.1903    0.3126    2.3963   37.0000 
2227.4784   13.4795   91.3406  112.5197 -999.0000    1.4808    1.1929    0.3234    2.3968   37.0000 
2227.6308   13.4795   88.8669  113.1458 -999.0000    1.4892    1.1929    0.3243    2.3959   37.0000 
2227.7832   13.4794   88.1664  114.0556 -999.0000    1.4892    1.1812    0.3267    2.3884   37.0000 
2227.9356   13.4794   85.7150  114.3690 -999.0000    1.4653    1.1661    0.3518    2.3672   37.0000 
2228.0880   13.4794   87.0483  114.6698 -999.0000    1.3897    1.1540    0.3549    2.3633   37.0000 
2228.2404   13.4794   87.8737  114.9705 -999.0000    1.3612    1.1421    0.3475    2.3623   37.0000 
2228.3928   13.4793   89.0896  115.0775 -999.0000    1.3372    1.1314    0.3460    2.3635   37.0000 
2228.5452   13.4783   86.4643  115.2377 -999.0000    1.3303    1.1261    0.3410    2.3645   37.0000 
2228.6976   13.4647   85.3339  116.4120 -999.0000    1.3234    1.1261    0.3383    2.3673   37.0000 
2228.8500   13.4480   84.1484  115.4840 -999.0000    1.3232    1.1261    0.3340    2.3685   37.0000 
2229.0024   13.4392   83.1580  115.1246 -999.0000    1.3232    1.1260    0.3548    2.3670   37.0000 
2229.1548   13.4392   80.9635  114.5011 -999.0000    1.3232    1.1305    0.3817    2.3656   37.0000 
2229.3072   13.4391   83.9155  113.6051 -999.0000    1.3365    1.1363    0.3776    2.3647   37.0000 
2229.4596   13.4345   87.2132  113.1414 -999.0000    1.3462    1.1391    0.3692    2.3656   37.0000 
2229.6120   13.4191   84.4405  111.6506 -999.0000    1.3552    1.1441    0.3655    2.4080   37.0000 
2229.7644   13.4191   81.5131  110.9067 -999.0000    1.3719    1.1485    0.3657    2.4201   37.0000 
2229.9168   13.4190   78.1938  111.0925 -999.0000    1.3790    1.1390    0.3575    2.4201   37.0000 
2230.0692   13.4190   78.6476  111.4768 -999.0000    1.4029    1.1385    0.3594    2.3808   37.0000 
2230.2216   13.4190   82.5871  114.4508 -999.0000    1.3857    1.1326    0.3620    2.3722   37.0000 
2230.3740   13.4089   80.9595  115.1234 -999.0000    1.3635    1.1325    0.3654    2.3710   37.0000 
2230.5264   13.4089   80.9396  116.6618 -999.0000    1.3340    1.1273    0.3599    2.3969   37.0000 
2230.6788   13.4089   81.5785  115.1346 -999.0000    1.3269    1.1127    0.3555    2.4022   37.0000 
2230.8312   13.8053   75.3365  114.2520 -999.0000    1.5090    1.1029    0.3450    2.4030   37.0000 
2230.9836   13.5393   83.0862  113.7459 -999.0000    1.5148    1.0972    0.3597    2.3618   37.0000 
2231.1360   13.4732   80.2094  114.0975 -999.0000    1.4748    1.0867    0.3562    2.3650   37.0000 
2231.2884   13.4587   80.0966  115.8153 -999.0000    1.3508    1.0716    0.3400    2.3714   37.0000 
2231.4408   13.4587   81.5489  115.3587 -999.0000    1.2840    1.0629    0.3203    2.3685   37.0000 
2231.5932   13.4587   83.2316  114.8434 -999.0000    1.2767    1.0623    0.3209    2.3608   37.0000 
2231.7456   13.4587   84.6830  115.7671 -999.0000    1.2635    1.0568    0.3229    2.3585   37.0000 
2231.8980   13.4586   85.9213  116.0776 -999.0000    1.2634    1.0513    0.3340    2.3585   37.0000 
2232.0504   13.4586   89.0439  116.1985 -999.0000    1.2633    1.0506    0.3338    2.3678   37.0000 
2232.2028   13.4586   89.6190  116.9667 -999.0000    1.2583    1.0548    0.3335    2.3705   37.0000 
2232.3552   13.4585   90.0144  117.4163 -999.0000    1.2604    1.0567    0.3350    2.3730   37.0000 
2232.5076   13.4585   90.3344  117.1166 -999.0000    1.2633    1.0567    0.3555    2.3752   37.0000 
2232.6600   13.4585   86.9592  116.8169 -999.0000    1.2691    1.0567    0.3667    2.3775   37.0000 
