~VERSION INFORMATION
 VERS.                 2.0:   CWLS LOG ASCII STANDARD - VERSION 2.0
 WRAP.                  NO:   SINGLE LINE PER DEPTH STEP
 CREA.                 04/06/2018 10:30:07
#CREATED USING DSPetro VERSION 5000.10.1.3 BY H191660 ON 04/06/2018 10:30:07
~WELL INFORMATION
#MNEM.UNIT       DATA                          DESCRIPTION MNEMONIC
#---------      ---------------------------   --------------------------
 STRT    .M         1867.0524                 : START DEPTH
 STOP    .M         3624.9864                 : STOP DEPTH
 STEP    .M         0.1524                    : STEP VALUE
 NULL    .      -999.0000                     : NULL VALUE
 DATE    .      04/06/2018                    : LAS file Creation Date
 WELL .      34_8_1                      : Well Name
 COMP .      Neftex Exploration Insights : Company
 FLD  .      VISUND                      : Field
 UWI  .      YNOWL_340801                : Unique Well Identifier (UWI)
 LOC  .                                  : Location
 RWS  .      -999                        : Def_Rw
 WST  .      -999                        : Def_Rwt
 SRVC .                                  : Contractor
~CURVE INFORMATION
#MNEM                UNIT       API CODE   Curve Type Comments
#----------    --------------- ----------  ---------- -----------
 DEPTH        .M                         : Depth       
 CAL_INCH     .inch                      :             Caliper Log - A representation of the measured diameter of a borehole along its depth
 GR_API       .API                       : GammaRay    Gamma Ray (API) - Measures the intensity of natural gamma-ray radiation emitted from formations containing radioactive elements, such as K, Th and U
 AC_US_FT     .us/ft                     :             Unspecified Acoustic log - No accroynm or method of attainment is specified
 RS_OHMM      .ohmm                      :             Unspecified Shallow Resistivity - No accroynm or method of attainment is specified
 RM_OHMM      .ohm.m                     :             Unspecified Medium Resistivity - No accroynm or method of attainment is specified
 RD_OHMM      .ohmm                      :             Unspecified Deep Resistivity - No accroynm or method of attainment is specified - units of ohmm
 NEUT_P_RATIO .ratio                     :             Unspecified Neutron Porosity Log - No accroynm or method of attainment is specified
 RHOB_G_CC    .g/cc                      :             Bulk Density - Measures the density of bulk material, including any void space or other materials contained in the subject volume
 LITH         .                          : LITH        Lithology Curve
~A  DEPTH  CAL_INCH   GR_API   AC_US_FT  RS_OHMM   RM_OHMM   RD_OHMM  NEUT_P_R~ RHOB_G_C~    LITH   
1867.0524   13.4797   58.4694  107.9333 -999.0000    1.9238    1.5631    0.4158    2.2275 -999.0000 
1867.2048   13.4263   59.1433  106.9549 -999.0000    2.1775    1.6015    0.4143    2.1562 -999.0000 
1867.3572   13.3902   63.0724  106.2485 -999.0000    2.2001    1.6239    0.4394    2.0764 -999.0000 
1867.5096   13.3244   62.5859  108.9010 -999.0000    2.0762    1.6465    0.4480    2.0824 -999.0000 
1867.6620   13.2580   61.1990  110.5122 -999.0000    2.0249    1.6869    0.4480    2.1668 -999.0000 
1867.8144   13.2098   65.3130  110.5120 -999.0000    1.9022    1.7046    0.4480    2.1950 -999.0000 
1867.9668   13.1334   64.2624  111.7099 -999.0000    1.7748    1.7313    0.4480    2.2181 -999.0000 
1868.1192   13.0497   63.5839  112.7782 -999.0000    1.8543    1.7586    0.4670    2.2275 -999.0000 
1868.2716   13.0136   62.9475  114.4279 -999.0000    1.9814    1.7790    0.4225    2.2321 -999.0000 
1868.4240   12.9775   65.8202  113.4791 -999.0000    2.0555    1.7851    0.3955    2.2298 -999.0000 
1868.5764   12.8921   70.3164  113.0048 -999.0000    2.1865    1.7955    0.4172    2.2274 -999.0000 
1868.7288   12.8598   67.5818  112.0732 -999.0000    2.2977    1.8058    0.4306    2.2246 -999.0000 
1868.8812   12.8418   67.1158  111.3696 -999.0000    2.3196    1.8163    0.4345    2.2222 -999.0000 
1869.0336   12.8343   65.7172  110.4331 -999.0000    2.3392    1.8163    0.4167    2.2284 -999.0000 
1869.1860   12.8343   64.3214  109.4362 -999.0000    2.3471    1.8215    0.4086    2.2339 -999.0000 
1869.3384   12.8343   65.0781  107.6800 -999.0000    2.2531    1.8211    0.3826    2.2385 -999.0000 
1869.4908   12.8343   66.4446  107.8969 -999.0000    2.1432    1.6374    0.3899    2.2750 -999.0000 
1869.6432   12.8371   65.6953  107.9256 -999.0000    2.0118    1.6374    0.3942    2.2750 -999.0000 
1869.7956   12.8559   63.8218  107.5200 -999.0000    1.9648    1.6415    0.3748    2.2746 -999.0000 
1869.9480   12.8919   61.9969  106.3418 -999.0000    1.9160    1.3405    0.3772    2.2729 -999.0000 
1870.1004   12.9111   59.3256  107.4657 -999.0000    1.8691    1.3307    0.3801    2.2708 -999.0000 
1870.2528   13.0180   61.6935  109.6988 -999.0000    1.8444    1.3269    0.3855    2.2661 -999.0000 
1870.4052   13.0926   64.1965  111.5555 -999.0000    1.8187    1.3231    0.3587    2.2538 -999.0000 
1870.5576   13.1682   61.1537  112.1190 -999.0000    1.7611    1.3359    0.3515    2.2414 -999.0000 
1870.7100   13.2844   60.1927  114.2573 -999.0000    1.7012    1.3618    0.3568    2.2062 -999.0000 
1870.8624   13.4010   59.3911  112.4062 -999.0000    1.6122    1.3620    0.3979    2.2058 -999.0000 
1871.0148   13.5014   57.4205  110.9475 -999.0000    1.6128    1.3691    0.4020    2.2190 -999.0000 
1871.1672   13.6779   54.9959  109.9537 -999.0000    1.8521    1.4097    0.4110    2.2366 -999.0000 
1871.3196   13.8354   53.7053  109.0192 -999.0000    1.9043    1.4482    0.4370    2.2482 -999.0000 
1871.4720   14.0177   57.8922  111.8392 -999.0000    2.0887    1.4700    0.4334    2.2496 -999.0000 
1871.6244   14.1033   60.2113  114.1722 -999.0000    2.0731    1.5402    0.4220    2.2331 -999.0000 
1871.7768   14.1532   65.3635  111.3387 -999.0000    2.0680    1.5415    0.4341    2.2413 -999.0000 
1871.9292   14.3680   66.9657  111.3384 -999.0000    2.0620    1.5415    0.4383    2.2412 -999.0000 
1872.0816   14.5666   68.6062  111.4466 -999.0000    2.0794    1.5415    0.3995    2.2421 -999.0000 
1872.2340   14.7529   72.3350  111.6713 -999.0000    2.0860    1.6055    0.3853    2.2436 -999.0000 
1872.3864   15.1324   74.1882  110.3242 -999.0000    2.0860    1.6384    0.3668    2.2456 -999.0000 
1872.5388   15.1324   68.7832  110.0234 -999.0000    2.0860    1.6844    0.3859    2.2527 -999.0000 
1872.6912   15.1324   66.8263  108.3169 -999.0000    2.1041    1.7051    0.4020    2.2645 -999.0000 
1872.8436   15.1071   61.9484  107.6311 -999.0000    2.1406    1.7149    0.3909    2.2912 -999.0000 
1872.9960   15.0824   66.8193  105.1700 -999.0000    2.2567    1.7449    0.3793    2.2923 -999.0000 
1873.1484   15.1887   65.6953  109.5668 -999.0000    2.4023    1.7399    0.3754    2.2743 -999.0000 
1873.3008   15.3492   65.0735  111.4423 -999.0000    2.1792    1.7200    0.3720    2.2330 -999.0000 
1873.4532   15.4367   66.6944  113.4702 -999.0000    2.0852    1.7200    0.3938    2.2142 -999.0000 
1873.6056   15.5321   71.6903  114.6298 -999.0000    2.0212    1.7349    0.4022    2.2112 -999.0000 
1873.7580   15.6120   74.5239  116.1687 -999.0000    1.9591    1.7399    0.4143    2.2120 -999.0000 
1873.9104   15.5691   76.4575  115.1318 -999.0000    1.9049    1.5985    0.4210    2.2168 -999.0000 
1874.0628   15.4056   78.5836  114.5306 -999.0000    1.9449    1.5656    0.3995    2.2369 -999.0000 
1874.2152   15.2894   81.4596  112.0845 -999.0000    2.0038    1.4744    0.4108    2.2450 -999.0000 
1874.3676   15.1317   83.3001  116.3130 -999.0000    2.0098    1.4219    0.4165    2.2483 -999.0000 
1874.5200   15.1137   86.9276  117.1645 -999.0000    1.8374    1.3836    0.4261    2.2392 -999.0000 
1874.6724   15.0452   78.5894  119.0206 -999.0000    1.7196    1.3353    0.4253    2.1766 -999.0000 
1874.8248   14.9430   78.5595  121.5701 -999.0000    1.5272    1.2776    0.4243    2.1700 -999.0000 
1874.9772   14.8996   82.5732  123.1826 -999.0000    1.5157    1.2370    0.4342    2.1540 -999.0000 
1875.1296   14.8595   83.3155  123.7219 -999.0000    1.4788    1.2187    0.4443    2.1561 -999.0000 
1875.2820   14.7870   85.2534  124.3889 -999.0000    1.3846    1.1637    0.4233    2.1550   37.0000 
1875.4344   14.7111   88.1759  124.6775 -999.0000    1.3159    1.1517    0.4345    2.1607   37.0000 
1875.5868   14.6516   88.0631  124.8275 -999.0000    1.3535    1.1383    0.4392    2.1967   37.0000 
1875.7392   14.5691   88.1765  125.5591 -999.0000    1.4000    1.1167    0.4485    2.2003   37.0000 
1875.8916   14.4514   87.7484  126.0521 -999.0000    1.3332    1.0941    0.4558    2.2002   37.0000 
1876.0440   14.4334   81.8087  126.3900 -999.0000    1.2316    1.0935    0.4281    2.1967   37.0000 
1876.1964   14.4154   77.4355  127.0747 -999.0000    1.2281    1.1081    0.4095    2.1911   37.0000 
1876.3488   14.4130   79.1209  128.4977 -999.0000    1.2281    1.1198    0.4097    2.1875   37.0000 
1876.5012   14.4403   81.3194  126.9975 -999.0000    1.2432    1.1346    0.3998    2.1850   37.0000 
1876.6536   14.5230   76.5612  126.6694 -999.0000    1.2490    1.1461    0.3922    2.1846   37.0000 
1876.8060   14.6115   78.8484  125.6783 -999.0000    1.2260    1.1461    0.3960    2.1858   37.0000 
1876.9584   14.8030   80.9326  124.9827 -999.0000    1.2059    1.1384    0.4004    2.2013   37.0000 
1877.1108   14.8127   81.0575  123.4131 -999.0000    1.1968    1.1137    0.4034    2.2088   37.0000 
1877.2632   14.8054   80.9657  124.0120 -999.0000    1.1967    1.0848    0.4087    2.2134   37.0000 
1877.4156   14.5792   80.6722  125.9764 -999.0000    1.2076    1.0543    0.4137    2.2035   37.0000 
1877.5680   14.5429   75.6869  126.3290 -999.0000    1.2260    1.0399    0.4092    2.1234   37.0000 
1877.7204   14.5229   77.1659  128.5789 -999.0000    1.2304    1.0362    0.3587    2.1173   37.0000 
1877.8728   14.5229   78.1742  125.4474 -999.0000    1.2072    1.0664    0.3439    2.1282   37.0000 
1878.0252   14.3765   78.8512  126.9724 -999.0000    1.1791    1.0856    0.3415    2.1360   37.0000 
1878.1776   14.3042   80.6828  127.1462 -999.0000    1.1595    1.1271    0.4157    2.2107   37.0000 
1878.3300   14.2319   77.9610  126.4465 -999.0000    1.0919    1.1495    0.4175    2.2257   37.0000 
1878.4824   14.1764   76.8258  125.5953 -999.0000    1.1311    1.1263    0.3897    2.2205   37.0000 
1878.6348   14.1079   76.1865  123.7440 -999.0000    1.1695    1.1072    0.4073    2.2023   37.0000 
1878.7872   14.0087   78.6364  125.3435 -999.0000    1.2290    1.0905    0.4130    2.1843   37.0000 
1878.9396   13.8135   79.6836  125.8619 -999.0000    1.2998    1.0883    0.3742    2.1795   37.0000 
1879.0920   13.8135   75.8566  126.4626 -999.0000    1.3139    1.1099    0.3764    2.1767   37.0000 
