~VERSION INFORMATION
 VERS.                 2.0:   CWLS LOG ASCII STANDARD - VERSION 2.0
 WRAP.                  NO:   SINGLE LINE PER DEPTH STEP
 CREA.                 04/06/2018 10:30:07
#CREATED USING DSPetro VERSION 5000.10.1.3 BY H191660 ON 04/06/2018 10:30:07
~WELL INFORMATION
#MNEM.UNIT       DATA                          DESCRIPTION MNEMONIC
#---------      ---------------------------   --------------------------
 STRT    .M         1867.0524                 : START DEPTH
 STOP    .M         3624.9864                 : STOP DEPTH
 STEP    .M         0.1524                    : STEP VALUE
 NULL    .      -999.0000                     : NULL VALUE
 DATE    .      04/06/2018                    : LAS file Creation Date
 WELL .      34_8_1                      : Well Name
 COMP .      Neftex Exploration Insights : Company
 FLD  .      VISUND                      : Field
 UWI  .      YNOWL_340801                : Unique Well Identifier (UWI)
 LOC  .                                  : Location
 RWS  .      -999                        : Def_Rw
 WST  .      -999                        : Def_Rwt
 SRVC .                                  : Contractor
~CURVE INFORMATION
#MNEM                UNIT       API CODE   Curve Type Comments
#----------    --------------- ----------  ---------- -----------
 DEPTH        .M                         : Depth       
 CAL_INCH     .inch                      :             Caliper Log - A representation of the measured diameter of a borehole along its depth
 GR_API       .API                       : GammaRay    Gamma Ray (API) - Measures the intensity of natural gamma-ray radiation emitted from formations containing radioactive elements, such as K, Th and U
 AC_US_FT     .us/ft                     :             Unspecified Acoustic log - No accroynm or method of attainment is specified
 RS_OHMM      .ohmm                      :             Unspecified Shallow Resistivity - No accroynm or method of attainment is specified
 RM_OHMM      .ohm.m                     :             Unspecified Medium Resistivity - No accroynm or method of attainment is specified
 RD_OHMM      .ohmm                      :             Unspecified Deep Resistivity - No accroynm or method of attainment is specified - units of ohmm
 NEUT_P_RATIO .ratio                     :             Unspecified Neutron Porosity Log - No accroynm or method of attainment is specified
 RHOB_G_CC    .g/cc                      :             Bulk Density - Measures the density of bulk material, including any void space or other materials contained in the subject volume
 LITH         .                          : LITH        Lithology Curve
~A  DEPTH  CAL_INCH   GR_API   AC_US_FT  RS_OHMM   RM_OHMM   RD_OHMM  NEUT_P_R~ RHOB_G_C~    LITH   
# ...
2683.9164   10.0266   67.4067  106.4771    2.7464    1.5891    1.3370    0.2924    2.4327   37.0000 
2684.0688   10.0266   70.2048  106.7361    2.7309    1.5891    1.3330    0.2911    2.4344   37.0000 
2684.2212   10.0266   72.2612  106.9226    2.6352    1.6041    1.3352    0.2894    2.4243   37.0000 
2684.3736   10.0366   74.3950  107.4854    2.4439    1.6325    1.3421    0.2953    2.4235   37.0000 
2684.5260   10.0366   76.4308  106.2104    2.0754    1.6418    1.3497    0.3005    2.4253   37.0000 
2684.6784   10.0366   79.0903  105.9109    2.0343    1.6589    1.3638    0.3023    2.4256   37.0000 
2684.8308   10.0366   76.0928  105.3194    1.9107    1.7018    1.3780    0.3035    2.4217   37.0000 
2684.9832   10.0366   75.5308  104.8497    1.8501    1.7628    1.3923    0.3029    2.4156   37.0000 
2685.1356   10.0366   65.7265  104.5129    1.8227    1.7673    1.3959    0.3024    2.4156   37.0000 
2685.2880   10.0366   66.7881  104.4879    2.3525    1.7678    1.3913    0.2942    2.4383   37.0000 
2685.4404   10.0366   69.1179  104.7988    2.4387    1.7580    1.3729    0.2849    2.4489   37.0000 
2685.5928   10.0366   70.2521  105.3614    2.3753    1.7303    1.3534    0.2831    2.4554   37.0000 
2685.7452   10.0366   70.9938  105.7061    2.2124    1.6576    1.3485    0.2842    2.4514   37.0000 
2685.8976   10.0366   72.2763  106.2122    2.0199    1.6245    1.3458    0.2858    2.4416   37.0000 
2686.0500   10.0366   74.9063  106.9259    1.9362    1.5912    1.3330    0.2833    2.4297   37.0000 
2686.2024   10.0366   73.2742  107.2254    1.9509    1.5585    1.3330    0.2868    2.4261   37.0000 
2686.3548   10.0366   72.3526  107.0910    2.1501    1.5219    1.3465    0.2904    2.4256   37.0000 
2686.5072   10.0520   71.5501  106.5579    1.9542    1.5219    1.3605    0.2943    2.4256   37.0000 
2686.6596   10.0566   71.3468  106.2920    1.9330    1.6278    1.3747    0.2990    2.4270   37.0000 
2686.8120   10.0679   70.1603  105.8596    2.2423    1.6729    1.3890    0.3009    2.4308   37.0000 
2686.9644   10.0766   70.5262  105.0284    2.2798    1.7352    1.4226    0.2960    2.4333   37.0000 
2687.1168   10.0766   71.4405  104.2834    2.3013    1.7893    1.4564    0.2942    2.4352   37.0000 
2687.2692   10.0801   69.5192  103.9839    2.2769    1.8146    1.4662    0.2899    2.4377   37.0000 
2687.4216   10.0921   68.1730  103.6574    2.2073    1.8352    1.4857    0.2908    2.4394   37.0000 
2687.5740   10.1041   65.9609  103.2082    2.1167    1.8626    1.5219    0.2920    2.4389   37.0000 
2687.7264   10.1066   65.7363  102.7590    2.0732    1.8723    1.5219    0.2931    2.4358   37.0000 
2687.8788   10.1238   63.2910  102.7394    1.7214    1.8727    1.5219    0.2807    2.4305   37.0000 
2688.0312   10.1366   66.3572  103.5781    1.6685    1.8483    1.5087    0.2736    2.4277   37.0000 
2688.1836   10.1366   67.5146  103.8482    1.6296    1.8130    1.4988    0.2829    2.4254   37.0000 
2688.3360   10.1527   68.7834  104.1835    1.6808    1.7815    1.4863    0.2916    2.4214   37.0000 
2688.4884   10.1765   72.5741  105.6211    1.7127    1.7183    1.4826    0.2909    2.4182   37.0000 
2688.6408   10.1352   71.8200  105.1540    1.4727    1.6559    1.4903    0.2786    2.4107   37.0000 
2688.7932   10.0966   70.8742  109.3981    1.4262    1.5891    1.4980    0.2740    2.3994   37.0000 
2688.9456   10.0935   70.1458  109.0161    1.3830    1.6640    1.5058    0.2693    2.3998   37.0000 
2689.0980   10.0766   67.9122  108.6006    1.5477    1.7784    1.5132    0.2604    2.4348   37.0000 
2689.2504   10.0766   68.9500  101.2406    1.6673    1.8290    1.5132    0.2609    2.4538   37.0000 
2689.4028   10.0936   71.7215  101.2992    1.7801    1.8018    1.5132    0.2651    2.4671   37.0000 
2689.5552   10.2016   68.9731  101.5739    1.8593    1.8835    1.5132    0.2726    2.4615   37.0000 
2689.7076   10.3993   67.3127  101.9900    1.3728    1.8695    1.5189    0.2766    2.4570   37.0000 
2689.8600   10.4463   69.4170  102.2896    1.4096    1.8375    1.5267    0.2596    2.4501   37.0000 
2690.0124   10.4763   71.8464  102.4896    1.4326    1.7905    1.5387    0.2476    2.4451   37.0000 
2690.1648   10.4763   70.4635  102.6561    1.2577    1.7577    1.5516    0.2490    2.4376   37.0000 
2690.3172   10.4763   67.8840  102.9915    1.2405    1.7909    1.5530    0.2534    2.4340   37.0000 
2690.4696   10.4763   64.9147  102.7083    1.2488    1.8347    1.5408    0.2587    2.4335   37.0000 
2690.6220   10.4745   62.6041  102.2783    1.3169    1.9330    1.5484    0.2611    2.4437   37.0000 
2690.7744   10.4607   64.8242  100.1458    1.3762    1.9330    1.5484    0.2534    2.4488   37.0000 
2690.9268   10.4444   66.9754  100.3402    1.4436    1.9033    1.5636    0.2439    2.4584   37.0000 
2691.0792   10.3918   68.5630  100.5720    2.0122    1.8675    1.5531    0.2495    2.4789   37.0000 
2691.2316   10.3229   73.5325  100.9426    2.1191    1.8566    1.5427    0.2499    2.4766   37.0000 
2691.3840   10.2872   71.5142  101.5872    2.1952    1.8673    1.5348    0.2545    2.4722   37.0000 
2691.5364   10.2701   70.8773  101.8867    2.2633    1.8673    1.5192    0.2540    2.4692   37.0000 
2691.6888   10.2297   69.2860  102.1297    2.3425    1.8547    1.5016    0.2530    2.4638   37.0000 
2691.8412   10.2022   75.0625  102.2398    2.3512    1.8406    1.4938    0.2562    2.4498   37.0000 
2691.9936   10.1511   74.7814  102.2398    2.1532    1.8392    1.4849    0.2577    2.4464   37.0000 
2692.1460   10.1166   71.9576  102.2398    2.1442    1.8297    1.4696    0.2599    2.4427   37.0000 
2692.2984   10.1166   71.6207  102.2398    2.2265    1.8156    1.4544    0.2603    2.4392   37.0000 
2692.4508   10.0832   69.6158  102.1008    2.3628    1.8056    1.4326    0.2625    2.4455   37.0000 
2692.6032   10.0766   69.3485  101.8288    2.5301    1.7624    1.4164    0.2665    2.4547   37.0000 
2692.7556   10.0766   72.7249  101.1574    2.6157    1.7757    1.4070    0.2685    2.4635   37.0000 
2692.9080   10.0766   73.5637  102.1726    2.1574    1.7942    1.3912    0.2731    2.4597   37.0000 
2693.0604   10.0852   71.4248  103.3402    2.2074    1.7268    1.3834    0.2764    2.4550   37.0000 
2693.2128   10.1032   70.8160  104.7363    2.2322    1.6561    1.3905    0.2636    2.4523   37.0000 
2693.3652   10.1166   76.2802  106.0564    1.9681    1.5626    1.3978    0.2509    2.4515   37.0000 
2693.5176   10.1217   74.5316  107.1549    1.8725    1.5816    1.4050    0.2506    2.4510   37.0000 
2693.6700   10.1571   73.4076  103.0445    1.8300    1.7892    1.4121    0.2473    2.4510   37.0000 
2693.8224   10.1751   68.9841   98.8260    2.0371    1.8172    1.4121    0.2426    2.4683   37.0000 
2693.9748   10.1765   68.2776   99.1845    2.7542    1.9554    1.4121    0.2466    2.5032   37.0000 
2694.1272   10.2055   65.4767   99.8839    2.8514    1.8938    1.4180    0.2492    2.5283   22.0000 
2694.2796   10.2165   67.1150  100.4080    2.9521    1.8329    1.4203    0.2505    2.5592   22.0000 
2694.4320   10.2165   68.8846  101.2565    2.7337    1.7875    1.4160    0.2517    2.5623   22.0000 
2694.5844   10.2165   70.6548  101.9259    2.5357    1.7678    1.4053    0.2522    2.5662   22.0000 
2694.7368   10.2101   73.9696  102.5136    2.0225    1.7711    1.3959    0.2519    2.5142   37.0000 
2694.8892   10.1965   72.0000  103.4983    1.9787    1.7781    1.3924    0.2519    2.4583   37.0000 
2695.0416   10.1965   71.1166  102.9952    2.0709    1.7781    1.3790    0.2519    2.4467   37.0000 
2695.1940   10.1965   70.3011  102.4831    2.1947    1.7777    1.3717    0.2519    2.4423   37.0000 
2695.3464   10.1965   68.0995  102.1003    2.2261    1.7593    1.3576    0.2514    2.4406   37.0000 
2695.4988   10.1965   70.6314  102.0733    2.2583    1.7169    1.3436    0.2503    2.4402   37.0000 
2695.6512   10.1965   73.5325  103.4559    2.2286    1.6526    1.3352    0.2492    2.4464   37.0000 
2695.8036   10.1965   65.4767  103.9438    2.1792    1.6309    1.3283    0.2516    2.4573   37.0000 
2695.9560   10.2065   66.2943  104.2433    2.0004    1.5266    1.3215    0.2627    2.4547   37.0000 
