~VERSION INFORMATION
 VERS.                 2.0:   CWLS LOG ASCII STANDARD - VERSION 2.0
 WRAP.                  NO:   SINGLE LINE PER DEPTH STEP
 CREA.                 04/06/2018 10:30:07
#CREATED USING DSPetro VERSION 5000.10.1.3 BY H191660 ON 04/06/2018 10:30:07
~WELL INFORMATION
#MNEM.UNIT       DATA                          DESCRIPTION MNEMONIC
#---------      ---------------------------   --------------------------
 STRT    .M         1867.0524                 : START DEPTH
 STOP    .M         3624.9864                 : STOP DEPTH
 STEP    .M         0.1524                    : STEP VALUE
 NULL    .      -999.0000                     : NULL VALUE
 DATE    .      04/06/2018                    : LAS file Creation Date
 WELL .      34_8_1                      : Well Name
 COMP .      Neftex Exploration Insights : Company
 FLD  .      VISUND                      : Field
 UWI  .      YNOWL_340801                : Unique Well Identifier (UWI)
 LOC  .                                  : Location
 RWS  .      -999                        : Def_Rw
 WST  .      -999                        : Def_Rwt
 SRVC .                                  : Contractor
~CURVE INFORMATION
#MNEM                UNIT       API CODE   Curve Type Comments
#----------    --------------- ----------  ---------- -----------
 DEPTH        .M                         : Depth       
 CAL_INCH     .inch                      :             Caliper Log - A representation of the measured diameter of a borehole along its depth
 GR_API       .API                       : GammaRay    Gamma Ray (API) - Measures the intensity of natural gamma-ray radiation emitted from formations containing radioactive elements, such as K, Th and U
 AC_US_FT     .us/ft                     :             Unspecified Acoustic log - No accroynm or method of attainment is specified
 RS_OHMM      .ohmm                      :             Unspecified Shallow Resistivity - No accroynm or method of attainment is specified
 RM_OHMM      .ohm.m                     :             Unspecified Medium Resistivity - No accroynm or method of attainment is specified
 RD_OHMM      .ohmm                      :             Unspecified Deep Resistivity - No accroynm or method of attainment is specified - units of ohmm
 NEUT_P_RATIO .ratio                     :             Unspecified Neutron Porosity Log - No accroynm or method of attainment is specified
 RHOB_G_CC    .g/cc                      :             Bulk Density - Measures the density of bulk material, including any void space or other materials contained in the subject volume
 LITH         .                          : LITH        Lithology Curve
~A  DEPTH  CAL_INCH   GR_API   AC_US_FT  RS_OHMM   RM_OHMM   RD_OHMM  NEUT_P_R~ RHOB_G_C~    LITH   
# ...
2915.5644    7.7450   71.7813   94.1523    0.5782    0.8231    1.0955    0.2719    2.3368   36.0000 
2915.7168    7.7450   67.2692   93.8526    0.5782    0.8201    1.0474    0.2720    2.3417   36.0000 
2915.8692    7.7450   64.0953   93.6220    0.5782    0.8244    0.9922    0.2721    2.3487   36.0000 
2916.0216    7.7450   60.9688   93.4196    0.5782    0.8482    1.0315    0.2721    2.3506   36.0000 
2916.1740    7.7450   61.2188   93.2889    0.5782    0.8396    1.0391    0.2715    2.3536   36.0000 
2916.3264    7.7450   65.9137   93.1532    0.5782    0.8396    1.0763    0.2684    2.3570   36.0000 
2916.4788    7.7487   68.6804   93.1224    0.5782    0.8523    1.0740    0.2697    2.3605   36.0000 
2916.6312    7.7650   71.0724   92.9975    0.5782    0.8691    1.0740    0.2709    2.3641   36.0000 
2916.7836    7.7650   73.5929   93.1581    0.5782    0.8893    1.0860    0.2744    2.3681   36.0000 
2916.9360    7.7826   72.9837   93.3746    0.5782    0.7623    1.1022    0.2770    2.3663   36.0000 
2917.0884    7.7850   72.2573   94.0906    0.5782    0.7651    1.1022    0.2782    2.3584   36.0000 
2917.2408    7.7850   76.2815   94.2465    0.5782    0.7667    1.0444    0.2788    2.3492   36.0000 
2917.3932    7.7850   77.2813   94.4130    0.5782    0.7566    1.0200    0.2779    2.3407   36.0000 
2917.5456    7.7850   71.9847   94.5349    0.5782    0.7451    0.9807    0.2754    2.3435   36.0000 
2917.6980    7.7850   69.4797   94.7066    0.5782    0.7327    0.9523    0.2737    2.3458   36.0000 
2917.8504    7.7850   66.1563   95.4227    0.5782    0.7197    0.9311    0.2715    2.3443   36.0000 
2918.0028    7.7850   69.5424   95.8433    0.5782    0.7182    0.8783    0.2666    2.3395   36.0000 
2918.1552    7.7850   74.1250   96.1615    0.5782    0.7107    0.8444    0.2736    2.3383   36.0000 
2918.3076    7.7850   71.7010   95.4153    0.5782    0.7034    0.8314    0.2739    2.3383   36.0000 
2918.4600    7.7850   71.3734   94.9719    0.5782    0.6962    0.7870    0.2743    2.3511   36.0000 
2918.6124    7.9569   74.6563   94.5223    0.5782    0.6890    0.7900    0.2747    2.3548   36.0000 
2918.7648    8.0186   73.0385   94.2996    0.5782    0.6735    0.7934    0.2790    2.3522   36.0000 
2918.9172    8.2784   71.8455   94.2465    0.5782    0.7159    0.7591    0.2813    2.3006   36.0000 
2919.0696    8.2458   70.3288   94.2465    0.5782    0.7280    0.7433    0.2851    2.3023   36.0000 
2919.2220    8.2024   66.5313   94.3099    0.5732    0.7508    0.7306    0.2841    2.3060   36.0000 
2919.3744    8.1794   66.7928   94.5533    0.5732    0.7365    0.7197    0.2753    2.3091   36.0000 
2919.5268    8.1342   67.2813   94.9728    0.5732    0.7116    0.7276    0.2705    2.3106   36.0000 
2919.6792    8.0818   69.3639   95.3558    0.5732    0.6896    0.7457    0.2619    2.3104   36.0000 
2919.8316    8.0458   65.4451   95.6620    0.5732    0.6720    0.7534    0.2842    2.2836   36.0000 
2919.9840    8.0274   63.7553   95.8285    0.5732    0.6626    0.7730    0.2858    2.2819   36.0000 
2920.1364    7.9938   57.9688   95.8285    0.5732    0.6690    0.7933    0.2896    2.2775   36.0000 
2920.2888    7.9850   62.2413   95.3985    0.5748    0.6751    0.8078    0.2868    2.2819   36.0000 
2920.4412    7.9850   65.1102   93.8034    0.5748    0.6839    0.8149    0.2856    2.2809   36.0000 
2920.5936    7.9850   67.0313   93.4971    0.5748    0.6910    0.8287    0.2842    2.2794   36.0000 
2920.7460    7.9850   64.4063   93.2473    0.5748    0.6759    0.8287    0.2825    2.2689   36.0000 
2920.8984    7.9962   61.9800   93.5171    0.5748    0.6555    0.7970    0.2808    2.2643   36.0000 
2921.0508    8.0286   62.3175   94.5445    0.5748    0.6327    0.7904    0.2770    2.2547   36.0000 
2921.2032    8.0474   62.8012   95.4671    0.5748    0.6247    0.7756    0.2728    2.2510   36.0000 
2921.3556    8.0744   56.3166   95.1691    0.5748    0.6002    0.7645    0.2681    2.2482   36.0000 
2921.5080    8.1098   55.2915   93.8918    0.5748    0.6081    0.7756    0.2648    2.2446   36.0000 
2921.6604    8.0738   49.6986   93.4872    0.5748    0.6256    0.7826    0.2644    2.2404   36.0000 
2921.8128    8.0450   48.0938   93.0210    0.5748    0.6328    0.7877    0.2639    2.2245   36.0000 
2921.9652    8.0150   53.6845   92.8045    0.5748    0.6620    0.7944    0.2595    2.2240   36.0000 
2922.1176    7.9967   58.5123   92.4147    0.5748    0.6693    0.8027    0.2596    2.2240   36.0000 
2922.2700    8.0050   62.1563   92.6027    0.5748    0.6716    0.8228    0.2598    2.2244   36.0000 
2922.4224    8.0050   58.5662   92.8310    0.5748    0.6712    0.8240    0.2599    2.2252   36.0000 
2922.5748    8.0050   56.3709   92.9975    0.5748    0.6609    0.8111    0.2599    2.2268   36.0000 
2922.7272    8.0050   56.7813   93.0808    0.5748    0.6267    0.7643    0.2534    2.2333   36.0000 
2922.8796    8.0050   58.5000   93.0808    0.5748    0.5395    0.7371    0.2534    2.2430   36.0000 
2923.0320    8.0078   48.4688   92.3502    0.5748    0.5395    0.7108    0.2534    2.2531   36.0000 
2923.1844    8.0118   53.8799   91.5724    0.5748    0.5436    0.6705    0.2534    2.2670   36.0000 
2923.3368    8.0150   55.9688   91.1657    0.5748    0.5485    0.6524    0.2534    2.2782   36.0000 
2923.4892    8.0150   61.0938   91.0254    0.5748    0.5579    0.6402    0.2500    2.3028   36.0000 
2923.6416    8.0242   54.0938   91.4916    0.5748    0.5696    0.6237    0.2521    2.3058   36.0000 
2923.7940    8.0250   54.4688   92.5812    0.5748    0.5748    0.6085    0.2533    2.2806   36.0000 
2923.9464    8.0350   57.0000   93.2473    0.5748    0.5681    0.5926    0.2549    2.2676   36.0000 
2924.0988    8.0418   52.0230   93.2473    0.5748    0.5562    0.5654    0.2567    2.2560   36.0000 
2924.2512    8.0150   48.1494   93.2473    0.5748    0.5226    0.5516    0.2584    2.2390   36.0000 
2924.4036    8.0150   43.7188   93.2473    0.5748    0.5033    0.5230    0.2591    2.2365   36.0000 
2924.5560    8.0150   49.0344   93.1078    0.5748    0.4874    0.5182    0.2581    2.2415   36.0000 
2924.7084    8.0150   51.3933   92.7384    0.5748    0.4611    0.5272    0.2560    2.2645   36.0000 
2924.8608    8.0150   59.0938   92.5099    0.5748    0.5082    0.5345    0.2542    2.2797   36.0000 
2925.0132    8.0150   56.8445   90.8326    0.5748    0.5356    0.5548    0.2525    2.3316   36.0000 
2925.1656    8.0150   55.0368   90.8326    0.5748    0.5761    0.5894    0.2548    2.3327   36.0000 
2925.3180    8.0150   51.4077   90.8326    0.5748    0.6228    0.6206    0.2568    2.3331   36.0000 
2925.4704    8.0150   52.0590   90.9622    0.5748    0.6359    0.6532    0.2586    2.3208   36.0000 
2925.6228    8.0150   52.7451   91.0288    0.5748    0.6408    0.7137    0.2539    2.3122   36.0000 
2925.7752    8.0150   52.6078   91.1915    0.5748    0.6340    0.7641    0.2531    2.2958   36.0000 
2925.9276    8.0150   48.4828   91.9608    0.5748    0.6340    0.7841    0.2529    2.2890   36.0000 
2926.0800    8.0150   48.4063   92.6933    0.5748    0.6340    0.8432    0.2433    2.2825   36.0000 
2926.2324    8.0150   55.2705   93.2102    0.5749    0.6344    0.8432    0.2426    2.2781   36.0000 
2926.3848    8.0150   54.0802   93.4729    0.5759    0.6357    0.8432    0.2424    2.2721   36.0000 
2926.5372    8.0150   49.0313   94.1827    0.5732    0.6370    0.8513    0.2443    2.2619   36.0000 
2926.6896    8.0150   50.5427   94.6628    0.5732    0.6376    0.8602    0.2469    2.2540   36.0000 
2926.8420    8.0150   51.7218   96.9109    0.5736    0.6376    0.8672    0.2496    2.2502   36.0000 
2926.9944    8.0150   53.6255   99.6170    0.5747    0.6376    0.8731    0.2518    2.2494   36.0000 
2927.1468    8.0150   55.0755   99.6170    0.5758    0.6811    0.8804    0.2547    2.2518   36.0000 
2927.2992    8.0150   55.3293   99.5498    0.5767    0.7094    0.8800    0.2564    2.2612   36.0000 
2927.4516    8.0150   59.6054   99.4505    0.5771    0.6916    0.8755    0.2572    2.2533   36.0000 
2927.6040    8.0150   58.9988   99.2839    0.5776    0.6843    0.8729    0.2562    2.2460   36.0000 
