~VERSION INFORMATION
 VERS.                 2.0:   CWLS LOG ASCII STANDARD - VERSION 2.0
 WRAP.                  NO:   SINGLE LINE PER DEPTH STEP
 CREA.                 04/06/2018 10:30:07
#CREATED USING DSPetro VERSION 5000.10.1.3 BY H191660 ON 04/06/2018 10:30:07
~WELL INFORMATION
#MNEM.UNIT       DATA                          DESCRIPTION MNEMONIC
#---------      ---------------------------   --------------------------
 STRT    .M         1867.0524                 : START DEPTH
 STOP    .M         3624.9864                 : STOP DEPTH
 STEP    .M         0.1524                    : STEP VALUE
 NULL    .      -999.0000                     : NULL VALUE
 DATE    .      04/06/2018                    : LAS file Creation Date
 WELL .      34_8_1                      : Well Name
 COMP .      Neftex Exploration Insights : Company
 FLD  .      VISUND                      : Field
 UWI  .      YNOWL_340801                : Unique Well Identifier (UWI)
 LOC  .                                  : Location
 RWS  .      -999                        : Def_Rw
 WST  .      -999                        : Def_Rwt
 SRVC .                                  : Contractor
~CURVE INFORMATION
#MNEM                UNIT       API CODE   Curve Type Comments
#----------    --------------- ----------  ---------- -----------
 DEPTH        .M                         : Depth       
 CAL_INCH     .inch                      :             Caliper Log - A representation of the measured diameter of a borehole along its depth
 GR_API       .API                       : GammaRay    Gamma Ray (API) - Measures the intensity of natural gamma-ray radiation emitted from formations containing radioactive elements, such as K, Th and U
 AC_US_FT     .us/ft                     :             Unspecified Acoustic log - No accroynm or method of attainment is specified
 RS_OHMM      .ohmm                      :             Unspecified Shallow Resistivity - No accroynm or method of attainment is specified
 RM_OHMM      .ohm.m                     :             Unspecified Medium Resistivity - No accroynm or method of attainment is specified
 RD_OHMM      .ohmm                      :             Unspecified Deep Resistivity - No accroynm or method of attainment is specified - units of ohmm
 NEUT_P_RATIO .ratio                     :             Unspecified Neutron Porosity Log - No accroynm or method of attainment is specified
 RHOB_G_CC    .g/cc                      :             Bulk Density - Measures the density of bulk material, including any void space or other materials contained in the subject volume
 LITH         .                          : LITH        Lithology Curve
~A  DEPTH  CAL_INCH   GR_API   AC_US_FT  RS_OHMM   RM_OHMM   RD_OHMM  NEUT_P_R~ RHOB_G_C~    LITH   
# ...
3610.5084    6.4552 -999.0000   58.4299 -999.0000    3.3741    3.0370    0.2057    2.5227 -999.0000 
3610.6608    6.5093 -999.0000   58.4289 -999.0000    3.3593    3.0371    0.2079    2.5176 -999.0000 
3610.8132    6.6298 -999.0000   58.4279 -999.0000    3.3594    3.0372    0.2060    2.5147 -999.0000 
3610.9656    6.7267 -999.0000   58.4269 -999.0000    3.3595    3.0373    0.1959    2.5232 -999.0000 
3611.1180    6.8547 -999.0000   58.4259 -999.0000    3.3596    3.0374    0.1904    2.5281 -999.0000 
3611.2704    7.1540 -999.0000   58.4249 -999.0000    3.3597    3.0375    0.1774    2.5297 -999.0000 
3611.4228    7.1405 -999.0000   58.4239 -999.0000    3.3598    3.0376    0.1774    2.4973 -999.0000 
3611.5752    7.0543 -999.0000   58.4228 -999.0000    3.3600    3.0377    0.1796    2.4865 -999.0000 
3611.7276    7.0155 -999.0000   58.4218 -999.0000    3.3601    3.0291    0.1841    2.4490 -999.0000 
3611.8800    6.8076 -999.0000   58.4208 -999.0000    3.3602    3.0292    0.1874    2.3831 -999.0000 
3612.0324    6.5746 -999.0000   58.4198 -999.0000    3.3603    3.0293    0.1913    2.3724 -999.0000 
3612.1848    6.5748 -999.0000   58.4188 -999.0000    3.3604    3.0294    0.1986    2.3522 -999.0000 
3612.3372    6.5749 -999.0000   58.4178 -999.0000    3.3606    3.0295    0.1971    2.3508 -999.0000 
3612.4896    6.5750 -999.0000   58.4167 -999.0000    3.3607    3.0296    0.1941    2.3506 -999.0000 
3612.6420    6.5751 -999.0000   58.4157 -999.0000    3.3608    3.0297    0.1920    2.3514 -999.0000 
3612.7944    6.5152 -999.0000   58.4147 -999.0000    3.3609    3.0298    0.1880    2.3536 -999.0000 
3612.9468    6.4997 -999.0000   58.4137 -999.0000    3.3610    3.0299    0.1864    2.3552 -999.0000 
3613.0992    6.4697 -999.0000   58.4127 -999.0000    3.3611    3.0300    0.1890    2.3573 -999.0000 
3613.2516    6.4519 -999.0000   58.4117 -999.0000    3.3613    3.0302    0.1921    2.3577 -999.0000 
3613.4040    6.4357 -999.0000   58.4106 -999.0000    3.3614    3.0303    0.1944    2.3577 -999.0000 
3613.5564    6.4359 -999.0000   58.4096 -999.0000    3.3615    3.0304    0.1966    2.3373 -999.0000 
3613.7088    6.4360 -999.0000   58.4086 -999.0000    3.3616    3.0305    0.1985    2.3369 -999.0000 
3613.8612    6.4361 -999.0000   58.4076 -999.0000    3.3617    3.0306    0.1976    2.3373 -999.0000 
3614.0136    6.4362 -999.0000   58.4066 -999.0000    3.3618    3.0307    0.1942    2.3413 -999.0000 
3614.1660    6.4363 -999.0000   58.4056 -999.0000    3.3620    3.0308    0.1895    2.3466 -999.0000 
3614.3184    6.4177 -999.0000   58.4045 -999.0000    3.3621    3.0396    0.1896    2.3507 -999.0000 
3614.4708    6.3820 -999.0000   58.4035 -999.0000    3.3622    3.0397    0.1912    2.3524 -999.0000 
3614.6232    6.3567 -999.0000   58.4025 -999.0000    3.3720    3.0399    0.1918    2.3528 -999.0000 
3614.7756    6.3505 -999.0000   58.4015 -999.0000    3.3721    3.0400    0.1918    2.3510 -999.0000 
3614.9280    6.3169 -999.0000   58.4005 -999.0000    3.3723    3.0401    0.1918    2.3447 -999.0000 
3615.0804    6.3171 -999.0000   58.3995 -999.0000    3.3724    3.0402    0.1924    2.3401 -999.0000 
3615.2328    6.3172 -999.0000   58.3985 -999.0000    3.3725    3.0403    0.1921    2.3360 -999.0000 
3615.3852    6.3173 -999.0000   58.3974 -999.0000    3.3726    3.0404    0.1921    2.3353 -999.0000 
3615.5376    6.3174 -999.0000   58.3964 -999.0000    3.3727    3.0405    0.1921    2.3388 -999.0000 
3615.6900    6.3176 -999.0000   58.3954 -999.0000    3.3729    2.9971    0.1921    2.3424 -999.0000 
3615.8424    6.3177 -999.0000   58.3944 -999.0000    3.3730    2.6404    0.1921    2.3516 -999.0000 
3615.9948    6.3178 -999.0000   58.3934 -999.0000    3.3731    2.6405    0.1921    2.3529 -999.0000 
3616.1472    6.3179 -999.0000   58.3924 -999.0000    3.3732    2.6406    0.1921    2.3534 -999.0000 
3616.2996    6.3180 -999.0000   58.3913 -999.0000    3.3733    2.6407    0.1921    2.3541 -999.0000 
3616.4520    6.3182 -999.0000   58.3903 -999.0000    3.3734    2.6408    0.1921    2.3538 -999.0000 
3616.6044    6.3183 -999.0000   58.3893 -999.0000    3.3736    2.6409    0.1920    2.3523 -999.0000 
3616.7568    6.3184 -999.0000   58.3883 -999.0000    3.3737    2.6410    0.1920    2.3124 -999.0000 
3616.9092    6.3185 -999.0000   58.3873 -999.0000    3.3738    2.6411    0.1920    2.3108 -999.0000 
3617.0616    6.3187 -999.0000   58.3863 -999.0000    3.3739    2.6412    0.1920    2.3108 -999.0000 
3617.2140    6.3188 -999.0000   58.3852 -999.0000    3.3740    2.6413    0.1920    2.3116 -999.0000 
3617.3664    6.3189 -999.0000   58.3842 -999.0000    3.3644    2.6414    0.1920    2.3287 -999.0000 
3617.5188    6.3190 -999.0000   58.3832 -999.0000    3.3646    2.6414    0.1920    2.3336 -999.0000 
3617.6712    6.3191 -999.0000   58.3156 -999.0000    3.3550    2.6415    0.1920    2.3355 -999.0000 
3617.8236    6.3193 -999.0000   40.3812 -999.0000    3.3459    2.6416    0.1920    2.3398 -999.0000 
3617.9760    6.3194 -999.0000   39.8802 -999.0000    3.3456    2.6417    0.1920    2.3362 -999.0000 
3618.1284    6.3195 -999.0000   39.8791 -999.0000    3.3457    2.6418    0.1918    2.3362 -999.0000 
3618.2808    6.3196 -999.0000   39.8465 -999.0000 -999.0000 -999.0000    0.1918    2.3368 -999.0000 
3618.4332    6.3198 -999.0000   39.8084 -999.0000 -999.0000 -999.0000    0.1918    2.3354 -999.0000 
3618.5856    6.3199 -999.0000   39.7703 -999.0000 -999.0000 -999.0000    0.1918    2.3340 -999.0000 
3618.7380    6.3200 -999.0000   39.7322 -999.0000 -999.0000 -999.0000    0.1918    2.3329 -999.0000 
3618.8904    6.3201 -999.0000   39.6363 -999.0000 -999.0000 -999.0000    0.1918    2.3329 -999.0000 
3619.0428    6.3202 -999.0000   39.4375 -999.0000 -999.0000 -999.0000    0.1917    2.3433 -999.0000 
3619.1952    6.3204 -999.0000   39.3720 -999.0000 -999.0000 -999.0000    0.1917    2.3587 -999.0000 
3619.3476    6.3205 -999.0000   39.3710 -999.0000 -999.0000 -999.0000    0.1917    2.3646 -999.0000 
3619.5000    6.3206 -999.0000   39.3700 -999.0000 -999.0000 -999.0000    0.1917    2.3646 -999.0000 
3619.6524    6.3207 -999.0000   39.3690 -999.0000 -999.0000 -999.0000    0.1917    2.3644 -999.0000 
3619.8048    6.3208 -999.0000   39.3680 -999.0000 -999.0000 -999.0000    0.1917    2.3533 -999.0000 
3619.9572    6.3210 -999.0000   39.3670 -999.0000 -999.0000 -999.0000    0.1918    2.3546 -999.0000 
3620.1096    6.3211 -999.0000   39.3659 -999.0000 -999.0000 -999.0000    0.1920    2.3577 -999.0000 
3620.2620    6.3212 -999.0000   39.3649 -999.0000 -999.0000 -999.0000    0.1920    2.3591 -999.0000 
3620.4144    6.3213 -999.0000   39.3639 -999.0000 -999.0000 -999.0000    0.1920    2.3587 -999.0000 
3620.5668    6.3215 -999.0000   39.3629 -999.0000 -999.0000 -999.0000    0.1920    2.3342 -999.0000 
3620.7192    6.3150 -999.0000   39.3619 -999.0000 -999.0000 -999.0000    0.1920    2.3309 -999.0000 
3620.8716    6.2617 -999.0000   39.3609 -999.0000 -999.0000 -999.0000    0.1920    2.3309 -999.0000 
3621.0240    3.4219 -999.0000   39.3598 -999.0000 -999.0000 -999.0000    0.2197    2.3563 -999.0000 
3621.1764    3.3280 -999.0000   39.3588 -999.0000 -999.0000 -999.0000    0.2210    2.3593 -999.0000 
3621.3288    3.0721 -999.0000   39.3578 -999.0000 -999.0000 -999.0000    0.2216    2.3605 -999.0000 
3621.4812    3.0659 -999.0000   39.3568 -999.0000 -999.0000 -999.0000    0.2217    2.3605 -999.0000 
3621.6336    3.0623 -999.0000   39.3558 -999.0000 -999.0000 -999.0000    0.2217    2.3605 -999.0000 
3621.7860    3.0624 -999.0000   39.3548 -999.0000 -999.0000 -999.0000    0.2217    2.3597 -999.0000 
3621.9384    3.0626 -999.0000   39.3537 -999.0000 -999.0000 -999.0000    0.2217    2.3593 -999.0000 
3622.0908    3.0627 -999.0000   39.3527 -999.0000 -999.0000 -999.0000    0.2217 -999.0000 -999.0000 
3622.2432    3.0628 -999.0000   39.3517 -999.0000 -999.0000 -999.0000 -999.0000 -999.0000 -999.0000 
3622.3956    3.0629 -999.0000   39.3507 -999.0000 -999.0000 -999.0000 -999.0000 -999.0000 -999.0000 
3622.5480 -999.0000 -999.0000   39.3497 -999.0000 -999.0000 -999.0000 -999.0000 -999.0000 -999.0000 
