~VERSION INFORMATION
 VERS.                 2.0:   CWLS LOG ASCII STANDARD - VERSION 2.0
 WRAP.                  NO:   SINGLE LINE PER DEPTH STEP
 CREA.                 04/06/2018 10:30:07
#CREATED USING DSPetro VERSION 5000.10.1.3 BY H191660 ON 04/06/2018 10:30:07
~WELL INFORMATION
#MNEM.UNIT       DATA                          DESCRIPTION MNEMONIC
#---------      ---------------------------   --------------------------
 STRT    .M         1867.0524                 : START DEPTH
 STOP    .M         3624.9864                 : STOP DEPTH
 STEP    .M         0.1524                    : STEP VALUE
 NULL    .      -999.0000                     : NULL VALUE
 DATE    .      04/06/2018                    : LAS file Creation Date
 WELL .      34_8_1                      : Well Name
 COMP .      Neftex Exploration Insights : Company
 FLD  .      VISUND                      : Field
 UWI  .      YNOWL_340801                : Unique Well Identifier (UWI)
 LOC  .                                  : Location
 RWS  .      -999                        : Def_Rw
 WST  .      -999                        : Def_Rwt
 SRVC .                                  : Contractor
~CURVE INFORMATION
#MNEM                UNIT       API CODE   Curve Type Comments
#----------    --------------- ----------  ---------- -----------
 DEPTH        .M                         : Depth       
 CAL_INCH     .inch                      :             Caliper Log - A representation of the measured diameter of a borehole along its depth
 GR_API       .API                       : GammaRay    Gamma Ray (API) - Measures the intensity of natural gamma-ray radiation emitted from formations containing radioactive elements, such as K, Th and U
 AC_US_FT     .us/ft                     :             Unspecified Acoustic log - No accroynm or method of attainment is specified
 RS_OHMM      .ohmm                      :             Unspecified Shallow Resistivity - No accroynm or method of attainment is specified
 RM_OHMM      .ohm.m                     :             Unspecified Medium Resistivity - No accroynm or method of attainment is specified
 RD_OHMM      .ohmm                      :             Unspecified Deep Resistivity - No accroynm or method of attainment is specified - units of ohmm
 NEUT_P_RATIO .ratio                     :             Unspecified Neutron Porosity Log - No accroynm or method of attainment is specified
 RHOB_G_CC    .g/cc                      :             Bulk Density - Measures the density of bulk material, including any void space or other materials contained in the subject volume
 LITH         .                          : LITH        Lithology Curve
~A  DEPTH  CAL_INCH   GR_API   AC_US_FT  RS_OHMM   RM_OHMM   RD_OHMM  NEUT_P_R~ RHOB_G_C~    LITH   
# ...
2793.6444    8.0383   91.1058  112.7311    1.3116   89.1539  197.9937    0.2509    2.1713   36.0000 
2793.7968    8.0383   91.5588  119.5587    1.3511   95.3353  197.9937    0.2562    2.1241   36.0000 
2793.9492    8.0383   92.1631  102.6994    1.2936   99.4723   79.6750    0.2576    2.1141   36.0000 
2794.1016    8.0383   92.8878   93.3922    1.2196  102.1899  197.9937    0.2598    2.1065   36.0000 
2794.2540    8.0383   88.0771   77.7306    1.1678   93.3014  197.9937    0.2644    2.1040   36.0000 
2794.4064    8.0383   86.5716   70.9013    1.1182   84.5303  197.9937    0.2527    2.1040   36.0000 
2794.5588    8.0521   83.2305   61.3236    1.0634   83.1646  197.4242    0.2511    2.1367   36.0000 
2794.7112    8.0701   81.1729   45.9534    0.9088  115.7781  188.7990    0.1824    2.1902   36.0000 
2794.8636    8.0881   75.9055   65.7475    0.9710   92.7736   45.8164    0.1309    2.2485   36.0000 
2795.0160    8.1061   82.6793   70.6557    1.0617   78.8263   45.6952    0.1326    2.3507   36.0000 
2795.1684    8.1064   85.1028   83.4844    1.0617   75.4496  134.6612    0.1834    2.3515   36.0000 
2795.3208    8.0783   89.3488  102.8977    1.0617   68.0534  134.9779    0.2061    2.3515   36.0000 
2795.4732    8.0763   91.8922  122.3064    1.0648   63.1385   32.3847    0.2654    2.1125   36.0000 
2795.6256    8.0583   90.8305  119.8908    1.3292   60.9112   31.2877    0.2736    2.1181   36.0000 
2795.7780    8.0403   90.6053  117.8249    1.2157   56.5520   23.4898    0.2719    2.1177   36.0000 
2795.9304    8.0223   89.6976  112.8798    1.2144   60.6066   20.6340    0.2705    2.1185   36.0000 
2796.0828    8.0042   89.4793  112.5495    1.2123   64.0488   24.4385    0.2667    2.1197   36.0000 
2796.2352    7.9983   89.1804  112.6478    1.2032   68.3645   30.5673    0.2642    2.1210   36.0000 
2796.3876    7.9983   93.4148  109.4812    1.3839   71.2084   29.6501    0.2629    2.1357   36.0000 
2796.5400    7.9983   95.0146  110.2256    1.3677   68.4457   20.3444    0.2614    2.1590   36.0000 
2796.6924    7.9983   90.8930  112.7776    1.3235   61.0790   19.6205    0.2596    2.1602   36.0000 
2796.8448    7.9983   85.8697  114.8000    1.2640   59.0491   21.0969    0.2588    2.1600   36.0000 
2796.9972    7.9983   80.0271  116.4779    1.2320   51.5872   29.1013    0.2584    2.1590   36.0000 
2797.1496    7.9983   80.2144  116.5612    1.1981   46.2248   30.0933    0.2566    2.1581   36.0000 
2797.3020    7.9983   85.2500  116.5612    1.1971   42.6428   30.0933    0.2561    2.1581   36.0000 
2797.4544    7.9983   86.3227  117.2725    1.4158   47.9671   32.8284    0.2628    2.1621   36.0000 
2797.6068    7.9983   91.8489  117.7897    1.4576   49.1777   37.3374    0.2658    2.1808   36.0000 
2797.7592    7.9983   94.0779  117.9767    1.4033   68.3333   39.9018    0.2721    2.1800   36.0000 
2797.9116    7.9983   89.2014  116.8795    1.3068   66.5424   73.5009    0.2675    2.1783   36.0000 
2798.0640    7.9983   84.3712  116.2791    1.3506   63.4455   74.1389    0.2574    2.1775   36.0000 
2798.2164    7.9983   84.5608  115.2997    1.4256   61.1631   35.8743    0.2574    2.1812   36.0000 
2798.3688    7.9983   84.9546  112.5724    1.4618   54.9220   31.4669    0.2574    2.1841   36.0000 
2798.5212    7.9983   83.9424  112.1482    1.4120   47.2329   29.1631    0.2549    2.1869   36.0000 
2798.6736    7.9983   82.9291  114.4110    1.2657   46.2745   25.0947    0.2518    2.1898   36.0000 
2798.8260    7.9983   81.9159  114.8613    1.2757   43.1411   22.7420    0.2500    2.1926   36.0000 
2798.9784    7.9983   80.7140  115.4503    1.3228   44.0876   20.2623    0.2460    2.1944   36.0000 
2799.1308    7.9983   86.5358  116.9775    1.3792   45.6671   19.7652    0.2459    2.1960   36.0000 
2799.2832    7.9983   90.6094  117.1441    1.4165   47.7185   19.4486    0.2467    2.1994   36.0000 
2799.4356    7.9983   93.2767  117.0364    1.4349   56.7391   22.1935    0.2486    2.2040   36.0000 
2799.5880    7.9983   96.5004  116.3320    1.2878   58.0373   58.8793    0.2520    2.2079   36.0000 
2799.7404    7.9983  101.1345  114.9792    1.2074   32.9317   60.6874    0.2539    2.2095   36.0000 
2799.8928    7.9983  103.8822  115.8103    1.2178   32.1964   33.3904    0.2566    2.2185   36.0000 
2800.0452    7.9983   97.6472  115.9783    1.7832   31.4117   31.8258    0.2589    2.2260   36.0000 
2800.1976    7.9983   94.2651  116.1449    1.6873   30.6912   48.1079    0.2548    2.2237   36.0000 
2800.3500    7.9983   89.8312  115.9783    1.3186   30.6179   71.3674    0.2493    2.2087   36.0000 
2800.5024    7.9983   93.6332  115.3122    1.3064   63.8265  126.6892    0.2499    2.1913   36.0000 
2800.6548    7.9983   95.9675  115.4788    1.3953   60.7821  145.8737    0.2504    2.1858   36.0000 
2800.8072    7.9982  100.4472  116.6339    2.0763   55.2970  198.5649    0.2510    2.1917   36.0000 
2800.9596    7.9982   98.4687  117.0536    2.0014   51.7208  198.5649    0.2518    2.2069   36.0000 
2801.1120    7.9982   93.4169  117.6260    1.9073  196.1703  198.5649    0.2479    2.2127   36.0000 
2801.2644    7.9982   92.9913  114.3607    1.3423  196.2900  198.5649    0.2492    2.2126   36.0000 
2801.4168    7.9982   92.6413  112.6070    1.3026  196.2900  198.5649    0.2501    2.2106   36.0000 
2801.5692    7.9981   82.6496  111.6327    1.3665   64.7511   53.5290    0.2510    2.2060   36.0000 
2801.7216    7.9981   81.8123  110.8827    1.4804   62.9160   49.8493    0.2483    2.2022   36.0000 
2801.8740    7.9981   80.7130  110.4496    1.0550   32.8285   46.2004    0.2470    2.1984   36.0000 
2802.0264    7.9981   81.4622  111.9905    0.9652   31.4391   26.5418    0.2409    2.1913   36.0000 
2802.1788    7.9981   82.2115  113.5671    0.9193   29.6584   20.2949    0.2399    2.1898   36.0000 
2802.3312    8.0111   82.2114  114.1719    0.9786   26.8656   18.5848    0.2498    2.1898   36.0000 
2802.4836    8.0180   82.2113  115.2467    1.4179   25.1713   15.4413    0.2519    2.1916   36.0000 
2802.6360    8.0089   82.1546  115.5466    1.5841   25.4823   15.0817    0.2620    2.2362   36.0000 
2802.7884    7.9980   81.8989  115.4266    1.7561   26.4742   18.1088    0.2610    2.2489   36.0000 
2802.9408    7.9979   77.9784  114.3929    1.8673   28.8292   19.4313    0.2594    2.2652   36.0000 
2803.0932    7.9979   75.4664  112.9809    1.8212   30.6627   21.9840    0.2630    2.2919   36.0000 
2803.2456    7.9979   77.4718  115.9327    1.7314   33.2467   21.7110    0.2671    2.3054   36.0000 
2803.3980    7.9979   79.1525  116.5327    1.9554   38.1302   21.4319    0.2615    2.3020   36.0000 
2803.5504    7.9979   77.9727  118.5595    1.1215   30.9214   26.1593    0.2556    2.2874   36.0000 
2803.7028    7.9978   77.3999  118.5595    1.1678   23.4223   30.1677    0.2541    2.2056   36.0000 
2803.8552    7.9978   78.4182  116.0690    1.2062   21.7948   35.0877    0.2499    2.2009   36.0000 
2804.0076    7.9978   79.8998  109.4005    2.1381   19.4788   58.0774    0.2544    2.1999   36.0000 
2804.1600    7.9978   74.1789  115.9521    2.3637   27.0435   57.8967    0.2577    2.2085   36.0000 
2804.3124    7.9978   67.0349  115.7748    2.5982   30.8706   56.4074    0.2614    2.2827   36.0000 
2804.4648    7.9977   69.6667  114.7174    2.7237   35.0667   53.2105    0.2429    2.2827   36.0000 
2804.6172    7.9977   70.3212  137.3481    1.4747  196.8563   50.5069    0.2310    2.2771   36.0000 
2804.7696    7.9977   71.7808  138.3775    1.1609  196.8563   45.0406    0.2190    2.1783   36.0000 
2804.9220    7.9977   74.5910  142.2778    1.1547  196.8563   35.2021    0.1749    2.1355   36.0000 
2805.0744    7.9977   71.2458  142.0400    1.1317   74.1389   35.8108    0.1909    2.1346   36.0000 
2805.2268    7.9976   68.1300  136.1602    1.0753   38.5531   39.8626    0.2003    2.1499   36.0000 
2805.3792    7.9976   64.8089  132.9386    0.8779   70.5292   39.1131    0.2085    2.1694   36.0000 
2805.5316    7.9976   57.2917  126.1588    2.0745   70.3358   30.4597    0.2169    2.2038   36.0000 
2805.6840    7.9976   58.3452  126.4274    2.1372   37.2498   25.2978    0.2302    2.2056   36.0000 
