~VERSION INFORMATION
 VERS.                 2.0:   CWLS LOG ASCII STANDARD - VERSION 2.0
 WRAP.                  NO:   SINGLE LINE PER DEPTH STEP
 CREA.                 04/06/2018 10:30:07
#CREATED USING DSPetro VERSION 5000.10.1.3 BY H191660 ON 04/06/2018 10:30:07
~WELL INFORMATION
#MNEM.UNIT       DATA                          DESCRIPTION MNEMONIC
#---------      ---------------------------   --------------------------
 STRT    .M         1867.0524                 : START DEPTH
 STOP    .M         3624.9864                 : STOP DEPTH
 STEP    .M         0.1524                    : STEP VALUE
 NULL    .      -999.0000                     : NULL VALUE
 DATE    .      04/06/2018                    : LAS file Creation Date
 WELL .      34_8_1                      : Well Name
 COMP .      Neftex Exploration Insights : Company
 FLD  .      VISUND                      : Field
 UWI  .      YNOWL_340801                : Unique Well Identifier (UWI)
 LOC  .                                  : Location
 RWS  .      -999                        : Def_Rw
 WST  .      -999                        : Def_Rwt
 SRVC .                                  : Contractor
~CURVE INFORMATION
#MNEM                UNIT       API CODE   Curve Type Comments
#----------    --------------- ----------  ---------- -----------
 DEPTH        .M                         : Depth       
 CAL_INCH     .inch                      :             Caliper Log - A representation of the measured diameter of a borehole along its depth
 GR_API       .API                       : GammaRay    Gamma Ray (API) - Measures the intensity of natural gamma-ray radiation emitted from formations containing radioactive elements, such as K, Th and U
 AC_US_FT     .us/ft                     :             Unspecified Acoustic log - No accroynm or method of attainment is specified
 RS_OHMM      .ohmm                      :             Unspecified Shallow Resistivity - No accroynm or method of attainment is specified
 RM_OHMM      .ohm.m                     :             Unspecified Medium Resistivity - No accroynm or method of attainment is specified
 RD_OHMM      .ohmm                      :             Unspecified Deep Resistivity - No accroynm or method of attainment is specified - units of ohmm
 NEUT_P_RATIO .ratio                     :             Unspecified Neutron Porosity Log - No accroynm or method of attainment is specified
 RHOB_G_CC    .g/cc                      :             Bulk Density - Measures the density of bulk material, including any void space or other materials contained in the subject volume
 LITH         .                          : LITH        Lithology Curve
~A  DEPTH  CAL_INCH   GR_API   AC_US_FT  RS_OHMM   RM_OHMM   RD_OHMM  NEUT_P_R~ RHOB_G_C~    LITH   
# ...
2330.3484   12.8178   84.7492  112.6615 -999.0000    1.5067    1.2428    0.3241    2.4085   37.0000 
2330.5008   12.8178   87.7346  112.8114 -999.0000    1.4754    1.2266    0.3373    2.4053   37.0000 
2330.6532   12.8179   83.5799  112.8339 -999.0000    1.4407    1.2103    0.3430    2.4073   37.0000 
2330.8056   12.8179   82.0746  112.7311 -999.0000    1.4157    1.1998    0.3616    2.4073   37.0000 
2330.9580   12.8179   80.0404  112.6704 -999.0000    1.4025    1.1936    0.3631    2.4067   37.0000 
2331.1104   12.8179   75.6755  112.3980 -999.0000    1.3966    1.1880    0.3420    2.4018   37.0000 
2331.2628   12.8179   81.2233  112.3980 -999.0000    1.4038    1.1880    0.3414    2.3994   37.0000 
2331.4152   12.8279   84.0612  112.3980 -999.0000    1.4111    1.1880    0.3411    2.3994   37.0000 
2331.5676   12.8279   90.2344  112.2678 -999.0000    1.4249    1.1987    0.3401    2.4010   37.0000 
2331.7200   12.8280   82.8952  112.2315 -999.0000    1.4341    1.2065    0.3290    2.4052   37.0000 
2331.8724   12.8280   81.7717  112.0378 -999.0000    1.4513    1.2127    0.3132    2.4119   37.0000 
2332.0248   12.8280   74.3014  111.8182 -999.0000    1.4699    1.2293    0.3114    2.4123   37.0000 
2332.1772   12.8280   76.6076  111.6049 -999.0000    1.4852    1.2467    0.3102    2.4087   37.0000 
2332.3296   12.8280   77.9379  111.3052 -999.0000    1.5056    1.2532    0.3137    2.4043   37.0000 
2332.4820   12.8280   81.5498  111.0054 -999.0000    1.5355    1.2637    0.3150    2.3998   37.0000 
2332.6344   12.8280   80.4457  110.7057 -999.0000    1.5574    1.2884    0.3189    2.3952   37.0000 
2332.7868   12.8199   79.5719  110.4060 -999.0000    1.5845    1.2950    0.3168    2.3933   37.0000 
2332.9392   12.8181   77.8011  109.9834 -999.0000    1.6474    1.3218    0.3039    2.3931   37.0000 
2333.0916   12.8081   77.8012  109.8065 -999.0000    1.6047    1.3789    0.3119    2.3931   37.0000 
2333.2440   12.8030   81.0191  107.2676 -999.0000    1.5551    1.3613    0.3186    2.4214   37.0000 
2333.3964   12.7981   78.6955  106.0162 -999.0000    1.5215    1.3472    0.3144    2.4290   37.0000 
2333.5488   12.7981   77.0194  105.0772 -999.0000    1.5795    1.3372    0.3130    2.4221   37.0000 
2333.7012   12.7982   76.2849  107.0927 -999.0000    1.6043    1.3369    0.3114    2.3978   37.0000 
2333.8536   12.7982   74.4345  107.5890 -999.0000    1.6215    1.3407    0.3099    2.3929   37.0000 
2334.0060   12.7882   73.8028  108.3387 -999.0000    1.6181    1.3446    0.3226    2.3915   37.0000 
2334.1584   12.7782   76.9271  109.6206 -999.0000    1.6007    1.3434    0.3246    2.3970   37.0000 
2334.3108   12.7651   77.6601  110.2200 -999.0000    1.5760    1.3028    0.3363    2.4062   37.0000 
2334.4632   12.7562   79.7692  110.8195 -999.0000    1.5054    1.2895    0.3524    2.4094   37.0000 
2334.6156   12.7483   83.9209  111.0292 -999.0000    1.4891    1.2820    0.3399    2.4069   37.0000 
2334.7680   12.7483   83.2303  111.2323 -999.0000    1.4080    1.2803    0.3282    2.4044   37.0000 
2334.9204   12.7545   81.8805  110.6361 -999.0000    1.4872    1.2803    0.3278    2.4052   37.0000 
2335.0728   12.7805   80.6981  110.2465 -999.0000    1.5252    1.2983    0.3275    2.4099   37.0000 
2335.2252   12.7883   85.9898  109.1075 -999.0000    1.6403    1.3563    0.3249    2.4161   37.0000 
2335.3776   12.7883   87.1123  109.9932 -999.0000    1.6344    1.3602    0.3207    2.4176   37.0000 
2335.5300   12.7883   83.1108  110.3229 -999.0000    1.6135    1.3681    0.3216    2.4154   37.0000 
2335.6824   12.7883   82.0754  110.7327 -999.0000    1.5831    1.3641    0.3202    2.4060   37.0000 
2335.8348   12.7984   80.1631  110.7327 -999.0000    1.6307    1.3641    0.3152    2.3944   37.0000 
2335.9872   12.7984   76.1305  110.5863 -999.0000    1.7102    1.3641    0.3090    2.3944   37.0000 
2336.1396   12.7984   72.9295  110.6960 -999.0000    1.6925    1.3652    0.3021    2.4067   37.0000 
2336.2920   12.7984   77.9171  110.7327 -999.0000    1.6637    1.3681    0.2959    2.4106   37.0000 
2336.4444   12.7984   80.0578  110.8292 -999.0000    1.6203    1.3681    0.3082    2.4052   37.0000 
2336.5968   12.7984   83.8840  110.8992 -999.0000    1.5537    1.3681    0.3174    2.4052   37.0000 
2336.7492   12.7984   89.4060  110.8361 -999.0000    1.5373    1.3681    0.3221    2.4070   37.0000 
2336.9016   12.7984   91.4867  110.6863 -999.0000    1.5725    1.3681    0.3271    2.4098   37.0000 
2337.0540   12.7885   83.6263  110.5364 -999.0000    1.6082    1.3681    0.3325    2.4106   37.0000 
2337.2064   12.7785   77.9108  110.3997 -999.0000    1.6323    1.3681    0.3386    2.4027   37.0000 
2337.3588   12.7577   76.6372  110.3997 -999.0000    1.6589    1.3681    0.3451    2.3966   37.0000 
2337.5112   12.7434   75.2421  110.3997 -999.0000    1.6737    1.3681    0.3372    2.3943   37.0000 
2337.6636   12.7185   79.7685  110.6590 -999.0000    1.6205    1.3425    0.3328    2.3927   37.0000 
2337.8160   12.7186   80.6675  110.7327 -999.0000    1.5826    1.3303    0.3315    2.3929   37.0000 
2337.9684   12.7186   84.8990  110.8290 -999.0000    1.5633    1.3122    0.3252    2.4119   37.0000 
2338.1208   12.7186   85.4327  110.8992 -999.0000    1.5838    1.2955    0.3196    2.4160   37.0000 
2338.2732   12.7186   83.6938  110.9622 -999.0000    1.5845    1.2849    0.3181    2.4105   37.0000 
2338.4256   12.7186   79.5088  111.1121 -999.0000    1.5840    1.2783    0.3250    2.4025   37.0000 
2338.5780   12.7286   78.8666  111.3213 -999.0000    1.5497    1.2704    0.3277    2.3998   37.0000 
2338.7304   12.7286   81.4284  111.7319 -999.0000    1.5075    1.2578    0.3346    2.3985   37.0000 
2338.8828   12.7287   82.1016  111.7319 -999.0000    1.4835    1.2513    0.3329    2.4011   37.0000 
2339.0352   12.7360   84.1909  112.2315 -999.0000    1.4809    1.2404    0.3252    2.4052   37.0000 
2339.1876   12.7387   86.1147  111.8984 -999.0000    1.4958    1.2516    0.3202    2.4101   37.0000 
2339.3400   12.7387   83.4756  110.1684 -999.0000    1.5032    1.2830    0.3108    2.4123   37.0000 
2339.4924   12.7336   81.9984  109.1306 -999.0000    1.5423    1.3216    0.3101    2.4206   37.0000 
2339.6448   12.7176   78.6875  107.4171 -999.0000    1.5754    1.3181    0.3406    2.4222   37.0000 
2339.7972   12.7002   75.9400  104.9434 -999.0000    1.5506    1.3178    0.3454    2.4266   22.0000 
2339.9496   12.6922   73.6848   94.4084 -999.0000    1.5307    1.3513    0.3425    2.4941   22.0000 
2340.1020   12.6888   70.0606   94.1874 -999.0000    2.0111    1.3151    0.2774    2.5053   22.0000 
2340.2544   12.6888   66.9966   94.8936 -999.0000    2.5857    1.3015    0.2252    2.5068   37.0000 
2340.4068   12.6893   75.3414   97.3953 -999.0000    2.4725    1.2881    0.2295    2.4798   37.0000 
2340.5592   12.7073   79.2948  102.7477 -999.0000    1.8300    1.2943    0.2738    2.4639   37.0000 
2340.7116   12.7318   84.6472  105.1798 -999.0000    1.5138    1.2952    0.3151    2.4451   37.0000 
2340.8640   12.7588   84.0674  110.0666 -999.0000    1.3760    1.2952    0.3164    2.4353   37.0000 
2341.0164   12.7713   83.1823  110.1029 -999.0000    1.4195    1.2909    0.3075    2.4213   37.0000 
2341.1688   12.7797   84.2597  110.2293 -999.0000    1.4773    1.2877    0.3029    2.4089   37.0000 
2341.3212   12.7889   87.0529  110.2331 -999.0000    1.5286    1.2877    0.3071    2.4018   37.0000 
2341.4736   12.7889   83.5561  110.0666 -999.0000    1.5445    1.2898    0.3154    2.3957   37.0000 
2341.6260   12.7889   81.9503  109.3760 -999.0000    1.6122    1.2965    0.3225    2.3901   37.0000 
2341.7784   12.7889   80.2799  109.7590 -999.0000    1.6061    1.3032    0.3365    2.3902   37.0000 
2341.9308   12.7889   79.6058  109.9755 -999.0000    1.5916    1.3100    0.3338    2.3949   37.0000 
2342.0832   12.7889   79.2220  110.3164 -999.0000    1.5800    1.3168    0.3304    2.4025   37.0000 
2342.2356   12.7890   78.0557  110.2704 -999.0000    1.5704    1.3178    0.3241    2.4118   37.0000 
2342.3880   12.7890   77.6521  110.2331 -999.0000    1.5598    1.3229    0.3339    2.4135   37.0000 
