~VERSION INFORMATION
 VERS.                 2.0:   CWLS LOG ASCII STANDARD - VERSION 2.0
 WRAP.                  NO:   SINGLE LINE PER DEPTH STEP
 CREA.                 04/06/2018 10:30:07
#CREATED USING DSPetro VERSION 5000.10.1.3 BY H191660 ON 04/06/2018 10:30:07
~WELL INFORMATION
#MNEM.UNIT       DATA                          DESCRIPTION MNEMONIC
#---------      ---------------------------   --------------------------
 STRT    .M         1867.0524                 : START DEPTH
 STOP    .M         3624.9864                 : STOP DEPTH
 STEP    .M         0.1524                    : STEP VALUE
 NULL    .      -999.0000                     : NULL VALUE
 DATE    .      04/06/2018                    : LAS file Creation Date
 WELL .      34_8_1                      : Well Name
 COMP .      Neftex Exploration Insights : Company
 FLD  .      VISUND                      : Field
 UWI  .      YNOWL_340801                : Unique Well Identifier (UWI)
 LOC  .                                  : Location
 RWS  .      -999                        : Def_Rw
 WST  .      -999                        : Def_Rwt
 SRVC .                                  : Contractor
~CURVE INFORMATION
#MNEM                UNIT       API CODE   Curve Type Comments
#----------    --------------- ----------  ---------- -----------
 DEPTH        .M                         : Depth       
 CAL_INCH     .inch                      :             Caliper Log - A representation of the measured diameter of a borehole along its depth
 GR_API       .API                       : GammaRay    Gamma Ray (API) - Measures the intensity of natural gamma-ray radiation emitted from formations containing radioactive elements, such as K, Th and U
 AC_US_FT     .us/ft                     :             Unspecified Acoustic log - No accroynm or method of attainment is specified
 RS_OHMM      .ohmm                      :             Unspecified Shallow Resistivity - No accroynm or method of attainment is specified
 RM_OHMM      .ohm.m                     :             Unspecified Medium Resistivity - No accroynm or method of attainment is specified
 RD_OHMM      .ohmm                      :             Unspecified Deep Resistivity - No accroynm or method of attainment is specified - units of ohmm
 NEUT_P_RATIO .ratio                     :             Unspecified Neutron Porosity Log - No accroynm or method of attainment is specified
 RHOB_G_CC    .g/cc                      :             Bulk Density - Measures the density of bulk material, including any void space or other materials contained in the subject volume
 LITH         .                          : LITH        Lithology Curve
~A  DEPTH  CAL_INCH   GR_API   AC_US_FT  RS_OHMM   RM_OHMM   RD_OHMM  NEUT_P_R~ RHOB_G_C~    LITH   
# ...
3488.5884   11.3112  149.7955   80.1598 -999.0000    2.9891    3.1474    0.2100    2.4898   37.0000 
3488.7408   11.2451  149.7953   83.6435 -999.0000    2.9193    3.2103    0.2047    2.4777   37.0000 
3488.8932   11.3213  198.6389   85.1111 -999.0000    2.7312    3.3057    0.2820    2.3945   37.0000 
3489.0456   11.7191  149.7949   87.3382 -999.0000    2.6079    2.9555    0.3056    2.3771   37.0000 
3489.1980   12.1872  149.7948   91.8390 -999.0000    2.4254    2.7636    0.3089    2.3827   37.0000 
3489.3504   12.0599  115.3570   96.3093 -999.0000    2.2545    2.6240    0.3376    2.4048   37.0000 
3489.5028   12.0185  112.6068   93.7579 -999.0000    2.2396    2.3538    0.3218    2.4030   37.0000 
3489.6552   11.9928  106.1592   92.3089 -999.0000    2.1407    2.1804    0.3108    2.4011   37.0000 
3489.8076   11.9870  101.9427   91.1794 -999.0000    2.0728    1.9000    0.3069    2.4000   37.0000 
3489.9600   11.9870   88.5618   91.6996 -999.0000    2.0270    1.8824    0.3224    2.4036   37.0000 
3490.1124   11.9953   89.4629   93.5076 -999.0000    1.9833    1.8824    0.3283    2.4052   37.0000 
3490.2648   12.0259   96.7934   94.7845 -999.0000    1.9153    1.8825    0.3344    2.4098   37.0000 
3490.4172   12.0869   96.7253   88.9744 -999.0000    1.9098    1.5836    0.3943    2.4160   37.0000 
3490.5696   11.9728   95.9969   94.0212 -999.0000    1.8679    1.5855    0.4008    2.4268   37.0000 
3490.7220   11.8854   93.9187   98.8072 -999.0000    1.7805    1.5915    0.3878    2.5319   37.0000 
3490.8744   11.8468   91.5928   97.8642 -999.0000    1.6858    1.6014    0.3860    2.5340   37.0000 
3491.0268   11.8482   90.1675   95.2032 -999.0000    1.6330    1.6256    0.3753    2.5338   37.0000 
3491.1792   11.8568   94.8390   92.3897 -999.0000    1.6253    1.6799    0.3744    2.5286   37.0000 
3491.3316   11.8667   96.3610  103.7228 -999.0000    1.6254    1.7226    0.3036    2.5231   37.0000 
3491.4840   11.8667  100.5965   97.7604 -999.0000    1.6258    1.7588    0.2999    2.5121   37.0000 
3491.6364   11.8667  100.3711   92.1391 -999.0000    1.6427    1.8503    0.3094    2.5304   37.0000 
3491.7888   11.8601  100.1457   90.1830 -999.0000    1.6661    1.8685    0.3394    2.5304   37.0000 
3491.9412   11.8194   99.6451   89.3909 -999.0000    1.6874    1.8962    0.3424    2.5302   37.0000 
3492.0936   11.7189   98.9304   85.9376 -999.0000    2.3731    2.0360    0.3419    2.4953   37.0000 
3492.2460   11.6654   97.4784   86.5364 -999.0000    2.4940    2.1494    0.3246    2.4923   37.0000 
3492.3984   11.6293  101.9781   89.7791 -999.0000    2.4218    2.0688    0.3097    2.4921   37.0000 
3492.5508   11.4603  103.8229   91.2542 -999.0000    2.3673    1.9715    0.3086    2.4921   37.0000 
3492.7032   11.3679  110.6341   95.3872 -999.0000    2.2638    1.8670    0.3319    2.4921   37.0000 
3492.8556   11.2191   98.0089   95.3869 -999.0000    1.9027    1.8261    0.3348    2.4921   37.0000 
3493.0080   11.2335  101.6337   95.3363 -999.0000    1.7918    1.7625    0.3551    2.4914   37.0000 
3493.1604   11.2738   99.2459   94.7354 -999.0000    1.6663    1.6609    0.3494    2.4049   37.0000 
3493.3128   11.3463   97.2703   93.3516 -999.0000    1.5839    1.5834    0.3341    2.4006   37.0000 
3493.4652   11.3663   95.2440   92.2207 -999.0000    1.5972    1.5082    0.3392    2.4006   37.0000 
3493.6176   11.3663  101.1330   92.7590 -999.0000    1.6279    1.5563    0.3414    2.5102   37.0000 
3493.7700   11.3763   85.7577   93.6863 -999.0000    1.7136    1.6055    0.3438    2.5110   37.0000 
3493.9224   11.3762   99.9138   94.2039 -999.0000    1.7485    1.6563    0.3240    2.5110   37.0000 
3494.0748   11.3725   96.1047   91.8493 -999.0000    1.8392    1.7605    0.3069    2.5116   37.0000 
3494.2272   11.3462   93.3596   89.8665 -999.0000    1.9276    1.8822    0.3053    2.5140   37.0000 
3494.3796   11.2904   92.6633   88.9718 -999.0000    2.0777    1.9601    0.2826    2.5180   37.0000 
3494.5320   11.2661   86.1647   85.9477 -999.0000    2.3613    2.0421    0.2834    2.5216   37.0000 
3494.6844   11.2661   85.7621   85.4806 -999.0000    2.4476    2.1809    0.2848    2.5231   37.0000 
3494.8368   11.2144   90.6627   85.0134 -999.0000    2.5472    2.1795    0.2914    2.5240   37.0000 
3494.9892   11.0561   90.3653   84.8834 -999.0000    2.7700    2.1465    0.2828    2.3918   37.0000 
3495.1416   10.8411   90.0699   85.3807 -999.0000    2.4032    2.0690    0.2848    2.3880   37.0000 
3495.2940   10.6059   89.6621   93.8516 -999.0000    2.0597    1.9775    0.3001    2.3847   37.0000 
3495.4464   11.0424   93.0086   93.4782 -999.0000    1.9862    1.9222    0.3037    2.3167   37.0000 
3495.5988   11.3727   94.7484   92.9277 -999.0000    1.7880    1.9254    0.3164    2.3094   36.0000 
3495.7512   11.7273   97.9116   93.8918 -999.0000    1.6967    1.8285    0.3090    2.3111   36.0000 
3495.9036   12.1782   93.1057   95.5753 -999.0000    1.6278    1.6862    0.3054    2.3256   36.0000 
3496.0560   12.2269   92.5070   96.4562 -999.0000    1.4713    1.7202    0.3025    2.3416   36.0000 
3496.2084   12.2907   92.3907   90.1757 -999.0000    1.4905    1.8102    0.2969    2.3439   36.0000 
3496.3608   12.3401   98.0809   81.7143 -999.0000    1.5190    1.8911    0.2914    2.3458   36.0000 
3496.5132   12.5065   99.9960   99.3868 -999.0000    1.5622    1.9270    0.3109    2.3473   37.0000 
3496.6656   12.6421  104.9729   99.6868 -999.0000    1.5980    1.9270    0.3226    2.3473   37.0000 
3496.8180   12.6756  102.4103  102.0330 -999.0000    1.5160    1.7875    0.3345    2.3257   37.0000 
3496.9704   12.5001  101.2894  103.0684 -999.0000    1.4416    1.5763    0.3465    2.2840   37.0000 
3497.1228   11.6756   93.7224  104.3339 -999.0000    1.3840    1.4453    0.3694    2.2209   36.0000 
3497.2752   12.1408   92.2847  106.2343 -999.0000    1.2887    1.2835    0.3706    2.2192   36.0000 
3497.4276   12.4918   88.2220  117.1921 -999.0000    1.0789    1.1290    0.3711    2.2202   36.0000 
3497.5800   12.9604   79.5968  118.5821 -999.0000    1.0516    1.1768    0.3808    2.2877   37.0000 
3497.7324   13.1901   85.3964  119.2121 -999.0000    1.0346    1.2688    0.3868    2.2873   37.0000 
3497.8848   13.5354   89.1075  119.6699 -999.0000    1.0109    1.2457    0.3996    2.2631   37.0000 
3498.0372   13.6254   89.8619  116.3788 -999.0000    0.9847    1.1314    0.3855    2.2606   37.0000 
3498.1896   13.5316   99.0336  113.2299 -999.0000    1.0100    1.1688    0.3727    2.2615   37.0000 
3498.3420   13.3495   87.5536  109.6420 -999.0000    1.1521    1.2142    0.3601    2.2743   37.0000 
3498.4944   12.6017   83.1621  107.8404 -999.0000    1.2842    1.2745    0.3489    2.3326   37.0000 
3498.6468   11.8753   79.2518  103.1134 -999.0000    1.2228    1.3918    0.3359    2.3454   37.0000 
3498.7992   11.5552   79.2203  100.7741 -999.0000    1.3051    1.5277    0.3586    2.3507   37.0000 
3498.9516   10.8062   82.0330   97.3057 -999.0000    1.3936    1.4881    0.3647    2.3635   37.0000 
3499.1040    9.9283   83.8406  102.7325 -999.0000    1.4133    1.4381    0.3899    2.4480   37.0000 
3499.2564    9.9552   87.9231  102.2644 -999.0000    1.3848    1.4155    0.3743    2.4564   37.0000 
3499.4088    9.9851   87.3896   99.0010 -999.0000    1.3171    1.4746    0.3688    2.4542   37.0000 
3499.5612    9.9608   86.9539   99.7719 -999.0000    1.1636    1.5401    0.3557    2.4518   37.0000 
3499.7136    9.7505   95.9692  116.6029 -999.0000    1.1476    1.4367    0.3599    2.4510   37.0000 
3499.8660    9.6251  104.2188  117.0696 -999.0000    1.1914    1.3376    0.3669    2.4947   37.0000 
3500.0184    9.5070   99.7298  117.5726 -999.0000    1.2136    1.3033    0.3726    2.4967   37.0000 
3500.1708    9.4050   98.1096  117.8336 -999.0000    1.2316    1.2256    0.3629    2.4990   37.0000 
3500.3232    9.4763   93.9868  109.9589 -999.0000    1.2128    1.1778    0.3565    2.5015   37.0000 
3500.4756    9.5783   91.2819  110.7306 -999.0000    1.1336    1.1054    0.3484    2.5031   37.0000 
3500.6280    9.8183   89.4364  115.4657 -999.0000    1.0873    1.1237    0.3801    2.4796   37.0000 
