~VERSION INFORMATION
 VERS.                 2.0:   CWLS LOG ASCII STANDARD - VERSION 2.0
 WRAP.                  NO:   SINGLE LINE PER DEPTH STEP
 CREA.                 04/06/2018 10:30:07
#CREATED USING DSPetro VERSION 5000.10.1.3 BY H191660 ON 04/06/2018 10:30:07
~WELL INFORMATION
#MNEM.UNIT       DATA                          DESCRIPTION MNEMONIC
#---------      ---------------------------   --------------------------
 STRT    .M         1867.0524                 : START DEPTH
 STOP    .M         3624.9864                 : STOP DEPTH
 STEP    .M         0.1524                    : STEP VALUE
 NULL    .      -999.0000                     : NULL VALUE
 DATE    .      04/06/2018                    : LAS file Creation Date
 WELL .      34_8_1                      : Well Name
 COMP .      Neftex Exploration Insights : Company
 FLD  .      VISUND                      : Field
 UWI  .      YNOWL_340801                : Unique Well Identifier (UWI)
 LOC  .                                  : Location
 RWS  .      -999                        : Def_Rw
 WST  .      -999                        : Def_Rwt
 SRVC .                                  : Contractor
~CURVE INFORMATION
#MNEM                UNIT       API CODE   Curve Type Comments
#----------    --------------- ----------  ---------- -----------
 DEPTH        .M                         : Depth       
 CAL_INCH     .inch                      :             Caliper Log - A representation of the measured diameter of a borehole along its depth
 GR_API       .API                       : GammaRay    Gamma Ray (API) - Measures the intensity of natural gamma-ray radiation emitted from formations containing radioactive elements, such as K, Th and U
 AC_US_FT     .us/ft                     :             Unspecified Acoustic log - No accroynm or method of attainment is specified
 RS_OHMM      .ohmm                      :             Unspecified Shallow Resistivity - No accroynm or method of attainment is specified
 RM_OHMM      .ohm.m                     :             Unspecified Medium Resistivity - No accroynm or method of attainment is specified
 RD_OHMM      .ohmm                      :             Unspecified Deep Resistivity - No accroynm or method of attainment is specified - units of ohmm
 NEUT_P_RATIO .ratio                     :             Unspecified Neutron Porosity Log - No accroynm or method of attainment is specified
 RHOB_G_CC    .g/cc                      :             Bulk Density - Measures the density of bulk material, including any void space or other materials contained in the subject volume
 LITH         .                          : LITH        Lithology Curve
~A  DEPTH  CAL_INCH   GR_API   AC_US_FT  RS_OHMM   RM_OHMM   RD_OHMM  NEUT_P_R~ RHOB_G_C~    LITH   
# ...
1988.9724   12.8283   69.9446  130.4556 -999.0000    1.1967    0.9839    0.4234    2.2769   37.0000 
1989.1248   13.1343   70.3931  129.8584 -999.0000    1.2001    0.9839    0.4276    2.2809   37.0000 
1989.2772   13.3958   73.5069  129.8245 -999.0000    1.1285    0.9839    0.4371    2.2832   37.0000 
1989.4296   13.5159   67.5512  128.9413 -999.0000    1.0724    0.9369    0.4323    2.2836   37.0000 
1989.5820   13.6159   64.6324  129.0261 -999.0000    1.0584    0.9021    0.4314    2.2829   37.0000 
1989.7344   13.6459   66.6045  129.3428 -999.0000    1.0574    0.9133    0.4299    2.2799   37.0000 
1989.8868   13.6696   68.0821  129.6279 -999.0000    1.0630    0.9172    0.3749    2.2742   37.0000 
1990.0392   13.6859   70.2015  130.0123 -999.0000    1.1117    0.8911    0.3726    2.2456   37.0000 
1990.1916   13.7771   70.9976  130.1839 -999.0000    1.1560    0.8794    0.3975    2.1899   37.0000 
1990.3440   13.9473   75.7560  131.4438 -999.0000    1.1450    0.8769    0.4096    2.1897   37.0000 
1990.4964   13.9933   68.6826  128.4770 -999.0000    1.1316    0.9295    0.4205    2.2199   37.0000 
1990.6488   14.0392   66.0031  128.6604 -999.0000    1.1141    0.9751    0.4431    2.2310   37.0000 
1990.8012   14.0263   62.3619  128.7755 -999.0000    1.0789    0.9868    0.4065    2.2726   37.0000 
1990.9536   13.7772   58.8819  125.8292 -999.0000    1.1177    0.9896    0.4066    2.2910   37.0000 
1991.1060   13.3362   63.4444  122.6878 -999.0000    1.2226    0.9868    0.3639    2.2931   37.0000 
1991.2584   13.1735   64.3933  124.3399 -999.0000    1.2387    0.9854    0.3639    2.2824   37.0000 
1991.4108   12.8370   66.6655  125.5694 -999.0000    1.2215    1.0413    0.3666    2.2674   37.0000 
1991.5632   12.6008   67.4506  126.4505 -999.0000    1.2017    1.0589    0.3691    2.2576   37.0000 
1991.7156   12.2658   69.2556  126.8959 -999.0000    1.2160    1.0941    0.3938    2.2544   37.0000 
1991.8680   12.3289   66.6403  128.0703 -999.0000    1.2369    1.0745    0.4050    2.2544   37.0000 
1992.0204   12.3849   64.2710  128.1926 -999.0000    1.2327    1.0410    0.4278    2.2540   37.0000 
1992.1728   12.4857   62.4357  128.0260 -999.0000    1.2280    1.0249    0.4283    2.2479   37.0000 
1992.3252   12.7159   59.7850  127.7027 -999.0000    1.2468    1.0126    0.4175    2.2361   37.0000 
1992.4776   12.9421   57.5058  127.4025 -999.0000    1.2755    1.0126    0.4066    2.2299   37.0000 
1992.6300   13.1306   60.4153  126.0131 -999.0000    1.2896    1.1631    0.4178    2.2314   37.0000 
1992.7824   13.4975   61.0437  125.4134 -999.0000    1.1998    1.2689    0.4112    2.2503   37.0000 
1992.9348   13.4694   61.7124  126.5254 -999.0000    1.1200    1.2859    0.4056    2.2508   37.0000 
1993.0872   13.4254   62.9440  125.8980 -999.0000    1.1413    1.3019    0.4028    2.2469   37.0000 
1993.2396   13.4056   64.0049  124.2738 -999.0000    1.1806    1.3446    0.4424    2.1538   37.0000 
1993.3920   13.2806   61.1769  130.5789 -999.0000    1.2019    1.4157    0.4498    2.1516   37.0000 
1993.5444   13.7940   58.2724  129.6076 -999.0000    1.2272    1.4469    0.4583    2.1503   37.0000 
1993.6968   14.6111   54.2890  128.1673 -999.0000    1.2458    1.3789    0.4494    2.1449   37.0000 
1993.8492   14.5862   52.5050  126.9013 -999.0000    1.2157    1.2534    0.4396    2.1311   37.0000 
1994.0016   14.5001   61.1967  132.9359 -999.0000    1.1682    1.1881    0.4494    2.1161   37.0000 
1994.1540   14.0005   63.1106  137.5531 -999.0000    1.1254    1.0885    0.4494    2.0515   36.0000 
1994.3064   14.2579   65.5789  137.8081 -999.0000    1.0496    1.0511    0.4494    2.0469   36.0000 
1994.4588   14.3596   71.8167  137.8687 -999.0000    1.0572    0.9857    0.4494    2.0644   36.0000 
1994.6112   14.5536   73.9370  136.4457 -999.0000    1.0651    0.9236    0.4934    2.1710   37.0000 
1994.7636   14.7606   76.1282  135.9824 -999.0000    1.0634    0.8971    0.4966    2.2382   37.0000 
1994.9160   14.8054   75.8782  133.6157 -999.0000    1.0147    0.8113    0.4732    2.2423   37.0000 
1995.0684   14.7436   72.2343  133.2986 -999.0000    0.9799    0.8113    0.4712    2.2432   37.0000 
1995.2208   14.2880   70.6546  132.8317 -999.0000    0.9506    0.8113    0.4656    2.2436   37.0000 
1995.3732   13.1547   69.6377  132.4483 -999.0000    0.9139    0.8113    0.4124    2.2444   37.0000 
1995.5256   13.1054   66.7531  132.1984 -999.0000    0.8951    0.7810    0.4301    2.2415   37.0000 
1995.6780   13.2407   66.7530  133.4121 -999.0000    0.9185    0.7498    0.4446    2.2358   37.0000 
1995.8304   13.3218   66.7712  135.9391 -999.0000    0.9261    0.7101    0.4471    2.1660   37.0000 
1995.9828   13.4154   66.8894  136.9913 -999.0000    0.9209    0.6988    0.4489    2.1119   37.0000 
1996.1352   13.5462   67.1142  134.9540 -999.0000    0.8215    0.6896    0.4490    2.1084   37.0000 
1996.2876   13.6517   70.1703  133.4304 -999.0000    0.7925    0.7078    0.5266    2.1173   37.0000 
1996.4400   13.4059   70.7524  132.6603 -999.0000    0.7815    0.7400    0.5274    2.1813   37.0000 
1996.5924   13.0258   63.1532  129.4470 -999.0000    0.8837    0.7911    0.4494    2.1889   37.0000 
1996.7448   12.8202   59.0025  130.4460 -999.0000    0.9838    0.9182    0.4114    2.1927   37.0000 
1996.8972   12.7141   60.9437  131.3684 -999.0000    1.0068    0.9553    0.4446    2.1743   37.0000 
1997.0496   12.6221   62.8772  129.9477 -999.0000    1.0007    0.9870    0.4435    2.1617   37.0000 
1997.2020   13.0423   59.0583  126.5039 -999.0000    1.0046    1.0010    0.4136    2.1775   37.0000 
1997.3544   12.9963   58.6270  122.9618 -999.0000    1.3100    1.0126    0.4128    2.1883   37.0000 
1997.5068   12.9477   58.3769  122.6616 -999.0000    1.2960    1.0125    0.4031    2.2002   37.0000 
1997.6592   12.9152   58.3768  125.6530 -999.0000    1.2409    0.9928    0.3604    2.2023   37.0000 
1997.8116   12.8952   58.2517  131.3653 -999.0000    0.9471    0.9334    0.3858    2.1209   36.0000 
1997.9640   13.2452   63.4412  139.8732 -999.0000    0.9139    0.9051    0.3977    2.1169   36.0000 
1998.1164   13.2452   64.2514  139.4309 -999.0000    0.8911    0.8510    0.4098    2.1783   37.0000 
1998.2688   13.2452   58.6263  138.2180 -999.0000    0.9077    0.7919    0.4391    2.1794   37.0000 
1998.4212   13.5051   62.4074  136.3602 -999.0000    0.9198    0.7622    0.4362    2.1760   37.0000 
1998.5736   13.4926   64.8601  139.6036 -999.0000    0.8926    0.7245    0.4246    2.1247   37.0000 
1998.7260   13.4675   66.8772  142.1910 -999.0000    0.8466    0.7132    0.4394    2.1077   37.0000 
1998.8784   13.4459   68.4304  142.7930 -999.0000    0.7951    0.7514    0.4689    2.0883   37.0000 
1999.0308   13.3929   73.2470  139.4384 -999.0000    0.7996    0.7691    0.4672    2.0940   37.0000 
1999.1832   13.3434   76.8003  136.2045 -999.0000    0.8297    0.8014    0.4831    2.2040   37.0000 
1999.3356   13.2797   77.1254  134.5366 -999.0000    0.9600    0.8471    0.4496    2.2378   37.0000 
1999.4880   13.1551   70.1096  133.0369 -999.0000    1.0174    0.8335    0.4496    2.2434   37.0000 
1999.6404   13.1550   68.1661  131.2007 -999.0000    1.0480    0.8173    0.4496    2.2462   37.0000 
1999.7928   13.1550   65.1395  130.7004 -999.0000    1.0849    0.8043    0.4072    2.2494   37.0000 
1999.9452   13.1597   63.3926  130.9697 -999.0000    1.0912    0.8743    0.4031    2.2450   37.0000 
2000.0976   13.1677   71.2501  131.7983 -999.0000    1.0499    0.8743    0.3816    2.2401   37.0000 
2000.2500   13.1756   68.6275  132.5599 -999.0000    1.0162    0.8720    0.3966    2.2077   37.0000 
2000.4024   13.1816   68.4137  133.5333 -999.0000    0.9970    0.8590    0.4100    2.1919   37.0000 
2000.5548   13.1851   66.2507  134.2478 -999.0000    0.9612    0.8495    0.4238    2.1639   37.0000 
2000.7072   13.3405   69.3758  135.4545 -999.0000    0.9264    0.8378    0.4322    2.1636   37.0000 
2000.8596   13.3984   70.3760  132.6636 -999.0000    0.8824    0.8407    0.4486    2.1651   37.0000 
2001.0120   13.4927   64.4395  130.3232 -999.0000    0.9038    0.9596    0.4486    2.1911   37.0000 
