~VERSION INFORMATION
 VERS.                 2.0:   CWLS LOG ASCII STANDARD - VERSION 2.0
 WRAP.                  NO:   SINGLE LINE PER DEPTH STEP
 CREA.                 04/06/2018 10:30:07
#CREATED USING DSPetro VERSION 5000.10.1.3 BY H191660 ON 04/06/2018 10:30:07
~WELL INFORMATION
#MNEM.UNIT       DATA                          DESCRIPTION MNEMONIC
#---------      ---------------------------   --------------------------
 STRT    .M         1867.0524                 : START DEPTH
 STOP    .M         3624.9864                 : STOP DEPTH
 STEP    .M         0.1524                    : STEP VALUE
 NULL    .      -999.0000                     : NULL VALUE
 DATE    .      04/06/2018                    : LAS file Creation Date
 WELL .      34_8_1                      : Well Name
 COMP .      Neftex Exploration Insights : Company
 FLD  .      VISUND                      : Field
 UWI  .      YNOWL_340801                : Unique Well Identifier (UWI)
 LOC  .                                  : Location
 RWS  .      -999                        : Def_Rw
 WST  .      -999                        : Def_Rwt
 SRVC .                                  : Contractor
~CURVE INFORMATION
#MNEM                UNIT       API CODE   Curve Type Comments
#----------    --------------- ----------  ---------- -----------
 DEPTH        .M                         : Depth       
 CAL_INCH     .inch                      :             Caliper Log - A representation of the measured diameter of a borehole along its depth
 GR_API       .API                       : GammaRay    Gamma Ray (API) - Measures the intensity of natural gamma-ray radiation emitted from formations containing radioactive elements, such as K, Th and U
 AC_US_FT     .us/ft                     :             Unspecified Acoustic log - No accroynm or method of attainment is specified
 RS_OHMM      .ohmm                      :             Unspecified Shallow Resistivity - No accroynm or method of attainment is specified
 RM_OHMM      .ohm.m                     :             Unspecified Medium Resistivity - No accroynm or method of attainment is specified
 RD_OHMM      .ohmm                      :             Unspecified Deep Resistivity - No accroynm or method of attainment is specified - units of ohmm
 NEUT_P_RATIO .ratio                     :             Unspecified Neutron Porosity Log - No accroynm or method of attainment is specified
 RHOB_G_CC    .g/cc                      :             Bulk Density - Measures the density of bulk material, including any void space or other materials contained in the subject volume
 LITH         .                          : LITH        Lithology Curve
~A  DEPTH  CAL_INCH   GR_API   AC_US_FT  RS_OHMM   RM_OHMM   RD_OHMM  NEUT_P_R~ RHOB_G_C~    LITH   
# ...
3147.2124    9.1530   84.8473   87.6079 -999.0000    3.1978    3.3072    0.2770    2.4335   37.0000 
3147.3648    9.1960   82.4721   87.2025 -999.0000    3.2819    3.4187    0.2822    2.4310   37.0000 
3147.5172    9.2090   77.9719   86.2593 -999.0000    3.4772    3.2976    0.2924    2.4319   37.0000 
3147.6696    9.2155   71.9717   85.6008 -999.0000    3.3836    3.0622    0.2815    2.4485   37.0000 
3147.8220    9.2354   73.8277   85.1333 -999.0000    3.2367    2.4392    0.2746    2.4498   37.0000 
3147.9744    9.1954   74.7212   89.8491 -999.0000    2.3234    2.0924    0.2809    2.3794   36.0000 
3148.1268    9.1754   69.8107   90.9599 -999.0000    2.2289    1.7921    0.2836    2.3608   36.0000 
3148.2792    9.1103   64.9937   91.3557 -999.0000    2.1383    1.5061    0.2744    2.3516   36.0000 
3148.4316    9.0390   57.8456   91.3996 -999.0000    0.9794    1.3614    0.2754    2.2802   36.0000 
3148.5840    8.9758   53.9080   89.9621 -999.0000    0.8480    1.2446    0.2791    2.2809   36.0000 
3148.7364    8.9495   52.9079   90.3539 -999.0000    0.8978    1.0828    0.2834    2.2847   36.0000 
3148.8888    8.8834   55.7586   91.8237 -999.0000    0.9100    0.9936    0.2907    2.2896   36.0000 
3149.0412    8.8452   57.4309   92.3758 -999.0000    0.9214    0.9397    0.2946    2.2937   36.0000 
3149.1936    8.8252   59.0505   91.0086 -999.0000    0.9299    0.8753    0.2860    2.2986   36.0000 
3149.3460    8.7551   58.6538   90.2933 -999.0000    0.8480    0.8728    0.2829    2.3045   36.0000 
3149.4984    8.7470   62.1569   90.6773 -999.0000    0.8249    0.8678    0.2709    2.3093   36.0000 
3149.6508    8.7166   59.9980   92.4971 -999.0000    0.8133    0.8475    0.2714    2.3172   36.0000 
3149.8032    8.6624   56.7815   93.6818 -999.0000    0.7925    0.8456    0.2737    2.3283   36.0000 
3149.9556    8.5928   62.7187   94.9958 -999.0000    0.7732    0.8456    0.2858    2.2931   36.0000 
3150.1080    8.5050   59.3221   96.3749 -999.0000    0.7404    0.8456    0.2841    2.2931   36.0000 
3150.2604    8.5050   57.9686   96.3748 -999.0000    0.7294    0.8456    0.2830    2.2962   36.0000 
3150.4128    8.5049   54.1587   95.2913 -999.0000    0.7440    0.8488    0.2816    2.2977   36.0000 
3150.5652    8.5049   49.0931   96.4114 -999.0000    0.7621    0.8527    0.2800    2.2793   36.0000 
3150.7176    8.5049   54.7740   97.6245 -999.0000    0.7801    0.8555    0.2832    2.2647   36.0000 
3150.8700    8.4038   57.6032   95.2035 -999.0000    0.7637    0.8555    0.2862    2.2607   36.0000 
3151.0224    8.3862   61.3193   95.0530 -999.0000    0.7094    0.8555    0.2897    2.2600   36.0000 
3151.1748    8.3682   64.5298   93.8475 -999.0000    0.7522    0.8506    0.3019    2.3140   36.0000 
3151.3272    8.3447   57.0549   93.4633 -999.0000    0.7989    0.8506    0.3021    2.3140   36.0000 
3151.4796    8.3393   52.9715   96.1239 -999.0000    0.8184    0.8568    0.2812    2.3137   36.0000 
3151.6320    8.3132   54.0390   94.9450 -999.0000    0.8096    0.8862    0.2799    2.2650   36.0000 
3151.7844    8.3009   58.0915   93.6032 -999.0000    0.7768    0.9238    0.2782    2.2692   36.0000 
3151.9368    8.2746   63.5711   93.9152 -999.0000    0.7768    0.9763    0.2771    2.2819   36.0000 
3152.0892    8.2649   64.4662   94.2484 -999.0000    0.7995    1.0294    0.2765    2.2803   36.0000 
3152.2416    8.2546   56.3528   94.1582 -999.0000    0.9838    1.0665    0.2790    2.2764   36.0000 
3152.3940    8.2545   50.6753   93.2423 -999.0000    0.8680    1.1020    0.2969    2.2740   36.0000 
3152.5464    8.2545   46.6532   87.6980 -999.0000    0.8351    1.1591    0.2989    2.2729   36.0000 
3152.6988    8.2545   50.2223   86.7553 -999.0000    0.9296    1.7291    0.2781    2.2982   36.0000 
3152.8512    8.2546   53.5881   76.1889 -999.0000    1.1629    2.0281    0.1824    2.3623   36.0000 
3153.0036    8.2744   52.6679   69.0225 -999.0000    2.4134    3.1064    0.1691    2.4244   22.0000 
3153.1560    8.2991   50.5020   69.9807 -999.0000    2.8444    3.1683    0.1491    2.5002   22.0000 
3153.3084    8.3528   48.4647   70.4283 -999.0000    3.1174    3.3118    0.1534    2.5384   22.0000 
3153.4608    8.3975   52.3476   71.2111 -999.0000    3.1590    3.6208    0.1855    2.5418   22.0000 
3153.6132    8.5255   53.4425   74.9443 -999.0000    3.4692    4.2881    0.1694    2.5458   22.0000 
3153.7656    8.5809   57.2549   74.5651 -999.0000    3.4431    5.0361    0.1694    2.5482   22.0000 
3153.9180    8.6570   56.7925   74.2262 -999.0000    3.4335    5.2989    0.1916    2.5498   22.0000 
3154.0704    8.7442   56.1446   73.8799 -999.0000    3.5576    4.4135    0.1941    2.5506   22.0000 
3154.2228    8.8179   57.5712   75.2858 -999.0000    3.8267    3.8410    0.1684    2.5506   22.0000 
3154.3752    8.8443   61.1508   77.5546 -999.0000    4.1256    3.3216    0.1697    2.5473   22.0000 
3154.5276    8.8515   61.1803   81.8287 -999.0000    4.0256    2.9791    0.1890    2.5327   22.0000 
3154.6800    8.8147   58.0133   86.9649 -999.0000    2.1201    2.6215    0.2419    2.4425   22.0000 
3154.8324    8.5982   59.7709   88.3651 -999.0000    1.8470    2.2668    0.2467    2.4335   36.0000 
3154.9848    8.4701   62.1500   87.4348 -999.0000    1.6313    2.0583    0.2649    2.4377   36.0000 
3155.1372    8.4067   65.0075   87.4201 -999.0000    1.6895    1.8988    0.2545    2.4481   36.0000 
3155.2896    8.3388   69.0871   88.3099 -999.0000    1.7534    1.8985    0.2493    2.4485   36.0000 
3155.4420    8.3139   66.3775   86.9758 -999.0000    1.7716    1.9751    0.2430    2.4248   36.0000 
3155.5944    8.2936   65.9450   86.3741 -999.0000    1.7583    2.0957    0.2355    2.4244   36.0000 
3155.7468    8.3283   66.1231   83.5321 -999.0000    2.3071    2.3133    0.2199    2.4244   36.0000 
3155.8992    8.5015   66.4613   79.0357 -999.0000    2.6030    2.6277    0.2105    2.4630   36.0000 
3156.0516    8.6218   61.6487   79.8304 -999.0000    2.6807    3.2290    0.1959    2.4924   36.0000 
3156.2040    8.6661   63.7769   80.9031 -999.0000    3.0924    3.2309    0.2132    2.4927   36.0000 
3156.3564    8.9439   67.2109   80.7821 -999.0000    3.0480    3.2383    0.2156    2.4841   36.0000 
3156.5088    8.9691   63.2250   80.3995 -999.0000    2.5497    3.2477    0.2095    2.4792   36.0000 
3156.6612    8.9837   62.4785   83.0989 -999.0000    2.5543    3.3477    0.2079    2.4766   36.0000 
3156.8136    8.8367   60.1478   82.8749 -999.0000    2.5896    3.2453    0.2034    2.4717   36.0000 
3156.9660    8.7645   57.4600   82.7017 -999.0000    2.6830    3.1432    0.1979    2.4656   36.0000 
3157.1184    8.7026   59.6526   82.5402 -999.0000    2.7565    2.8279    0.2095    2.4661   36.0000 
3157.2708    8.6568   64.6366   83.2022 -999.0000    2.7362    2.7666    0.2164    2.4660   36.0000 
3157.4232    8.6079   69.9108   84.7367 -999.0000    2.6243    2.7067    0.2292    2.4665   36.0000 
3157.5756    8.5535   72.9600   86.6000 -999.0000    2.3328    2.6787    0.2494    2.4623   36.0000 
3157.7280    8.5510   83.3965   88.0348 -999.0000    2.1377    2.6798    0.2396    2.4422   36.0000 
3157.8804    8.5334   77.3409   87.7297 -999.0000    2.0368    2.7103    0.2331    2.4362   36.0000 
3158.0328    8.5334   73.3936   86.4032 -999.0000    2.2079    2.7529    0.1992    2.4344   36.0000 
3158.1852    8.5500   71.9404   84.7299 -999.0000    2.6096    2.8236    0.1949    2.4434   36.0000 
3158.3376    8.5827   70.3328   81.5390 -999.0000    3.1529    2.9393    0.1989    2.4617   36.0000 
3158.4900    8.6315   68.4581   81.5787 -999.0000    3.2468    3.0961    0.2034    2.4816   36.0000 
3158.6424    8.6640   70.3322   82.0460 -999.0000    3.3143    3.2123    0.2034    2.4892   36.0000 
3158.7948    8.6997   72.0732   82.5133 -999.0000    3.2811    3.2669    0.2031    2.4890   36.0000 
3158.9472    8.7401   75.0019   83.3757 -999.0000    3.1968    3.3335    0.2051    2.4877   36.0000 
3159.0996    8.7532   78.1448   83.6572 -999.0000    3.1201    3.4111    0.2063    2.4875   36.0000 
3159.2520    8.7590   75.9904   85.0676 -999.0000    3.0561    3.4727    0.2364    2.4873   36.0000 
