~VERSION INFORMATION
 VERS.                 2.0:   CWLS LOG ASCII STANDARD - VERSION 2.0
 WRAP.                  NO:   SINGLE LINE PER DEPTH STEP
 CREA.                 04/06/2018 10:30:07
#CREATED USING DSPetro VERSION 5000.10.1.3 BY H191660 ON 04/06/2018 10:30:07
~WELL INFORMATION
#MNEM.UNIT       DATA                          DESCRIPTION MNEMONIC
#---------      ---------------------------   --------------------------
 STRT    .M         1867.0524                 : START DEPTH
 STOP    .M         3624.9864                 : STOP DEPTH
 STEP    .M         0.1524                    : STEP VALUE
 NULL    .      -999.0000                     : NULL VALUE
 DATE    .      04/06/2018                    : LAS file Creation Date
 WELL .      34_8_1                      : Well Name
 COMP .      Neftex Exploration Insights : Company
 FLD  .      VISUND                      : Field
 UWI  .      YNOWL_340801                : Unique Well Identifier (UWI)
 LOC  .                                  : Location
 RWS  .      -999                        : Def_Rw
 WST  .      -999                        : Def_Rwt
 SRVC .                                  : Contractor
~CURVE INFORMATION
#MNEM                UNIT       API CODE   Curve Type Comments
#----------    --------------- ----------  ---------- -----------
 DEPTH        .M                         : Depth       
 CAL_INCH     .inch                      :             Caliper Log - A representation of the measured diameter of a borehole along its depth
 GR_API       .API                       : GammaRay    Gamma Ray (API) - Measures the intensity of natural gamma-ray radiation emitted from formations containing radioactive elements, such as K, Th and U
 AC_US_FT     .us/ft                     :             Unspecified Acoustic log - No accroynm or method of attainment is specified
 RS_OHMM      .ohmm                      :             Unspecified Shallow Resistivity - No accroynm or method of attainment is specified
 RM_OHMM      .ohm.m                     :             Unspecified Medium Resistivity - No accroynm or method of attainment is specified
 RD_OHMM      .ohmm                      :             Unspecified Deep Resistivity - No accroynm or method of attainment is specified - units of ohmm
 NEUT_P_RATIO .ratio                     :             Unspecified Neutron Porosity Log - No accroynm or method of attainment is specified
 RHOB_G_CC    .g/cc                      :             Bulk Density - Measures the density of bulk material, including any void space or other materials contained in the subject volume
 LITH         .                          : LITH        Lithology Curve
~A  DEPTH  CAL_INCH   GR_API   AC_US_FT  RS_OHMM   RM_OHMM   RD_OHMM  NEUT_P_R~ RHOB_G_C~    LITH   
# ...
2561.9964   10.1965   67.3083  101.8514    2.1248    2.4258    2.0417    0.2632    2.3988   37.0000 
2562.1488   10.1965   66.9186  101.0205    1.9990    2.4065    2.0360    0.2516    2.3952   37.0000 
2562.3012   10.1965   65.9080   99.8629    1.9280    2.3816    2.0255    0.2429    2.3917   37.0000 
2562.4536   10.1965   65.2269  100.0170    1.8781    2.4769    2.0183    0.2532    2.3915   37.0000 
2562.6060   10.1877   64.9771  101.1688    1.8863    2.4907    2.0183    0.2594    2.3915   37.0000 
2562.7584   10.1765   66.6803  101.6646    1.9019    2.4429    2.0194    0.2621    2.3915   37.0000 
2562.9108   10.1765   68.7069  102.4820    1.8357    2.4132    2.0299    0.2584    2.3915   37.0000 
2563.0632   10.1765   68.9738  103.2036    1.7490    2.3717    2.0405    0.2541    2.3927   37.0000 
2563.2156   10.2465   67.1259  100.6807    1.6190    2.4212    2.0511    0.2664    2.5074   37.0000 
2563.3680   10.2764   66.4042  100.0986    1.5648    2.4564    2.0701    0.2722    2.5093   37.0000 
2563.5204   10.2525   65.4288   99.2423    1.5727    2.5212    2.0917    0.2889    2.5094   22.0000 
2563.6728   10.2165   63.9779   98.4931    1.7176    2.5561    2.1075    0.2824    2.5094   22.0000 
2563.8252   10.1565   64.7156   98.4851    1.9679    2.6536    2.1135    0.2735    2.5046   22.0000 
2563.9776   10.1345   65.5160  100.4255    2.0183    2.5975    2.1209    0.2670    2.4774   37.0000 
2564.1300   10.1125   65.3748  100.9602    2.0089    2.5428    2.1380    0.2518    2.4680   37.0000 
2564.2824   10.0966   64.3887  101.4423    1.9825    2.4948    2.1380    0.2546    2.4576   37.0000 
2564.4348   10.0966   63.8530  100.5700    1.9666    2.4835    2.1379    0.2559    2.4469   37.0000 
2564.5872   10.0966   67.4487   98.1599    2.8384    2.4835    2.1158    0.2532    2.4018   37.0000 
2564.7396   10.0966   66.9232   99.8296    2.6837    2.4835    2.1037    0.2509    2.3963   37.0000 
2564.8920   10.0966   66.2503  100.4783    2.4585    2.4835    2.0928    0.2484    2.3927   37.0000 
2565.0444   10.0843   64.5647  102.1190    2.3295    2.4835    2.0820    0.2479    2.3892   37.0000 
2565.1968   10.0766   63.5668  101.9021    2.2514    2.4835    2.0712    0.2527    2.3892   37.0000 
2565.3492   10.0766   62.4792  101.7402    2.1963    2.4776    2.0654    0.2559    2.3892   37.0000 
2565.5016   10.0829   67.1884  101.6874    2.1487    2.4621    2.0654    0.2608    2.4050   37.0000 
2565.6540   10.1253   70.1603  101.6570    2.1319    2.4489    2.0654    0.2699    2.4122   37.0000 
2565.8064   10.1865   70.1603  101.6570    2.1935    2.4236    2.0654    0.2716    2.4223   37.0000 
2565.9588   10.2074   69.7803  101.8270    2.2988    2.4061    2.0654    0.2726    2.4299   37.0000 
2566.1112   10.2165   70.4532  102.1308    2.3811    2.4061    2.0654    0.2749    2.4340   37.0000 
2566.2636   10.2529   71.7839  102.4310    2.4311    2.4091    2.0654    0.2611    2.4387   37.0000 
2566.4160   10.2959   67.4842  102.7394    2.5109    2.4263    2.0654    0.2521    2.4414   37.0000 
2566.5684   10.3415   65.8493  102.9892    2.5857    2.4410    2.0654    0.2431    2.4438   37.0000 
2566.7208   10.3875   64.8522  102.8036    2.5601    2.4580    2.0591    0.2486    2.4577   37.0000 
2566.8732   10.4263   70.7235  102.1432    2.5078    2.4744    2.0384    0.2542    2.4925   37.0000 
2567.0256   10.4263   73.5399  101.2977    2.4717    2.4990    2.0183    0.2580    2.4931   37.0000 
2567.1780   10.4363   78.1536  100.6247    2.3790    2.5051    2.0156    0.2674    2.4925   37.0000 
2567.3304   10.4463   72.1764  100.0849    2.3492    2.4868    2.0052    0.2676    2.4910   37.0000 
2567.4828   10.4463   69.3885   99.0639    2.2977    2.4400    2.0018    0.2772    2.4868   37.0000 
2567.6352   10.4463   67.2493   98.3576    2.2665    2.4021    2.0176    0.2803    2.4832   37.0000 
2567.7876   10.4363   65.3518   98.5910    2.3469    2.3624    2.0300    0.2911    2.4106   37.0000 
2567.9400   10.4067   68.3669   98.7411    2.3920    2.3313    2.0533    0.2868    2.4106   37.0000 
2568.0924   10.3579   72.5958   98.8912    2.4410    2.3319    2.0713    0.2863    2.4113   37.0000 
2568.2448   10.2947   69.3270   94.8078    2.6186    2.4121    2.0525    0.2882    2.4244   37.0000 
2568.3972   10.2487   68.5436   90.9992    2.7762    2.5569    2.0242    0.2590    2.4818   37.0000 
2568.5496   10.2165   66.3377   90.9992    7.1482    2.7185    2.0322    0.2410    2.4832   37.0000 
2568.7020   10.1865   63.6033   91.5816    7.0263    2.7469    2.0653    0.2279    2.4419   37.0000 
2568.8544   10.1665   68.2028   95.8829    6.2869    2.3124    2.0833    0.2461    2.4160   37.0000 
2569.0068   10.1346   70.4109   98.6766    5.0545    2.1740    2.0893    0.2534    2.4105   37.0000 
2569.1592   10.1026   73.9072  100.4779    2.9232    2.1604    2.0510    0.2729    2.4079   37.0000 
2569.3116   10.0666   65.1499  101.0007    2.7322    2.2223    1.8992    0.2625    2.4063   37.0000 
2569.4640   10.0366   67.8713  101.7387    2.1072    2.2455    1.8538    0.2526    2.4177   37.0000 
2569.6164   10.0366   68.0056  101.3032    2.0322    2.2845    1.7929    0.2512    2.4162   37.0000 
2569.7688   10.0366   68.9759  100.3056    1.9887    2.2603    1.7566    0.2499    2.4150   37.0000 
2569.9212   10.0366   71.5654   99.7556    1.8678    2.1763    1.7203    0.2589    2.4206   37.0000 
2570.0736   10.0366   68.1895  101.1206    1.7844    2.1299    1.6709    0.2636    2.4222   37.0000 
2570.2260   10.0366   68.2898  103.9051    1.6818    2.0589    1.6329    0.2744    2.4248   37.0000 
2570.3784   10.0366   68.4430  104.0410    1.6187    1.9917    1.5989    0.2744    2.4256   37.0000 
2570.5308   10.0366   68.6152  105.4038    1.5163    1.9190    1.5279    0.2736    2.4182   37.0000 
2570.6832   10.0366   66.5139  105.4038    1.5286    1.8688    1.4887    0.2731    2.4065   37.0000 
2570.8356   10.0366   64.9589  105.8814    1.8858    1.8094    1.4798    0.2871    2.4060   37.0000 
2570.9880   10.0366   64.6649  106.0315    2.0239    1.7777    1.4528    0.3024    2.4177   37.0000 
2571.1404   10.0366   67.4410  105.8466    1.6845    1.7542    1.4394    0.3031    2.4185   37.0000 
2571.2928   10.0366   68.5281  105.6416    1.5508    1.7326    1.4415    0.3128    2.4180   37.0000 
2571.4452   10.0366   69.7357  105.3339    1.5073    1.7326    1.4450    0.3169    2.4217   37.0000 
2571.5976   10.0217   71.0968  104.8211    1.4471    1.7451    1.4576    0.3024    2.4169   37.0000 
2571.7500    9.9856   72.4115  104.1747    1.3751    1.8102    1.4811    0.3001    2.4177   37.0000 
2571.9024   10.0038   74.2819  103.3353    1.3151    1.9112    1.4903    0.2990    2.4187   37.0000 
2572.0548   10.0210   67.0401  102.1871    1.3515    1.9377    1.5087    0.2985    2.4239   37.0000 
2572.2072   10.0363   62.0863  100.1582    1.4602    2.0099    1.5564    0.2850    2.5298   37.0000 
2572.3596   10.0393   61.9172  100.5745    1.5719    1.9980    1.5733    0.2694    2.5306   22.0000 
2572.5120   10.0466   65.6350  101.5016    1.6866    1.9830    1.5970    0.2802    2.5306   22.0000 
2572.6644   10.0466   67.4767  102.2580    1.8221    1.9589    1.6547    0.2831    2.4778   22.0000 
2572.8168   10.0466   72.7207  103.4888    1.8662    2.0088    1.6957    0.2941    2.4634   37.0000 
2572.9692   10.0466   70.5882  102.5769    1.9102    2.0589    1.7321    0.2832    2.4310   37.0000 
2573.1216   10.0466   67.6200  102.1470    1.9555    2.1351    1.7777    0.2768    2.4296   37.0000 
2573.2740   10.0466   64.0404  101.0393    2.0079    2.1990    1.8152    0.2614    2.4281   37.0000 
2573.4264   10.0466   65.0107  101.4712    2.0342    2.2436    1.8424    0.2626    2.4115   37.0000 
2573.5788   10.0466   64.5089  101.9379    2.0518    2.3189    1.8975    0.2633    2.4115   37.0000 
2573.7312   10.0566   63.4178  102.0733    2.0712    2.3309    1.9273    0.2639    2.4177   37.0000 
2573.8836   10.0566   67.6936  102.1565    2.1041    2.3552    1.9474    0.2648    2.4176   37.0000 
2574.0360   10.0566   69.4421  102.2238    2.1380    2.3365    1.9678    0.2747    2.4136   37.0000 
