~VERSION INFORMATION
 VERS.                 2.0:   CWLS LOG ASCII STANDARD - VERSION 2.0
 WRAP.                  NO:   SINGLE LINE PER DEPTH STEP
 CREA.                 04/06/2018 10:30:07
#CREATED USING DSPetro VERSION 5000.10.1.3 BY H191660 ON 04/06/2018 10:30:07
~WELL INFORMATION
#MNEM.UNIT       DATA                          DESCRIPTION MNEMONIC
#---------      ---------------------------   --------------------------
 STRT    .M         1867.0524                 : START DEPTH
 STOP    .M         3624.9864                 : STOP DEPTH
 STEP    .M         0.1524                    : STEP VALUE
 NULL    .      -999.0000                     : NULL VALUE
 DATE    .      04/06/2018                    : LAS file Creation Date
 WELL .      34_8_1                      : Well Name
 COMP .      Neftex Exploration Insights : Company
 FLD  .      VISUND                      : Field
 UWI  .      YNOWL_340801                : Unique Well Identifier (UWI)
 LOC  .                                  : Location
 RWS  .      -999                        : Def_Rw
 WST  .      -999                        : Def_Rwt
 SRVC .                                  : Contractor
~CURVE INFORMATION
#MNEM                UNIT       API CODE   Curve Type Comments
#----------    --------------- ----------  ---------- -----------
 DEPTH        .M                         : Depth       
 CAL_INCH     .inch                      :             Caliper Log - A representation of the measured diameter of a borehole along its depth
 GR_API       .API                       : GammaRay    Gamma Ray (API) - Measures the intensity of natural gamma-ray radiation emitted from formations containing radioactive elements, such as K, Th and U
 AC_US_FT     .us/ft                     :             Unspecified Acoustic log - No accroynm or method of attainment is specified
 RS_OHMM      .ohmm                      :             Unspecified Shallow Resistivity - No accroynm or method of attainment is specified
 RM_OHMM      .ohm.m                     :             Unspecified Medium Resistivity - No accroynm or method of attainment is specified
 RD_OHMM      .ohmm                      :             Unspecified Deep Resistivity - No accroynm or method of attainment is specified - units of ohmm
 NEUT_P_RATIO .ratio                     :             Unspecified Neutron Porosity Log - No accroynm or method of attainment is specified
 RHOB_G_CC    .g/cc                      :             Bulk Density - Measures the density of bulk material, including any void space or other materials contained in the subject volume
 LITH         .                          : LITH        Lithology Curve
~A  DEPTH  CAL_INCH   GR_API   AC_US_FT  RS_OHMM   RM_OHMM   RD_OHMM  NEUT_P_R~ RHOB_G_C~    LITH   
# ...
3378.8604    9.1250   90.3519   86.2083 -999.0000    3.4914    2.6331    0.2654    2.4602   37.0000 
3379.0128    9.2155   88.1563   86.5719 -999.0000    3.3073    2.4764    0.3034    2.4602   37.0000 
3379.1652    9.3616   87.5938   87.1207 -999.0000    2.5303    2.6136    0.3293    2.4703   37.0000 
3379.3176    9.4680   62.5350   87.3570 -999.0000    2.0537    2.6855    0.3119    2.5341   37.0000 
3379.4700    9.6458   55.4997   82.6301 -999.0000    2.0866    2.9436    0.2906    2.5675   37.0000 
3379.6224    9.7242   55.7297   80.8310 -999.0000    2.2993    2.9394    0.1940    2.5783   37.0000 
3379.7748    9.8136   55.8323   78.0829 -999.0000    4.0377    2.9107    0.1807    2.5977   37.0000 
3379.9272    9.8834   52.0938   76.5504 -999.0000    4.4063    2.8670    0.1814    2.5997   37.0000 
3380.0796    9.9538   42.1563   74.8023 -999.0000    5.0856    2.8110    0.1827    2.6007   36.0000 
3380.2320   10.0458   47.6509   72.5077 -999.0000    4.9562    3.0078    0.1838    2.5942   36.0000 
3380.3844   10.1032   48.7813   72.7739 -999.0000    4.7897    4.0606    0.1771    2.5724   36.0000 
3380.5368   10.0212   49.5243   73.0742 -999.0000    4.7254    4.9986    0.1683    2.5618   36.0000 
3380.6892    9.8706   51.5054   73.3744 -999.0000    4.6870    5.6281    0.1604    2.5514   36.0000 
3380.8416    9.7210   52.9721   71.4583 -999.0000    4.6521    5.1389    0.1457    2.5407   36.0000 
3380.9940    9.5559   56.9063   71.4914 -999.0000    4.6499    4.6805    0.1441    2.5224   36.0000 
3381.1464    9.4215   55.4408   72.7585 -999.0000    4.6537    4.6494    0.1389    2.5082   36.0000 
3381.2988    9.2735   50.2188   73.7259 -999.0000    4.4862    4.6100    0.1381    2.4981   36.0000 
3381.4512    9.2450   50.2813   74.6255 -999.0000    4.1354    4.5474    0.1368    2.4835   36.0000 
3381.6036    9.2985   50.2813   75.5345 -999.0000    3.9744    4.0555    0.1349    2.4802   36.0000 
3381.7560    9.3047   50.2813   80.1402 -999.0000    3.6742    3.8892    0.1405    2.4761   36.0000 
3381.9084    9.3227   43.2813   79.7238 -999.0000    2.8354    3.6168    0.1406    2.4730   27.0000 
3382.0608    9.4349   45.2426   79.1736 -999.0000    2.8124    3.5111    0.1401    2.4700   36.0000 
3382.2132    9.4924   48.5104   78.9158 -999.0000    2.7754    3.4156    0.1441    2.4665   36.0000 
3382.3656    9.5400   47.8928   81.8381 -999.0000    2.6761    2.8111    0.1545    2.4611   36.0000 
3382.5180    9.6037   46.8513   83.7014 -999.0000    2.4964    2.5317    0.1636    2.4551   36.0000 
3382.6704    9.7250   45.6527   85.1869 -999.0000    2.3909    2.3753    0.1709    2.4551   36.0000 
3382.8228    9.6980   44.8438   87.6006 -999.0000    1.8181    2.2686    0.1783    2.4540   36.0000 
3382.9752    9.6396   49.4884   86.5648 -999.0000    1.6845    2.1854    0.1857    2.4534   36.0000 
3383.1276    9.4858   50.9566   85.6326 -999.0000    1.6132    2.1568    0.1967    2.4294   36.0000 
3383.2800    9.2562   56.4063   84.7953 -999.0000    1.3855    1.9469    0.1894    2.4306   36.0000 
3383.4324    9.0265   47.5769   83.6382 -999.0000    1.4283    1.8561    0.1785    2.4337   36.0000 
3383.5848    8.8193   47.8414   83.2917 -999.0000    1.6192    1.7266    0.1746    2.4356   36.0000 
3383.7372    8.7360   48.1913   84.4860 -999.0000    1.4535    1.6768    0.1756    2.3624   36.0000 
3383.8896    8.6494   45.0426   86.7771 -999.0000    1.2817    1.5935    0.1888    2.3641   36.0000 
3384.0420    8.5944   48.7500   87.8750 -999.0000    1.1451    1.5002    0.1995    2.4162   36.0000 
3384.1944    8.4780   46.0915   85.9824 -999.0000    1.1335    1.4397    0.2060    2.4271   36.0000 
3384.3468    8.4501   43.7810   85.3819 -999.0000    1.1599    1.3633    0.2116    2.4435   36.0000 
3384.4992    8.4021   39.3601   83.6403 -999.0000    1.2538    1.2664    0.2189    2.4440   27.0000 
3384.6516    8.3850   38.7813   84.9576 -999.0000    1.4346    1.1476    0.2285    2.4440   36.0000 
3384.8040    8.3850   48.1250   89.9139 -999.0000    1.2139    1.1626    0.2271    2.3545   36.0000 
3384.9564    8.4018   46.5907   90.2917 -999.0000    1.1115    1.2160    0.2247    2.3546   36.0000 
3385.1088    8.4643   45.8063   87.2756 -999.0000    1.0505    1.2481    0.2218    2.3561   36.0000 
3385.2612    8.5106   44.0938   85.5105 -999.0000    0.9994    1.3022    0.2139    2.3728   36.0000 
3385.4136    8.6660   46.4867   80.9972 -999.0000    0.9978    1.7202    0.1709    2.3973   27.0000 
3385.5660    8.8383   47.5395   80.3633 -999.0000    1.4492    1.8516    0.1633    2.4138   27.0000 
3385.7184    9.1670   49.5938   72.4286 -999.0000    1.8999    2.3176    0.1447    2.4205   27.0000 
3385.8708    9.2449   49.8750   68.9822 -999.0000    2.4269    2.9351    0.0895    2.6234   18.0000 
3386.0232    9.2550   45.5397   63.8846 -999.0000   10.1292    6.7286    0.0681    2.6282   18.0000 
3386.1756    9.1497   41.6570   61.3431 -999.0000   12.1448   12.1799    0.0624    2.6287   18.0000 
3386.3280    8.9662   37.1187   59.4240 -999.0000   19.5168   20.3389    0.0563    2.6279   18.0000 
3386.4804    8.7816   36.4688   60.1911 -999.0000   20.5154   23.8551    0.0505    2.6157   18.0000 
3386.6328    8.7457   39.6650   60.3958 -999.0000   22.1584   28.6964    0.0483    2.6130   18.0000 
3386.7852    8.7150   42.5938   60.6250 -999.0000   34.7945   27.9619    0.0436    2.6707   18.0000 
3386.9376    8.6550   40.1705   60.2329 -999.0000   38.9389   26.5096    0.0530    2.6739   18.0000 
3387.0900    8.6250   39.1950   59.3814 -999.0000   48.2234   21.8474    0.0590    2.6748   18.0000 
3387.2424    8.6050   37.6469   58.4658 -999.0000   51.7208   19.3300    0.0624    2.6706   18.0000 
3387.3948    8.6050   35.0313   52.3685 -999.0000   45.9592   17.0625    0.0700    2.6629   18.0000 
3387.5472    8.6050   38.7350   42.9632 -999.0000   38.9999   12.1099    0.0782    2.5801   18.0000 
3387.6996    8.5842   39.6363   43.1133 -999.0000   18.9803    7.5070    0.0851    2.5718   18.0000 
3387.8520    8.5516   42.5313   43.4286 -999.0000   14.4362    4.8183    0.1570    2.5384   36.0000 
3388.0044    8.4324   47.0506   43.7853 -999.0000    3.4022    4.2020    0.1594    2.4714   36.0000 
3388.1568    8.4250   51.2624   44.8050 -999.0000    3.2000    3.9528    0.1708    2.4714   36.0000 
3388.3092    8.4205   57.7091   50.5006 -999.0000    2.0573    2.2059    0.1713    2.4947   36.0000 
3388.4616    8.3946   60.8438   54.1295 -999.0000    1.9899    2.0907    0.1708    2.4947   36.0000 
3388.6140    8.3487   54.0866   57.5293 -999.0000    1.9047    1.9881    0.1725    2.4718   36.0000 
3388.7664    8.2805   48.5313   60.7398 -999.0000    1.7676    1.7045    0.1792    2.4386   36.0000 
3388.9188    8.2209   44.9582   65.1541 -999.0000    1.0816    1.5430    0.1808    2.3738   27.0000 
3389.0712    8.1780   39.8552   70.5539 -999.0000    1.0885    1.3704    0.1798    2.3591   27.0000 
3389.2236    8.1550   38.5938   73.7889 -999.0000    1.1048    1.2975    0.1741    2.3541   27.0000 
3389.3760    8.1550   53.2661   76.3506 -999.0000    1.1240    1.2701    0.1725    2.3518   27.0000 
3389.5284    8.1550   52.5679   83.1565 -999.0000    1.1414    1.1672    0.1681    2.3516   27.0000 
3389.6808    8.1550   50.7889   84.0417 -999.0000    1.1533    1.1642    0.1711    2.3524   27.0000 
3389.8332    8.1550   45.8208   83.9583 -999.0000    1.1642    1.1653    0.1739    2.3614   27.0000 
3389.9856    8.1550   43.9693   83.0417 -999.0000    1.1679    1.1843    0.1738    2.3633   27.0000 
3390.1380    8.1550   41.2409   84.1552 -999.0000    1.1070    1.2071    0.1756    2.3633   27.0000 
3390.2904    8.1550   38.3106   84.4554 -999.0000    0.9964    1.2373    0.1917    2.3633   27.0000 
3390.4428    8.1650   36.6302   85.5417 -999.0000    0.9864    1.2773    0.2057    2.3641   27.0000 
3390.5952    8.1685   36.8550   84.4096 -999.0000    0.9300    1.3266    0.2067    2.3645   27.0000 
3390.7476    8.1850   37.2049   84.1950 -999.0000    1.0002    1.3330    0.2073    2.3654   27.0000 
3390.9000    8.1650   35.4282   83.0730 -999.0000    1.1247    1.3120    0.1986    2.3664   27.0000 
