~VERSION INFORMATION
 VERS.                 2.0:   CWLS LOG ASCII STANDARD - VERSION 2.0
 WRAP.                  NO:   SINGLE LINE PER DEPTH STEP
 CREA.                 04/06/2018 10:34:01
#CREATED USING DSPetro VERSION 5000.10.1.3 BY H191660 ON 04/06/2018 10:34:01
~WELL INFORMATION
#MNEM.UNIT       DATA                          DESCRIPTION MNEMONIC
#---------      ---------------------------   --------------------------
 STRT    .M         1308.9636                 : START DEPTH
 STOP    .M         3555.7968                 : STOP DEPTH
 STEP    .M         0.1524                    : STEP VALUE
 NULL    .      -999.0000                     : NULL VALUE
 DATE    .      04/06/2018                    : LAS file Creation Date
 WELL .      7321_7_1                    : Well Name
 COMP .      Neftex Exploration Insights : Company
 FLD  .                                  : Field
 UWI  .      ENOWL0000103                : Unique Well Identifier (UWI)
 LOC  .                                  : Location
 RWS  .      -999                        : Def_Rw
 WST  .      -999                        : Def_Rwt
 SRVC .                                  : Contractor
~CURVE INFORMATION
#MNEM              UNIT       API CODE   Curve Type Comments
#----------  --------------- ----------  ---------- -----------
 DEPTH      .M                         : Depth       
 CAL_INCH   .inch                      :             Caliper Log - A representation of the measured diameter of a borehole along its depth
 GR_API     .API                       : GammaRay    Gamma Ray (API) - Measures the intensity of natural gamma-ray radiation emitted from formations containing radioactive elements, such as K, Th and U
 ILD_OHMM   .ohmm                      :             Deep Induction Resistivity - Measurement made an induction log, made several feet into the formation
 DT_US_FT   .us/ft                     :             Interval Transit Time: Compressional Wave - Evaluates the time it takes for a compressional wave to traverse a fixed distance
 NPHI_RATIO .ratio                     :             Neutron Porosity - Measured with an neutron logging device calibrated to a given matrix (limestone, sandstone and dolomite)
 RHOB_G_CC  .g/cc                      :             Bulk Density - Measures the density of bulk material, including any void space or other materials contained in the subject volume
 LITH       .                          : LITH        Lithology Curve
~A  DEPTH  CAL_INCH   GR_API   ILD_OHMM  DT_US_FT NPHI_RAT~ RHOB_G_C~    LITH   
# ...
1610.7156   14.6557   78.6787    6.3948   92.6882    0.3001    2.6370   37.0000 
1610.8680   14.5871   78.6029    6.3119   92.7570    0.3017    2.6356   37.0000 
1611.0204   14.5672   78.3545    6.3119   93.0859    0.2997    2.6256   37.0000 
1611.1728   14.5473   76.9654    6.3628   93.4148    0.2977    2.6157   37.0000 
1611.3252   14.5344   75.1716    6.5100   93.6160    0.2976    2.6013   37.0000 
1611.4776   14.5344   72.7069    6.8408   93.7805    0.2981    2.5856   37.0000 
1611.6300   14.5343   75.0750    7.1302   93.9449    0.2986    2.5699   37.0000 
1611.7824   14.5447   75.4822    7.3835   93.4858    0.3043    2.5519   37.0000 
1611.9348   14.5646   75.5803    7.6514   92.9925    0.3103    2.5337   37.0000 
1612.0872   14.5845   75.2123    8.0366   92.4991    0.3150    2.5156   37.0000 
1612.2396   14.6182   73.2095    8.2497   92.0058    0.3105    2.4983   37.0000 
1612.3920   14.6580   72.3861    8.5334   91.5124    0.3060    2.4809   37.0000 
1612.5444   14.6978   76.7292    8.6451   91.2107    0.3032    2.4708   37.0000 
1612.6968   14.6680   77.9744    8.7418   91.3752    0.3042    2.4782   37.0000 
1612.8492   14.6282   78.4703    8.7770   91.5396    0.3051    2.4857   37.0000 
1613.0016   14.6428   78.8522    8.7770   91.7041    0.3084    2.4958   37.0000 
1613.1540   14.5634   78.8520    8.7770   91.8685    0.3144    2.5090   37.0000 
1613.3064   14.4840   78.5823    8.7770   92.0330    0.3203    2.5222   37.0000 
1613.4588   14.4004   74.9966    8.7770   92.1974    0.3247    2.5328   37.0000 
1613.6112   14.3013   72.9022    8.7418   92.3619    0.3282    2.5419   37.0000 
1613.7636   14.2021   70.8077    8.7116   92.5263    0.3317    2.5510   37.0000 
1613.9160   14.1105   66.5582    8.6826   92.6908    0.3361    2.5567   37.0000 
1614.0684   14.0311   69.1682    8.6023   92.8552    0.3426    2.5617   37.0000 
1614.2208   13.9517   68.7959    8.4651   93.0197    0.3490    2.5667   37.0000 
1614.3732   13.9048   69.1509    8.4187   93.1841    0.3433    2.5635   37.0000 
1614.5256   13.8849   69.8985    8.3300   93.3486    0.3374    2.5602   37.0000 
1614.6780   13.8650   70.6462    8.3300   93.4145    0.3316    2.5582   37.0000 
1614.8304   13.8594   71.1862    8.3300   92.9211    0.3266    2.5631   37.0000 
1614.9828   13.8594   71.6841    8.3300   92.4278    0.3217    2.5681   37.0000 
1615.1352   13.8594   72.1883    8.3300   91.9344    0.3170    2.5698   37.0000 
1615.2876   13.8594   73.3114    8.3300   91.4411    0.3131    2.5649   37.0000 
1615.4400   13.8593   74.4346    8.3300   90.9477    0.3091    2.5599   37.0000 
1615.5924   13.8580   75.5331    8.3300   90.6166    0.3061    2.5582   37.0000 
1615.7448   13.8381   76.5309    8.3300   90.4521    0.3041    2.5599   37.0000 
1615.8972   13.8182   77.5287    8.3459   90.2877    0.3022    2.5615   37.0000 
1616.0496   13.8030   77.7235    8.3973   90.2326    0.2992    2.5687   37.0000 
1616.2020   13.8030   76.6101    8.4311   90.2326    0.2957    2.5786   37.0000 
1616.3544   13.8030   75.4966    8.4651   90.2326    0.2922    2.5885   37.0000 
1616.5068   13.8192   75.5254    8.4992   90.5077    0.2942    2.5915   37.0000 
1616.6592   13.8590   76.5231    8.4992   90.8366    0.2971    2.5932   37.0000 
1616.8116   13.8988   77.5208    8.4992   91.1669    0.3001    2.5947   37.0000 
1616.9640   13.9269   78.2465    8.4992   91.6602    0.3031    2.5890   37.0000 
1617.1164   13.9468   78.8691    8.4311   92.1536    0.3061    2.5832   37.0000 
1617.2688   13.9666   79.4916    8.3324   92.5581    0.3076    2.5783   37.0000 
1617.4212   13.9789   84.4541    8.2129   92.5581    0.3027    2.5775   37.0000 
1617.5736   13.9081   85.2016    8.1121   92.5581    0.2977    2.5766   37.0000 
1617.7260   13.9081   85.6944    8.0340   92.5003    0.2926    2.5773   37.0000 
1617.8784   13.9081   83.9666    8.0422   92.3359    0.2871    2.5806   37.0000 
1618.0308   13.9081   82.2387    8.1611   92.1714    0.2817    2.5839   37.0000 
1618.1832   14.0380   80.6687    8.2389   92.0070    0.2780    2.5841   37.0000 
1618.3356   14.1376   79.5551    8.4014   91.8425    0.2760    2.5817   37.0000 
1618.4880   14.2372   78.4416    8.4492   91.6781    0.2741    2.5792   37.0000 
1618.6404   14.2355   78.3674    8.4821   91.2850    0.2745    2.5807   37.0000 
1618.7928   14.3751   79.7411    8.4821   90.7917    0.2760    2.5840   37.0000 
1618.9452   14.5146   81.1147    8.4821   90.2983    0.2775    2.5873   37.0000 
1619.0976   14.6263   82.3364    8.4821   89.5199    0.2729    2.5849   37.0000 
1619.2500   14.7060   83.4592    8.4821   88.6977    0.2675    2.5816   37.0000 
1619.4024   14.7856   84.5819    8.4821   87.8944    0.2621    2.5783   37.0000 
1619.5548   14.8524   84.2288    8.4821   87.5655    0.2571    2.5741   37.0000 
1619.7072   14.9121   83.4854    8.4821   87.2366    0.2521    2.5700   37.0000 
1619.8596   14.9717   82.7419    8.4821   86.9767    0.2483    2.5667   37.0000 
1620.0120   14.9824   82.5903    8.4821   86.9767    0.2488    2.5667   37.0000 
1620.1644   14.9824   82.4659    8.4821   86.9767    0.2493    2.5667   37.0000 
1620.3168   14.9824   82.2784    8.4821   86.9767    0.2498    2.5686   37.0000 
1620.4692   14.9232   81.6585    8.4343   86.9767    0.2503    2.5736   37.0000 
1620.6216   14.8636   81.0386    8.3864   86.9767    0.2508    2.5785   37.0000 
1620.7740   14.8137   80.7108    8.3307   86.9767    0.2554    2.5812   37.0000 
1620.9264   14.8137   81.0839    8.2372   86.9767    0.2634    2.5820   37.0000 
1621.0788   14.8137   81.4569    8.1437   86.9767    0.2713    2.5829   37.0000 
1621.2312   14.8270   81.0716    8.0668   86.9767    0.2746    2.5831   37.0000 
1621.3836   14.8667   79.8347    8.0211   86.9767    0.2760    2.5831   37.0000 
1621.5360   14.9065   78.5979    7.9755   86.9767    0.2775    2.5831   37.0000 
1621.6884   14.8900   77.7505    7.9773   86.9767    0.2768    2.5816   37.0000 
1621.8408   14.9298   77.1306    8.0229   86.9767    0.2758    2.5800   37.0000 
1621.9932   14.9695   76.5107    8.0684   86.9767    0.2750    2.5783   37.0000 
1622.1456   15.0093   76.1873    8.1145   86.9767    0.2765    2.5766   37.0000 
1622.2980   15.0491   75.9389    8.1608   86.9767    0.2780    2.5750   37.0000 
1622.4504   15.0888   75.6905    8.2071   86.9767    0.2792    2.5735   37.0000 
1622.6028   15.1286   75.2021    8.2541   86.9767    0.2797    2.5727   37.0000 
1622.7552   15.1683   74.7059    8.3011   86.9767    0.2802    2.5719   37.0000 
1622.9076   15.2081   74.4652    8.3468   86.9767    0.2823    2.5704   37.0000 
1623.0600   15.2479   75.8384    8.3468   86.9767    0.2868    2.5679   37.0000 
1623.2124   15.2876   80.9499    8.3468   86.9767    0.2913    2.5654   37.0000 
1623.3648   15.3232   80.9498    8.3373   87.0727    0.2917    2.5673   37.0000 
1623.5172   15.3430   80.4228    8.2902   87.2372    0.3029    2.5722   37.0000 
1623.6696   15.3629   75.5850    8.2431   87.4016    0.3029    2.5772   37.0000 
1623.8220   15.3522   74.4290    8.2136   87.5661    0.2665    2.5828   37.0000 
1623.9744   15.2926   72.5776    8.2136   87.7305    0.2809    2.5886   37.0000 
1624.1268   15.2331   70.7263    8.2136   87.8950    0.2779    2.5943   37.0000 
1624.2792   15.2065   70.5413    8.1883   87.9070    0.2828    2.5963   37.0000 
1624.4316   15.2064   71.2886    8.1419   87.9070    0.2882    2.5979   37.0000 
1624.5840   15.2064   72.0359    8.0956   87.9070    0.2987    2.5996   37.0000 
1624.7364   15.1775   72.3732    8.0826   87.9070    0.2987    2.6013   37.0000 
1624.8888   15.1378   72.6218    8.0826   87.9070    0.2980    2.6029   37.0000 
1625.0412   15.0980   72.8704    8.0826   87.9070    0.2964    2.6037   37.0000 
1625.1936   15.0050   73.2432    8.1239   87.9070    0.2433    2.6020   37.0000 
1625.3460   14.9058   73.6162    8.1702   87.9070    0.2586    2.6004   37.0000 
1625.4984   14.8104   73.9458    8.2108   87.9070    0.2575    2.5983   37.0000 
1625.6508   14.7706   74.0699    8.0499   87.9070    0.2624    2.5959   37.0000 
