~VERSION INFORMATION
 VERS.                 2.0:   CWLS LOG ASCII STANDARD - VERSION 2.0
 WRAP.                  NO:   SINGLE LINE PER DEPTH STEP
 CREA.                 04/06/2018 10:34:01
#CREATED USING DSPetro VERSION 5000.10.1.3 BY H191660 ON 04/06/2018 10:34:01
~WELL INFORMATION
#MNEM.UNIT       DATA                          DESCRIPTION MNEMONIC
#---------      ---------------------------   --------------------------
 STRT    .M         1308.9636                 : START DEPTH
 STOP    .M         3555.7968                 : STOP DEPTH
 STEP    .M         0.1524                    : STEP VALUE
 NULL    .      -999.0000                     : NULL VALUE
 DATE    .      04/06/2018                    : LAS file Creation Date
 WELL .      7321_7_1                    : Well Name
 COMP .      Neftex Exploration Insights : Company
 FLD  .                                  : Field
 UWI  .      ENOWL0000103                : Unique Well Identifier (UWI)
 LOC  .                                  : Location
 RWS  .      -999                        : Def_Rw
 WST  .      -999                        : Def_Rwt
 SRVC .                                  : Contractor
~CURVE INFORMATION
#MNEM              UNIT       API CODE   Curve Type Comments
#----------  --------------- ----------  ---------- -----------
 DEPTH      .M                         : Depth       
 CAL_INCH   .inch                      :             Caliper Log - A representation of the measured diameter of a borehole along its depth
 GR_API     .API                       : GammaRay    Gamma Ray (API) - Measures the intensity of natural gamma-ray radiation emitted from formations containing radioactive elements, such as K, Th and U
 ILD_OHMM   .ohmm                      :             Deep Induction Resistivity - Measurement made an induction log, made several feet into the formation
 DT_US_FT   .us/ft                     :             Interval Transit Time: Compressional Wave - Evaluates the time it takes for a compressional wave to traverse a fixed distance
 NPHI_RATIO .ratio                     :             Neutron Porosity - Measured with an neutron logging device calibrated to a given matrix (limestone, sandstone and dolomite)
 RHOB_G_CC  .g/cc                      :             Bulk Density - Measures the density of bulk material, including any void space or other materials contained in the subject volume
 LITH       .                          : LITH        Lithology Curve
~A  DEPTH  CAL_INCH   GR_API   ILD_OHMM  DT_US_FT NPHI_RAT~ RHOB_G_C~    LITH   
# ...
3089.3004   12.2178   63.4453   12.0585   67.3241    0.1740    2.6483   37.0000 
3089.4528   12.2319   63.0543   12.1275   67.3359    0.1742    2.6479   37.0000 
3089.6052   12.2459   61.6851   12.1969   67.1711    0.1747    2.6503   37.0000 
3089.7576   12.2459   60.3159   12.2663   67.0063    0.1751    2.6528   37.0000 
3089.9100   12.2459   60.6258   12.3367   66.9767    0.1799    2.6526   37.0000 
3090.0624   12.2459   60.8748   12.4072   66.9767    0.1839    2.6518   37.0000 
3090.2148   12.2459   61.1237   12.4778   66.9767    0.1878    2.6509   37.0000 
3090.3672   12.2459   60.5028   12.4779   67.1413    0.1874    2.6485   37.0000 
3090.5196   12.2459   59.8804   12.4779   67.3061    0.1869    2.6460   37.0000 
3090.6720   12.2459   59.1485   12.4779   67.4709    0.1862    2.6442   37.0000 
3090.8244   12.2459   57.9038   12.4779   67.6357    0.1847    2.6459   37.0000 
3090.9768   12.2459   56.6590   12.4779   67.8005    0.1832    2.6475   37.0000 
3091.1292   12.2459   55.7227   12.5032   67.8487    0.1794    2.6471   37.0000 
3091.2816   12.2600   55.3492   12.5749   67.6839    0.1715    2.6430   37.0000 
3091.4340   12.2600   54.9758   12.6466   67.5191    0.1635    2.6389   37.0000 
3091.5864   12.2740   54.8671   12.7583   67.0914    0.1409    2.6387   37.0000 
3091.7388   12.2740   54.9916   12.9051   66.4322    0.1409    2.6420   37.0000 
3091.8912   12.2976   55.1161   13.0520   65.7730    0.1409    2.6453   37.0000 
3092.0436   12.3233   57.1832   13.0422   65.9321    0.1679    2.6504   37.0000 
3092.1960   12.3583   60.0461   12.9682   66.4266    0.1754    2.6562   37.0000 
3092.3484   12.4030   62.9089   12.8941   66.9210    0.1828    2.6620   37.0000 
3092.5008   12.4428   64.4466   12.6334   67.7078    0.1929    2.6670   37.0000 
3092.6532   12.4707   65.8158   12.3489   68.5318    0.2033    2.6720   37.0000 
3092.8056   12.5225   67.1365   12.0533   69.3666    0.2136    2.6767   37.0000 
3092.9580   12.5410   67.7588   11.5974   70.3554    0.2210    2.6784   37.0000 
3093.1104   12.5691   68.3812   11.1416   71.3442    0.2285    2.6801   37.0000 
3093.2628   12.6025   69.4265   10.6975   72.2931    0.2342    2.6815   37.0000 
3093.4152   12.7454   71.7915   10.2902   73.1171    0.2347    2.6823   37.0000 
3093.5676   12.8250   74.1565    9.8828   73.9411    0.2352    2.6832   37.0000 
3093.7200   12.8963   75.7886    9.4733   74.4879    0.2355    2.6850   37.0000 
3093.8724   12.9561   76.4110    9.0606   74.6527    0.2355    2.6884   37.0000 
3094.0248   13.0158   77.0334    8.6479   74.8175    0.2355    2.6917   37.0000 
3094.1772   13.0517   77.5813    8.3701   74.9823    0.2343    2.6920   37.0000 
3094.3296   13.0716   78.0791    8.1828   75.1471    0.2323    2.6903   37.0000 
3094.4820   13.0916   78.5770    7.9956   75.3119    0.2304    2.6887   37.0000 
3094.6344   13.1269   78.6885    7.8506   75.4767    0.2318    2.6838   37.0000 
3094.7868   13.1668   78.6885    7.7178   75.6415    0.2343    2.6780   37.0000 
3094.9392   13.2066   78.6885    7.5851   75.8063    0.2368    2.6722   37.0000 
3095.0916   13.2274   79.4009    7.4979   75.9712    0.2388    2.6704   37.0000 
3095.2440   13.2473   80.1477    7.4129   76.1360    0.2408    2.6687   37.0000 
3095.3964   13.2646   80.5505    7.3677   76.1489    0.2408    2.6681   37.0000 
3095.5488   13.2646   78.6835    7.5855   75.1601    0.2274    2.6739   37.0000 
3095.7012   13.2646   76.8164    7.8032   74.1713    0.2139    2.6796   37.0000 
3095.8536   13.2708   74.4487    8.0733   72.9275    0.2002    2.6836   37.0000 
3096.0060   13.2907   70.9635    8.4603   71.1147    0.1858    2.6836   37.0000 
3096.1584   13.3106   67.4783    8.8473   69.3018    0.1714    2.6836   37.0000 
3096.3108   13.3403   65.4483    9.2601   68.2918    0.1732    2.6824   37.0000 
3096.4632   13.3801   64.9504    9.7002   68.1270    0.1777    2.6800   37.0000 
3096.6156   13.4199   64.4526   10.1403   67.9622    0.1822    2.6775   37.0000 
3096.7680   13.4465   65.8582   10.4076   68.4549    0.1879    2.6766   37.0000 
3096.9204   13.4664   68.2232   10.5878   69.2789    0.1944    2.6645   37.0000 
3097.0728   13.4863   70.5882   10.7680   70.1029    0.2009    2.6638   37.0000 
3097.2252   13.4727   72.5336   10.4998   70.6492    0.2044    2.6640   37.0000 
3097.3776   13.4528   74.4006   10.1479   71.1436    0.2074    2.6650   37.0000 
3097.5300   13.4337   76.2193    9.7956   71.6347    0.2103    2.6954   37.0000 
3097.6824   13.4536   75.7214    9.4258   71.9643    0.2098    2.6987   37.0000 
3097.8348   13.4735   75.2236    9.0559   72.2939    0.2093    2.7020   37.0000 
3097.9872   13.4974   74.8244    8.7211   72.6235    0.2092    2.7042   37.0000 
3098.1396   13.5372   74.8244    8.5277   72.9531    0.2107    2.7017   37.0000 
3098.2920   13.5770   74.8244    8.3343   73.2827    0.2122    2.6992   37.0000 
3098.4444   13.6094   75.6200    8.1621   73.5503    0.2146    2.6912   37.0000 
3098.5968   13.6293   77.7360    8.0250   73.7151    0.2186    2.6907   37.0000 
3098.7492   13.6492   79.8520    7.8879   73.8800    0.2225    2.6911   37.0000 
3098.9016   13.5853   81.2098    7.9288   73.8622    0.2213    2.6937   37.0000 
3099.0540   13.5555   81.9567    8.1130   73.6974    0.2158    2.6953   37.0000 
3099.2064   13.5256   82.7035    8.2973   73.5326    0.2104    2.6908   37.0000 
3099.3588   13.4957   79.5349    8.6439   72.7650    0.1998    2.6871   37.0000 
3099.5112   13.4658   74.9294    9.0500   71.7762    0.1874    2.6843   37.0000 
3099.6636   13.4360   70.3239    9.4561   70.7873    0.1750    2.6721   37.0000 
3099.8160   13.3971   65.0420   10.0263   69.3497    0.1693    2.6750   37.0000 
3099.9684   13.3573   59.6926   10.6129   67.8672    0.1644    2.6766   37.0000 
3100.1208   13.3174   54.8222   11.2081   66.4976    0.1599    2.6766   37.0000 
3100.2732   13.2777   55.0706   11.8960   66.3331    0.1604    2.6766   37.0000 
3100.4256   13.2380   55.3190   12.5838   66.1687    0.1609    2.6766   37.0000 
3100.5780   13.1982   55.5035   13.1536   66.1734    0.1619    2.6679   37.0000 
3100.7304   13.1585   55.5035   13.3824   66.6668    0.1643    2.6613   37.0000 
3100.8828   13.1187   55.5035   13.6113   67.1601    0.1668    2.6547   37.0000 
3101.0352   13.0619   56.6756   13.7087   67.6535    0.1704    2.6534   37.0000 
3101.1876   12.9824   59.4081   13.6312   68.1468    0.1753    2.6592   37.0000 
3101.3400   12.9029   62.1406   13.5537   68.6402    0.1803    2.6650   37.0000 
3101.4924   12.8235   63.2319   13.6166   68.6397    0.1775    2.6653   37.0000 
3101.6448   12.7440   68.1499   13.7729   68.3108    0.1696    2.6620   37.0000 
3101.7972   12.6645   63.2319   13.9292   67.9819    0.1616    2.6587   37.0000 
3101.9496   12.6157   60.6418   14.1533   67.6530    0.1529    2.6471   22.0000 
3102.1020   12.5759   57.2883   14.3974   67.3241    0.1440    2.6331   22.0000 
3102.2544   12.5362   53.9348   14.6415   66.9952    0.1351    2.6030   22.0000 
3102.4068   12.4964   52.9263   14.7344   67.1320    0.1444    2.6030   22.0000 
3102.5592   12.4567   52.0569   14.8184   67.2964    0.1548    2.6030   37.0000 
3102.7116   12.4239   51.5468   14.9126   67.5180    0.1652    2.6214   37.0000 
3102.8640   12.4437   53.7824   15.0848   68.1758    0.1756    2.6289   37.0000 
3103.0164   12.4636   56.0181   15.2569   68.8336    0.1860    2.6363   37.0000 
3103.1688   12.5006   60.2459   15.3796   69.3023    0.1912    2.6411   37.0000 
3103.3212   12.5801   61.1871   15.3796   69.3023    0.1833    2.6395   37.0000 
3103.4736   12.6596   54.9871   15.3796   69.3023    0.1753    2.6378   37.0000 
3103.6260   12.7300   53.8087   15.3005   69.0003    0.1674    2.6362   37.0000 
3103.7784   12.7896   53.1867   15.1284   68.3425    0.1595    2.6345   37.0000 
3103.9308   12.8492   52.4414   14.9563   67.6847    0.1515    2.6329   37.0000 
3104.0832   12.8461   51.5395   14.7876   67.4419    0.1470    2.6307   22.0000 
3104.2356   12.8064   47.8290   14.6209   67.4419    0.1446    2.6282   22.0000 
