~VERSION INFORMATION
 VERS.                 2.0:   CWLS LOG ASCII STANDARD - VERSION 2.0
 WRAP.                  NO:   SINGLE LINE PER DEPTH STEP
 CREA.                 04/06/2018 10:34:01
#CREATED USING DSPetro VERSION 5000.10.1.3 BY H191660 ON 04/06/2018 10:34:01
~WELL INFORMATION
#MNEM.UNIT       DATA                          DESCRIPTION MNEMONIC
#---------      ---------------------------   --------------------------
 STRT    .M         1308.9636                 : START DEPTH
 STOP    .M         3555.7968                 : STOP DEPTH
 STEP    .M         0.1524                    : STEP VALUE
 NULL    .      -999.0000                     : NULL VALUE
 DATE    .      04/06/2018                    : LAS file Creation Date
 WELL .      7321_7_1                    : Well Name
 COMP .      Neftex Exploration Insights : Company
 FLD  .                                  : Field
 UWI  .      ENOWL0000103                : Unique Well Identifier (UWI)
 LOC  .                                  : Location
 RWS  .      -999                        : Def_Rw
 WST  .      -999                        : Def_Rwt
 SRVC .                                  : Contractor
~CURVE INFORMATION
#MNEM              UNIT       API CODE   Curve Type Comments
#----------  --------------- ----------  ---------- -----------
 DEPTH      .M                         : Depth       
 CAL_INCH   .inch                      :             Caliper Log - A representation of the measured diameter of a borehole along its depth
 GR_API     .API                       : GammaRay    Gamma Ray (API) - Measures the intensity of natural gamma-ray radiation emitted from formations containing radioactive elements, such as K, Th and U
 ILD_OHMM   .ohmm                      :             Deep Induction Resistivity - Measurement made an induction log, made several feet into the formation
 DT_US_FT   .us/ft                     :             Interval Transit Time: Compressional Wave - Evaluates the time it takes for a compressional wave to traverse a fixed distance
 NPHI_RATIO .ratio                     :             Neutron Porosity - Measured with an neutron logging device calibrated to a given matrix (limestone, sandstone and dolomite)
 RHOB_G_CC  .g/cc                      :             Bulk Density - Measures the density of bulk material, including any void space or other materials contained in the subject volume
 LITH       .                          : LITH        Lithology Curve
~A  DEPTH  CAL_INCH   GR_API   ILD_OHMM  DT_US_FT NPHI_RAT~ RHOB_G_C~    LITH   
1308.9636   17.8565   68.4086    5.9664   91.0810    0.5212    1.5808 -999.0000 
1309.1160   17.8365   67.5413    5.8513   90.2552    0.5215    1.5808 -999.0000 
1309.2684   17.9625   67.4166    5.7312   90.2326    0.5194    1.5841 -999.0000 
1309.4208   18.1221   67.2918    5.6602   90.2326    0.5169    1.5974 -999.0000 
1309.5732   18.2816   66.7920    5.6172   90.3618    0.5034    1.5995 -999.0000 
1309.7256   18.7243   66.5425    5.5546   91.1876    0.4991    1.5995 -999.0000 
1309.8780   18.3853   66.2931    5.4613   92.0134    0.5082    1.5983 -999.0000 
1310.0304   18.4722   65.6174    5.3958   92.6705    0.5267    1.5955 -999.0000 
1310.1828   18.5919   63.8637    5.3958   93.0009    0.5367    1.5928 -999.0000 
1310.3352   18.7115   61.8996    5.4175   93.3312    0.5647    1.4792 -999.0000 
1310.4876   17.8324   60.6983    5.4394   93.5749    0.5720    1.5005 -999.0000 
1310.6400   18.8421   61.0492    5.5018   93.7401    0.5671    1.4921 -999.0000 
1310.7924   19.8757   65.1258    5.6553   93.9053    0.5435    1.4772 -999.0000 
1310.9448   18.7468   68.0913    5.7205   93.0181    0.5439    1.4126 -999.0000 
1311.0972   18.4673   69.4621    5.7864   91.6968    0.5466    1.4195 -999.0000 
1311.2496   18.1879   75.9479    5.8523   90.3756    0.5467    1.4310 -999.0000 
1311.4020   18.1579   76.1407    5.9511   89.3489    0.5390    1.4477 -999.0000 
1311.5544   18.2177   74.2583    6.0540   88.3579    0.5285    1.5053 -999.0000 
1311.7068   18.2776   71.4300    6.1572   87.4793    0.5228    1.5277 -999.0000 
1311.8592   18.1173   70.1821    6.2651   87.9748    0.5208    1.5418 -999.0000 
1312.0116   17.9377   67.3613    6.3731   88.4703    0.5174    1.5687 -999.0000 
1312.1640   17.8936   65.3266    6.4342   88.7944    0.5114    1.6299 -999.0000 
1312.3164   17.9335   64.2816    6.1862   88.6292    0.5085    1.6350 -999.0000 
1312.4688   17.9734   60.1711    6.0185   88.4640    0.5059    1.6393 -999.0000 
1312.6212   18.0018   58.9426    5.9424   88.6649    0.5054    1.6416 -999.0000 
1312.7736   18.0018   58.9426    5.9424   89.3256    0.5238    1.6099 -999.0000 
1312.9260   18.0018   58.9425    5.9770   89.9862    0.5284    1.6008 -999.0000 
1313.0784   18.0018   58.9425    6.0700   90.5433    0.5333    1.5894 -999.0000 
1313.2308   18.0019   59.6060    6.1367   91.0387    0.5348    1.5711 -999.0000 
1313.3832   18.0019   63.2290    6.1367   91.5342    0.5355    1.5532 -999.0000 
1313.5356   17.9625   64.3003    6.1367   91.6279    0.5364    1.4939 -999.0000 
1313.6880   17.9026   65.4218    6.1818   91.6279    0.5388    1.4992 -999.0000 
1313.8404   17.8428   66.4763    6.2484   91.6279    0.5467    1.5061 -999.0000 
1313.9928   17.7998   66.2268    6.3540   91.6279    0.5665    1.5103 -999.0000 
1314.1452   17.7599   65.9773    6.4487   91.6279    0.5692    1.5185 -999.0000 
1314.2976   17.7224   65.8450    6.5708   91.5394    0.5557    1.5324 -999.0000 
1314.4500   17.7623   66.0943    6.6239   91.0440    0.5379    1.5407 -999.0000 
1314.6024   17.8022   66.3437    6.6506   90.5485    0.5441    1.5482 -999.0000 
1314.7548   17.8803   66.7655    6.4782   90.4121    0.5471    1.5490 -999.0000 
1314.9072   18.0995   73.1573    6.3185   90.9076    0.5327    1.5522 -999.0000 
1315.0596   18.3188   73.1573    6.1017   91.4031    0.5395    1.5540 -999.0000 
1315.2120   18.3628   73.1572    5.9424   91.7181    0.5422    1.5528 -999.0000 
1315.3644   19.0341   72.6307    5.8033   91.8833    0.5498    1.5430 -999.0000 
1315.5168   18.4825   70.0246    5.7082   92.0484    0.5544    1.5320 -999.0000 
1315.6692   18.3920   66.1494    5.7543   90.5256    0.5727    1.4651 -999.0000 
1315.8216   18.1924   61.2679    6.0105   88.3785    0.5811    1.4623 -999.0000 
1315.9740   17.9927   56.3864    6.3950   86.2314    0.5804    1.4585 -999.0000 
1316.1264   17.6583   52.6159    6.5973   82.5750    0.5524    1.4572 -999.0000 
1316.2788   18.1574   40.8642    6.6239   78.7763    0.5464    1.4561 -999.0000 
1316.4312   19.0343   41.0396    6.6239   75.6555    0.5429    1.4552 -999.0000 
1316.5836   18.2074   41.3905    6.5973   71.6279    0.5386    1.4835 -999.0000 
1316.7360   18.1276   54.1740    6.5973   80.9159    0.5055    1.4896 -999.0000 
1316.8884   18.0774   57.5439    6.6506   84.0465    0.4852    1.4921 -999.0000 
1317.0408   18.2169   60.0333    6.4400   84.4186    0.4789    1.4911 -999.0000 
1317.1932   18.3565   62.5228    6.0401   83.0233    0.4780    1.4623 -999.0000 
1317.3456   18.4897   64.8126    5.7478   84.0284    0.4780    1.4590 -999.0000 
1317.4980   18.6094   66.9291    5.4249   95.1352    0.5582    1.4563 -999.0000 
1317.6504   18.7290   69.0457    5.3634   95.6981    0.6386    1.4459 -999.0000 
1317.8028   18.7389   68.4846    5.5130   95.8140    0.6446    1.4278 -999.0000 
1317.9552   18.6391   66.8610    5.6853   95.3488    0.6477    1.4278 -999.0000 
1318.1076   18.5393   65.2374    5.8020   94.0086    0.6463    1.4310 -999.0000 
1318.2600   18.4135   65.6477    5.9186   90.5273    0.6390    1.4666 -999.0000 
1318.4124   18.1938   66.2710    6.1121   88.9734    0.6342    1.4664 -999.0000 
1318.5648   17.9742   66.8831    6.1121   88.3665    0.6077    1.4557 -999.0000 
1318.7172   18.1554   67.3817    6.1121   87.9070    0.6021    1.4460 -999.0000 
1318.8696   18.3945   67.8804    6.1862   87.9070    0.6029    1.4420 -999.0000 
1319.0220   18.6085   68.2085    7.6864   95.5151    0.5993    1.4415 -999.0000 
1319.1744   18.3888   68.0837    7.5086   94.8837    0.5967    1.4407 -999.0000 
1319.3268   18.1691   67.9590    7.0286   92.4704    0.5916    1.4991 -999.0000 
1319.4792   18.0849   67.7196    6.3792   90.1056    0.5316    1.4991 -999.0000 
1319.6316   18.4234   67.3453    5.8846   87.0079    0.5173    1.4792 -999.0000 
1319.7840   18.7619   66.9709    5.7082   86.5116    0.5096    1.5577 -999.0000 
1319.9364   19.0752   67.3212    5.6853   92.2037    0.5096    1.6433 -999.0000 
1320.0888   19.3541   68.0690    5.7302   95.6721    0.5112    1.6377 -999.0000 
1320.2412   19.6329   68.8168    5.9518   99.1404    0.5923    1.6300 -999.0000 
1320.3936   20.6919   68.0126    6.0876  104.8678    0.5851    1.4009 -999.0000 
1320.5460   19.0393   66.8888    6.2646  104.5375    0.5401    1.4021 -999.0000 
1320.6984   18.5993   65.7895    6.4417  104.4186    0.5364    1.4208 -999.0000 
1320.8508   18.3658   66.0388    6.4188   93.1860    0.5353    1.4290 -999.0000 
1321.0032   18.1861   66.2882    6.3822   90.3783    0.5341    1.4141 -999.0000 
1321.1556   18.0064   66.6385    6.3727   88.0653    0.5446    1.4079 -999.0000 
1321.3080   18.1203   67.3863    6.5615   89.3866    0.5811    1.4068 -999.0000 
1321.4604   18.2400   68.1341    6.7503   90.7078    0.5783    1.4103 -999.0000 
1321.6128   18.3139   68.1112    6.9311   91.9790    0.5742    1.4388 -999.0000 
1321.7652   18.1542   66.8622    7.0935   93.1351    0.5675    1.4428 -999.0000 
1321.9176   17.9944   65.6133    7.2558   94.2912    0.5530    1.4389   37.0000 
1322.0700   17.8768   65.2977    7.2792   93.8371    0.5523    1.4297   37.0000 
1322.2224   17.8369   65.6717    7.1565   91.6900    0.5486    1.4166    3.0000 
1322.3748   17.7970   66.0458    7.0337   89.5429    0.5460    1.4091    3.0000 
1322.5272   17.8213   66.8928    6.9406   89.2807    0.5439    1.4079    3.0000 
1322.6796   17.9010   67.8896    6.8620   89.9413    0.5488    1.4164    3.0000 
1322.8320   17.9808   68.8864    6.7834   90.6020    0.5516    1.4140    3.0000 
1322.9844   18.2467   66.8239    6.8053   91.8275    0.5326    1.4140    3.0000 
1323.1368   18.5851   64.5731    6.8443   93.1488    0.5116    1.4169    3.0000 
1323.2892   18.9235   62.4570    6.8881   94.4637    0.5054    1.4290    3.0000 
1323.4416   19.7095   61.2078    7.0505   95.6198    0.5102    1.4301    3.0000 
1323.5940   18.5412   59.9586    7.2129   96.7759    0.5171    1.4256    3.0000 
1323.7464   18.3231   58.8714    7.3979   97.0121    0.5778    1.4212    3.0000 
1323.8988   18.1234   58.1222    7.6619   94.0392    0.5804    1.4167    3.0000 
