~VERSION INFORMATION
 VERS.                 2.0:   CWLS LOG ASCII STANDARD - VERSION 2.0
 WRAP.                  NO:   SINGLE LINE PER DEPTH STEP
 CREA.                 04/06/2018 10:34:01
#CREATED USING DSPetro VERSION 5000.10.1.3 BY H191660 ON 04/06/2018 10:34:01
~WELL INFORMATION
#MNEM.UNIT       DATA                          DESCRIPTION MNEMONIC
#---------      ---------------------------   --------------------------
 STRT    .M         1308.9636                 : START DEPTH
 STOP    .M         3555.7968                 : STOP DEPTH
 STEP    .M         0.1524                    : STEP VALUE
 NULL    .      -999.0000                     : NULL VALUE
 DATE    .      04/06/2018                    : LAS file Creation Date
 WELL .      7321_7_1                    : Well Name
 COMP .      Neftex Exploration Insights : Company
 FLD  .                                  : Field
 UWI  .      ENOWL0000103                : Unique Well Identifier (UWI)
 LOC  .                                  : Location
 RWS  .      -999                        : Def_Rw
 WST  .      -999                        : Def_Rwt
 SRVC .                                  : Contractor
~CURVE INFORMATION
#MNEM              UNIT       API CODE   Curve Type Comments
#----------  --------------- ----------  ---------- -----------
 DEPTH      .M                         : Depth       
 CAL_INCH   .inch                      :             Caliper Log - A representation of the measured diameter of a borehole along its depth
 GR_API     .API                       : GammaRay    Gamma Ray (API) - Measures the intensity of natural gamma-ray radiation emitted from formations containing radioactive elements, such as K, Th and U
 ILD_OHMM   .ohmm                      :             Deep Induction Resistivity - Measurement made an induction log, made several feet into the formation
 DT_US_FT   .us/ft                     :             Interval Transit Time: Compressional Wave - Evaluates the time it takes for a compressional wave to traverse a fixed distance
 NPHI_RATIO .ratio                     :             Neutron Porosity - Measured with an neutron logging device calibrated to a given matrix (limestone, sandstone and dolomite)
 RHOB_G_CC  .g/cc                      :             Bulk Density - Measures the density of bulk material, including any void space or other materials contained in the subject volume
 LITH       .                          : LITH        Lithology Curve
~A  DEPTH  CAL_INCH   GR_API   ILD_OHMM  DT_US_FT NPHI_RAT~ RHOB_G_C~    LITH   
# ...
2350.0080   13.9960   87.0078    4.6657   82.2961    0.2580    2.6089   37.0000 
2350.1604   14.0260   87.2576    4.5861   83.9495    0.2531    2.6089   37.0000 
2350.3128   14.0397   87.3245    4.5376   84.9217    0.2501    2.6147   37.0000 
2350.4652   13.9600   85.8462    4.5638   84.2603    0.2427    2.6347   37.0000 
2350.6176   13.8802   79.5581    4.5899   83.5990    0.2352    2.6546   37.0000 
2350.7700   13.8465   77.5790    4.6972   86.4260    0.2256    2.6654   37.0000 
2350.9224   13.9065   75.8051    4.8922   79.3377    0.2136    2.6662   37.0000 
2351.0748   13.9664   70.2576    5.0872   76.6923    0.2016    2.6670   37.0000 
2351.2272   14.0057   70.2576    5.3887   75.0409    0.2000    2.6579   37.0000 
2351.3796   14.0256   70.7845    5.7431   73.8835    0.2035    2.6437   37.0000 
2351.5320   14.0456   71.4955    6.0976   72.7262    0.2070    2.6296   37.0000 
2351.6844   14.0094   76.7435    6.4400   72.1341    0.2019    2.6269   37.0000 
2351.8368   13.9495   77.5270    6.7805   71.6381    0.1955    2.6260   37.0000 
2351.9892   13.8896   77.8103    7.1156   71.1559    0.1889    2.6249   37.0000 
2352.1416   13.8444   68.1499    7.3271   70.9906    0.1810    2.6157   37.0000 
2352.2940   13.8644   67.9742    7.5386   70.8252    0.1730    2.6066   37.0000 
2352.4464   13.8815   71.6717    7.7328   70.7732    0.1668    2.5980   37.0000 
2352.5988   13.8615   72.8003    7.8681   71.1039    0.1668    2.5914   37.0000 
2352.7512   13.8415   78.8499    8.0034   71.4346    0.1668    2.5847   37.0000 
2352.9036   13.8267   79.2155    8.0826   71.4906    0.1643    2.5826   37.0000 
2353.0560   13.8267   70.7642    8.0826   71.1599    0.1584    2.5867   37.0000 
2353.2084   13.8267   67.1772    8.0826   70.8292    0.1524    2.5909   37.0000 
2353.3608   13.8267   64.7940    8.0826   70.4985    0.1536    2.5980   37.0000 
2353.5132   13.8267   64.2954    8.0826   70.1679    0.1596    2.6072   37.0000 
2353.6656   13.8267   63.7969    8.0826   69.8372    0.1656    2.6163   37.0000 
2353.8180   13.8267   62.8016    7.9413   70.0284    0.1668    2.6117   37.0000 
2353.9704   13.8267   61.4336    7.7623   70.3590    0.1668    2.6034   37.0000 
2354.1228   13.8267   60.0656    7.5833   70.6897    0.1668    2.5951   37.0000 
2354.2752   13.8267   58.7902    7.3371   71.1817    0.1693    2.5689   37.0000 
2354.4276   13.8267   57.5462    7.0893   71.6777    0.1718    2.5424   37.0000 
2354.5800   13.8267   56.3023    6.9151   72.3890    0.1747    2.5173   37.0000 
2354.7324   13.8467   57.8253    7.1200   74.2077    0.1802    2.4998   37.0000 
2354.8848   13.8667   59.5803    7.3248   76.0264    0.1857    2.4824   37.0000 
2355.0372   13.8792   60.7813    7.5685   76.9781    0.1844    2.4847   37.0000 
2355.1896   13.8592   57.9323    7.8844   76.3168    0.1704    2.5237   37.0000 
2355.3420   13.8393   55.0833    8.2003   75.6554    0.1565    2.5628   37.0000 
2355.4944   13.8267   53.4477    8.7169   73.9298    0.1428    2.6346   37.0000 
2355.6468   13.8267   48.7639    9.4069   71.2844    0.1293    2.6320   37.0000 
2355.7992   13.8267   44.0802   10.0969   68.6390    0.1159    2.6304   22.0000 
2355.9516   13.8156   35.3045   10.7997   68.7441    0.0926    2.6085   22.0000 
2356.1040   13.7956   44.7029   11.5074   69.9014    0.1242    2.5508   22.0000 
2356.2564   13.7757   46.9623   12.2152   71.0588    0.1312    2.5299   22.0000 
2356.4088   13.7557   51.7546   11.4779   72.2161    0.1765    2.5249   22.0000 
2356.5612   13.7357   57.9700   10.5979   73.3735    0.1825    2.5134   22.0000 
2356.7136   13.7158   64.1855    9.7308   74.3545    0.1891    2.5119   37.0000 
2356.8660   13.7143   67.8388    8.9838   73.6931    0.2015    2.5874   37.0000 
2357.0184   13.7143   71.1120    8.2368   73.0318    0.2140    2.6241   37.0000 
2357.1708   13.7121   74.1218    7.6772   72.5112    0.2218    2.6280   37.0000 
2357.3232   13.6921   74.1218    7.5906   72.3459    0.2178    2.6297   37.0000 
2357.4756   13.6721   75.7026    7.5039   72.1805    0.2138    2.6292   37.0000 
2357.6280   13.6522   75.4597    7.4381   72.0152    0.2082    2.6295   37.0000 
2357.7804   13.6322   75.1756    7.3958   71.8499    0.2007    2.6237   37.0000 
2357.9328   13.6122   70.6033    7.3535   71.6845    0.1932    2.6179   37.0000 
2358.0852   13.6019   68.7014    7.3117   71.6279    0.1956    2.6181   37.0000 
2358.2376   13.6019   67.7986    7.2701   71.6279    0.2030    2.6214   37.0000 
2358.3900   13.6019   67.9742    7.2284   71.6279    0.2105    2.6247   37.0000 
2358.5424   13.5886   68.4598    7.2571   72.0467    0.2146    2.6273   37.0000 
2358.6948   13.5686   68.8450    7.2987   72.5427    0.2181    2.6298   37.0000 
2358.8472   13.5486   94.6721    7.3417   73.0233    0.2213    2.6321   37.0000 
2358.9996   13.5202   94.6721    7.4270   73.0233    0.2133    2.6288   37.0000 
2359.1520   13.4903   94.6721    7.5123   73.0233    0.2053    2.6255   37.0000 
2359.3044   13.4603   94.6721    7.6080   72.9151    0.1970    2.6227   37.0000 
2359.4568   13.4304   88.8795    7.7412   72.4191    0.1875    2.6219   37.0000 
2359.6092   13.4004   82.2322    7.8744   71.9231    0.1781    2.6211   37.0000 
2359.7616   13.3771   78.8776    8.0696   71.4940    0.1684    2.6219   37.0000 
2359.9140   13.3771   76.3989    8.3560   71.1633    0.1584    2.6252   37.0000 
2360.0664   13.3771   73.9201    8.6425   70.8327    0.1485    2.6286   37.0000 
2360.2188   13.3771   71.0299    8.9790   70.3063    0.1388    2.6309   37.0000 
2360.3712   13.3771   67.4475    9.3500   69.6450    0.1293    2.6326   22.0000 
2360.5236   13.3771   60.3133    9.7210   68.9836    0.1199    2.6342   22.0000 
2360.6760   13.3771   54.8009   10.0304   68.3223    0.1131    2.6275   22.0000 
2360.8284   13.3771   56.2061   10.3222   67.6609    0.1071    2.6183   22.0000 
2360.9808   13.3771   58.7198   10.6140   66.9996    0.1011    2.6092   37.0000 
2361.1332   13.3771   62.3272   10.6832   67.2960    0.1192    2.5990   37.0000 
2361.2856   13.3771   83.9579   10.7444   67.6267    0.1382    2.5942   37.0000 
2361.4380   13.3771   83.9579   10.7426   67.9322    0.1845    2.5930   37.0000 
2361.5904   13.3771   55.4596   10.3895   68.0975    0.1862    2.5925   37.0000 
2361.7428   13.3771   55.2102   10.0365   68.2628    0.1585    2.6252   37.0000 
2361.8952   13.3771   65.5850    9.6945   68.3721    0.1591    2.6121   37.0000 
2362.0476   13.3771   64.4655    9.3739   68.3721    0.1571    2.6080   37.0000 
2362.2000   13.3771   63.3460    9.0534   68.3721    0.1552    2.6038   37.0000 
2362.3524   13.3771   61.2645    8.8230   68.6330    0.1482    2.6001   37.0000 
2362.5048   13.3771   56.5875    8.6740   69.1290    0.1367    2.5968   37.0000 
2362.6572   13.3771   40.0468    8.5249   69.6250    0.1253    2.5935   22.0000 
2362.8096   13.3771   40.0468    8.3809   69.5317    0.0988    2.5919   22.0000 
2362.9620   13.3771   40.2225    8.2388   69.2011    0.1271    2.5911   22.0000 
2363.1144   13.3771   49.7838    8.0968   68.8704    0.1301    2.5903   22.0000 
2363.2668   13.3771   52.6291    8.0007   69.1347    0.1465    2.5947   22.0000 
2363.4192   13.3771   57.1824    7.9098   69.4654    0.1645    2.5997   37.0000 
2363.5716   13.3771   61.7356    7.8154   69.8247    0.2054    2.6042   37.0000 
2363.7240   13.3771   63.3561    7.6843   70.4860    0.2054    2.6042   37.0000 
2363.8764   13.3771   64.3575    7.5533   71.1474    0.1881    2.6042   37.0000 
2364.0288   13.3785   65.3157    7.4351   71.7183    0.1870    2.6022   37.0000 
2364.1812   13.3985   64.0724    7.3512   72.0490    0.1735    2.5947   37.0000 
2364.3336   13.4185   62.8291    7.2673   72.3797    0.1241    2.5872   37.0000 
2364.4860   13.4411   62.0938    7.1484   72.5581    0.1546    2.5839   37.0000 
2364.6384   13.4710   63.4723    6.9884   72.5581    0.1586    2.5702   37.0000 
2364.7908   13.5010   64.8508    6.8284   72.5581    0.1626    2.5686   37.0000 
2364.9432   13.5310   66.2048    6.6287   73.3070    0.1782    2.5657   37.0000 
