~VERSION INFORMATION
 VERS.                 2.0:   CWLS LOG ASCII STANDARD - VERSION 2.0
 WRAP.                  NO:   SINGLE LINE PER DEPTH STEP
 CREA.                 04/06/2018 10:34:01
#CREATED USING DSPetro VERSION 5000.10.1.3 BY H191660 ON 04/06/2018 10:34:01
~WELL INFORMATION
#MNEM.UNIT       DATA                          DESCRIPTION MNEMONIC
#---------      ---------------------------   --------------------------
 STRT    .M         1308.9636                 : START DEPTH
 STOP    .M         3555.7968                 : STOP DEPTH
 STEP    .M         0.1524                    : STEP VALUE
 NULL    .      -999.0000                     : NULL VALUE
 DATE    .      04/06/2018                    : LAS file Creation Date
 WELL .      7321_7_1                    : Well Name
 COMP .      Neftex Exploration Insights : Company
 FLD  .                                  : Field
 UWI  .      ENOWL0000103                : Unique Well Identifier (UWI)
 LOC  .                                  : Location
 RWS  .      -999                        : Def_Rw
 WST  .      -999                        : Def_Rwt
 SRVC .                                  : Contractor
~CURVE INFORMATION
#MNEM              UNIT       API CODE   Curve Type Comments
#----------  --------------- ----------  ---------- -----------
 DEPTH      .M                         : Depth       
 CAL_INCH   .inch                      :             Caliper Log - A representation of the measured diameter of a borehole along its depth
 GR_API     .API                       : GammaRay    Gamma Ray (API) - Measures the intensity of natural gamma-ray radiation emitted from formations containing radioactive elements, such as K, Th and U
 ILD_OHMM   .ohmm                      :             Deep Induction Resistivity - Measurement made an induction log, made several feet into the formation
 DT_US_FT   .us/ft                     :             Interval Transit Time: Compressional Wave - Evaluates the time it takes for a compressional wave to traverse a fixed distance
 NPHI_RATIO .ratio                     :             Neutron Porosity - Measured with an neutron logging device calibrated to a given matrix (limestone, sandstone and dolomite)
 RHOB_G_CC  .g/cc                      :             Bulk Density - Measures the density of bulk material, including any void space or other materials contained in the subject volume
 LITH       .                          : LITH        Lithology Curve
~A  DEPTH  CAL_INCH   GR_API   ILD_OHMM  DT_US_FT NPHI_RAT~ RHOB_G_C~    LITH   
# ...
1897.3800   16.1250   97.4948    4.2756   88.1987    0.3618    2.5762   37.0000 
1897.5324   16.0135   97.6709    4.2392   86.9767    0.3454    2.5657   37.0000 
1897.6848   15.8873   97.0509    4.2392   86.9767    0.3427    2.1462   11.0000 
1897.8372   15.6986   96.4309    4.2392   86.9767    0.3401    2.1428   11.0000 
1897.9896   15.4400   96.7800    4.2392   87.1765    0.3747    1.9819   11.0000 
1898.1420   14.8408  100.0040    4.4754   87.9987    0.3935    1.9982   11.0000 
1898.2944   14.6015  103.2280    4.6032   88.8210    0.4123    2.1550   11.0000 
1898.4468   14.0694  106.7662    4.7722   89.0296    0.4143    2.1619   11.0000 
1898.5992   13.7757  110.7339    4.9993   88.3718    0.3925    1.9862   11.0000 
1898.7516   13.7897  114.7015    5.2264   87.7140    0.3707    1.9804   11.0000 
1898.9040   13.8201  115.6561    5.5338   86.3814    0.3469    1.9827   11.0000 
1899.0564   13.8878  114.5403    5.8979   84.5724    0.3216    2.0630   11.0000 
1899.2088   13.9812  113.4245    6.2619   82.7635    0.2963    2.7257   37.0000 
1899.3612   14.0282  111.7420    6.8494   81.3284    0.2819    2.7162   37.0000 
1899.5136   13.9513  109.8825    7.5083   80.0128    0.2710    2.7117   37.0000 
1899.6660   13.8512  108.0230    9.4358   78.6972    0.2601    2.7105   37.0000 
1899.8184   12.9840  105.4689    8.8743   77.6869    0.2506    2.7140   37.0000 
1899.9708   12.8918  102.8636    7.9112   76.6997    0.2397    2.7157   37.0000 
1900.1232   12.8912  100.5390    7.4084   75.7801    0.2061    2.7200   37.0000 
1900.2756   13.0772   95.2629    7.1605   75.4505    0.2061    2.6965   37.0000 
1900.4280   13.5076  100.7875    7.1785   71.3954    0.2644    2.6907   37.0000 
1900.5804   13.7416  101.5048    7.3714   82.9030    0.2788    2.6827   37.0000 
1900.7328   13.7613  103.7427    7.5598   84.9960    0.3282    2.6804   37.0000 
1900.8852   13.7057  105.9805    7.4752   87.3714    0.3266    2.3037   37.0000 
1901.0376   13.6069  106.4516    7.1613   87.9070    0.2944    2.2981   37.0000 
1901.1900   13.4066  104.8352    7.0357   87.6744    0.2760    2.4304   37.0000 
1901.3424   13.0538  103.2189    7.1921   87.3855    0.2576    2.6586   37.0000 
1901.4948   12.6805  101.0489    7.6837   87.2207    0.2481    2.6730   37.0000 
1901.6472   12.6955   98.5622    8.1124   77.7687    0.2436    2.7003   37.0000 
1901.7996   12.7154   96.0756    9.0609   76.1206    0.2392    2.7276   37.0000 
1901.9520   12.7352   93.4877    9.7367   75.4115    0.2347    2.7386   37.0000 
1902.1044   12.7787   90.8767    9.9938   74.9171    0.2302    2.7374   37.0000 
1902.2568   12.7787   88.2656   10.1440   74.4227    0.2257    2.7351   37.0000 
1902.4092   12.7949   89.3536   10.1849   74.5820    0.2242    2.7276   37.0000 
1902.5616   12.8147   90.4724   10.1849   74.7469    0.2227    2.7257   37.0000 
1902.7140   12.8346   91.4016   10.1849   74.7999    0.2223    2.7245   37.0000 
1902.8664   12.8347   91.4015   10.1849   74.3055    0.2273    2.7234   37.0000 
1903.0188   12.8347   91.4014   10.1849   73.8111    0.2323    2.7353   37.0000 
1903.1712   12.8347   91.6172   10.1651   73.4884    0.2371    2.7432   37.0000 
1903.3236   12.8347   92.2388   10.1033   73.4884    0.2415    2.7387   37.0000 
1903.4760   12.8346   92.8603   10.0909   73.4884    0.2460    2.7343   37.0000 
1903.6284   12.8346   93.3513    9.9032   73.7480    0.2453    2.7286   37.0000 
1903.7808   12.8346   93.7242    9.6731   74.2424    0.2398    2.7193   37.0000 
1903.9332   12.8346   94.0971    9.4358   74.7368    0.2343    2.7152   37.0000 
1904.0856   12.8346   94.0331    9.1927   74.7679    0.2306    2.7140   37.0000 
1904.2380   12.8345   93.7843    8.9913   74.6031    0.2276    2.7215   37.0000 
1904.3904   12.8345   93.5356    8.7713   74.4383    0.2247    2.7243   37.0000 
1904.5428   12.8275   93.7247    8.6719   74.7089    0.2269    2.7263   37.0000 
1904.6952   12.8275   93.9733    8.5392   75.0385    0.2299    2.7238   37.0000 
1904.8476   12.8274   94.2146    8.4086   75.3585    0.2328    2.7210   37.0000 
1905.0000   12.8274   94.3389    8.1972   75.5233    0.2338    2.7210   37.0000 
1905.1524   12.8555   94.4631    8.0447   75.6881    0.2348    2.7266   37.0000 
1905.3048   12.8835   94.9690    7.8425   75.9696    0.2372    2.7308   37.0000 
1905.4572   12.8835   96.7095    7.6247   76.6288    0.2441    2.7275   37.0000 
1905.6096   14.5540   98.4501    7.4779   77.2880    0.2511    2.7197   37.0000 
1905.7620   14.6849  100.0878    7.2848   78.0837    0.2584    2.7152   37.0000 
1905.9144   14.7923  101.5797    7.1639   79.0725    0.2664    2.7105   37.0000 
1906.0668   14.7923  103.0716    7.0260   80.0613    0.2841    2.7074   37.0000 
1906.2192   14.7923  101.6211    7.0074   80.1726    0.2870    2.7023   37.0000 
1906.3716   14.7851   98.1396    7.1214   79.6782    0.2832    2.7061   37.0000 
1906.5240   14.7172   94.6581    7.2030   79.1838    0.2799    2.7078   37.0000 
1906.6764   14.4172   92.9943    7.2075   78.5626    0.2663    2.7117   37.0000 
1906.8288   13.7531   91.8751    7.2075   77.9033    0.2702    2.7140   37.0000 
1906.9812   13.1205   90.7560    7.2075   77.2441    0.2830    2.7198   37.0000 
1907.1336   12.8271   92.3456    7.2075   77.3654    0.2995    2.7191   37.0000 
1907.2860   12.7991   94.0862    7.1497   77.5302    0.3003    2.7125   37.0000 
1907.4384   13.3242   95.6715    7.0398   77.7774    0.3007    2.6900   37.0000 
1907.5908   13.5008   96.1687    6.9600   78.6014    0.3007    2.6823   37.0000 
1907.7432   13.5847   96.6660    6.9234   79.4254    0.2705    2.6755   37.0000 
1907.8956   13.4607   96.1469    7.0074   80.1497    0.2677    2.6353   37.0000 
1908.0480   12.9674   93.2870    6.9934   80.6441    0.2766    2.6207   37.0000 
1908.2004   13.1432   90.4271    6.9934   81.1385    0.2855    2.4786   37.0000 
1908.3528   13.2781   88.2842    6.9934   81.3954    0.3033    2.1139   11.0000 
1908.5052   13.8152   86.9164    6.7667   81.3954    0.3306    2.0444   11.0000 
1908.6576   14.3523   85.5485    6.6639   81.3954    0.3580    1.9780   11.0000 
1908.8100   14.3513   85.4084    6.6106   81.2869    0.3820    1.9665   11.0000 
1908.9624   14.4706   85.9057    5.3871   81.1221    0.4044    1.7860   11.0000 
1909.1148   14.5900   86.4029    4.8967   80.9573    0.4267    1.7853   11.0000 
1909.2672   14.9062   88.1476    4.4870   80.7925    0.4275    1.7890   11.0000 
1909.4196   15.3239   90.1370    4.2785   80.6276    0.4240    1.7923   11.0000 
1909.5720   15.7417   95.4290    3.8959   80.4651    0.4207    1.9197   11.0000 
1909.7244   15.8263   95.0815    3.8647   80.4651    0.4281    2.0189   11.0000 
1909.8768   15.8461   94.4307    3.9658   80.4651    0.4356    2.0189   11.0000 
1910.0292   15.8582   93.1512    4.0565   80.4651    0.4729    1.7891   11.0000 
1910.1816   15.3608   93.4475    4.1548   80.4651    0.4684    1.7869   11.0000 
1910.3340   15.0276   94.6106    4.2709   80.4651    0.4668    1.7852   11.0000 
1910.4864   14.4760   95.7911    4.3778   80.4651    0.4037    1.7871   11.0000 
1910.6388   14.2126   96.6600    4.5391   80.4651    0.3997    1.7888   11.0000 
1910.7912   13.2798   96.0707    4.8491   80.4651    0.3957    2.1800   11.0000 
1910.9436   13.2548   92.7030    6.2613   80.4651    0.3828    2.1533   11.0000 
1911.0960   13.2548   92.0978    5.9691   80.4651    0.3624    1.9956   11.0000 
1911.2484   13.2547   92.2047    5.5528   80.4651    0.3421    1.9944   11.0000 
1911.4008   13.2906   95.4313    4.7720   80.4651    0.2993    2.4231   37.0000 
1911.5532   13.6758   96.0356    4.7063   80.4651    0.3568    2.3268   37.0000 
1911.7056   13.9769   96.4839    4.7063   80.4651    0.3887    2.1162   11.0000 
1911.8580   17.4658   92.8765    5.9918   80.4651    0.3953    1.6503   11.0000 
1912.0104   17.3765   90.9063    6.1121   80.4651    0.3956    1.6404   11.0000 
1912.1628   16.4627   86.9539    6.1188   80.4651    0.3420    1.6393   11.0000 
1912.3152   16.0208   84.0939    5.9395   80.4651    0.3062    1.6786   11.0000 
