~VERSION INFORMATION
 VERS.                 2.0:   CWLS LOG ASCII STANDARD - VERSION 2.0
 WRAP.                  NO:   SINGLE LINE PER DEPTH STEP
 CREA.                 04/06/2018 10:34:01
#CREATED USING DSPetro VERSION 5000.10.1.3 BY H191660 ON 04/06/2018 10:34:01
~WELL INFORMATION
#MNEM.UNIT       DATA                          DESCRIPTION MNEMONIC
#---------      ---------------------------   --------------------------
 STRT    .M         1308.9636                 : START DEPTH
 STOP    .M         3555.7968                 : STOP DEPTH
 STEP    .M         0.1524                    : STEP VALUE
 NULL    .      -999.0000                     : NULL VALUE
 DATE    .      04/06/2018                    : LAS file Creation Date
 WELL .      7321_7_1                    : Well Name
 COMP .      Neftex Exploration Insights : Company
 FLD  .                                  : Field
 UWI  .      ENOWL0000103                : Unique Well Identifier (UWI)
 LOC  .                                  : Location
 RWS  .      -999                        : Def_Rw
 WST  .      -999                        : Def_Rwt
 SRVC .                                  : Contractor
~CURVE INFORMATION
#MNEM              UNIT       API CODE   Curve Type Comments
#----------  --------------- ----------  ---------- -----------
 DEPTH      .M                         : Depth       
 CAL_INCH   .inch                      :             Caliper Log - A representation of the measured diameter of a borehole along its depth
 GR_API     .API                       : GammaRay    Gamma Ray (API) - Measures the intensity of natural gamma-ray radiation emitted from formations containing radioactive elements, such as K, Th and U
 ILD_OHMM   .ohmm                      :             Deep Induction Resistivity - Measurement made an induction log, made several feet into the formation
 DT_US_FT   .us/ft                     :             Interval Transit Time: Compressional Wave - Evaluates the time it takes for a compressional wave to traverse a fixed distance
 NPHI_RATIO .ratio                     :             Neutron Porosity - Measured with an neutron logging device calibrated to a given matrix (limestone, sandstone and dolomite)
 RHOB_G_CC  .g/cc                      :             Bulk Density - Measures the density of bulk material, including any void space or other materials contained in the subject volume
 LITH       .                          : LITH        Lithology Curve
~A  DEPTH  CAL_INCH   GR_API   ILD_OHMM  DT_US_FT NPHI_RAT~ RHOB_G_C~    LITH   
# ...
1761.5916   13.5552   73.2132    7.3538   86.1819    0.3023    2.5822   37.0000 
1761.7440   13.6951   74.0878    7.3538   85.8519    0.2989    2.5690   37.0000 
1761.8964   13.7640   73.8776    7.3538   85.5220    0.2957    2.5831   37.0000 
1762.0488   13.6248   72.0187    7.3538   85.1920    0.2942    2.5963   37.0000 
1762.2012   13.4856   70.1597    7.3538   84.8621    0.2927    2.6096   37.0000 
1762.3536   13.3720   68.5095    7.3538   84.8893    0.2785    2.6485   37.0000 
1762.5060   13.2924   67.0208    7.3538   85.5492    0.3033    2.6158   37.0000 
1762.6584   13.2128   65.5321    7.3299   86.2092    0.3118    2.6142   37.0000 
1762.8108   13.0849   66.3296    7.2365   86.6904    0.3148    2.6076   37.0000 
1762.9632   12.9258   67.9575    7.1785   87.0203    0.3133    2.5968   37.0000 
1763.1156   12.7668   69.5854    7.1979   87.3503    0.3118    2.5860   37.0000 
1763.2680   12.6855   71.2133    7.1210   86.9651    0.3136    2.5690   37.0000 
1763.4204   12.6258   72.8413    7.1210   86.3052    0.3166    2.5830   37.0000 
1763.5728   12.5660   74.3282    7.1210   85.6452    0.3195    2.5924   37.0000 
1763.7252   12.5843   74.8275    7.1785   85.4324    0.3302    2.5823   37.0000 
1763.8776   12.6642   75.3269    7.2227   85.2674    0.3416    2.5814   37.0000 
1764.0300   12.7323   75.1684    7.2657   85.1302    0.3523    2.5805   37.0000 
1764.1824   12.7324   73.5564    7.3243   85.2951    0.3710    2.5780   37.0000 
1764.3348   12.7324   67.9905    7.3538   85.4601    0.3696    2.5755   37.0000 
1764.4872   12.7127   67.4779    7.3538   85.4940    0.3574    2.5503   37.0000 
1764.6396   12.6530   67.4194    7.3835   85.1640    0.3509    2.5789   37.0000 
1764.7920   12.5933   67.6839    7.3835   84.8341    0.3444    2.5831   37.0000 
1764.9444   12.5741   68.4355    7.3835   84.7247    0.3398    2.5861   37.0000 
1765.0968   12.5941   69.1446    7.3835   84.8897    0.3373    2.5878   37.0000 
1765.2492   12.6140   69.0202    7.3835   85.0547    0.3348    2.5894   37.0000 
1765.4016   12.6202   69.9434    7.3835   85.1163    0.3338    2.5924   37.0000 
1765.5540   12.6202   71.0690    7.3835   85.1163    0.3338    2.5887   37.0000 
1765.7064   12.6202   72.1795    7.4132   85.1163    0.3338    2.5784   37.0000 
1765.8588   12.6028   72.8039    7.4431   85.1163    0.3354    2.5884   37.0000 
1766.0112   12.5829   73.4284    7.4812   85.1163    0.3374    2.5892   37.0000 
1766.1636   12.5641   73.8897    7.5942   85.1163    0.3394    2.5971   37.0000 
1766.3160   12.5641   73.7653    7.6540   84.9533    0.3375    2.5860   37.0000 
1766.4684   12.5642   73.6408    7.7108   84.7883    0.3355    2.5818   37.0000 
1766.6208   12.5175   73.3180    7.7484   84.6233    0.3327    2.5778   37.0000 
1766.7732   12.5574   72.6962    7.7797   84.4583    0.3263    2.5745   37.0000 
1766.9256   12.5973   69.3186    7.7797   84.2933    0.3198    2.5712   37.0000 
1767.0780   12.6120   69.1941    7.7797   84.0707    0.3130    2.5597   37.0000 
1767.2304   12.5921   71.6146    7.7797   83.7407    0.3055    2.5735   37.0000 
1767.3828   12.5722   71.4901    7.7797   83.4107    0.2981    2.5768   37.0000 
1767.5352   12.5523   72.0273    7.6864   83.2558    0.2954    2.5797   37.0000 
1767.6876   12.5324   72.7769    7.5485   83.2558    0.2968    2.5822   37.0000 
1767.8400   12.5125   73.5266    7.4731   83.2558    0.2983    2.5847   37.0000 
1767.9924   12.5395   73.9213    7.4431   83.6079    0.3037    2.5824   37.0000 
1768.1448   12.5794   74.2958    7.5637   84.1028    0.3107    2.5783   37.0000 
1768.2972   12.6194   74.4740    7.6555   84.5978    0.3177    2.5741   37.0000 
1768.4496   12.6787   73.3566    7.7797   83.7681    0.3131    2.5870   37.0000 
1768.6020   12.7386   72.2391    7.7151   82.7782    0.3071    2.6019   37.0000 
1768.7544   12.7923   67.5257    7.5923   81.8123    0.3011    2.6172   37.0000 
1768.9068   12.8123   67.4228    7.4731   81.1524    0.2952    2.6362   37.0000 
1769.0592   12.8323   70.3147    7.2914   80.4925    0.2892    2.6553   37.0000 
1769.2116   12.8522   70.7800    7.1526   80.1674    0.2841    2.6645   37.0000 
1769.3640   12.8722   72.2830    7.0430   80.8274    0.2816    2.7011   37.0000 
1769.5164   12.8922   73.7859    6.9630   81.4873    0.2791    2.6247   37.0000 
1769.6688   12.8768   74.9486    6.8956   82.2189    0.2795    2.6106   37.0000 
1769.8212   12.9367   75.9490    6.8956   83.0438    0.2834    2.6039   37.0000 
1769.9736   12.9966   76.9494    6.9248   83.8687    0.2874    2.5973   37.0000 
1770.1260   13.0565   77.4319    6.9513   84.4906    0.2917    2.5942   37.0000 
1770.2784   13.1164   77.4321    7.0074   84.9856    0.2962    2.5934   37.0000 
1770.4308   13.1764   77.4387    7.0925   85.4805    0.3007    2.5926   37.0000 
1770.5832   13.2184   77.5636    7.1497   85.3187    0.3004    2.5904   37.0000 
1770.7356   13.2584   77.6884    7.1497   84.9887    0.2989    2.5879   37.0000 
1770.8880   13.2952   77.7250    7.1497   84.6588    0.2974    2.5855   37.0000 
1771.0404   13.2953   77.4761    7.2075   84.3288    0.2925    2.5919   37.0000 
1771.1928   13.2953   77.2272    7.3187   83.9988    0.2875    2.5985   37.0000 
1771.3452   13.3005   76.6171    7.4027   83.6949    0.2823    2.6036   37.0000 
1771.4976   13.3205   75.4998    7.4431   83.5299    0.2758    2.6003   37.0000 
1771.6500   13.3404   74.3824    7.3835   83.3649    0.2694    2.5969   37.0000 
1771.8024   13.3604   74.2152    7.2657   83.2558    0.2649    2.5928   37.0000 
1771.9548   13.3804   74.7147    7.1785   83.2558    0.2644    2.5870   37.0000 
1772.1072   13.4004   75.2142    7.2320   83.2558    0.2639    2.5812   37.0000 
1772.2596   13.4329   73.6972    7.3741   83.2558    0.2639    2.5831   37.0000 
1772.4120   13.4728   71.5938    7.6433   83.2558    0.2644    2.5922   37.0000 
1772.5644   13.5128   69.4903    7.7741   83.2558    0.2649    2.6014   37.0000 
1772.7168   13.5527   70.4119    7.8267   83.2558    0.2693    2.6047   37.0000 
1772.8692   13.5926   71.5380    7.8267   83.2558    0.2733    2.6055   37.0000 
1773.0216   13.6326   72.4374    7.8267   83.2558    0.2772    2.6063   37.0000 
1773.1740   13.6327   71.8157    7.9338   82.8198    0.2777    2.6116   37.0000 
1773.3264   13.6327   71.1940    8.0710   82.3248    0.2777    2.6174   37.0000 
1773.4788   13.6328   70.9919    8.2083   81.8605    0.2775    2.6232   37.0000 
1773.6312   13.6328   71.7418    8.3521   81.8605    0.2735    2.6298   37.0000 
1773.7836   13.6328   72.4916    8.4961   81.8605    0.2695    2.6365   37.0000 
1773.9360   13.6401   72.9936    8.6196   81.9805    0.2668    2.6385   37.0000 
1774.0884   13.6600   73.2433    8.7418   82.4755    0.2683    2.6260   37.0000 
1774.2408   13.6800   73.4929    8.5822   82.9704    0.2698    2.6136   37.0000 
1774.3932   13.7000   74.2534    8.3740   83.3955    0.2734    2.6040   37.0000 
1774.5456   13.7200   75.2541    8.0988   83.7255    0.2799    2.5982   37.0000 
1774.6980   13.7400   76.2548    7.9308   84.0554    0.2864    2.5924   37.0000 
1774.8504   13.7454   76.0569    7.7517   84.2857    0.2931    2.5901   37.0000 
1775.0028   13.7454   75.6836    7.6007   84.4507    0.3001    2.5901   37.0000 
1775.1552   13.7454   75.3040    7.5032   84.6157    0.3071    2.5901   37.0000 
1775.3076   13.7454   74.8065    7.5032   84.6512    0.3093    2.5940   37.0000 
1775.4600   13.7455   74.3089    7.5032   84.6512    0.3103    2.5990   37.0000 
1775.6124   13.7455   73.7265    7.5378   84.6512    0.3113    2.6039   37.0000 
1775.7648   13.7455   72.8569    7.5942   84.6512    0.3041    2.6089   37.0000 
1775.9172   13.7455   71.9872    7.6809   84.6512    0.2967    2.6139   37.0000 
1776.0696   13.7456   72.2742    7.7797   84.6754    0.2904    2.6180   37.0000 
1776.2220   13.7456   74.2828    7.8583   84.8403    0.2777    2.6172   37.0000 
1776.3744   13.7456   76.2915    7.9193   85.0053    0.2826    2.6164   37.0000 
1776.5268   13.7456   77.6912    7.9536   85.0623    0.2847    2.6147   37.0000 
