~VERSION INFORMATION
 VERS.                 2.0:   CWLS LOG ASCII STANDARD - VERSION 2.0
 WRAP.                  NO:   SINGLE LINE PER DEPTH STEP
 CREA.                 04/06/2018 10:34:01
#CREATED USING DSPetro VERSION 5000.10.1.3 BY H191660 ON 04/06/2018 10:34:01
~WELL INFORMATION
#MNEM.UNIT       DATA                          DESCRIPTION MNEMONIC
#---------      ---------------------------   --------------------------
 STRT    .M         1308.9636                 : START DEPTH
 STOP    .M         3555.7968                 : STOP DEPTH
 STEP    .M         0.1524                    : STEP VALUE
 NULL    .      -999.0000                     : NULL VALUE
 DATE    .      04/06/2018                    : LAS file Creation Date
 WELL .      7321_7_1                    : Well Name
 COMP .      Neftex Exploration Insights : Company
 FLD  .                                  : Field
 UWI  .      ENOWL0000103                : Unique Well Identifier (UWI)
 LOC  .                                  : Location
 RWS  .      -999                        : Def_Rw
 WST  .      -999                        : Def_Rwt
 SRVC .                                  : Contractor
~CURVE INFORMATION
#MNEM              UNIT       API CODE   Curve Type Comments
#----------  --------------- ----------  ---------- -----------
 DEPTH      .M                         : Depth       
 CAL_INCH   .inch                      :             Caliper Log - A representation of the measured diameter of a borehole along its depth
 GR_API     .API                       : GammaRay    Gamma Ray (API) - Measures the intensity of natural gamma-ray radiation emitted from formations containing radioactive elements, such as K, Th and U
 ILD_OHMM   .ohmm                      :             Deep Induction Resistivity - Measurement made an induction log, made several feet into the formation
 DT_US_FT   .us/ft                     :             Interval Transit Time: Compressional Wave - Evaluates the time it takes for a compressional wave to traverse a fixed distance
 NPHI_RATIO .ratio                     :             Neutron Porosity - Measured with an neutron logging device calibrated to a given matrix (limestone, sandstone and dolomite)
 RHOB_G_CC  .g/cc                      :             Bulk Density - Measures the density of bulk material, including any void space or other materials contained in the subject volume
 LITH       .                          : LITH        Lithology Curve
~A  DEPTH  CAL_INCH   GR_API   ILD_OHMM  DT_US_FT NPHI_RAT~ RHOB_G_C~    LITH   
# ...
2500.8840   15.3538   77.4590    8.0077   72.7495    0.2670    1.9395   11.0000 
2501.0364   15.3876   77.0886    7.3126   75.3902    0.2915    1.9395   11.0000 
2501.1888   15.7096   76.6639    6.9043   78.6792    0.3469    1.7596   11.0000 
2501.3412   15.7096   76.4150    6.4977   81.9682    0.3446    1.7619   11.0000 
2501.4936   14.9125   75.8145    6.2251   83.8562    0.2947    1.7689   11.0000 
2501.6460   14.6116   75.5657    6.0145   84.8429    0.2630    1.9395   11.0000 
2501.7984   14.3253   74.2260    5.9021   85.8296    0.2313    2.4838   37.0000 
2501.9508   14.2256   73.5085    5.8008   84.1219    0.2115    2.5046   37.0000 
2502.1032   14.1259   71.6452    5.9186   81.6552    0.1952    2.5327   37.0000 
2502.2556   14.0465   70.7119    6.5445   79.1884    0.1788    2.5608   37.0000 
2502.4080   14.0266   70.2771    8.8973   77.1913    0.1738    2.5700   37.0000 
2502.5604   14.0067   69.9063    9.2109   75.2179    0.1693    2.5783   37.0000 
2502.7128   13.9868   69.9063    9.2109   73.3664    0.1652    2.5868   37.0000 
2502.8652   13.9669   70.4566    9.2109   72.3797    0.1638    2.5976   37.0000 
2503.0176   13.9470   71.1510    9.2109   71.3930    0.1623    2.6083   37.0000 
2503.1700   13.9271   71.4794    9.2109   70.5520    0.1592    2.6154   37.0000 
2503.3224   13.9072   78.8642    9.2109   70.0587    0.1522    2.6138   37.0000 
2503.4748   13.8873   78.8642    9.7832   69.5653    0.1453    2.6121   37.0000 
2503.6272   13.8674   68.6647   10.0152   68.9952    0.1446    2.6070   37.0000 
2503.7796   13.8475   65.1296   10.1033   68.3374    0.1510    2.5979   37.0000 
2503.9320   13.8276   61.9562   10.1849   67.6796    0.1575    2.5888   37.0000 
2504.0844   13.8457   63.9267   10.3212   67.4419    0.1630    2.5903   37.0000 
2504.2368   13.8655   65.8972   10.6143   67.4419    0.1679    2.5977   37.0000 
2504.3892   13.8854   67.9976   11.0329   67.4419    0.1729    2.6051   37.0000 
2504.5416   13.9053   70.5769   11.3796   67.8416    0.1726    2.6119   37.0000 
2504.6940   13.9252   73.1563   11.5369   68.3350    0.1711    2.6185   37.0000 
2504.8464   13.9628   75.3477   11.4906   68.8284    0.1697    2.6251   37.0000 
2504.9988   14.0421   76.8291   11.1794   69.1602    0.1721    2.6260   37.0000 
2505.1512   14.1215   78.3105   10.5557   69.4891    0.1745    2.6269   37.0000 
2505.3036   14.3379   79.1659   10.2313   69.8433    0.1779    2.6271   37.0000 
2505.4560   14.7118   79.4141    9.9117   70.3366    0.1864    2.6238   37.0000 
2505.6084   15.0857   79.6624    9.4916   70.8300    0.1948    2.6205   37.0000 
2505.7608   15.1180   78.9804    9.2324   71.3769    0.2018    2.6110   37.0000 
2505.9132   16.0818   77.8564    9.0549   72.0347    0.2057    2.5887   37.0000 
2506.0656   16.3180   76.7324    9.0276   72.6925    0.2097    2.5664   37.0000 
2506.2180   16.4965   77.2238    8.8461   73.5138    0.2196    2.5326   37.0000 
2506.3704   16.6651   77.9670    6.3577   74.5005    0.2354    1.9360   11.0000 
2506.5228   16.7494   78.7459    5.8476   75.4872    0.2513    1.9360   11.0000 
2506.6752   16.5808   80.7171    5.4490   76.9138    0.2619    1.9360   11.0000 
2506.8276   16.4560   82.6884    5.1371   78.5583    0.3007    1.9360   11.0000 
2506.9800   16.2998   84.1316    5.0810   80.2028    0.3000    2.4983   37.0000 
2507.1324   16.2155   83.1331    5.1197   83.0233    0.2544    2.5251   37.0000 
2507.2848   16.1599   87.8220    5.2066   83.0233    0.2252    2.5520   37.0000 
2507.4372   14.8540   79.5105    5.6519   81.8605    0.1416    2.5790   37.0000 
2507.5896   14.0796   74.0396    5.8327   74.6440    0.1416    2.6220   37.0000 
2507.7420   14.0796   68.5687    5.9470   71.1906    0.1429    2.6649   37.0000 
2507.8944   14.0796   65.1092    5.9909   68.1302    0.1493    2.6967   37.0000 
2508.0468   14.0796   62.9772    6.0631   66.8146    0.1542    2.6785   37.0000 
2508.1992   14.0796   60.8453   11.3089   65.4990    0.1710    2.6603   37.0000 
2508.3516   14.0796   62.0989   11.6301   65.1189    0.1928    2.6389   37.0000 
2508.5040   14.2640   64.1922   11.2019   66.4345    0.2027    2.6116   37.0000 
2508.6564   14.3235   66.2856   10.3232   67.7501    0.2126    2.5844   37.0000 
2508.8088   14.3663   68.2633    9.6278   68.8923    0.2157    2.5767   37.0000 
2508.9612   14.4060   70.2347    8.5928   69.8790    0.2128    2.5866   37.0000 
2509.1136   14.4454   71.9046    7.7907   70.8657    0.2098    2.5966   37.0000 
2509.2660   14.4652   70.7808    7.6864   71.1628    0.2023    2.6076   37.0000 
2509.4184   14.4851   69.6570    7.7173   71.1628    0.1909    2.6192   37.0000 
2509.5708   14.5050   68.4976    7.9549   71.1628    0.1795    2.6308   37.0000 
2509.7232   14.5249   67.2484    8.2277   70.4469    0.1755    2.6222   37.0000 
2509.8756   14.5447   65.9991    8.5606   69.6247    0.1725    2.6106   37.0000 
2510.0280   14.6078   66.2703    8.9057   68.8372    0.1701    2.5986   37.0000 
2510.1804   14.7465   68.2420    8.9752   68.8372    0.1810    2.5763   37.0000 
2510.3328   14.8851   70.2136    8.6970   68.8372    0.1919    2.5540   37.0000 
2510.4852   15.0860   71.9572    8.4169   68.9780    0.2039    2.5264   37.0000 
2510.6376   15.3428   73.5618    7.9121   69.6358    0.2197    2.4793   37.0000 
2510.7900   15.5996   75.1664    7.5103   70.2936    0.2671    2.4322   37.0000 
2510.9424   15.6408   72.8886    7.4132   71.0782    0.2671    2.4170   37.0000 
2511.0948   16.1030   69.4855    7.6945   72.0649    0.2671    2.4525   37.0000 
2511.2472   16.1030   66.0824    8.4226   73.0516    0.2664    2.4880   37.0000 
2511.3996   15.3584   60.1272    8.9913   73.0301    0.2195    2.5079   37.0000 
2511.5520   15.1786   54.1413    9.2109   72.2078    0.1326    2.5153   18.0000 
2511.7044   15.0088   48.8960    9.3503   71.3856    0.1336    2.5228   18.0000 
2511.8568   15.0486   46.1312    9.4953   70.5633    0.1346    2.5302   18.0000 
2512.0092   15.0883   43.3665    9.7204   69.7411    0.1356    2.5376   18.0000 
2512.1616   15.1366   42.1263   12.5813   68.9188    0.1369    2.5451   18.0000 
2512.3140   15.2160   42.8694   18.2386   68.2447    0.1384    2.5577   18.0000 
2512.4664   15.2954   43.6126   17.7124   67.5869    0.1399    2.5709   18.0000 
2512.6188   15.3900   46.8972   16.5131   67.0006    0.1608    2.5826   37.0000 
2512.7712   15.5089   51.8869   14.5563   67.3295    0.1736    2.5743   37.0000 
2512.9236   15.6279   56.8767   13.0229   67.6584    0.1865    2.5661   37.0000 
2513.0760   15.6924   63.3818   10.3270   68.2683    0.1977    2.5528   37.0000 
2513.2284   15.7123   70.5000    8.1636   69.7484    0.2037    2.5238   37.0000 
2513.3808   15.7322   77.6183    7.7006   71.2284    0.2096    2.4949   37.0000 
2513.5332   15.6514   84.6428    7.4528   72.1614    0.2090    2.4908   37.0000 
2513.6856   15.5317   83.1549    7.4132   72.3259    0.1991    2.5213   37.0000 
2513.8380   15.4120   81.1650    7.4431   72.4903    0.1891    2.5519   37.0000 
2513.9904   15.3645   76.7949    7.5334   71.7852    0.1883    2.5795   37.0000 
2514.1428   15.3247   73.2436    7.5939   70.4696    0.1937    2.6051   37.0000 
2514.2952   15.2897   73.0679    7.7684   69.1540    0.1992    2.6308   37.0000 
2514.4476   15.3095   76.6926    7.9265   69.4615    0.2065    2.6394   37.0000 
2514.6000   15.3294   77.1077    8.0973   70.2837    0.2144    2.6427   37.0000 
2514.7524   15.3233   77.1077    9.8076   71.1060    0.2224    2.6460   37.0000 
2514.9048   15.4620   76.9321    9.9421   71.4690    0.2414    2.6440   37.0000 
2515.0572   15.6007   76.3002    9.3705   71.7979    0.2612    2.4704   37.0000 
2515.2096   15.8052   75.1756    9.3942   72.2617    0.2818    2.4425   37.0000 
2515.3620   16.1013   73.2436    5.7864   73.9062    0.3096    2.4050   37.0000 
2515.5144   16.3974   74.4731    5.3573   75.5507    0.3373    2.4033   37.0000 
2515.6668   16.7158   74.5581    4.7844   77.5110    0.3446    2.1553   11.0000 
2515.8192   17.0511   74.6824    4.2937   80.3066    0.3639    2.1263   11.0000 
