~VERSION INFORMATION
 VERS.                 2.0:   CWLS LOG ASCII STANDARD - VERSION 2.0
 WRAP.                  NO:   SINGLE LINE PER DEPTH STEP
 CREA.                 04/06/2018 10:34:01
#CREATED USING DSPetro VERSION 5000.10.1.3 BY H191660 ON 04/06/2018 10:34:01
~WELL INFORMATION
#MNEM.UNIT       DATA                          DESCRIPTION MNEMONIC
#---------      ---------------------------   --------------------------
 STRT    .M         1308.9636                 : START DEPTH
 STOP    .M         3555.7968                 : STOP DEPTH
 STEP    .M         0.1524                    : STEP VALUE
 NULL    .      -999.0000                     : NULL VALUE
 DATE    .      04/06/2018                    : LAS file Creation Date
 WELL .      7321_7_1                    : Well Name
 COMP .      Neftex Exploration Insights : Company
 FLD  .                                  : Field
 UWI  .      ENOWL0000103                : Unique Well Identifier (UWI)
 LOC  .                                  : Location
 RWS  .      -999                        : Def_Rw
 WST  .      -999                        : Def_Rwt
 SRVC .                                  : Contractor
~CURVE INFORMATION
#MNEM              UNIT       API CODE   Curve Type Comments
#----------  --------------- ----------  ---------- -----------
 DEPTH      .M                         : Depth       
 CAL_INCH   .inch                      :             Caliper Log - A representation of the measured diameter of a borehole along its depth
 GR_API     .API                       : GammaRay    Gamma Ray (API) - Measures the intensity of natural gamma-ray radiation emitted from formations containing radioactive elements, such as K, Th and U
 ILD_OHMM   .ohmm                      :             Deep Induction Resistivity - Measurement made an induction log, made several feet into the formation
 DT_US_FT   .us/ft                     :             Interval Transit Time: Compressional Wave - Evaluates the time it takes for a compressional wave to traverse a fixed distance
 NPHI_RATIO .ratio                     :             Neutron Porosity - Measured with an neutron logging device calibrated to a given matrix (limestone, sandstone and dolomite)
 RHOB_G_CC  .g/cc                      :             Bulk Density - Measures the density of bulk material, including any void space or other materials contained in the subject volume
 LITH       .                          : LITH        Lithology Curve
~A  DEPTH  CAL_INCH   GR_API   ILD_OHMM  DT_US_FT NPHI_RAT~ RHOB_G_C~    LITH   
# ...
3240.1764   12.5879   66.3934   10.2878   67.4608    0.1992    2.6965   37.0000 
3240.3288   12.5902   65.2946   10.2878   67.5874    0.2021    2.6924   37.0000 
3240.4812   12.5902   64.0525   10.2878   67.7518    0.2056    2.6891   37.0000 
3240.6336   12.5902   62.8455   10.2878   67.9255    0.2090    2.6872   37.0000 
3240.7860   12.5902   62.2245   10.2878   68.2544    0.2110    2.6895   37.0000 
3240.9384   12.5902   61.6035   10.2878   68.5833    0.2130    2.6950   37.0000 
3241.0908   12.5902   61.0391   10.2878   68.8747    0.2142    2.6977   37.0000 
3241.2432   12.5902   60.6665   10.2878   69.0392    0.2127    2.6945   37.0000 
3241.3956   12.5902   60.2939   10.2878   69.2036    0.2112    2.6866   37.0000 
3241.5480   12.5902   60.4675   10.2878   69.2366    0.2091    2.6825   37.0000 
3241.7004   12.5902   61.4612   10.2878   69.0721    0.2061    2.6802   37.0000 
3241.8528   12.5902   62.4548   10.2878   68.9077    0.2031    2.6801   37.0000 
3242.0052   12.5902   63.6614   10.2878   68.7432    0.2036    2.6879   37.0000 
3242.1576   12.5902   65.0276   10.2878   68.5788    0.2065    2.6890   37.0000 
3242.3100   12.5902   66.3939   10.2878   68.4143    0.2095    2.6692   37.0000 
3242.4624   12.5902   65.8217   10.2878   68.2499    0.2062    2.6685   37.0000 
3242.6148   12.5902   64.5796   10.2878   68.0854    0.2008    2.6416   37.0000 
3242.7672   12.5902   63.3376   10.2878   67.9210    0.1953    2.6416   37.0000 
3242.9196   12.5902   62.5501   10.4523   67.9070    0.1962    2.6803   37.0000 
3243.0720   12.5902   61.8048   10.6321   67.9070    0.1977    2.6894   37.0000 
3243.2244   12.5902   61.5077   10.7964   67.9355    0.1992    2.6975   37.0000 
3243.3768   12.5902   61.8803   10.7964   68.2644    0.2007    2.6959   37.0000 
3243.5292   12.5902   62.2529   10.7964   68.5933    0.2022    2.6942   37.0000 
3243.6816   12.5953   62.5934   10.7964   68.8797    0.2038    2.6936   37.0000 
3243.8340   12.6152   62.8418   10.7964   69.0441    0.2058    2.6961   37.0000 
3243.9864   12.6350   63.0902   10.7964   69.2086    0.2078    2.6986   37.0000 
3244.1388   12.6378   64.0329   10.7190   69.3730    0.2093    2.7007   37.0000 
3244.2912   12.6180   65.8959   10.5392   69.5375    0.2103    2.7024   37.0000 
3244.4436   12.5981   67.7590   10.3594   69.7019    0.2113    2.7040   37.0000 
3244.5960   12.5902   73.4192   10.1847   69.8664    0.2111    2.7072   37.0000 
3244.7484   12.5902   68.8990   10.0134   70.0308    0.2101    2.7113   37.0000 
3244.9008   12.5902   69.1474    9.8420   70.1953    0.2091    2.7154   37.0000 
3245.0532   12.5902   68.2432    9.7604   70.2326    0.2100    2.7157   37.0000 
3245.2056   12.5902   67.0012    9.7051   70.2326    0.2115    2.7149   37.0000 
3245.3580   12.5902   65.7592    9.6498   70.2326    0.2130    2.7141   37.0000 
3245.5104   12.5902   66.0430    9.6991   70.2326    0.2140    2.7039   37.0000 
3245.6628   12.5902   66.4156    9.7544   70.2326    0.2150    2.6931   37.0000 
3245.8152   12.5902   66.7447    9.8098   70.2134    0.2160    2.6839   37.0000 
3245.9676   12.5902   66.7447    9.8660   70.0489    0.2170    2.6864   37.0000 
3246.1200   12.5902   66.7447    9.9222   69.8845    0.2180    2.6889   37.0000 
3246.2724   12.5902   66.6731    9.9621   69.7674    0.2188    2.6914   37.0000 
3246.4248   12.5902   66.4247    9.9621   69.7674    0.2193    2.6939   37.0000 
3246.5772   12.5902   66.1763    9.9621   69.7674    0.2198    2.6963   37.0000 
3246.7296   12.5902   66.0422    9.9621   69.8431    0.2196    2.6965   37.0000 
3246.8820   12.5902   66.0422    9.9621   70.0076    0.2187    2.6941   37.0000 
3247.0344   12.5902   66.0422    9.9621   70.1720    0.2177    2.6916   37.0000 
3247.1868   12.5776   66.3560    9.9621   70.2326    0.2154    2.6870   37.0000 
3247.3392   12.5577   66.8529    9.9621   70.2326    0.2124    2.6812   37.0000 
3247.4916   12.4583   67.3497    9.9621   70.2326    0.2095    2.6754   37.0000 
3247.6440   12.3896   66.8485   10.0080   70.2326    0.2113    2.6770   37.0000 
3247.7964   12.3864   66.1033   10.0651   70.2326    0.2142    2.6803   37.0000 
3247.9488   12.3864   62.3536   10.1222   70.2326    0.2172    2.6836   37.0000 
3248.1012   12.3864   61.8267   10.1803   70.2326    0.2178    2.6780   37.0000 
3248.2536   12.3864   61.8267   10.2383   70.2326    0.2183    2.6722   37.0000 
3248.4060   12.3864   62.4631   10.2965   70.2326    0.2181    2.6661   37.0000 
3248.5584   12.3864   66.5263   10.3554   70.2326    0.2141    2.6578   37.0000 
3248.7108   12.3864   64.2857   10.4144   70.2326    0.2102    2.6496   37.0000 
3248.8632   12.3892   63.6923   10.4737   70.2326    0.2106    2.6458   37.0000 
3249.0156   12.4005   61.8292   10.5336   70.2326    0.2116    2.6334   37.0000 
3249.1680   12.4005   59.9661   10.5935   70.2326    0.2126    2.6346   37.0000 
3249.3204   12.4005   58.7728   10.6540   70.1519    0.2138    2.6377   37.0000 
3249.4728   12.4005   58.2760   10.7149   69.9875    0.2153    2.6800   37.0000 
3249.6252   12.4005   57.7792   10.7758   69.8230    0.2168    2.6932   37.0000 
3249.7776   12.4005   57.7757   10.8789   69.6586    0.2157    2.6982   37.0000 
3249.9300   12.4005   58.0241   11.0037   69.4941    0.2132    2.7094   37.0000 
3250.0824   12.4005   58.2725   11.1285   69.3297    0.2107    2.7094   37.0000 
3250.2348   12.4005   59.2457   11.2026   69.1652    0.2128    2.6952   37.0000 
3250.3872   12.4005   60.3635   11.2665   69.0008    0.2157    2.6894   37.0000 
3250.5396   12.4005   61.4708   11.3297   68.8390    0.2187    2.6836   37.0000 
3250.6920   12.4005   60.6014   11.2658   69.1679    0.2172    2.6836   37.0000 
3250.8444   12.4005   59.7320   11.2019   69.4968    0.2157    2.6836   37.0000 
3250.9968   12.4005   59.2582   11.1272   69.7966    0.2143    2.6836   37.0000 
3251.1492   12.4005   60.6244   11.0024   69.9610    0.2133    2.6836   37.0000 
3251.3016   12.4005   61.9907   10.8776   70.1255    0.2123    2.6836   37.0000 
3251.4540   12.4005   63.3136   10.7751   70.2326    0.2115    2.6845   37.0000 
3251.6064   12.4005   64.5557   10.7142   70.2326    0.2110    2.6870   37.0000 
3251.7588   12.4005   65.7977   10.6533   70.2326    0.2105    2.6895   37.0000 
3251.9112   12.4005   65.5532   10.7207   70.0614    0.2074    2.6902   37.0000 
3252.0636   12.4005   63.9386   10.9064   69.7325    0.2020    2.6894   37.0000 
3252.2160   12.4005   62.3239   11.0921   69.4036    0.1965    2.6886   37.0000 
3252.3684   12.4005   60.7952   11.2841   68.8471    0.1956    2.6866   37.0000 
3252.5208   12.4005   59.3048   11.4790   68.1893    0.1965    2.6841   37.0000 
3252.6732   12.3146   57.8143   11.6739   67.5315    0.1975    2.6817   37.0000 
3252.8256   12.2881   58.4695   11.7004   67.7260    0.2028    2.6785   37.0000 
3252.9780   12.2881   59.4631   11.7004   68.0549    0.2088    2.6752   37.0000 
3253.1304   12.2881   60.4876   11.6958   68.4071    0.2145    2.6719   37.0000 
3253.2828   12.2881   62.3506   11.5648   69.3938    0.2145    2.6703   37.0000 
3253.4352   12.2881   64.2137   11.4339   70.3805    0.2145    2.6686   37.0000 
3253.5876   12.2881   65.5880   11.3435   71.0266    0.2108    2.6695   37.0000 
3253.7400   12.2881   65.0912   11.4084   70.3687    0.1930    2.6803   37.0000 
3253.8924   12.2881   64.5943   11.4734   69.7109    0.1751    2.6910   37.0000 
3254.0448   12.2881   62.8272   11.6429   68.7417    0.1627    2.7002   37.0000 
3254.1972   12.2881   58.9768   11.9838   67.2616    0.1192    2.7269   37.0000 
3254.3496   12.2881   55.1265   12.3247   65.7816    0.1558    2.7269   37.0000 
3254.5020   12.2881   54.5582   12.5573   65.2068    0.1629    2.7269   37.0000 
3254.6544   12.2881   49.1803   12.7015   63.8841    0.1788    2.6997   37.0000 
3254.8068   12.2881   49.1803   12.8457   63.8019    0.1947    2.6890   37.0000 
3254.9592   12.2881   62.1484   12.7308   63.7160    0.1991    2.6818   37.0000 
3255.1116   12.2881   65.9987   12.5162   63.2858    0.2031    2.6760   37.0000 
