~VERSION INFORMATION
 VERS.                 2.0:   CWLS LOG ASCII STANDARD - VERSION 2.0
 WRAP.                  NO:   SINGLE LINE PER DEPTH STEP
 CREA.                 04/06/2018 10:34:01
#CREATED USING DSPetro VERSION 5000.10.1.3 BY H191660 ON 04/06/2018 10:34:01
~WELL INFORMATION
#MNEM.UNIT       DATA                          DESCRIPTION MNEMONIC
#---------      ---------------------------   --------------------------
 STRT    .M         1308.9636                 : START DEPTH
 STOP    .M         3555.7968                 : STOP DEPTH
 STEP    .M         0.1524                    : STEP VALUE
 NULL    .      -999.0000                     : NULL VALUE
 DATE    .      04/06/2018                    : LAS file Creation Date
 WELL .      7321_7_1                    : Well Name
 COMP .      Neftex Exploration Insights : Company
 FLD  .                                  : Field
 UWI  .      ENOWL0000103                : Unique Well Identifier (UWI)
 LOC  .                                  : Location
 RWS  .      -999                        : Def_Rw
 WST  .      -999                        : Def_Rwt
 SRVC .                                  : Contractor
~CURVE INFORMATION
#MNEM              UNIT       API CODE   Curve Type Comments
#----------  --------------- ----------  ---------- -----------
 DEPTH      .M                         : Depth       
 CAL_INCH   .inch                      :             Caliper Log - A representation of the measured diameter of a borehole along its depth
 GR_API     .API                       : GammaRay    Gamma Ray (API) - Measures the intensity of natural gamma-ray radiation emitted from formations containing radioactive elements, such as K, Th and U
 ILD_OHMM   .ohmm                      :             Deep Induction Resistivity - Measurement made an induction log, made several feet into the formation
 DT_US_FT   .us/ft                     :             Interval Transit Time: Compressional Wave - Evaluates the time it takes for a compressional wave to traverse a fixed distance
 NPHI_RATIO .ratio                     :             Neutron Porosity - Measured with an neutron logging device calibrated to a given matrix (limestone, sandstone and dolomite)
 RHOB_G_CC  .g/cc                      :             Bulk Density - Measures the density of bulk material, including any void space or other materials contained in the subject volume
 LITH       .                          : LITH        Lithology Curve
~A  DEPTH  CAL_INCH   GR_API   ILD_OHMM  DT_US_FT NPHI_RAT~ RHOB_G_C~    LITH   
# ...
2651.7600   13.9733   64.2878    9.3946   68.9273    0.1199    2.6550   22.0000 
2651.9124   13.9367   60.5520    9.4483   67.6060    0.1164    2.6592   22.0000 
2652.0648   13.9172   59.0382    9.5414   66.3982    0.1147    2.6623   22.0000 
2652.2172   13.8289   59.6610    9.8236   65.7375    0.1211    2.6607   37.0000 
2652.3696   13.7733   60.2838   10.1059   65.0769    0.1276    2.6590   37.0000 
2652.5220   13.7487   62.7985   10.1683   65.0622    0.1366    2.6535   37.0000 
2652.6744   13.6645   66.1609    9.8323   66.2184    0.1500    2.6411   37.0000 
2652.8268   13.6364   69.5234    9.4962   67.3745    0.1634    2.6286   37.0000 
2652.9792   13.6364   72.7773    9.0756   68.6197    0.1739    2.6189   37.0000 
2653.1316   13.6364   76.0151    8.5828   69.9409    0.1819    2.6114   37.0000 
2653.2840   13.6645   79.0646    8.0900   71.2622    0.1899    2.6039   37.0000 
2653.4364   13.6646   78.6911    7.6502   72.1057    0.1906    2.5899   37.0000 
2653.5888   13.6646   78.3177    7.2306   72.7663    0.1886    2.5733   37.0000 
2653.7412   13.6927   77.7991    6.8110   73.4270    0.1866    2.5224   37.0000 
2653.8936   15.7429   76.8031    6.4479   74.2374    0.1950    2.5243   37.0000 
2654.0460   15.7429   75.8070    6.0907   75.0632    0.2045    2.5653   37.0000 
2654.1984   15.7265   76.1506    5.7461   75.8740    0.2137    2.6159   37.0000 
2654.3508   15.6866   78.3922    5.5281   76.5346    0.2201    2.6112   37.0000 
2654.5032   15.6187   80.6338    5.3101   77.1953    0.2266    2.5612   37.0000 
2654.6556   15.5789   82.5792    5.1207   77.8105    0.2331    2.5472   37.0000 
2654.8080   15.5183   84.3227    5.0067   78.3060    0.2396    2.5181   37.0000 
2654.9604   15.5183   86.0662    4.8927   78.8015    0.2460    2.4891   37.0000 
2655.1128   15.5184   86.6510    4.8061   79.0698    0.2534    2.4669   37.0000 
2655.2652   15.5184   86.9001    4.7518   79.0698    0.2619    2.4528   37.0000 
2655.4176   15.5184   87.1493    4.6975   79.0698    0.2703    2.4387   37.0000 
2655.5700   15.5746   86.5650    4.6780   79.2820    0.2679    2.4294   37.0000 
2655.7224   15.6525   85.9425    4.6780   79.6123    0.2595    2.4227   37.0000 
2655.8748   16.0005   85.6100    4.6780   79.9426    0.2510    2.4161   37.0000 
2656.0272   16.2206   87.1044    4.7692   79.4542    0.2421    2.4232   37.0000 
2656.1796   16.0784   88.5988    4.8796   78.7936    0.2332    2.4331   37.0000 
2656.3320   15.9425   88.2485    4.9910   78.1263    0.2242    2.4433   37.0000 
2656.4844   15.8555   87.2524    5.2021   76.8050    0.2153    2.4748   37.0000 
2656.6368   15.7270   86.2564    5.4132   75.4837    0.2063    2.5064   37.0000 
2656.7892   14.4315   84.3911    5.6652   74.2585    0.1962    2.5358   37.0000 
2656.9416   14.2793   81.6517    6.0873   73.4327    0.1812    2.5565   37.0000 
2657.0940   14.2267   78.9123    6.5093   72.6069    0.1663    2.5773   37.0000 
2657.2464   14.1986   74.7347    7.1166   71.6564    0.1497    2.5886   22.0000 
2657.3988   14.1986   69.8785    8.0290   70.5003    0.1303    2.5845   22.0000 
2657.5512   14.1986   65.0223    8.9414   69.3442    0.1109    2.5803   22.0000 
2657.7036   14.1987   59.7376   10.2633   68.0953    0.0979    2.5762   22.0000 
2657.8560   14.2166   54.3834   11.9050   66.7740    0.0569    2.5720   36.0000 
2658.0084   14.3143   49.3407   13.5467   65.4528    0.0596    2.5679   36.0000 
2658.1608   14.4074   51.5823   16.1572   64.9932    0.0906    2.5637   22.0000 
2658.3132   14.4515   53.8238   14.8733   64.8280    0.1016    2.5596   22.0000 
2658.4656   14.5919   56.8940   14.1855   64.6629    0.1120    2.5554   22.0000 
2658.6180   14.8091   62.8711   13.1289   66.3392    0.2568    2.5166   37.0000 
2658.7704   14.8966   68.8483   11.9855   68.1560    0.2553    2.4751   11.0000 
2658.9228   14.5639   72.2183   10.8661   74.1861    0.2499    2.1480   11.0000 
2659.0752   14.5358   71.7204    7.1883   67.7454    0.1783    2.0988   11.0000 
2659.2276   14.8792   71.2225    6.6773   65.9287    0.1801    2.0954   11.0000 
2659.3800   15.4016   73.3399    6.1608   65.3375    0.1864    2.0549   11.0000 
2659.5324   15.7504   77.3246    5.7754   67.6497    0.2365    2.0074   11.0000 
2659.6848   15.8277   81.3093    5.2884   69.9619    0.2951    2.0058   11.0000 
2659.8372   15.7668   85.6747    5.4803   72.5123    0.2911    1.8238   11.0000 
2659.9896   15.6520   90.1575    5.4239   79.5589    0.2817    1.8238   11.0000 
2660.1420   15.5524   94.6402    5.2345   79.8283    0.2722    1.8238   11.0000 
2660.2944   15.5757   92.6509    5.0721   79.9935    0.2643    2.3827   37.0000 
2660.4468   16.1086   90.2852    5.0642   80.2326    0.2518    2.4070   37.0000 
2660.5992   15.0646   87.9821    5.4409   77.7496    0.2469    2.5619   37.0000 
2660.7516   14.9853   86.1145    5.5722   76.6937    0.2432    2.5636   37.0000 
2660.9040   15.0981   84.2468    5.6796   75.5376    0.2439    2.5699   37.0000 
2661.0564   15.1380   83.5628    5.7680   74.4451    0.2495    2.5709   37.0000 
2661.2088   15.1820   85.5552    5.9528   75.2709    0.2544    2.5709   37.0000 
2661.3612   15.1743   87.5476    6.2112   76.0967    0.2585    2.4627   37.0000 
2661.5136   15.1539   88.3261    6.3119   79.3023    0.2586    2.1817   37.0000 
2661.6660   15.0666   87.8281    6.3373   76.1417    0.2404    2.1901   37.0000 
2661.8184   15.0268   87.3302    6.3373   75.6462    0.2382    2.1901   37.0000 
2661.9708   14.8480   87.5811    6.3211   75.0847    0.2362    2.4456   37.0000 
2662.1232   14.7683   88.2038    6.2613   74.4241    0.2075    2.4813   37.0000 
2662.2756   14.6886   88.8265    6.2112   73.7635    0.2075    2.5169   37.0000 
2662.4280   14.7104   88.2862    6.3628   73.5848    0.2075    2.5453   37.0000 
2662.5804   14.7503   87.5392    6.4400   73.7499    0.2084    2.5686   37.0000 
2662.7328   14.7896   86.8109    6.2023   73.9151    0.2094    2.5918   37.0000 
2662.8852   14.8095   86.6865    6.0875   74.2070    0.2118    2.6068   37.0000 
2663.0376   14.8294   86.5620    6.0875   74.5373    0.2120    2.6192   37.0000 
2663.1900   14.8452   86.2016    6.1121   74.8676    0.2096    2.6316   37.0000 
2663.3424   14.8452   84.9566    6.1614   74.5695    0.1750    2.6275   37.0000 
2663.4948   14.8452   83.7115    6.0865   74.2392    0.1738    2.6225   37.0000 
2663.6472   14.8452   83.5876    5.9452   74.0428    0.2063    2.6183   37.0000 
2663.7996   14.8453   85.2064    5.9186   74.7034    0.2292    2.6192   37.0000 
2663.9520   14.8453   86.8252    6.0908   75.3640    0.2201    2.6200   37.0000 
2664.1044   14.8453   87.8027    6.3119   78.6047    0.2173    2.6219   37.0000 
2664.2568   14.8453   88.3008    6.3948   78.6047    0.2152    2.6260   37.0000 
2664.4092   14.8453   88.7990    6.3820   76.9629    0.2110    2.6302   37.0000 
2664.5616   14.8453   87.7969    6.5099   76.7941    0.2096    2.6293   37.0000 
2664.7140   14.8453   86.3028    6.6232   75.9683    0.2082    2.6235   37.0000 
2664.8664   14.8454   84.8088    6.7365   75.1425    0.1891    2.6177   37.0000 
2665.0188   14.8454   79.3614    6.9687   74.2033    0.1507    2.6085   22.0000 
2665.1712   14.8454   73.6340    7.2553   73.2124    0.1332    2.5977   22.0000 
2665.3236   14.8431   68.1922    7.5418   72.2214    0.1158    2.5869   22.0000 
2665.4760   14.8232   64.9551    8.0323   71.3742    0.1131    2.5797   22.0000 
2665.6284   14.8033   61.7180    8.5531   70.5484    0.1126    2.5731   22.0000 
2665.7808   14.7834   59.0695    9.0729   69.7585    0.1122    2.5667   22.0000 
2665.9332   14.7635   57.8246    9.5731   69.5933    0.1122    2.5651   22.0000 
2666.0856   14.7436   56.5797   10.0734   69.4282    0.1122    2.5634   22.0000 
2666.2380   14.7332   54.7417   10.5760   69.2237    0.1116    2.5620   22.0000 
2666.3904   14.7332   52.2517   11.0857   68.8934    0.1091    2.5611   22.0000 
2666.5428   14.7332   49.7617   11.5954   68.5631    0.1066    2.5603   22.0000 
2666.6952   14.7201   47.5172   12.1347   68.1631    0.1041    2.5584   22.0000 
