~VERSION INFORMATION
 VERS.                 2.0:   CWLS LOG ASCII STANDARD - VERSION 2.0
 WRAP.                  NO:   SINGLE LINE PER DEPTH STEP
 CREA.                 04/06/2018 10:34:01
#CREATED USING DSPetro VERSION 5000.10.1.3 BY H191660 ON 04/06/2018 10:34:01
~WELL INFORMATION
#MNEM.UNIT       DATA                          DESCRIPTION MNEMONIC
#---------      ---------------------------   --------------------------
 STRT    .M         1308.9636                 : START DEPTH
 STOP    .M         3555.7968                 : STOP DEPTH
 STEP    .M         0.1524                    : STEP VALUE
 NULL    .      -999.0000                     : NULL VALUE
 DATE    .      04/06/2018                    : LAS file Creation Date
 WELL .      7321_7_1                    : Well Name
 COMP .      Neftex Exploration Insights : Company
 FLD  .                                  : Field
 UWI  .      ENOWL0000103                : Unique Well Identifier (UWI)
 LOC  .                                  : Location
 RWS  .      -999                        : Def_Rw
 WST  .      -999                        : Def_Rwt
 SRVC .                                  : Contractor
~CURVE INFORMATION
#MNEM              UNIT       API CODE   Curve Type Comments
#----------  --------------- ----------  ---------- -----------
 DEPTH      .M                         : Depth       
 CAL_INCH   .inch                      :             Caliper Log - A representation of the measured diameter of a borehole along its depth
 GR_API     .API                       : GammaRay    Gamma Ray (API) - Measures the intensity of natural gamma-ray radiation emitted from formations containing radioactive elements, such as K, Th and U
 ILD_OHMM   .ohmm                      :             Deep Induction Resistivity - Measurement made an induction log, made several feet into the formation
 DT_US_FT   .us/ft                     :             Interval Transit Time: Compressional Wave - Evaluates the time it takes for a compressional wave to traverse a fixed distance
 NPHI_RATIO .ratio                     :             Neutron Porosity - Measured with an neutron logging device calibrated to a given matrix (limestone, sandstone and dolomite)
 RHOB_G_CC  .g/cc                      :             Bulk Density - Measures the density of bulk material, including any void space or other materials contained in the subject volume
 LITH       .                          : LITH        Lithology Curve
~A  DEPTH  CAL_INCH   GR_API   ILD_OHMM  DT_US_FT NPHI_RAT~ RHOB_G_C~    LITH   
# ...
2802.6360   12.7171   45.4106   10.1558   59.6140    0.0691    2.7670   37.0000 
2802.7884   12.7366   45.1622   10.8881   59.9422    0.1080    2.7640   37.0000 
2802.9408   12.7565   44.9138   11.9140   60.2704    0.1143    2.7936   37.0000 
2803.0932   12.7795   44.6643   11.3720   61.4592    0.1399    2.7407   37.0000 
2803.2456   12.8193   63.1465   10.6742   63.9030    0.1399    2.7180   37.0000 
2803.3980   12.8591   69.0166   10.1233   66.3468    0.1230    2.6945   37.0000 
2803.5504   12.8923   72.6762    9.6991   67.7134    0.1222    2.6736   37.0000 
2803.7028   12.9122   71.0721    9.3218   68.2055    0.1138    2.6670   37.0000 
2803.8552   12.9320   69.4681    8.9243   68.6976    0.1055    2.6604   37.0000 
2804.0076   12.9320   68.1375    8.7067   68.1288    0.1060    2.6584   37.0000 
2804.1600   12.9121   62.4243    8.7687   67.1397    0.1056    2.6658   37.0000 
2804.3124   12.8922   62.5994    8.8960   66.1506    0.1051    2.6732   37.0000 
2804.4648   12.8723   67.3566    8.9976   66.4868    0.1102    2.6786   37.0000 
2804.6172   12.8524   69.9973    9.0276   66.9789    0.1192    2.6819   37.0000 
2804.7696   12.8325   72.6381    9.0639   67.5095    0.1282    2.6851   37.0000 
2804.9220   12.8293   74.9714    9.0639   68.6552    0.1364    2.6857   37.0000 
2805.0744   12.8293   77.2308    8.9384   69.8009    0.1444    2.6849   37.0000 
2805.2268   12.8292   79.4866    7.6925   70.8401    0.1524    2.6841   37.0000 
2805.3792   12.8292   80.9877    7.5942   71.4959    0.1496    2.6812   37.0000 
2805.5316   12.8292   82.4887    7.6264   72.1516    0.1466    2.6779   37.0000 
2805.6840   12.8221   83.2464    7.6962   72.3705    0.1432    2.6746   37.0000 
2805.8364   12.7823   80.9096    7.7364   71.8768    0.1373    2.6704   37.0000 
2805.9888   12.7426   78.5728    7.7805   71.3831    0.1314    2.6663   37.0000 
2806.1412   12.7029   75.9524    7.8246   70.8893    0.1279    2.6643   37.0000 
2806.2936   12.6631   72.7666    7.8694   70.3956    0.1299    2.6717   37.0000 
2806.4460   12.6234   69.5807    7.9142   69.9019    0.1318    2.6791   37.0000 
2806.5984   12.6040   66.4508    7.9939   69.0478    0.1315    2.6845   37.0000 
2806.7508   12.6039   63.3855    8.3265   68.0588    0.1285    2.6861   37.0000 
2806.9032   12.6039   60.3202    8.6591   67.0698    0.1255    2.6878   37.0000 
2807.0556   12.5768   56.7521    9.0177   66.0808    0.1242    2.6827   37.0000 
2807.2080   12.5370   52.8427    9.4462   65.0919    0.1237    2.6711   37.0000 
2807.3604   12.4973   42.3762    9.8747   64.2137    0.1232    2.6594   37.0000 
2807.5128   12.4576   48.4532   10.3279   64.5419    0.1207    2.6525   22.0000 
2807.6652   12.4178   54.7671   10.8153   64.8701    0.1177    2.6475   22.0000 
2807.8176   12.3787   55.0159   11.3027   65.0752    0.1148    2.6425   22.0000 
2807.9700   12.3787   51.6919   11.7461   64.9108    0.1024    2.6419   22.0000 
2808.1224   12.3787   41.8483   12.1560   64.7464    0.0897    2.6419   22.0000 
2808.2748   12.3786   42.1999   12.5659   64.5820    0.0782    2.6420   22.0000 
2808.4272   12.3786   42.4700   12.7857   64.4176    0.0772    2.6437   22.0000 
2808.5796   12.3786   50.4675   12.9319   64.2533    0.0762    2.6453   22.0000 
2808.7320   12.3786   52.4687   13.0782   64.4769    0.0769    2.6464   22.0000 
2808.8844   12.3786   55.6178   13.0947   64.9690    0.0824    2.6456   22.0000 
2809.0368   12.3785   58.7669   13.0947   65.4611    0.0879    2.6448   22.0000 
2809.1892   12.3785   61.2247   13.0903   65.7055    0.0922    2.6462   22.0000 
2809.3416   12.3785   62.8514   13.0163   65.8697    0.0952    2.6511   22.0000 
2809.4940   12.3785   64.4782   12.9424   66.0339    0.0982    2.6561   22.0000 
2809.6464   12.3784   64.4195   12.8352   66.0465    0.1002    2.6578   22.0000 
2809.7988   12.3784   63.4293   12.6198   66.0465    0.1017    2.6570   22.0000 
2809.9512   12.3784   62.4392   12.4045   66.0617    0.1032    2.6561   22.0000 
2810.1036   12.3784   61.4490   12.1934   66.2259    0.1035    2.6541   22.0000 
2810.2560   12.3784   60.4588   11.9882   66.3901    0.1035    2.6516   22.0000 
2810.4084   12.3783   59.4686   11.7830   66.4689    0.1035    2.6492   22.0000 
2810.5608   12.3783   57.5347   11.6609   66.3045    0.1044    2.6467   22.0000 
2810.7132   12.3783   55.5626   11.5949   66.1402    0.1054    2.6442   22.0000 
2810.8656   12.3783   53.8570   11.5288   66.0465    0.1062    2.6420   22.0000 
2811.0180   12.3782   54.3551   11.4140   66.0465    0.1057    2.6428   22.0000 
2811.1704   12.3782   54.8531   11.2848   66.0465    0.1052    2.6436   22.0000 
2811.3228   12.3782   55.4223   11.1557   66.1449    0.1066    2.6440   22.0000 
2811.4752   12.3782   56.1702   11.0304   66.3091    0.1121    2.6432   22.0000 
2811.6276   12.3782   56.9181   10.9053   66.4734    0.1176    2.6424   22.0000 
2811.7800   12.3673   57.7821   10.7732   66.3856    0.1233    2.6426   22.0000 
2811.9324   12.3474   58.7804   10.5928   66.2212    0.1293    2.6442   22.0000 
2812.0848   12.2093   59.7786   10.4124   66.0568    0.1353    2.6459   37.0000 
2812.2372   12.2377   61.2639   10.2004   66.6613    0.1433    2.6451   37.0000 
2812.3896   12.3559   63.0163    9.9179   67.3172    0.1523    2.6426   37.0000 
2812.5420   12.3758   66.8429    9.6353   67.9400    0.1817    2.6402   37.0000 
2812.6944   12.3604   67.1647    9.3144   68.2683    0.1833    2.6371   37.0000 
2812.8468   12.3405   67.1646    8.9544   71.6279    0.1819    2.6338   37.0000 
2812.9992   12.3217   61.8964    8.5944   72.0190    0.1704    2.6304   37.0000 
2813.1516   12.3217   54.4839    8.2912   67.5846    0.1654    2.6341   37.0000 
2813.3040   12.2373   54.2326    8.0136   66.5958    0.1605    2.6382   37.0000 
2813.4564   12.3261   54.1532    7.7360   66.3381    0.1579    2.6424   37.0000 
2813.6088   12.3460   59.3769    7.5164   66.9939    0.1634    2.6473   37.0000 
2813.7612   12.3659   60.2499    7.3049   67.6498    0.1689    2.6523   37.0000 
2813.9136   12.3699   60.0609    7.0786   68.0068    0.1735    2.6572   37.0000 
2814.0660   12.3500   57.7219    6.4317   68.1710    0.1770    2.6621   37.0000 
2814.2184   12.3301   55.3829    5.5604   68.3352    0.1805    2.6671   37.0000 
2814.3708   12.3215   54.3888    5.1768   67.8614    0.1819    2.6720   37.0000 
2814.5232   12.1808   49.5812    4.8130   67.2029    0.1819    2.6769   37.0000 
2814.6756   12.3214   49.5812    4.6504   66.5444    0.1819    2.6819   37.0000 
2814.8280   12.3434   49.5811    4.4328   68.8362    0.1849    2.6741   37.0000 
2814.9804   12.3732   68.8977    4.1719   71.2825    0.1889    2.6575   37.0000 
2815.1328   12.4031   76.9803    3.5304   73.6651    0.1929    2.6408   37.0000 
2815.2852   12.4329   83.5056    3.3641   75.4627    0.1885    2.6327   37.0000 
2815.4376   12.4627   89.8759    3.3664   77.2603    0.1836    2.6269   37.0000 
2815.5900   12.4901   95.2191    3.5030   78.4802    0.1788    2.6211   37.0000 
2815.7424   12.4901   94.7229    3.6655   77.9865    0.1753    2.6320   37.0000 
2815.8948   12.4901   94.2267    3.8956   77.4929    0.1719    2.6434   37.0000 
2816.0472   12.4900   93.3442    4.0485   77.0693    0.1682    2.6534   37.0000 
2816.1996   12.4900   91.6164    4.1945   76.7404    0.1637    2.6517   37.0000 
2816.3520   12.4900   89.8887    4.2837   76.4115    0.1593    2.6501   37.0000 
2816.5044   12.4774   87.0899    4.4901   75.5895    0.1530    2.6532   37.0000 
2816.6568   12.4476   83.0545    4.6766   74.4355    0.1442    2.6679   37.0000 
2816.8092   12.4178   79.0191    4.8631   73.2814    0.1354    2.6826   12.0000 
2816.9616   12.3880   73.4409    5.1321   71.0962    0.1258    2.6988   12.0000 
2817.1140   12.3581   66.7841    5.5715   68.6138    0.1059    2.7167   12.0000 
2817.2664   12.3283   60.1273    6.0110   66.1313    0.0860    2.7347   12.0000 
2817.4188   12.3060   48.8763    6.5216   64.1313    0.0810    2.7403   12.0000 
2817.5712   12.2861   49.0520    7.1158   62.1484    0.0552    2.7370   12.0000 
