~VERSION INFORMATION
 VERS.                 2.0:   CWLS LOG ASCII STANDARD - VERSION 2.0
 WRAP.                  NO:   SINGLE LINE PER DEPTH STEP
 CREA.                 04/06/2018 10:34:01
#CREATED USING DSPetro VERSION 5000.10.1.3 BY H191660 ON 04/06/2018 10:34:01
~WELL INFORMATION
#MNEM.UNIT       DATA                          DESCRIPTION MNEMONIC
#---------      ---------------------------   --------------------------
 STRT    .M         1308.9636                 : START DEPTH
 STOP    .M         3555.7968                 : STOP DEPTH
 STEP    .M         0.1524                    : STEP VALUE
 NULL    .      -999.0000                     : NULL VALUE
 DATE    .      04/06/2018                    : LAS file Creation Date
 WELL .      7321_7_1                    : Well Name
 COMP .      Neftex Exploration Insights : Company
 FLD  .                                  : Field
 UWI  .      ENOWL0000103                : Unique Well Identifier (UWI)
 LOC  .                                  : Location
 RWS  .      -999                        : Def_Rw
 WST  .      -999                        : Def_Rwt
 SRVC .                                  : Contractor
~CURVE INFORMATION
#MNEM              UNIT       API CODE   Curve Type Comments
#----------  --------------- ----------  ---------- -----------
 DEPTH      .M                         : Depth       
 CAL_INCH   .inch                      :             Caliper Log - A representation of the measured diameter of a borehole along its depth
 GR_API     .API                       : GammaRay    Gamma Ray (API) - Measures the intensity of natural gamma-ray radiation emitted from formations containing radioactive elements, such as K, Th and U
 ILD_OHMM   .ohmm                      :             Deep Induction Resistivity - Measurement made an induction log, made several feet into the formation
 DT_US_FT   .us/ft                     :             Interval Transit Time: Compressional Wave - Evaluates the time it takes for a compressional wave to traverse a fixed distance
 NPHI_RATIO .ratio                     :             Neutron Porosity - Measured with an neutron logging device calibrated to a given matrix (limestone, sandstone and dolomite)
 RHOB_G_CC  .g/cc                      :             Bulk Density - Measures the density of bulk material, including any void space or other materials contained in the subject volume
 LITH       .                          : LITH        Lithology Curve
~A  DEPTH  CAL_INCH   GR_API   ILD_OHMM  DT_US_FT NPHI_RAT~ RHOB_G_C~    LITH   
# ...
2199.1320   13.0802   82.1537    3.9118   82.8055    0.3363    2.6649   37.0000 
2199.2844   13.1762   82.2463    3.9195   83.1051    0.3430    2.6650   37.0000 
2199.4368   13.2140   82.7441    3.9195   83.4344    0.3505    2.6650   37.0000 
2199.5892   13.2140   77.5435    3.9195   83.8064    0.3505    2.6645   37.0000 
2199.7416   13.1859   86.0104    3.9012   84.4649    0.3498    2.6612   37.0000 
2199.8940   13.1771   89.2874    3.8791   85.1234    0.3343    2.6579   37.0000 
2200.0464   13.0814   92.4561    3.8569   85.4314    0.3315    2.6561   37.0000 
2200.1988   12.9614   92.4560    3.8137   84.9385    0.3246    2.6578   37.0000 
2200.3512   12.9014   92.4559    3.7705   84.4457    0.3177    2.6594   37.0000 
2200.5036   12.8223   92.1809    3.7312   84.2638    0.3129    2.6611   37.0000 
2200.6560   12.7737   90.8257    3.7101   84.4280    0.3104    2.6627   37.0000 
2200.8084   12.8472   89.4705    3.6891   84.5923    0.3079    2.6644   37.0000 
2200.9608   12.7870   88.2893    3.6681   84.3349    0.3073    2.6708   37.0000 
2201.1132   12.8466   87.4248    3.6474   83.8421    0.3078    2.6799   37.0000 
2201.2656   12.9062   86.5603    3.6266   83.3493    0.3083    2.6889   37.0000 
2201.4180   12.9305   85.3185    3.6167   82.9896    0.3132    2.6967   37.0000 
2201.5704   12.9106   83.7185    3.6167   82.6610    0.3192    2.7041   37.0000 
2201.7228   12.8908   82.1185    3.6167   82.3325    0.3251    2.7115   37.0000 
2201.8752   12.8709   80.5994    3.6309   82.4864    0.3209    2.7230   37.0000 
2202.0276   12.8511   79.1215    3.6516   82.6507    0.3164    2.7346   37.0000 
2202.1800   12.8313   77.6437    3.6723   82.6937    0.3134    2.7378   37.0000 
2202.3324   12.8360   78.7882    3.6575   82.0366    0.3183    2.6933   37.0000 
2202.4848   12.8459   80.5379    3.6368   81.3795    0.3233    2.6487   37.0000 
2202.6372   12.8558   82.2902    3.6178   81.2939    0.3295    2.5294   37.0000 
2202.7896   12.8657   84.5450    3.6595   82.4439    0.3384    2.5294   37.0000 
2202.9420   12.8756   86.7997    3.7013   83.5938    0.3473    2.5294   37.0000 
2203.0944   12.8739   88.8999    3.7390   84.1064    0.3478    2.5294   37.0000 
2203.2468   13.0522   90.3978    3.7604   83.9421    0.3394    2.6518   37.0000 
2203.3992   12.7550   91.8956    3.7818   83.7778    0.3310    2.6807   37.0000 
2203.5516   12.7219   92.4165    3.7954   83.1841    0.3264    2.6847   37.0000 
2203.7040   12.7418   91.4290    3.7954   82.3627    0.3239    2.6756   37.0000 
2203.8564   12.7616   90.4414    3.7954   81.5414    0.3215    2.6666   37.0000 
2204.0088   12.7814   89.0496    3.8070   81.8006    0.3186    2.6697   37.0000 
2204.1612   12.8012   87.3272    3.8287   82.2934    0.3156    2.6755   37.0000 
2204.3136   12.8211   85.6048    3.8505   82.7862    0.3126    2.6813   37.0000 
2204.4660   12.8275   85.8670    3.8119   83.6046    0.3116    2.6740   37.0000 
2204.6184   12.8275   86.9884    3.7476   84.4259    0.3091    2.6665   37.0000 
2204.7708   12.8275   88.1099    3.6833   85.1425    0.3065    2.6590   37.0000 
2204.9232   12.8107   90.5657    3.6393   85.3068    0.3036    2.6507   37.0000 
2205.0756   12.7908   93.2000    3.5981   85.4710    0.3006    2.6425   37.0000 
2205.2280   12.7712   95.4129    3.5651   85.7431    0.3015    2.6356   37.0000 
2205.3804   12.7712   93.0816    3.6921   86.2359    0.3104    2.6314   37.0000 
2205.5328   12.7712   90.7502    3.8191   86.7287    0.3547    2.6273   37.0000 
2205.6852   12.7712   87.3495    3.9698   86.7319    0.3547    2.6199   37.0000 
2205.8376   12.7712   80.2637    4.2101   89.5349    0.2705    2.6092   37.0000 
2205.9900   12.7711   73.1779    4.4504   85.7463    0.2348    2.5985   37.0000 
2206.1424   12.7431   66.0210    4.7755   83.3952    0.1982    2.5894   37.0000 
2206.2948   12.6639   58.7006    5.2487   80.1098    0.1611    2.5811   37.0000 
2206.4472   12.5847   51.3801    5.7220   76.8243    0.1239    2.5729   37.0000 
2206.5996   12.5568   46.9518    6.2660   74.9090    0.0849    2.5687   18.0000 
2206.7520   12.5766   37.7104    6.8782   73.2662    0.0859    2.5654   18.0000 
2206.9044   12.5964   62.2736    7.4904   71.6306    0.1220    2.5622   18.0000 
2207.0568   12.5889   60.9411    7.8506   72.6162    0.1329    2.5605   18.0000 
2207.2092   12.5690   58.8466    8.0779   73.6018    0.1438    2.5588   18.0000 
2207.3616   12.5492   57.1839    8.3052   74.5030    0.1506    2.5567   18.0000 
2207.5140   12.5293   50.8457    8.5902   74.9959    0.1377    2.5522   18.0000 
2207.6664   12.5095   47.6553    8.8881   75.4887    0.1249    2.5476   18.0000 
2207.8188   12.4902   46.3887    9.1860   75.5347    0.1128    2.5431   18.0000 
2207.9712   12.4902   45.3848    9.8647   74.7134    0.1024    2.5385   18.0000 
2208.1236   12.4901   45.0778   10.5519   73.8920    0.0920    2.5340   18.0000 
2208.2760   12.4901   47.2384   11.2783   73.0706    0.0889    2.5372   18.0000 
2208.4284   12.4901   48.1096   12.2659   72.2493    0.0929    2.5480   18.0000 
2208.5808   12.4901   48.9809   13.2536   71.4279    0.0969    2.5587   18.0000 
2208.7332   12.4901   55.0781   14.1790   70.6065    0.0898    2.5719   18.0000 
2208.8856   12.4900   44.3338   14.9440   69.7852    0.0774    2.5864   18.0000 
2209.0380   12.4900   40.0720   15.7091   68.9638    0.0650    2.6008   18.0000 
2209.1904   12.5007   31.9172   16.3051   67.7256    0.0407    2.6153   37.0000 
2209.3428   12.5205   31.9169   16.6833   66.4114    0.0407    2.6297   18.0000 
2209.4952   12.5403   42.4442   17.0616   65.1234    0.0547    2.6434   18.0000 
2209.6476   12.5602   41.3710   16.8211   65.6163    0.0597    2.6071   18.0000 
2209.8000   12.5800   39.9874   16.1710   66.1091    0.0647    2.5708   37.0000 
2209.9524   12.5998   39.2524   15.5209   66.8727    0.0718    2.5395   27.0000 
2210.1048   12.6196   36.8323   14.2483   68.8440    0.0886    2.5304   18.0000 
2210.2572   12.6395   39.6731   12.8028   70.8152    0.1054    2.5213   18.0000 
2210.4096   12.6593   39.7970   11.3572   72.5553    0.1216    2.5122   18.0000 
2210.5620   12.6791   41.1380   10.3818   73.8695    0.1364    2.5032   18.0000 
2210.7144   12.6990   42.6357    9.4154   75.1837    0.1513    2.4941   18.0000 
2210.8668   12.7144   44.3514    8.5393   75.5575    0.1578    2.4957   18.0000 
2211.0192   12.7143   48.7728    8.0844   75.0647    0.1702    2.5073   18.0000 
2211.1716   12.7143   53.1942    7.6295   74.5718    0.1826    2.5188   18.0000 
2211.3240   12.7143   57.8836    7.2121   74.7582    0.1940    2.5372   18.0000 
2211.4764   12.7143   63.2080    6.8610   75.2510    0.2049    2.5587   37.0000 
2211.6288   12.7143   68.5324    6.5099   75.7438    0.2157    2.5801   37.0000 
2211.7812   12.7142   71.0418    6.2194   76.2367    0.2254    2.5938   37.0000 
2211.9336   12.7142   71.0416    5.9796   76.7295    0.2348    2.6062   37.0000 
2212.0860   12.7142   71.0415    5.7398   77.2223    0.2775    2.6183   37.0000 
2212.2384   12.7142   69.2404    5.6278   77.7151    0.2776    2.6216   37.0000 
2212.3908   12.7142   66.6637    5.5643   78.2079    0.2359    2.6249   37.0000 
2212.5432   12.7141   64.0869    5.5008   78.4125    0.2287    2.6253   37.0000 
2212.6956   12.7141   61.2049    5.4943   77.4268    0.2079    2.6138   37.0000 
2212.8480   12.7141   58.2641    5.4943   76.4412    0.1871    2.6022   37.0000 
2213.0004   12.7141   55.3234    5.5008   75.6945    0.1747    2.5901   37.0000 
2213.1528   12.7141   55.4906    5.5967   75.3659    0.1772    2.5769   22.0000 
2213.3052   12.7140   55.7387    5.6925   75.0374    0.1797    2.5637   22.0000 
2213.4576   12.7140   55.7856    5.7736   75.0586    0.1814    2.5491   22.0000 
2213.6100   12.7140   54.6742    5.8066   75.3871    0.1824    2.5335   22.0000 
2213.7624   12.7140   53.5628    5.8397   75.7157    0.1834    2.5178   22.0000 
2213.9148   12.7140   53.3644    5.8330   75.9291    0.1854    2.4933   22.0000 
2214.0672   12.7139   55.2388    5.7674   76.0934    0.1879    2.4862   22.0000 
