~VERSION INFORMATION
 VERS.                 2.0:   CWLS LOG ASCII STANDARD - VERSION 2.0
 WRAP.                  NO:   SINGLE LINE PER DEPTH STEP
 CREA.                 04/06/2018 10:34:01
#CREATED USING DSPetro VERSION 5000.10.1.3 BY H191660 ON 04/06/2018 10:34:01
~WELL INFORMATION
#MNEM.UNIT       DATA                          DESCRIPTION MNEMONIC
#---------      ---------------------------   --------------------------
 STRT    .M         1308.9636                 : START DEPTH
 STOP    .M         3555.7968                 : STOP DEPTH
 STEP    .M         0.1524                    : STEP VALUE
 NULL    .      -999.0000                     : NULL VALUE
 DATE    .      04/06/2018                    : LAS file Creation Date
 WELL .      7321_7_1                    : Well Name
 COMP .      Neftex Exploration Insights : Company
 FLD  .                                  : Field
 UWI  .      ENOWL0000103                : Unique Well Identifier (UWI)
 LOC  .                                  : Location
 RWS  .      -999                        : Def_Rw
 WST  .      -999                        : Def_Rwt
 SRVC .                                  : Contractor
~CURVE INFORMATION
#MNEM              UNIT       API CODE   Curve Type Comments
#----------  --------------- ----------  ---------- -----------
 DEPTH      .M                         : Depth       
 CAL_INCH   .inch                      :             Caliper Log - A representation of the measured diameter of a borehole along its depth
 GR_API     .API                       : GammaRay    Gamma Ray (API) - Measures the intensity of natural gamma-ray radiation emitted from formations containing radioactive elements, such as K, Th and U
 ILD_OHMM   .ohmm                      :             Deep Induction Resistivity - Measurement made an induction log, made several feet into the formation
 DT_US_FT   .us/ft                     :             Interval Transit Time: Compressional Wave - Evaluates the time it takes for a compressional wave to traverse a fixed distance
 NPHI_RATIO .ratio                     :             Neutron Porosity - Measured with an neutron logging device calibrated to a given matrix (limestone, sandstone and dolomite)
 RHOB_G_CC  .g/cc                      :             Bulk Density - Measures the density of bulk material, including any void space or other materials contained in the subject volume
 LITH       .                          : LITH        Lithology Curve
~A  DEPTH  CAL_INCH   GR_API   ILD_OHMM  DT_US_FT NPHI_RAT~ RHOB_G_C~    LITH   
# ...
2048.2560   12.2600   70.3394    8.3042   72.9723    0.1192    2.5621   37.0000 
2048.4084   12.2600   72.0820    8.1627   73.3019    0.1192    2.5547   37.0000 
2048.5608   12.2600   72.6355    8.0432   73.5599    0.1207    2.5490   37.0000 
2048.7132   12.2600   71.6398    7.9525   73.7247    0.1242    2.5457   37.0000 
2048.8656   12.2600   70.6440    7.8619   73.8895    0.1276    2.5424   37.0000 
2049.0180   12.2600   69.4197    7.7996   74.0544    0.1299    2.5406   37.0000 
2049.1704   12.2600   68.0505    7.7554   74.2192    0.1314    2.5398   37.0000 
2049.3228   12.2600   66.6813    7.7111   74.3840    0.1329    2.5390   37.0000 
2049.4752   12.2600   64.5257    7.7018   74.5488    0.1355    2.5414   37.0000 
2049.6276   12.2600   62.1607    7.7018   74.7136    0.1385    2.5447   37.0000 
2049.7800   12.2600   59.7957    7.7018   74.8784    0.1415    2.5480   37.0000 
2049.9324   12.2600   59.4781    7.7447   74.5648    0.1392    2.5537   22.0000 
2050.0848   12.2600   59.2292    7.7889   74.2352    0.1367    2.5595   22.0000 
2050.2372   12.2600   59.0164    7.8333   73.9056    0.1346    2.5650   22.0000 
2050.3896   12.2600   59.0164    7.8782   73.5760    0.1346    2.5683   22.0000 
2050.5420   12.2600   59.0164    7.9232   73.2464    0.1346    2.5716   22.0000 
2050.6944   12.2600   59.3783    7.9536   72.9700    0.1344    2.5730   22.0000 
2050.8468   12.2600   60.4986    7.9536   72.8052    0.1339    2.5706   22.0000 
2050.9992   12.2600   61.6188    7.9536   72.6404    0.1334    2.5681   22.0000 
2051.1516   12.2600   62.9261    7.9765   72.7232    0.1324    2.5619   22.0000 
2051.3040   12.2600   64.4198    8.0222   73.0528    0.1309    2.5519   22.0000 
2051.4564   12.2600   65.9134    8.0679   73.3825    0.1295    2.5420   22.0000 
2051.6088   12.2600   69.6033    8.1786   73.7121    0.1361    2.5410   22.0000 
2051.7612   12.2600   74.3333    8.3202   74.0417    0.1465    2.5443   22.0000 
2051.9136   12.2600   79.0632    8.4618   74.3713    0.1569    2.5477   37.0000 
2052.0660   12.2600   82.6205    8.7429   74.4186    0.1625    2.5644   37.0000 
2052.2184   12.2600   85.9813    9.0474   74.4186    0.1690    2.5835   37.0000 
2052.3708   12.2600   89.1889    9.3549   74.3961    0.1751    2.6021   37.0000 
2052.5232   12.2600   88.0686    9.7493   73.7369    0.1706    2.6096   37.0000 
2052.6756   12.2600   86.9484   10.1438   73.0776    0.1661    2.6170   37.0000 
2052.8280   12.2600   85.8018   10.5341   72.5232    0.1622    2.6215   37.0000 
2052.9804   12.2600   84.5570   10.9094   72.3584    0.1602    2.6149   37.0000 
2053.1328   12.2600   83.3123   11.2847   72.1936    0.1582    2.6083   37.0000 
2053.2852   12.2600   81.6795   11.6194   72.0930    0.1549    2.6049   37.0000 
2053.4376   12.2600   79.4390   11.8905   72.0930    0.1494    2.6065   37.0000 
2053.5900   12.2600   77.1985   12.1616   72.0930    0.1440    2.6082   37.0000 
2053.7424   12.2600   75.4525   12.4856   71.9995    0.1376    2.6061   37.0000 
2053.8948   12.2600   74.0833   12.8499   71.8347    0.1307    2.6011   37.0000 
2054.0472   12.2600   72.7141   13.2142   71.6699    0.1237    2.5961   37.0000 
2054.1996   12.2600   69.2113   13.6013   71.3823    0.1153    2.5899   37.0000 
2054.3520   12.2600   64.9793   13.9961   71.0527    0.0824    2.5833   18.0000 
2054.5044   12.2600   60.7473   14.3909   70.7230    0.0814    2.5767   22.0000 
2054.6568   12.2600   57.3195   14.5755   70.5456    0.0791    2.5594   22.0000 
2054.8092   12.2600   49.1803   14.7425   70.3808    0.0788    2.5411   22.0000 
2054.9616   12.2600   49.1803   14.9014   70.2159    0.0785    2.5254   22.0000 
2055.1140   12.2600   54.3623   14.9869   70.0511    0.0785    2.5312   22.0000 
2055.2664   12.2600   57.4741   15.0725   69.8863    0.1058    2.5369   22.0000 
2055.4188   12.2600   60.4472   15.1342   70.2326    0.1058    2.5427   22.0000 
2055.5712   12.2600   69.6977   15.1342   70.2326    0.1000    2.5485   22.0000 
2055.7236   12.2600   69.6904   15.1342   70.2326    0.0992    2.5543   22.0000 
2055.8760   12.2600   63.8208   15.0189   70.3830    0.0981    2.5575   22.0000 
2056.0284   12.2600   61.2209   14.7663   70.7126    0.0981    2.5575   22.0000 
2056.1808   12.2600   59.9011   14.5137   71.0422    0.0985    2.5575   22.0000 
2056.3332   12.2600   59.2098   14.1709   71.4763    0.1001    2.5538   22.0000 
2056.4856   12.2600   58.5541   13.7761   71.9707    0.1026    2.5480   22.0000 
2056.6380   12.2600   58.3138   13.3813   72.4651    0.1036    2.5422   22.0000 
2056.7904   12.2600   60.4216   12.7911   72.5581    0.1065    2.5384   22.0000 
2056.9428   12.2600   60.5972   12.1557   72.5581    0.1105    2.5351   22.0000 
2057.0952   12.2600   60.4241   11.5203   72.5581    0.1135    2.5318   22.0000 
2057.2476   12.2600   55.6792   10.9139   72.3950    0.1165    2.5326   22.0000 
2057.4000   12.2600   55.3279   10.3078   72.2302    0.1195    2.5334   22.0000 
2057.5524   12.2600   55.6792    9.7670   72.0930    0.1219    2.5344   22.0000 
2057.7048   12.2600   55.7941    9.5505   72.0930    0.1214    2.5361   22.0000 
2057.8572   12.2600   56.5827    9.3341   72.0930    0.1209    2.5377   22.0000 
2058.0096   12.2600   57.7794    9.2106   72.0930    0.1211    2.5371   22.0000 
2058.1620   12.2600   59.7026    9.2634   72.0930    0.1226    2.5321   22.0000 
2058.3144   12.2600   60.5304    9.3162   72.0930    0.1241    2.5271   22.0000 
2058.4668   12.2600   60.7986    9.4565   72.0930    0.1241    2.5274   22.0000 
2058.6192   12.2600   60.1763    9.6764   72.0930    0.1256    2.5323   22.0000 
2058.7716   12.2600   59.5539    9.8963   72.0930    0.1271    2.5373   22.0000 
2058.9240   12.2600   59.4549   10.2127   71.9775    0.1283    2.5440   22.0000 
2059.0764   12.2600   59.5794   10.5703   71.8127    0.1293    2.5515   22.0000 
2059.2288   12.2600   59.7039   10.9280   71.6479    0.1303    2.5589   22.0000 
2059.3812   12.2600   60.7031   11.3784   71.6279    0.1317    2.5620   22.0000 
2059.5336   12.2600   61.8234   11.8416   71.6279    0.1332    2.5645   22.0000 
2059.6860   12.2600   62.9366   12.3036   71.6557    0.1349    2.5668   22.0000 
2059.8384   12.2600   63.9324   12.7444   72.1502    0.1409    2.5660   22.0000 
2059.9908   12.2600   64.9282   13.1852   72.6446    0.1468    2.5651   22.0000 
2060.1432   12.2600   65.7491   13.5409   73.1390    0.1608    2.5624   22.0000 
2060.2956   12.2600   65.9981   13.6186   73.6334    0.1617    2.5533   22.0000 
2060.4480   12.2600   66.2470   13.6963   74.1278    0.1514    2.5441   22.0000 
2060.6004   12.2600   67.4187   13.6171   74.2829    0.1502    2.5391   22.0000 
2060.7528   12.2600   69.9082   13.3137   73.9533    0.1472    2.5400   22.0000 
2060.9052   12.2600   72.3976   13.0103   73.6236    0.1442    2.5408   22.0000 
2061.0576   12.2600   75.4008   12.6778   73.4884    0.1439    2.5450   22.0000 
2061.2100   12.2600   84.9673   12.3250   73.4884    0.1454    2.5517   22.0000 
2061.3624   12.2600   84.0737   11.9722   73.4884    0.1469    2.5583   22.0000 
2061.5148   12.2600   82.1552   11.6887   73.2354    0.1472    2.5636   22.0000 
2061.6672   12.2600   80.6189   11.4262   72.9058    0.1472    2.5686   22.0000 
2061.8196   12.2600   80.1210   11.1637   72.5762    0.1472    2.5736   22.0000 
2061.9720   12.2600   79.7424   10.9734   72.5581    0.1444    2.5715   22.0000 
2062.1244   12.2600   85.7570   10.7873   72.5581    0.1414    2.5690   22.0000 
2062.2768   12.2600   84.9811   10.5953   72.5784    0.1387    2.5665   22.0000 
2062.4292   12.2600   84.1731   10.3607   72.7432    0.1382    2.5640   22.0000 
2062.5816   12.2600   82.5433   10.1262   72.9080    0.1377    2.5616   22.0000 
2062.7340   12.2612   80.6235    9.9121   72.9737    0.1389    2.5593   22.0000 
2062.8864   12.2712   78.9466    9.7459   72.8089    0.1438    2.5577   22.0000 
2063.0388   12.2811   74.7327    9.5796   72.6441    0.1488    2.5560   22.0000 
2063.1912   12.2911   74.0027    9.4929   73.2678    0.1600    2.5524   22.0000 
