~VERSION INFORMATION
 VERS.                 2.0:   CWLS LOG ASCII STANDARD - VERSION 2.0
 WRAP.                  NO:   SINGLE LINE PER DEPTH STEP
 CREA.                 04/06/2018 10:34:01
#CREATED USING DSPetro VERSION 5000.10.1.3 BY H191660 ON 04/06/2018 10:34:01
~WELL INFORMATION
#MNEM.UNIT       DATA                          DESCRIPTION MNEMONIC
#---------      ---------------------------   --------------------------
 STRT    .M         1308.9636                 : START DEPTH
 STOP    .M         3555.7968                 : STOP DEPTH
 STEP    .M         0.1524                    : STEP VALUE
 NULL    .      -999.0000                     : NULL VALUE
 DATE    .      04/06/2018                    : LAS file Creation Date
 WELL .      7321_7_1                    : Well Name
 COMP .      Neftex Exploration Insights : Company
 FLD  .                                  : Field
 UWI  .      ENOWL0000103                : Unique Well Identifier (UWI)
 LOC  .                                  : Location
 RWS  .      -999                        : Def_Rw
 WST  .      -999                        : Def_Rwt
 SRVC .                                  : Contractor
~CURVE INFORMATION
#MNEM              UNIT       API CODE   Curve Type Comments
#----------  --------------- ----------  ---------- -----------
 DEPTH      .M                         : Depth       
 CAL_INCH   .inch                      :             Caliper Log - A representation of the measured diameter of a borehole along its depth
 GR_API     .API                       : GammaRay    Gamma Ray (API) - Measures the intensity of natural gamma-ray radiation emitted from formations containing radioactive elements, such as K, Th and U
 ILD_OHMM   .ohmm                      :             Deep Induction Resistivity - Measurement made an induction log, made several feet into the formation
 DT_US_FT   .us/ft                     :             Interval Transit Time: Compressional Wave - Evaluates the time it takes for a compressional wave to traverse a fixed distance
 NPHI_RATIO .ratio                     :             Neutron Porosity - Measured with an neutron logging device calibrated to a given matrix (limestone, sandstone and dolomite)
 RHOB_G_CC  .g/cc                      :             Bulk Density - Measures the density of bulk material, including any void space or other materials contained in the subject volume
 LITH       .                          : LITH        Lithology Curve
~A  DEPTH  CAL_INCH   GR_API   ILD_OHMM  DT_US_FT NPHI_RAT~ RHOB_G_C~    LITH   
# ...
3541.9284   12.1658   87.8439    8.2827 -999.0000    0.2364    2.6637   37.0000 
3542.0808   12.1657   87.8438    8.3622 -999.0000    0.2358    2.6610   37.0000 
3542.2332   12.1657   87.8436    8.4104 -999.0000    0.2346    2.6569   37.0000 
3542.3856   12.1657   87.5081    8.4586 -999.0000    0.2350    2.6527   37.0000 
3542.5380   12.1656   86.5036    8.4574 -999.0000    0.2332    2.6500   37.0000 
3542.6904   12.1656   85.4992    8.4092 -999.0000    0.2218    2.6483   37.0000 
3542.8428   12.1656   84.5621    8.3610 -999.0000    0.2189    2.6467   37.0000 
3542.9952   12.1655   83.6833    8.3133 -999.0000    0.2182    2.6526   37.0000 
3543.1476   12.1655   82.8045    8.2659 -999.0000    0.2205    2.6609   37.0000 
3543.3000   12.1655   82.8521    8.2184 -999.0000    0.2250    2.6692   37.0000 
3543.4524   12.1654   83.2275    8.2562 -999.0000    0.2295    2.6728   37.0000 
3543.6048   12.1654   83.6029    8.3037 -999.0000    0.2289    2.6761   37.0000 
3543.7572   12.1653   84.7945    8.3382 -999.0000    0.2276    2.6784   37.0000 
3543.9096   12.1653   86.0439    8.2441 -999.0000    0.2273    2.6742   37.0000 
3544.0620   12.1653   87.1699    8.1500 -999.0000    0.2262    2.6701   37.0000 
3544.2144   12.1652   87.4202    8.1093 -999.0000    0.2168    2.6673   37.0000 
3544.3668   12.2495   87.6704    8.2034 -999.0000    0.2131    2.6673   37.0000 
3544.5192   12.2495   87.5204    8.2975 -999.0000    0.2070    2.6673   37.0000 
3544.6716   12.2494   86.5156    8.3931 -999.0000    0.2106    2.6691   37.0000 
3544.8240   12.2494   85.5107    8.4903 -999.0000    0.2140    2.6724   37.0000 
3544.9764   12.2494   84.9653    8.5875 -999.0000    0.2171    2.6757   37.0000 
3545.1288   12.2493   84.8398    8.6196 -999.0000    0.2203    2.6748   37.0000 
3545.2812   12.2493   84.7142    8.6196 -999.0000    0.2171    2.6724   37.0000 
3545.4336   12.2492   85.1297    8.6196 -999.0000    0.2171    2.6699   37.0000 
3545.5860   12.2492   85.7550    8.5774 -999.0000    0.2211    2.6689   37.0000 
3545.7384   12.2492   86.3804    8.5284 -999.0000    0.2259    2.6680   37.0000 
3545.8908   12.1719   86.3199    8.4821 -999.0000    0.2245    2.6673   37.0000 
3546.0432   12.1718   86.1944    8.4821 -999.0000    0.2182    2.6673   37.0000 
3546.1956   12.1718   86.1246    8.4821 -999.0000    0.2168    2.6673   37.0000 
3546.3480   12.1718   86.5000    8.4821 -999.0000    0.2182    2.6673   37.0000 
3546.5004   12.1717   86.8753    8.4821 -999.0000    0.2192    2.6673   37.0000 
3546.6528   12.1717   87.1358    8.4821 -999.0000    0.2221    2.6673   37.0000 
3546.8052   12.1717   86.6443    8.4821 -999.0000    0.2262    2.6653   37.0000 
3546.9576   12.1716   86.2679    8.4821 -999.0000    0.2286    2.6611   37.0000 
3547.1100   12.1716   84.5013    8.4821 -999.0000    0.2307    2.6570   37.0000 
3547.2624   12.1716 -999.0000    8.5447 -999.0000    0.2308    2.6550   37.0000 
3547.4148   12.1715 -999.0000    8.6435 -999.0000    0.2304    2.6542 -999.0000 
3547.5672   12.1715 -999.0000    8.7423 -999.0000    0.2289    2.6534 -999.0000 
3547.7196   12.1715 -999.0000    8.8012 -999.0000    0.2262    2.6547 -999.0000 
3547.8720   12.1714 -999.0000    8.8518 -999.0000    0.2207    2.6564 -999.0000 
3548.0244   12.1714 -999.0000    8.9014 -999.0000    0.2178    2.6578 -999.0000 
3548.1768   12.1714 -999.0000    8.9014 -999.0000    0.2205    2.6562 -999.0000 
3548.3292   12.1713 -999.0000    8.9014 -999.0000    0.2234    2.6545 -999.0000 
3548.4816   12.1713 -999.0000    8.9462 -999.0000    0.2265    2.6543 -999.0000 
3548.6340   12.1993 -999.0000    9.1569 -999.0000    0.2302    2.6585 -999.0000 
3548.7864   12.1993 -999.0000    9.3676 -999.0000    0.2318    2.6626 -999.0000 
3548.9388   12.1993 -999.0000    9.5840 -999.0000    0.2308    2.6650 -999.0000 
3549.0912   12.1992 -999.0000    9.8087 -999.0000    0.2287    2.6650 -999.0000 
3549.2436   12.1992 -999.0000   10.0334 -999.0000    0.2283    2.6650 -999.0000 
3549.3960   12.1992 -999.0000   10.1237 -999.0000    0.2334    2.6618 -999.0000 
3549.5484   12.2553 -999.0000   10.1237 -999.0000    0.2515    2.6568 -999.0000 
3549.7008   12.2553 -999.0000   10.1237 -999.0000    0.2522    2.6518 -999.0000 
3549.8532   12.2553 -999.0000   10.1699 -999.0000    0.2522    2.6468 -999.0000 
3550.0056   12.2552 -999.0000   10.2284 -999.0000    0.2522    2.6418 -999.0000 
3550.1580   12.2185 -999.0000   10.2869 -999.0000    0.2522    2.6369 -999.0000 
3550.3104   12.1783 -999.0000   10.2878 -999.0000    0.2523    2.6344 -999.0000 
3550.4628   12.0584 -999.0000   10.2878 -999.0000    0.2523    2.6319 -999.0000 
3550.6152   12.0584 -999.0000   10.2878 -999.0000    0.2525    2.6313 -999.0000 
3550.7676   12.0578 -999.0000   10.2878 -999.0000    0.2530    2.6380 -999.0000 
3550.9200   12.0021 -999.0000   10.2878 -999.0000    0.2535    2.6446 -999.0000 
3551.0724   11.9459 -999.0000   10.2878 -999.0000    0.2540    2.6509 -999.0000 
3551.2248   11.8441 -999.0000   10.2878 -999.0000    0.2545    2.6568 -999.0000 
3551.3772   11.7147 -999.0000   10.2878 -999.0000    0.2550    2.6626 -999.0000 
3551.5296   11.6038 -999.0000   10.2878 -999.0000    0.2558    2.6605 -999.0000 
3551.6820   11.5524 -999.0000   10.2878 -999.0000    0.2558    2.6530 -999.0000 
3551.8344   11.4109 -999.0000   10.2878 -999.0000    0.2558    2.6455 -999.0000 
3551.9868   11.2864 -999.0000   10.2878 -999.0000    0.2558    2.6433 -999.0000 
3552.1392   11.2151 -999.0000   10.2878 -999.0000    0.2558    2.6424 -999.0000 
3552.2916   11.1588 -999.0000   10.2878 -999.0000    0.2558    2.6416 -999.0000 
3552.4440   11.1588 -999.0000   10.2878 -999.0000    0.2558    2.6440 -999.0000 
3552.5964   11.1588 -999.0000   10.2878 -999.0000    0.2558    2.6465 -999.0000 
3552.7488   11.1587 -999.0000   10.2878 -999.0000    0.2558    2.6482 -999.0000 
3552.9012   11.1587 -999.0000   10.2878 -999.0000    0.2558    2.6457 -999.0000 
3553.0536   11.1587 -999.0000   10.2878 -999.0000    0.2558    2.6432 -999.0000 
3553.2060   11.1586 -999.0000   10.2878 -999.0000    0.2558    2.6413 -999.0000 
3553.3584   11.1678 -999.0000   10.2878 -999.0000    0.2558    2.6405 -999.0000 
3553.5108   11.1778 -999.0000   10.2878 -999.0000    0.2572    2.6396 -999.0000 
3553.6632   11.1866 -999.0000   10.2878 -999.0000    0.2572    2.6379 -999.0000 
3553.8156   11.1866 -999.0000   10.2878 -999.0000 -999.0000    2.6354 -999.0000 
3553.9680 -999.0000 -999.0000   10.2878 -999.0000 -999.0000    2.6329 -999.0000 
3554.1204 -999.0000 -999.0000 -999.0000 -999.0000 -999.0000    2.6329 -999.0000 
3554.2728 -999.0000 -999.0000 -999.0000 -999.0000 -999.0000    2.6337 -999.0000 
3554.4252 -999.0000 -999.0000 -999.0000 -999.0000 -999.0000    2.6345 -999.0000 
3554.5776 -999.0000 -999.0000 -999.0000 -999.0000 -999.0000    2.6377 -999.0000 
3554.7300 -999.0000 -999.0000 -999.0000 -999.0000 -999.0000    2.6410 -999.0000 
3554.8824 -999.0000 -999.0000 -999.0000 -999.0000 -999.0000    2.6439 -999.0000 
3555.0348 -999.0000 -999.0000 -999.0000 -999.0000 -999.0000    2.6439 -999.0000 
3555.1872 -999.0000 -999.0000 -999.0000 -999.0000 -999.0000    2.6439 -999.0000 
3555.3396 -999.0000 -999.0000 -999.0000 -999.0000 -999.0000    2.6428 -999.0000 
3555.4920 -999.0000 -999.0000 -999.0000 -999.0000 -999.0000    2.6428 -999.0000 
3555.6444 -999.0000 -999.0000 -999.0000 -999.0000 -999.0000    2.6428 -999.0000 
3555.7968 -999.0000 -999.0000 -999.0000 -999.0000 -999.0000 -999.0000 -999.0000 
