~VERSION INFORMATION
 VERS.                 2.0:   CWLS LOG ASCII STANDARD - VERSION 2.0
 WRAP.                  NO:   SINGLE LINE PER DEPTH STEP
 CREA.                 04/06/2018 10:34:01
#CREATED USING DSPetro VERSION 5000.10.1.3 BY H191660 ON 04/06/2018 10:34:01
~WELL INFORMATION
#MNEM.UNIT       DATA                          DESCRIPTION MNEMONIC
#---------      ---------------------------   --------------------------
 STRT    .M         1308.9636                 : START DEPTH
 STOP    .M         3555.7968                 : STOP DEPTH
 STEP    .M         0.1524                    : STEP VALUE
 NULL    .      -999.0000                     : NULL VALUE
 DATE    .      04/06/2018                    : LAS file Creation Date
 WELL .      7321_7_1                    : Well Name
 COMP .      Neftex Exploration Insights : Company
 FLD  .                                  : Field
 UWI  .      ENOWL0000103                : Unique Well Identifier (UWI)
 LOC  .                                  : Location
 RWS  .      -999                        : Def_Rw
 WST  .      -999                        : Def_Rwt
 SRVC .                                  : Contractor
~CURVE INFORMATION
#MNEM              UNIT       API CODE   Curve Type Comments
#----------  --------------- ----------  ---------- -----------
 DEPTH      .M                         : Depth       
 CAL_INCH   .inch                      :             Caliper Log - A representation of the measured diameter of a borehole along its depth
 GR_API     .API                       : GammaRay    Gamma Ray (API) - Measures the intensity of natural gamma-ray radiation emitted from formations containing radioactive elements, such as K, Th and U
 ILD_OHMM   .ohmm                      :             Deep Induction Resistivity - Measurement made an induction log, made several feet into the formation
 DT_US_FT   .us/ft                     :             Interval Transit Time: Compressional Wave - Evaluates the time it takes for a compressional wave to traverse a fixed distance
 NPHI_RATIO .ratio                     :             Neutron Porosity - Measured with an neutron logging device calibrated to a given matrix (limestone, sandstone and dolomite)
 RHOB_G_CC  .g/cc                      :             Bulk Density - Measures the density of bulk material, including any void space or other materials contained in the subject volume
 LITH       .                          : LITH        Lithology Curve
~A  DEPTH  CAL_INCH   GR_API   ILD_OHMM  DT_US_FT NPHI_RAT~ RHOB_G_C~    LITH   
# ...
3391.0524   12.1616   55.8325   23.6016   64.0363    0.0428    2.6693   18.0000 
3391.2048   12.1616   48.2396   25.7080   62.7079    0.0428    2.6668   18.0000 
3391.3572   12.1616   44.4260   27.8143   61.3796    0.0428    2.6643   18.0000 
3391.5096   12.1897   43.3446   29.1613   60.6721    0.0470    2.6603   18.0000 
3391.6620   12.2178   40.1584   28.8306   61.3363    0.0495    2.6528   18.0000 
3391.8144   12.2993   28.1030   28.4999   62.0004    0.1329    2.6453   37.0000 
3391.9668   12.3194   29.6362   27.6421   63.4274    0.1581    2.6437   37.0000 
3392.1192   12.3394   70.8397   26.2788   65.5860    0.1766    2.6479   37.0000 
3392.2716   12.3595   72.4681   24.9154   67.7446    0.1951    2.6521   37.0000 
3392.4240   12.3653   74.1263   23.1883   68.8432    0.2026    2.6568   37.0000 
3392.5764   12.3653   75.0000   21.3120   69.5074    0.2056    2.6618   37.0000 
3392.7288   12.3653   75.1756   19.4357   70.1716    0.2086    2.6668   37.0000 
3392.8812   12.3653   75.1756   18.1672   70.0818    0.2121    2.6658   37.0000 
3393.0336   12.3653   75.1756   16.9602   69.9157    0.2156    2.6641   37.0000 
3393.1860   12.3653   75.1220   15.8726   69.7852    0.2185    2.6631   37.0000 
3393.3384   12.3653   74.5183   15.7822   69.9513    0.2170    2.6672   37.0000 
3393.4908   12.3653   73.9461   15.6917   70.1173    0.2155    2.6714   37.0000 
3393.6432   12.3653   73.4636   15.6566   70.2326    0.2157    2.6740   37.0000 
3393.7956   12.3653   72.7166   15.7470   70.2326    0.2197    2.6732   37.0000 
3393.9480   12.3653   71.6628   15.8375   70.2326    0.2237    2.6724   37.0000 
3394.1004   12.3653   71.0583   15.8367   70.0649    0.2220    2.6737   37.0000 
3394.2528   12.3653   70.5828   15.7462   69.7329    0.2175    2.6770   37.0000 
3394.4052   12.3653   70.2576   15.6557   69.4008    0.2130    2.6803   37.0000 
3394.5576   12.3512   69.2029   16.0266   68.8350    0.2050    2.6831   37.0000 
3394.7100   12.3312   68.6008   16.5919   68.1708    0.1955    2.6856   37.0000 
3394.8624   12.3111   68.1744   17.1571   67.5067    0.1860    2.6881   37.0000 
3395.0148   12.3091   67.1196   17.7741   66.9923    0.1805    2.6861   37.0000 
3395.1672   12.3091   65.9163   18.3966   66.4942    0.1755    2.6836   37.0000 
3395.3196   12.3112   54.0984   18.9671   66.0633    0.1713    2.6811   37.0000 
3395.4720   12.3312   54.0984   19.0769   66.2294    0.1738    2.6795   37.0000 
3395.6244   12.3513   61.6511   19.1866   66.3954    0.1763    2.6778   37.0000 
3395.7768   12.3653   64.0850   19.2634   66.6612    0.1803    2.6766   37.0000 
3395.9292   12.3653   65.8161   19.2634   67.1593    0.1878    2.6766   37.0000 
3396.0816   12.3653   71.1358   19.2634   67.6574    0.1953    2.6766   37.0000 
3396.2340   12.3653   71.1358   18.9477   68.0727    0.2013    2.6754   37.0000 
3396.3864   12.3653   71.1358   18.3151   68.4048    0.2058    2.6729   37.0000 
3396.5388   12.3653   70.9602   17.6825   68.7369    0.2103    2.6704   37.0000 
3396.6912   12.3653   70.4339   17.0273   69.1848    0.2124    2.6685   37.0000 
3396.8436   12.3653   68.7779   16.3625   69.6830    0.2134    2.6668   37.0000 
3396.9960   12.3653   68.3255   15.6976   70.1811    0.2144    2.6651   37.0000 
3397.1484   12.3653   71.1851   15.4705   70.6793    0.2176    2.6672   37.0000 
3397.3008   12.3653   71.3115   15.2939   71.1774    0.2211    2.6697   37.0000 
3397.4532   12.3653   71.6628   15.1020   71.5962    0.2241    2.6716   37.0000 
3397.6056   12.3653   71.6628   14.7654   71.2641    0.2221    2.6683   37.0000 
3397.7580   12.3653   71.6628   14.4287   70.9320    0.2201    2.6650   37.0000 
3397.9104   12.3653   69.4812   14.1440   70.6977    0.2178    2.6634   37.0000 
3398.0628   12.3653   69.8531   13.9836   70.6977    0.2148    2.6659   37.0000 
3398.2152   12.3653   70.4333   13.8233   70.6977    0.2118    2.6684   37.0000 
3398.3676   12.3653   70.4333   13.8616   70.4520    0.2026    2.6684   37.0000 
3398.5200   12.3653   68.7129   14.1041   69.9538    0.1871    2.6659   37.0000 
3398.6724   12.3653   67.3065   14.3466   69.4557    0.1716    2.6634   37.0000 
3398.8248   12.3653   66.0524   14.7823   68.4978    0.1641    2.6649   37.0000 
3398.9772   12.3653   65.4202   15.3039   67.3355    0.1601    2.6683   37.0000 
3399.1296   12.3653   63.4895   15.8255   66.1732    0.1560    2.6716   37.0000 
3399.2820   12.3653   59.7511   16.5760   65.7506    0.1561    2.6697   37.0000 
3399.4344   12.3653   58.7177   17.3545   65.4185    0.1566    2.6672   37.0000 
3399.5868   12.3653   72.0141   18.1427   65.1163    0.1558    2.6638   37.0000 
3399.7392   12.3653   72.0141   19.0281   65.1163    0.1417    2.6513   37.0000 
3399.8916   12.3653   55.5063   19.9136   65.1163    0.1277    2.6388   37.0000 
3400.0440   12.3654   52.5823   20.7556   64.8791    0.1148    2.6103   18.0000 
3400.1964   12.3654   49.3062   21.4906   64.0578    0.1044    2.6089   18.0000 
3400.3488   12.3654   40.9777   22.2257   63.2364    0.0940    2.6488   18.0000 
3400.5012   12.3654   38.5906   22.9948   62.3399    0.0926    2.6555   18.0000 
3400.6536   12.3654   35.9973   23.8044   61.3543    0.0867    2.6605   18.0000 
3400.8060   12.3655   32.6709   24.6139   60.3686    0.0807    2.6655   18.0000 
3400.9584   12.3530   36.3397   25.5731   60.3085    0.0791    2.6559   18.0000 
3401.1108   12.3331   36.5881   26.6218   60.8013    0.0801    2.6377   18.0000 
3401.2632   12.3133   37.0122   27.6705   61.2941    0.0811    2.6196   18.0000 
3401.4156   12.3093   37.0628   28.5412   62.0480    0.0813    2.6067   18.0000 
3401.5680   12.3094   36.9683   29.3659   62.8694    0.0813    2.5951   18.0000 
3401.7204   12.3094   36.5447   30.1907   63.6908    0.0813    2.5836   18.0000 
3401.8728   12.2724   36.0095   30.9041   63.0880    0.0789    2.5920   18.0000 
3402.0252   12.2923   34.9949   31.6134   62.4309    0.0764    2.6010   18.0000 
3402.1776   12.3067   33.1662   32.3288   61.9038    0.0763    2.6192   18.0000 
3402.3300   12.2868   32.8487   33.0852   62.2324    0.0907    2.6203   18.0000 
3402.4824   12.2670   33.7331   33.8416   62.5609    0.1050    2.6036   18.0000 
3402.6348   12.2594   39.7748   33.6350   63.2844    0.1225    2.5998   18.0000 
3402.7872   12.2793   41.2254   31.1876   64.9272    0.1467    2.5932   18.0000 
3402.9396   12.2992   42.8214   28.7401   66.5699    0.1710    2.5866   18.0000 
3403.0920   12.3191   43.7392   26.1902   67.8272    0.1884    2.5376   18.0000 
3403.2444   12.3390   62.5483   23.5244   68.6486    0.1983    2.6161   37.0000 
3403.3968   12.3589   64.2891   20.8586   69.4700    0.2082    2.6384   37.0000 
3403.5492   12.3658   65.1675   18.9896   69.6627    0.2094    2.6505   37.0000 
3403.7016   12.3658   67.1576   17.5730   69.4984    0.2060    2.6571   37.0000 
3403.8540   12.3659   68.0637   16.1565   69.3341    0.2025    2.6637   37.0000 
3404.0064   12.3659   68.1537   15.4662   69.3023    0.2027    2.6650   37.0000 
3404.1588   12.3659   68.1539   14.9502   69.3023    0.2037    2.6650   37.0000 
3404.3112   12.3659   67.8083   14.4342   69.3023    0.2047    2.6650   37.0000 
3404.4636   12.3660   67.5574   14.3421   69.4625    0.2091    2.6666   37.0000 
3404.6160   12.3660   67.2049   14.2608   69.6268    0.2136    2.6682   37.0000 
3404.7684   12.3660   67.0612   14.1684   69.7674    0.2178    2.6695   37.0000 
3404.9208   12.3660   66.9252   14.0098   69.7674    0.2208    2.6687   37.0000 
3405.0732   12.3660   66.9253   13.8511   69.7674    0.2237    2.6679   37.0000 
3405.2256   12.3661   67.1011   13.6475   69.8188    0.2247    2.6678   37.0000 
3405.3780   12.3661   67.4311   13.3451   69.9830    0.2217    2.6695   37.0000 
3405.5304   12.3661   68.3308   13.0427   70.1473    0.2188    2.6711   37.0000 
3405.6828   12.3761   68.9818   12.7827   70.3116    0.2183    2.6707   37.0000 
3405.8352   12.3960   70.1084   12.5683   70.4759    0.2203    2.6683   37.0000 
3405.9876   12.4158   70.4388   12.3539   70.6401    0.2223    2.6658   37.0000 
