~VERSION INFORMATION
 VERS.                 2.0:   CWLS LOG ASCII STANDARD - VERSION 2.0
 WRAP.                  NO:   SINGLE LINE PER DEPTH STEP
 CREA.                 04/06/2018 10:34:01
#CREATED USING DSPetro VERSION 5000.10.1.3 BY H191660 ON 04/06/2018 10:34:01
~WELL INFORMATION
#MNEM.UNIT       DATA                          DESCRIPTION MNEMONIC
#---------      ---------------------------   --------------------------
 STRT    .M         1308.9636                 : START DEPTH
 STOP    .M         3555.7968                 : STOP DEPTH
 STEP    .M         0.1524                    : STEP VALUE
 NULL    .      -999.0000                     : NULL VALUE
 DATE    .      04/06/2018                    : LAS file Creation Date
 WELL .      7321_7_1                    : Well Name
 COMP .      Neftex Exploration Insights : Company
 FLD  .                                  : Field
 UWI  .      ENOWL0000103                : Unique Well Identifier (UWI)
 LOC  .                                  : Location
 RWS  .      -999                        : Def_Rw
 WST  .      -999                        : Def_Rwt
 SRVC .                                  : Contractor
~CURVE INFORMATION
#MNEM              UNIT       API CODE   Curve Type Comments
#----------  --------------- ----------  ---------- -----------
 DEPTH      .M                         : Depth       
 CAL_INCH   .inch                      :             Caliper Log - A representation of the measured diameter of a borehole along its depth
 GR_API     .API                       : GammaRay    Gamma Ray (API) - Measures the intensity of natural gamma-ray radiation emitted from formations containing radioactive elements, such as K, Th and U
 ILD_OHMM   .ohmm                      :             Deep Induction Resistivity - Measurement made an induction log, made several feet into the formation
 DT_US_FT   .us/ft                     :             Interval Transit Time: Compressional Wave - Evaluates the time it takes for a compressional wave to traverse a fixed distance
 NPHI_RATIO .ratio                     :             Neutron Porosity - Measured with an neutron logging device calibrated to a given matrix (limestone, sandstone and dolomite)
 RHOB_G_CC  .g/cc                      :             Bulk Density - Measures the density of bulk material, including any void space or other materials contained in the subject volume
 LITH       .                          : LITH        Lithology Curve
~A  DEPTH  CAL_INCH   GR_API   ILD_OHMM  DT_US_FT NPHI_RAT~ RHOB_G_C~    LITH   
# ...
1459.8396   14.4570   71.5394    7.0635   88.8972    0.3102    2.5551   37.0000 
1459.9920   14.4173   70.7951    6.9456   89.0612    0.3165    2.5551   37.0000 
1460.1444   14.3776   66.1196    6.8276   89.2251    0.3367    2.5563   37.0000 
1460.2968   14.3758   69.8124    6.7519   90.1691    0.3433    2.5563   37.0000 
1460.4492   14.2965   69.8124    6.7138   91.8083    0.3559    2.4621   37.0000 
1460.6016   14.2171   69.5001    6.6757   93.4474    0.3640    2.4359   37.0000 
1460.7540   14.2125   68.9332    6.6639   94.4067    0.3714    2.4401   37.0000 
1460.9064   14.2521   68.7573    6.6639   95.0624    0.3736    2.2981   37.0000 
1461.0588   14.2917   70.6916    6.6639   95.7181    0.3554    2.2970   37.0000 
1461.2112   14.4560   72.4202    6.6639   95.5341    0.3583    2.3511   37.0000 
1461.3636   14.6538   74.1491    6.6639   95.2062    0.3648    2.3742   37.0000 
1461.5160   14.8515   77.0223    6.6652   94.8757    0.3659    2.3896   37.0000 
1461.6684   15.3623   77.0223    6.7420   94.3839    0.3669    2.3921   37.0000 
1461.8208   14.5155   76.6706    6.8187   93.8922    0.3679    2.3945   37.0000 
1461.9732   14.3477   74.1305    6.8960   93.4004    0.3696    2.4053   37.0000 
1462.1256   14.2683   72.7645    6.9752   92.9087    0.3738    2.4235   37.0000 
1462.2780   14.1889   71.3985    7.0545   92.4169    0.3841    2.4416   37.0000 
1462.4304   14.1367   71.1095    7.1636   92.2609    0.3838    2.4362   37.0000 
1462.5828   14.1565   71.9753    7.3300   92.7526    0.3822    2.4205   37.0000 
1462.7352   14.1764   72.8411    7.4964   93.2444    0.3538    2.4932   37.0000 
1462.8876   14.1790   72.7573    7.6230   93.6536    0.3509    2.3978   37.0000 
1463.0400   14.1591   72.1372    7.7103   93.9814    0.3515    2.3608   37.0000 
1463.1924   14.1393   71.5172    7.7976   94.3092    0.3607    2.3110   37.0000 
1463.3448   14.0514   70.5978    7.7685   93.9817    0.3630    2.3098   37.0000 
1463.4972   14.0117   69.6051    7.6812   93.3260    0.3946    2.3484   37.0000 
1463.6496   13.9720   68.6124    7.5939   92.6703    0.3967    2.4021   37.0000 
1463.8020   13.9474   69.1809    7.7261   92.4223    0.3757    2.4582   37.0000 
1463.9544   13.9276   69.7997    7.9036   92.2584    0.3638    2.4536   37.0000 
1464.1068   13.9078   70.3557    8.0810   92.0944    0.3520    2.3204   37.0000 
1464.2592   13.9062   70.4795    8.1749   92.0930    0.3494    2.2958   37.0000 
1464.4116   13.9062   70.6034    8.2680   92.0930    0.3470    2.2946   37.0000 
1464.5640   13.8251   70.9047    8.3325   92.0678    0.3452    2.3786   37.0000 
1464.7164   13.8429   71.6471    8.2393   91.9039    0.3477    2.4141   37.0000 
1464.8688   13.9273   72.3894    8.1462   91.7400    0.3502    2.4495   37.0000 
1465.0212   14.0284   74.6934    8.1120   91.4723    0.3500    2.4683   37.0000 
1465.1736   14.0680   73.4876    8.2052   90.9805    0.3441    2.4790   37.0000 
1465.3260   14.0168   71.7468    8.2983   90.4888    0.3258    2.4897   37.0000 
1465.4784   13.9273   71.3951    8.3243   90.1541    0.3252    2.4928   37.0000 
1465.6308   13.8992   71.0434    8.2774   89.9901    0.3288    2.4945   37.0000 
1465.7832   13.9273   76.0820    8.2304   89.8262    0.3568    2.4961   37.0000 
1465.9356   13.9555   79.6600    8.3370   89.7674    0.3603    2.4953   37.0000 
1466.0880   13.9555   79.6600    8.5293   89.7674    0.3615    2.4945   37.0000 
1466.2404   13.8992   78.9976    8.7217   89.7674    0.3603    2.4979   37.0000 
1466.3928   13.7915   77.1460    8.7996   90.1628    0.3386    2.4964   37.0000 
1466.5452   13.6724   76.4947    8.8497   90.6546    0.3386    2.4743   37.0000 
1466.6976   13.5897   76.4947    8.8997   91.1463    0.3386    2.4665   37.0000 
1466.8500   13.5897   78.6049    8.8530   91.1628    0.3603    2.4616   37.0000 
1467.0024   13.5897   77.3859    8.8030   91.1628    0.3582    2.4566   37.0000 
1467.1548   13.5897   76.3189    8.7468   91.0993    0.3522    2.4549   37.0000 
1467.3072   13.5897   76.6706    8.6491   90.6076    0.3421    2.4565   37.0000 
1467.4596   13.5897   78.0123    8.5513   90.1158    0.3347    2.4582   37.0000 
1467.6120   13.5897   78.7043    8.4411   89.7197    0.3305    2.4662   37.0000 
1467.7644   13.5897   79.4696    8.3003   89.5557    0.3339    2.4777   37.0000 
1467.9168   13.5897   78.9153    8.1594   89.3918    0.3374    2.4893   37.0000 
1468.0692   13.6116   78.9237    8.0416   89.3023    0.3381    2.4935   37.0000 
1468.2216   13.6178   78.5519    7.9515   89.3023    0.3357    2.5095   37.0000 
1468.3740   13.6460   78.1800    7.8613   89.3023    0.3332    2.5003   37.0000 
1468.5264   13.7867   78.2567    7.7729   89.4034    0.3316    2.4927   37.0000 
1468.6788   13.8595   78.5044    7.6856   89.5673    0.3307    2.4759   37.0000 
1468.8312   13.7686   78.7521    7.5983   89.7312    0.3297    2.4593   37.0000 
1468.9836   13.5897   77.9034    7.5131   90.1506    0.3275    2.4255   37.0000 
1469.1360   13.5897   76.9109    7.4285   90.6423    0.3250    2.4255   37.0000 
1469.2884   13.6178   75.9550    7.3440   91.1341    0.3226    2.4289   37.0000 
1469.4408   13.6460   75.7071    7.3391   90.8541    0.3262    2.4461   37.0000 
1469.5932   13.7266   75.4593    7.3391   90.5263    0.3301    2.4555   37.0000 
1469.7456   14.2239   75.2899    7.3434   90.2155    0.3349    2.4851   37.0000 
1469.8980   14.3875   75.4138    7.3854   90.0516    0.3473    2.4851   37.0000 
1470.0504   14.5182   75.5377    7.4273   89.8877    0.3596    2.4781   37.0000 
1470.2028   14.5182   75.5234    7.4580   89.6363    0.3810    2.4420   37.0000 
1470.3552   14.5463   75.2755    7.4580   89.1446    0.3801    2.4264   37.0000 
1470.5076   14.2007   75.0277    7.4580   88.6528    0.3778    2.4107   37.0000 
1470.6600   14.1408   74.3825    7.4763   88.0907    0.3649    2.3996   37.0000 
1470.8124   14.0018   73.3901    7.5190   87.4350    0.3496    2.3484   37.0000 
1470.9648   13.8629   72.3977    7.5616   86.7794    0.3343    2.3519   37.0000 
1471.1172   13.7738   71.7521    7.5538   86.6086    0.2972    2.3530   37.0000 
1471.2696   13.7341   68.7222    7.5111   86.7725    0.2986    2.3601   37.0000 
1471.4220   13.6945   68.5983    7.4685   86.9365    0.2995    2.4617   37.0000 
1471.5744   13.6680   70.1143    7.4902   87.3476    0.3193    2.4640   37.0000 
1471.7268   13.6481   73.1950    7.5328   87.8394    0.3282    2.4640   37.0000 
1471.8792   13.6283   71.7365    7.5754   88.3311    0.3371    2.4620   37.0000 
1472.0316   13.6085   71.2406    7.7417   88.8229    0.3419    2.3469   37.0000 
1472.1840   13.5887   70.7448    7.9192   89.3147    0.3464    2.3213   37.0000 
1472.3364   13.5688   70.2945    8.0899   89.7804    0.3508    2.3151   37.0000 
1472.4888   13.4927   70.0467    8.1831   89.9444    0.3553    2.2917   37.0000 
1472.6412   13.4729   69.7988    8.2762   90.1083    0.3597    2.3237   37.0000 
1472.7936   13.4560   69.7649    8.3700   90.4307    0.3625    2.3390   37.0000 
1472.9460   13.4560   70.1363    8.4662   91.2503    0.3708    2.3676   37.0000 
1473.0984   13.4560   70.5078    8.5624   92.0699    0.3692    2.3986   37.0000 
1473.2508   13.4683   70.5040    8.5618   92.7569    0.3680    2.3998   37.0000 
1473.4032   13.5080   70.1322    8.4187   93.2487    0.3505    2.3998   37.0000 
1473.5556   13.5476   69.7604    8.2756   93.7405    0.3466    2.3898   37.0000 
1473.7080   13.5779   69.6366    8.0569   93.5819    0.3437    2.3284   37.0000 
1473.8604   13.5977   69.6366    7.8451   92.9262    0.3418    2.2689   37.0000 
1474.0128   13.6176   69.6366    7.6023   92.2705    0.3398    2.2701   37.0000 
1474.1652   13.6249   70.9673    7.4400   92.2126    0.3393    2.2946   37.0000 
1474.3176   13.6249   72.5746    7.2657   92.3765    0.3393    2.3089   37.0000 
1474.4700   13.6249   74.1819    7.1785   92.5404    0.3393    2.3210   37.0000 
1474.6224   13.6249   73.1109    7.2657   93.4353    0.3463    2.3349   37.0000 
1474.7748   13.6249   71.9945    7.3243   94.4188    0.3542    2.3332   37.0000 
