~VERSION INFORMATION
 VERS.                 2.0:   CWLS LOG ASCII STANDARD - VERSION 2.0
 WRAP.                  NO:   SINGLE LINE PER DEPTH STEP
 CREA.                 04/06/2018 10:34:01
#CREATED USING DSPetro VERSION 5000.10.1.3 BY H191660 ON 04/06/2018 10:34:01
~WELL INFORMATION
#MNEM.UNIT       DATA                          DESCRIPTION MNEMONIC
#---------      ---------------------------   --------------------------
 STRT    .M         1308.9636                 : START DEPTH
 STOP    .M         3555.7968                 : STOP DEPTH
 STEP    .M         0.1524                    : STEP VALUE
 NULL    .      -999.0000                     : NULL VALUE
 DATE    .      04/06/2018                    : LAS file Creation Date
 WELL .      7321_7_1                    : Well Name
 COMP .      Neftex Exploration Insights : Company
 FLD  .                                  : Field
 UWI  .      ENOWL0000103                : Unique Well Identifier (UWI)
 LOC  .                                  : Location
 RWS  .      -999                        : Def_Rw
 WST  .      -999                        : Def_Rwt
 SRVC .                                  : Contractor
~CURVE INFORMATION
#MNEM              UNIT       API CODE   Curve Type Comments
#----------  --------------- ----------  ---------- -----------
 DEPTH      .M                         : Depth       
 CAL_INCH   .inch                      :             Caliper Log - A representation of the measured diameter of a borehole along its depth
 GR_API     .API                       : GammaRay    Gamma Ray (API) - Measures the intensity of natural gamma-ray radiation emitted from formations containing radioactive elements, such as K, Th and U
 ILD_OHMM   .ohmm                      :             Deep Induction Resistivity - Measurement made an induction log, made several feet into the formation
 DT_US_FT   .us/ft                     :             Interval Transit Time: Compressional Wave - Evaluates the time it takes for a compressional wave to traverse a fixed distance
 NPHI_RATIO .ratio                     :             Neutron Porosity - Measured with an neutron logging device calibrated to a given matrix (limestone, sandstone and dolomite)
 RHOB_G_CC  .g/cc                      :             Bulk Density - Measures the density of bulk material, including any void space or other materials contained in the subject volume
 LITH       .                          : LITH        Lithology Curve
~A  DEPTH  CAL_INCH   GR_API   ILD_OHMM  DT_US_FT NPHI_RAT~ RHOB_G_C~    LITH   
# ...
2953.5120   12.4450   84.6604    8.1343   71.4776    0.1603    2.6393   37.0000 
2953.6644   12.4350   70.8655    8.5212   70.1591    0.1524    2.6343   37.0000 
2953.8168   12.4251   58.8408    8.9082   68.8407    0.1444    2.6293   22.0000 
2953.9692   12.4087   58.8408    9.3675   68.1596    0.1496    2.6270   22.0000 
2954.1216   12.3888   58.8408    9.8667   67.8300    0.1620    2.6262   22.0000 
2954.2740   12.3689   64.6149   10.3659   67.5004    0.1744    2.6254   37.0000 
2954.4264   12.3653   67.1960   10.7097   67.8484    0.1840    2.6259   37.0000 
2954.5788   12.3653   70.3078   11.0199   68.3429    0.1929    2.6267   37.0000 
2954.7312   12.3653   73.4194   11.3300   68.8373    0.2019    2.6276   37.0000 
2954.8836   12.3853   75.0375   11.0799   69.1669    0.2029    2.6284   37.0000 
2955.0360   12.4052   76.6557   10.8297   69.4965    0.2039    2.6292   37.0000 
2955.1884   12.4251   77.9417   10.5625   69.7968    0.2041    2.6321   37.0000 
2955.3408   12.4450   77.6927   10.2162   69.9616    0.2012    2.6445   37.0000 
2955.4932   12.4649   77.4438    9.8699   70.1264    0.1982    2.6570   37.0000 
2955.6456   12.4848   77.9031    9.5000   70.2912    0.1956    2.6658   37.0000 
2955.7980   12.5048   79.6458    9.0873   70.4560    0.1936    2.6683   37.0000 
2955.9504   12.5247   81.3884    8.6747   70.6208    0.1916    2.6708   37.0000 
2956.1028   12.5393   81.0727    8.4066   70.7856    0.1883    2.6693   37.0000 
2956.2552   12.5492   78.9566    8.2650   70.9504    0.1838    2.6644   37.0000 
2956.4076   12.5592   76.8406    8.1235   71.1152    0.1793    2.6594   37.0000 
2956.5600   12.5691   74.1049    8.1833   70.6940    0.1741    2.6579   37.0000 
2956.7124   12.5791   64.8127    8.3248   70.0347    0.1667    2.6579   37.0000 
2956.8648   12.5891   65.3396    8.4664   69.3755    0.1592    2.6579   37.0000 
2957.0172   12.6079   65.3396    8.6596   68.8628    0.1619    2.6609   37.0000 
2957.1696   12.6278   65.6909    8.8594   68.3684    0.1659    2.6642   37.0000 
2957.3220   12.6484   69.7378    9.0492   67.9620    0.1699    2.6676   37.0000 
2957.4744   12.6782   72.4762    9.1012   68.7860    0.1739    2.6717   37.0000 
2957.6268   12.7081   75.2146    9.1531   69.6100    0.1778    2.6758   37.0000 
2957.7792   12.7380   77.8312    9.1549   70.3132    0.1800    2.6788   37.0000 
2957.9316   12.7679   80.0717    9.0014   70.6428    0.1765    2.6779   37.0000 
2958.0840   12.7977   82.3122    8.8480   70.9724    0.1730    2.6771   37.0000 
2958.2364   12.8318   83.6591    8.6777   71.0932    0.1717    2.6742   37.0000 
2958.3888   12.8716   83.7836    8.4843   70.9284    0.1732    2.6684   37.0000 
2958.5412   12.9115   83.9081    8.2910   70.7636    0.1746    2.6626   37.0000 
2958.6936   12.9633   84.4060    8.1858   70.6977    0.1767    2.6573   37.0000 
2958.8460   13.0230   85.1528    8.1393   70.6977    0.1792    2.6523   37.0000 
2958.9984   13.0828   85.8997    8.0929   70.6977    0.1817    2.6474   37.0000 
2959.1508   13.0960   83.8388    8.1927   70.5695    0.1792    2.6443   37.0000 
2959.3032   13.0960   80.9759    8.3343   70.4047    0.1752    2.6419   37.0000 
2959.4556   13.0960   78.1130    8.4758   70.2399    0.1712    2.6394   37.0000 
2959.6080   13.0960   73.9418    8.6730   69.7601    0.1658    2.6393   37.0000 
2959.7604   13.0960   64.0146    8.8727   69.2657    0.1603    2.6393   37.0000 
2959.9128   13.0907   62.3536    9.0669   68.7933    0.1550    2.6389   37.0000 
2960.0652   13.0509   62.1406    9.2253   68.4636    0.1505    2.6364   37.0000 
2960.2176   13.0110   61.8184    9.3837   68.1340    0.1461    2.6340   37.0000 
2960.3700   12.9712   61.3980    9.5271   67.8557    0.1442    2.6338   37.0000 
2960.5224   12.9314   61.2998    9.6370   67.6909    0.1482    2.6388   37.0000 
2960.6748   12.8916   63.6496    9.7470   67.5261    0.1522    2.6437   37.0000 
2960.8272   12.8615   65.5969    9.7494   67.5224    0.1557    2.6479   37.0000 
2960.9796   12.8415   70.3751    9.6395   67.6872    0.1586    2.6512   37.0000 
2961.1320   12.8216   69.6380    9.5295   67.8521    0.1616    2.6545   37.0000 
2961.2844   12.7884   68.5302    9.4571   68.1267    0.1626    2.6529   37.0000 
2961.4368   12.7486   68.0074    9.4034   68.4563    0.1626    2.6487   37.0000 
2961.5892   12.7088   66.2952    9.3498   68.7859    0.1626    2.6446   37.0000 
2961.7416   12.6689   65.0602    9.3867   68.5589    0.1601    2.6397   37.0000 
2961.8940   12.6291   64.0976    9.4404   68.2293    0.1571    2.6348   37.0000 
2962.0464   12.5897   62.1614    9.4941   67.9070    0.1542    2.6300   37.0000 
2962.1988   12.5698   61.5722    9.5486   67.9070    0.1557    2.6333   37.0000 
2962.3512   12.5499   75.4799    9.6032   67.9070    0.1572    2.6366   37.0000 
2962.5036   12.5379   75.8782    9.6579   67.9399    0.1588    2.6407   37.0000 
2962.6560   12.5579   75.5795    9.7133   68.1047    0.1608    2.6482   37.0000 
2962.8084   12.5778   75.3098    9.7687   68.2696    0.1628    2.6556   37.0000 
2962.9608   12.5826   74.6487    9.8245   68.3098    0.1624    2.6581   37.0000 
2963.1132   12.5627   73.2768    9.8808   68.1450    0.1619    2.6523   37.0000 
2963.2656   12.5428   71.0058    9.9371   67.9802    0.1614    2.6465   37.0000 
2963.4180   12.5229   69.8427    9.9621   67.8154    0.1629    2.6393   37.0000 
2963.5704   12.5030   67.9701    9.9621   67.6506    0.1659    2.6311   37.0000 
2963.7228   12.4831   67.0960    9.9621   67.4858    0.1688    2.6228   37.0000 
2963.8752   12.5070   65.6563   10.0041   67.4419    0.1689    2.6236   37.0000 
2964.0276   12.5468   63.7588   10.0613   67.4419    0.1679    2.6277   37.0000 
2964.1800   12.5866   63.7588   10.1186   67.4419    0.1669    2.6319   37.0000 
2964.3324   12.6265   63.7588   10.1766   67.5920    0.1637    2.6353   37.0000 
2964.4848   12.6663   63.7588   10.2348   67.7568    0.1602    2.6386   37.0000 
2964.6372   12.7008   63.7588   10.2826   67.9070    0.1569    2.6412   37.0000 
2964.7896   12.6809   63.7588   10.2245   67.9070    0.1554    2.6371   37.0000 
2964.9420   12.6610   64.9883   10.1663   67.9070    0.1539    2.6329   37.0000 
2965.0944   12.6464   65.5331   10.0786   67.9070    0.1540    2.6321   37.0000 
2965.2468   12.6464   68.8939    9.9096   67.9070    0.1585    2.6404   37.0000 
2965.3992   12.6464   72.2546    9.7407   67.9070    0.1629    2.6487   37.0000 
2965.5516   12.6419   75.1175    9.5987   67.9070    0.1643    2.6551   37.0000 
2965.7040   12.6320   84.1252    9.4905   67.9070    0.1618    2.6593   37.0000 
2965.8564   12.6220   83.7006    9.3823   67.9070    0.1594    2.6634   37.0000 
2966.0088   12.6121   78.4314    9.4087   67.8044    0.1559    2.6608   37.0000 
2966.1612   12.6021   75.1951    9.5169   67.6396    0.1520    2.6542   37.0000 
2966.3136   12.5922   71.9589    9.6251   67.4748    0.1480    2.6476   37.0000 
2966.4660   12.5583   70.0170    9.8758   67.3100    0.1440    2.6423   37.0000 
2966.6184   12.5185   68.3989   10.1620   67.1452    0.1400    2.6373   37.0000 
2966.7708   12.4786   66.7808   10.4482   66.9804    0.1361    2.6324   37.0000 
2966.9232   12.4388   63.5805   10.8215   66.6545    0.1292    2.6250   22.0000 
2967.0756   12.3990   60.3443   11.1968   66.3249    0.1222    2.6175   22.0000 
2967.2280   12.3653   57.1467   11.5780   65.9953    0.1171    2.6124   22.0000 
2967.3804   12.3653   54.1594   11.9913   65.6657    0.1215    2.6198   22.0000 
2967.5328   12.3653   51.1721   12.4046   65.3360    0.1260    2.6273   22.0000 
2967.6852   12.3653   49.5122   12.8319   65.1163    0.1293    2.6336   22.0000 
2967.8376   12.3653   50.5080   13.2871   65.1163    0.1303    2.6378   22.0000 
2967.9900   12.3653   51.5038   13.7422   65.1163    0.1313    2.6419   22.0000 
2968.1424   12.3653   52.2451   14.0058   65.2005    0.1320    2.6427   22.0000 
2968.2948   12.3653   52.7430   14.0860   65.3653    0.1325    2.6402   37.0000 
2968.4472   12.3653   53.2409   14.1663   65.5301    0.1330    2.6377   37.0000 
