~VERSION INFORMATION
 VERS.                 2.0:   CWLS LOG ASCII STANDARD - VERSION 2.0
 WRAP.                  NO:   SINGLE LINE PER DEPTH STEP
 CREA.                 01/02/2018 09:42:10
#CREATED USING DSPetro VERSION 5000.10.1.3 BY H191660 ON 01/02/2018 09:42:10
~WELL INFORMATION
#MNEM.UNIT       DATA                          DESCRIPTION MNEMONIC
#---------      ---------------------------   --------------------------
 STRT    .M         0.0000                    : START DEPTH
 STOP    .M         2934.9192                 : STOP DEPTH
 STEP    .M         0.1524                    : STEP VALUE
 NULL    .      -999.0000                     : NULL VALUE
 DATE    .      01/02/2018                    : LAS file Creation Date
 WELL .      1267-Charm-1                : Well Name
 COMP .      Neftex Exploration Insights : Company
 FLD  .                                  : Field
 UWI  .      ZAUWL_006843                : Unique Well Identifier (UWI)
 LOC  .                                  : Location
 RWS  .      -999                        : Def_Rw
 WST  .      -999                        : Def_Rwt
 SRVC .                                  : Contractor
~CURVE INFORMATION
#MNEM              UNIT       API CODE   Curve Type Comments
#----------  --------------- ----------  ---------- -----------
 DEPTH      .M                         : Depth       
 GR2_API    .API                       : gammaRay    Gamma Ray (API) - Measures the intensity of natural gamma-ray radiation emitted from formations containing radioactive elements, such as K, Th and U
 RHOB_G_CC  .g/cc                      : density     Bulk Density - Measures the density of bulk material, including any void space or other materials contained in the subject volume
 DRHO_G_CC  .g/cc                      : drho        Density Correction - Investigates the correction to the Bulk Density log; used as an indication of hole condition to validate the Bulk Density measure
 NPHI_v/v   .usl                       : neutron     Neutron Porosity - Measured with an neutron logging device calibrated to a given matrix (limestone, sandstone and dolomite) - unscaled
 PEF_B_E    .b/e-                      : PEF         Photoelectric Factor - A log of photoelectric absorption properties. Often expressed in an approximation unit barns/electron (b/e-)
 LITH       .                          : LITH        Lithology Curve
 LITH_v2    .                          : LITH        Lithology Curve
~A  DEPTH  GR2_API  RHOB_G_C  DRHO_G_C   NPHI_v/v  PEF_B_E     LITH    LITH_v2  
# ...
1719.9864  169.6013    2.4411    0.0612    0.2838    3.7066   37.0000   37.0000 
1720.1388  163.5419    2.4358    0.0634    0.2914    3.7127   37.0000   37.0000 
1720.2912  162.8398    2.4346    0.0644    0.2889    3.6792   37.0000   37.0000 
1720.4436  164.8109    2.4436    0.0700    0.2728    3.6110   37.0000   37.0000 
1720.5960  166.7483    2.4560    0.0679    0.2834    3.6977   37.0000   37.0000 
1720.7484  168.3039    2.4646    0.0675    0.2812    3.7324   37.0000   37.0000 
1720.9008  168.7575    2.4629    0.0634    0.2655    3.7653   37.0000   37.0000 
1721.0532  167.8008    2.4658    0.0675    0.2780    3.6286   37.0000   37.0000 
1721.2056  167.8008    2.4658    0.0675    0.2780    3.6286   37.0000   37.0000 
1721.3580  171.2452    2.4606    0.0669    0.2914    3.6534   37.0000   37.0000 
1721.5104  171.2452    2.4606    0.0669    0.2914    3.6534   37.0000   37.0000 
1721.6628  170.2722    2.4555    0.0724    0.2862    3.7055   37.0000   37.0000 
1721.8152  170.2722    2.4555    0.0724    0.2862    3.7055   37.0000   37.0000 
1721.9676  162.8058    2.4589    0.0763    0.2670    3.6435   37.0000   37.0000 
1722.1200  162.8058    2.4589    0.0763    0.2670    3.6435   37.0000   37.0000 
1722.2724  172.1662    2.4638    0.0682    0.2951    3.6087   37.0000   37.0000 
1722.4248  174.6035    2.4724    0.0721    0.2766    3.6319   37.0000   37.0000 
1722.5772  172.2495    2.4830    0.0729    0.2752    3.7118   37.0000   37.0000 
1722.7296  166.6682    2.4881    0.0735    0.2856    3.7572   37.0000   37.0000 
1722.8820  170.2223    2.4817    0.0707    0.2853    3.7508   37.0000   37.0000 
1723.0344  174.6136    2.4856    0.0795    0.2657    3.6959   37.0000   37.0000 
1723.1868  176.7465    2.4841    0.0803    0.2868    3.7529   37.0000   37.0000 
1723.3392  174.7966    2.4992    0.0924    0.2724    3.7606   37.0000   37.0000 
1723.4916  173.3355    2.4977    0.0903    0.2749    3.9608   37.0000   37.0000 
1723.6440  174.5895    2.5000    0.0924    0.2714    3.9037   37.0000   37.0000 
1723.7964  177.8997    2.4790    0.0782    0.2912    3.9102   37.0000   37.0000 
1723.9488  180.0762    2.4656    0.0756    0.2895    3.6247   37.0000   37.0000 
1724.1012  181.8706    2.4580    0.0750    0.2875    3.7303   37.0000   37.0000 
1724.2536  176.7747    2.4510    0.0634    0.3013    3.7653   37.0000   37.0000 
1724.4060  176.7747    2.4510    0.0634    0.3013    3.7653   37.0000   37.0000 
1724.5584  174.7486    2.4789    0.0749    0.2813    3.7661   37.0000   37.0000 
1724.7108  174.7486    2.4789    0.0749    0.2813    3.7661   37.0000   37.0000 
1724.8632  175.1105    2.4833    0.0785    0.3196    3.8654   37.0000   37.0000 
1725.0156  175.1105    2.4833    0.0785    0.3196    3.8654   37.0000   37.0000 
1725.1680  171.8241    2.4985    0.0858    0.3181    3.8868   37.0000   37.0000 
1725.3204  171.8241    2.4985    0.0858    0.3181    3.8868   37.0000   37.0000 
1725.4728  176.7745    2.4866    0.0939    0.3058    3.8303   37.0000   37.0000 
1725.6252  177.8845    2.4754    0.0876    0.3002    3.7885   37.0000   37.0000 
1725.7776  178.7027    2.4720    0.0833    0.2822    3.6863   37.0000   37.0000 
1725.9300  181.3222    2.4691    0.0756    0.3053    3.5991   37.0000   37.0000 
1726.0824  181.7958    2.4765    0.0752    0.2861    3.6045   37.0000   37.0000 
1726.2348  182.0220    2.4835    0.0723    0.2619    3.7313   37.0000   37.0000 
1726.3872  177.3395    2.4849    0.0635    0.2785    3.7341   37.0000   37.0000 
1726.5396  181.3847    2.4856    0.0579    0.3014    3.7118   37.0000   37.0000 
1726.6920  184.4822    2.4802    0.0584    0.2899    3.5596   37.0000   37.0000 
1726.8444  192.1429    2.4787    0.0677    0.2766    3.6402   37.0000   37.0000 
1726.9968  194.7607    2.4762    0.0772    0.2450    3.6633   37.0000   37.0000 
1727.1492  191.3872    2.4816    0.0824    0.2757    3.7213   37.0000   37.0000 
1727.3016  191.3872    2.4816    0.0824    0.2757    3.7213   37.0000   37.0000 
1727.4540  182.7996    2.4819    0.0817    0.2512    3.6054   37.0000   37.0000 
1727.6064  182.7996    2.4819    0.0817    0.2512    3.6054   37.0000   37.0000 
1727.7588  182.1507    2.4750    0.0829    0.2880    3.6627   37.0000   37.0000 
1727.9112  182.1507    2.4750    0.0829    0.2880    3.6627   37.0000   37.0000 
1728.0636  179.0328    2.4633    0.0746    0.2967    3.6680   37.0000   37.0000 
1728.2160  179.0328    2.4633    0.0746    0.2967    3.6680   37.0000   37.0000 
1728.3684  176.7579    2.4912    0.0723    0.3223    3.9767   37.0000   37.0000 
1728.5208  176.7579    2.4912    0.0723    0.3223    3.9767   37.0000   37.0000 
1728.6732  183.5043    2.4791    0.0776    0.3298    3.8232   37.0000   37.0000 
1728.8256  187.0467    2.4608    0.0755    0.3700    3.7378   37.0000   37.0000 
1728.9780  184.5918    2.4550    0.0658    0.3227    3.6762   37.0000   37.0000 
1729.1304  184.2558    2.4503    0.0623    0.3216    3.7030   37.0000   37.0000 
1729.2828  184.5859    2.4595    0.0709    0.3371    3.6954   37.0000   37.0000 
1729.4352  187.8864    2.4591    0.0747    0.3450    3.8044   37.0000   37.0000 
1729.5876  189.4603    2.4678    0.0750    0.3314    3.8060   37.0000   37.0000 
1729.7400  185.0034    2.4584    0.0629    0.3483    3.7990   37.0000   37.0000 
1729.8924  184.6153    2.4593    0.0608    0.3639    3.6247   37.0000   37.0000 
1730.0448  181.7640    2.4469    0.0562    0.3892    3.6082   37.0000   37.0000 
1730.1972  185.5319    2.4522    0.0618    0.3280    3.5196   37.0000   37.0000 
1730.3496  182.0639    2.4624    0.0728    0.3890    3.6318   37.0000   37.0000 
1730.5020  182.0639    2.4624    0.0728    0.3890    3.6318   37.0000   37.0000 
1730.6544  188.9953    2.4642    0.0807    0.3796    3.7266   37.0000   37.0000 
1730.8068  188.9953    2.4642    0.0807    0.3796    3.7266   37.0000   37.0000 
1730.9592  185.8552    2.4652    0.0663    0.3411    3.7973   37.0000   37.0000 
1731.1116  185.8552    2.4652    0.0663    0.3411    3.7973   37.0000   37.0000 
1731.2640  190.2989    2.4553    0.0593    0.3349    3.7430   37.0000   37.0000 
1731.4164  190.2989    2.4553    0.0593    0.3349    3.7430   37.0000   37.0000 
1731.5688  187.5765    2.4655    0.0610    0.3370    4.2015   37.0000   37.0000 
1731.7212  187.5765    2.4655    0.0610    0.3370    4.2015   37.0000   37.0000 
1731.8736  171.8401    2.5012    0.0660    0.3179    4.3202   37.0000   37.0000 
1732.0260  175.2223    2.4858    0.0727    0.3200    3.8498   37.0000   37.0000 
1732.1784  178.8952    2.4685    0.0730    0.3433    3.7495   37.0000   37.0000 
1732.3308  180.7865    2.4666    0.0645    0.3270    3.7187   37.0000   37.0000 
1732.4832  182.6736    2.4801    0.0707    0.3440    3.7870   37.0000   37.0000 
1732.6356  180.9807    2.4793    0.0690    0.3340    3.8289   37.0000   37.0000 
1732.7880  180.5255    2.4712    0.0706    0.3221    3.8065   37.0000   37.0000 
1732.9404  182.6331    2.4562    0.0721    0.3612    3.6658   37.0000   37.0000 
1733.0928  185.0913    2.4491    0.0726    0.3575    3.7360   37.0000   37.0000 
1733.2452  181.9014    2.4529    0.0729    0.3305    3.8460   37.0000   37.0000 
1733.3976  179.1566    2.4522    0.0694    0.3687    3.8605   37.0000   37.0000 
1733.5500  178.4246    2.4491    0.0702    0.3673    3.7382   37.0000   37.0000 
1733.7024  178.4246    2.4491    0.0702    0.3673    3.7382   37.0000   37.0000 
1733.8548  184.0718    2.4287    0.0576    0.3760    3.5574   37.0000   37.0000 
1734.0072  184.0718    2.4287    0.0576    0.3760    3.5574   37.0000   37.0000 
1734.1596  180.1281    2.4251    0.0463    0.3529    3.5750   37.0000   37.0000 
1734.3120  180.1281    2.4251    0.0463    0.3529    3.5750   37.0000   37.0000 
1734.4644  180.5441    2.4387    0.0513    0.3320    3.6989   37.0000   37.0000 
1734.6168  180.5441    2.4387    0.0513    0.3320    3.6989   37.0000   37.0000 
1734.7692  185.8480    2.4422    0.0709    0.3555    3.7674   37.0000   37.0000 
1734.9216  185.8480    2.4422    0.0709    0.3555    3.7674   37.0000   37.0000 
