~VERSION INFORMATION
 VERS.                 2.0:   CWLS LOG ASCII STANDARD - VERSION 2.0
 WRAP.                  NO:   SINGLE LINE PER DEPTH STEP
 CREA.                 01/02/2018 09:42:10
#CREATED USING DSPetro VERSION 5000.10.1.3 BY H191660 ON 01/02/2018 09:42:10
~WELL INFORMATION
#MNEM.UNIT       DATA                          DESCRIPTION MNEMONIC
#---------      ---------------------------   --------------------------
 STRT    .M         0.0000                    : START DEPTH
 STOP    .M         2934.9192                 : STOP DEPTH
 STEP    .M         0.1524                    : STEP VALUE
 NULL    .      -999.0000                     : NULL VALUE
 DATE    .      01/02/2018                    : LAS file Creation Date
 WELL .      1267-Charm-1                : Well Name
 COMP .      Neftex Exploration Insights : Company
 FLD  .                                  : Field
 UWI  .      ZAUWL_006843                : Unique Well Identifier (UWI)
 LOC  .                                  : Location
 RWS  .      -999                        : Def_Rw
 WST  .      -999                        : Def_Rwt
 SRVC .                                  : Contractor
~CURVE INFORMATION
#MNEM              UNIT       API CODE   Curve Type Comments
#----------  --------------- ----------  ---------- -----------
 DEPTH      .M                         : Depth       
 GR2_API    .API                       : gammaRay    Gamma Ray (API) - Measures the intensity of natural gamma-ray radiation emitted from formations containing radioactive elements, such as K, Th and U
 RHOB_G_CC  .g/cc                      : density     Bulk Density - Measures the density of bulk material, including any void space or other materials contained in the subject volume
 DRHO_G_CC  .g/cc                      : drho        Density Correction - Investigates the correction to the Bulk Density log; used as an indication of hole condition to validate the Bulk Density measure
 NPHI_v/v   .usl                       : neutron     Neutron Porosity - Measured with an neutron logging device calibrated to a given matrix (limestone, sandstone and dolomite) - unscaled
 PEF_B_E    .b/e-                      : PEF         Photoelectric Factor - A log of photoelectric absorption properties. Often expressed in an approximation unit barns/electron (b/e-)
 LITH       .                          : LITH        Lithology Curve
 LITH_v2    .                          : LITH        Lithology Curve
~A  DEPTH  GR2_API  RHOB_G_C  DRHO_G_C   NPHI_v/v  PEF_B_E     LITH    LITH_v2  
# ...
1312.6212  144.4249    2.3273    0.0895    0.4455    3.9049   37.0000   37.0000 
1312.7736  145.0180    2.3181    0.0818    0.4385    3.7913   37.0000   37.0000 
1312.9260  146.9849    2.3457    0.0882    0.4445    3.8144   37.0000   37.0000 
1313.0784  143.5563    2.3655    0.0734    0.3935    4.3147   37.0000   37.0000 
1313.2308  143.9043    2.3945    0.0843    0.4432    4.3918   37.0000   37.0000 
1313.3832  145.9738    2.3653    0.0751    0.4501    4.3115   37.0000   37.0000 
1313.5356  149.7663    2.3412    0.0893    0.4411    3.8585   37.0000   37.0000 
1313.6880  149.1709    2.3155    0.0792    0.4661    3.7737   37.0000   37.0000 
1313.8404  150.6306    2.3146    0.0774    0.4543    3.7859   37.0000   37.0000 
1313.9928  152.3377    2.3241    0.0805    0.5007    3.8214   37.0000   37.0000 
1314.1452  153.5569    2.3301    0.0838    0.4748    3.8184   37.0000   37.0000 
1314.2976  154.8176    2.3261    0.0795    0.4680    3.8000   37.0000   37.0000 
1314.4500  152.0319    2.3246    0.0748    0.4161    3.7664   37.0000   37.0000 
1314.6024  152.0319    2.3246    0.0748    0.4161    3.7664   37.0000   37.0000 
1314.7548  148.5750    2.3386    0.0761    0.4436    3.7736   37.0000   37.0000 
1314.9072  148.5750    2.3386    0.0761    0.4436    3.7736   37.0000   37.0000 
1315.0596  135.6196    2.4276    0.0618    0.4128    4.6171   37.0000   37.0000 
1315.2120  135.6196    2.4276    0.0618    0.4128    4.6171   37.0000   37.0000 
1315.3644  141.8241    2.3946    0.0730    0.4400    4.3341   37.0000   37.0000 
1315.5168  141.8241    2.3946    0.0730    0.4400    4.3341   37.0000   37.0000 
1315.6692  150.0411    2.3555    0.0897    0.4973    3.9773   37.0000   37.0000 
1315.8216  150.0411    2.3555    0.0897    0.4973    3.9773   37.0000   37.0000 
1315.9740  148.1008    2.3616    0.0986    0.4301    3.8938   37.0000   37.0000 
1316.1264  146.7044    2.3664    0.0957    0.4084    4.0205   37.0000   37.0000 
1316.2788  147.0726    2.3698    0.0969    0.4067    4.0718   37.0000   37.0000 
1316.4312  149.3733    2.3532    0.0898    0.4423    3.9824   37.0000   37.0000 
1316.5836  152.2545    2.3359    0.0887    0.4078    3.8113   37.0000   37.0000 
1316.7360  152.7080    2.3301    0.0871    0.4556    3.7244   37.0000   37.0000 
1316.8884  150.2540    2.3253    0.0819    0.4086    3.7759   37.0000   37.0000 
1317.0408  148.5652    2.3188    0.0726    0.4426    3.7574   37.0000   37.0000 
1317.1932  149.3111    2.3090    0.0618    0.4635    3.6685   37.0000   37.0000 
1317.3456  151.8905    2.3075    0.0597    0.4518    3.6476   37.0000   37.0000 
1317.4980  153.3904    2.3078    0.0573    0.4386    3.5958   37.0000   37.0000 
1317.6504  152.7011    2.3080    0.0573    0.4229    3.6428   37.0000   37.0000 
1317.8028  152.7011    2.3080    0.0573    0.4229    3.6428   37.0000   37.0000 
1317.9552  148.4634    2.3129    0.0593    0.4291    3.6163   37.0000   37.0000 
1318.1076  148.4634    2.3129    0.0593    0.4291    3.6163   37.0000   37.0000 
1318.2600  150.7977    2.3063    0.0627    0.4273    3.6055   37.0000   37.0000 
1318.4124  150.7977    2.3063    0.0627    0.4273    3.6055   37.0000   37.0000 
1318.5648  143.8169    2.3350    0.0898    0.4413    3.8302   37.0000   37.0000 
1318.7172  143.8169    2.3350    0.0898    0.4413    3.8302   37.0000   37.0000 
1318.8696  145.1361    2.3370    0.0988    0.4638    3.7548   37.0000   37.0000 
1319.0220  145.1361    2.3370    0.0988    0.4638    3.7548   37.0000   37.0000 
1319.1744  135.3621    2.3519    0.0810    0.3538    4.2664   37.0000   37.0000 
1319.3268  128.5479    2.3993    0.0817    0.3980    4.6164   37.0000   37.0000 
1319.4792  124.1948    2.4085    0.0819    0.4510    4.9334   37.0000   37.0000 
1319.6316  122.9658    2.4188    0.1061    0.4444    4.5264   37.0000   37.0000 
1319.7840  125.1025    2.3785    0.1093    0.4757    4.2972   37.0000   37.0000 
1319.9364  130.2727    2.3429    0.1064    0.4543    4.0840   37.0000   37.0000 
1320.0888  137.0760    2.3319    0.1086    0.4362    4.0251   37.0000   37.0000 
1320.2412  134.9291    2.3329    0.1026    0.4414    4.1182   37.0000   37.0000 
1320.3936  131.9490    2.3559    0.1039    0.3819    4.4459   37.0000   37.0000 
1320.5460  132.8790    2.3678    0.1036    0.4475    4.4076   37.0000   37.0000 
1320.6984  138.2747    2.3578    0.1020    0.4202    4.2047   37.0000   37.0000 
1320.8508  141.6598    2.3305    0.0961    0.4292    3.8051   37.0000   37.0000 
1321.0032  141.6598    2.3305    0.0961    0.4292    3.8051   37.0000   37.0000 
1321.1556  148.2771    2.2902    0.0703    0.4316    3.5942   37.0000   37.0000 
1321.3080  148.2771    2.2902    0.0703    0.4316    3.5942   37.0000   37.0000 
1321.4604  141.3050    2.2990    0.0576    0.4134    3.5468   37.0000   37.0000 
1321.6128  141.3050    2.2990    0.0576    0.4134    3.5468   37.0000   37.0000 
1321.7652  123.8515    2.3728    0.0495    0.4051    4.4472   37.0000   37.0000 
1321.9176  123.8515    2.3728    0.0495    0.4051    4.4472   37.0000   37.0000 
1322.0700  126.4960    2.4259    0.0728    0.4514    5.0352   37.0000   37.0000 
1322.2224  126.4960    2.4259    0.0728    0.4514    5.0352   37.0000   37.0000 
1322.3748  133.5597    2.3425    0.1036    0.4379    3.9295   37.0000   37.0000 
1322.5272  123.9323    2.3776    0.0936    0.4127    4.3354   37.0000   37.0000 
1322.6796  111.0703    2.4607    0.0873    0.3910    5.2718   37.0000   37.0000 
1322.8320  109.0633    2.5067    0.0935    0.4220    5.7246   37.0000   37.0000 
1322.9844  117.1251    2.4283    0.0860    0.4282    5.1387   37.0000   37.0000 
1323.1368  129.9087    2.3505    0.0960    0.3883    4.2214   37.0000   37.0000 
1323.2892  138.0644    2.3072    0.0892    0.4331    3.8011   37.0000   37.0000 
1323.4416  139.9854    2.2988    0.0833    0.4012    3.6875   37.0000   37.0000 
1323.5940  138.5598    2.2979    0.0772    0.3644    3.6239   37.0000   37.0000 
1323.7464  136.7043    2.3022    0.0754    0.4014    3.6314   37.0000   37.0000 
1323.8988  139.4156    2.3056    0.0728    0.4026    3.6009   37.0000   37.0000 
1324.0512  143.8327    2.3111    0.0752    0.4048    3.6473   37.0000   37.0000 
1324.2036  143.8327    2.3111    0.0752    0.4048    3.6473   37.0000   37.0000 
1324.3560  147.0271    2.3169    0.0836    0.4176    3.6901   37.0000   37.0000 
1324.5084  147.0271    2.3169    0.0836    0.4176    3.6901   37.0000   37.0000 
1324.6608  144.2104    2.3112    0.0787    0.3967    3.7142   37.0000   37.0000 
1324.8132  144.2104    2.3112    0.0787    0.3967    3.7142   37.0000   37.0000 
1324.9656  142.2293    2.3020    0.0781    0.4692    3.8494   37.0000   37.0000 
1325.1180  142.2293    2.3020    0.0781    0.4692    3.8494   37.0000   37.0000 
1325.2704  135.5815    2.2998    0.0810    0.4320    3.8675   37.0000   37.0000 
1325.4228  135.5815    2.2998    0.0810    0.4320    3.8675   37.0000   37.0000 
1325.5752  134.4360    2.3045    0.0936    0.3933    3.7630   37.0000   37.0000 
1325.7276  129.1094    2.3015    0.0924    0.4431    3.8142   37.0000   37.0000 
1325.8800  122.7361    2.3088    0.0876    0.4055    4.2535   37.0000   37.0000 
1326.0324  105.1588    2.3320    0.0818    0.3180    4.7144   22.0000   37.0000 
1326.1848   82.2842    2.3728    0.0858    0.2680    5.0684   22.0000   22.0000 
1326.3372   57.6034    2.4043    0.0899    0.2690    4.9563   22.0000   22.0000 
1326.4896   48.9127    2.4348    0.0992    0.2183    4.8325   22.0000   18.0000 
1326.6420   48.6359    2.4484    0.0938    0.2092    4.7769   22.0000   18.0000 
1326.7944   55.1598    2.4671    0.0930    0.1919    4.7686   22.0000   18.0000 
1326.9468   58.3857    2.4727    0.0901    0.2082    4.6593   22.0000   22.0000 
1327.0992   60.4154    2.4749    0.0907    0.2031    4.6299   22.0000   22.0000 
1327.2516   59.3753    2.4657    0.0862    0.2189    4.6200   22.0000   22.0000 
1327.4040   59.3753    2.4657    0.0862    0.2189    4.6200   22.0000   22.0000 
1327.5564   54.0156    2.4620    0.0794    0.2252    4.8133   22.0000   22.0000 
