~VERSION INFORMATION
 VERS.                 2.0:   CWLS LOG ASCII STANDARD - VERSION 2.0
 WRAP.                  NO:   SINGLE LINE PER DEPTH STEP
 CREA.                 01/02/2018 09:42:10
#CREATED USING DSPetro VERSION 5000.10.1.3 BY H191660 ON 01/02/2018 09:42:10
~WELL INFORMATION
#MNEM.UNIT       DATA                          DESCRIPTION MNEMONIC
#---------      ---------------------------   --------------------------
 STRT    .M         0.0000                    : START DEPTH
 STOP    .M         2934.9192                 : STOP DEPTH
 STEP    .M         0.1524                    : STEP VALUE
 NULL    .      -999.0000                     : NULL VALUE
 DATE    .      01/02/2018                    : LAS file Creation Date
 WELL .      1267-Charm-1                : Well Name
 COMP .      Neftex Exploration Insights : Company
 FLD  .                                  : Field
 UWI  .      ZAUWL_006843                : Unique Well Identifier (UWI)
 LOC  .                                  : Location
 RWS  .      -999                        : Def_Rw
 WST  .      -999                        : Def_Rwt
 SRVC .                                  : Contractor
~CURVE INFORMATION
#MNEM              UNIT       API CODE   Curve Type Comments
#----------  --------------- ----------  ---------- -----------
 DEPTH      .M                         : Depth       
 GR2_API    .API                       : gammaRay    Gamma Ray (API) - Measures the intensity of natural gamma-ray radiation emitted from formations containing radioactive elements, such as K, Th and U
 RHOB_G_CC  .g/cc                      : density     Bulk Density - Measures the density of bulk material, including any void space or other materials contained in the subject volume
 DRHO_G_CC  .g/cc                      : drho        Density Correction - Investigates the correction to the Bulk Density log; used as an indication of hole condition to validate the Bulk Density measure
 NPHI_v/v   .usl                       : neutron     Neutron Porosity - Measured with an neutron logging device calibrated to a given matrix (limestone, sandstone and dolomite) - unscaled
 PEF_B_E    .b/e-                      : PEF         Photoelectric Factor - A log of photoelectric absorption properties. Often expressed in an approximation unit barns/electron (b/e-)
 LITH       .                          : LITH        Lithology Curve
 LITH_v2    .                          : LITH        Lithology Curve
~A  DEPTH  GR2_API  RHOB_G_C  DRHO_G_C   NPHI_v/v  PEF_B_E     LITH    LITH_v2  
# ...
1795.4244  131.1627    2.3863    0.0806    0.2711    2.9744   37.0000   37.0000 
1795.5768  111.5711    2.3156    0.0710    0.2773    2.9232   37.0000   37.0000 
1795.7292   90.8329    2.2530    0.0655    0.2612    2.8597   36.0000   36.0000 
1795.8816   76.6847    2.2301    0.0648    0.2689    2.7301   36.0000   31.0000 
1796.0340   67.9620    2.2167    0.0743    0.2775    2.6967   36.0000   31.0000 
1796.1864   65.8554    2.2193    0.0660    0.2492    2.6436   36.0000   31.0000 
1796.3388   74.1966    2.2243    0.0683    0.2429    2.7029   36.0000   31.0000 
1796.4912   91.7286    2.2418    0.0689    0.2433    2.7551   36.0000   31.0000 
1796.6436  110.5830    2.2553    0.0696    0.2785    2.8138   36.0000   37.0000 
1796.7960  119.8754    2.2785    0.0779    0.2816    2.8702   37.0000   37.0000 
1796.9484  122.2794    2.3010    0.0817    0.2591    2.9837   37.0000   37.0000 
1797.1008  121.8459    2.3194    0.0929    0.2582    3.0168   37.0000   37.0000 
1797.2532  121.9368    2.3258    0.0943    0.2536    2.9843   37.0000   37.0000 
1797.4056  121.9368    2.3258    0.0943    0.2536    2.9843   37.0000   37.0000 
1797.5580  127.1503    2.3588    0.1030    0.2477    3.0422   37.0000   37.0000 
1797.7104  127.1503    2.3588    0.1030    0.2477    3.0422   37.0000   37.0000 
1797.8628  118.2534    2.2749    0.0846    0.2371    3.0930   37.0000   37.0000 
1798.0152  118.2534    2.2749    0.0846    0.2371    3.0930   37.0000   37.0000 
1798.1676   89.8561    2.1922    0.0729    0.2978    2.9890   36.0000   36.0000 
1798.3200   89.8561    2.1922    0.0729    0.2978    2.9890   36.0000   36.0000 
1798.4724   81.5448    2.1344    0.0762    0.2849    3.1764   36.0000   31.0000 
1798.6248   75.0541    2.1608    0.0699    0.2782    3.0965   36.0000   31.0000 
1798.7772   63.3494    2.1802    0.0636    0.2387    2.8645   36.0000   31.0000 
1798.9296   50.2910    2.2003    0.0703    0.2414    2.7276   36.0000   31.0000 
1799.0820   43.9219    2.1841    0.0598    0.2371    2.6551   36.0000   31.0000 
1799.2344   44.7426    2.2098    0.0736    0.2621    2.8374   36.0000   31.0000 
1799.3868   55.2144    2.1560    0.0428    0.2690    3.0409   36.0000   31.0000 
1799.5392   75.1563    2.1215    0.0797    0.3572    3.0256   36.0000   36.0000 
1799.6916   97.2866    2.0776    0.0594    0.3408    2.9220   37.0000   37.0000 
1799.8440  110.6626    2.1380    0.0828    0.3581    2.9022   37.0000   37.0000 
1799.9964  113.5237    2.2258    0.0616    0.3466    3.0185   37.0000   37.0000 
1800.1488  100.3933    2.2842    0.0762    0.2900    2.9883   37.0000   37.0000 
1800.3012   82.9198    2.2558    0.0781    0.2804    2.8924   36.0000   36.0000 
1800.4536   65.7370    2.2176    0.0696    0.2805    2.8634   36.0000   36.0000 
1800.6060   65.7370    2.2176    0.0696    0.2805    2.8634   36.0000   36.0000 
1800.7584   73.9210    2.2259    0.0683    0.2509    2.8010   36.0000   36.0000 
1800.9108   73.9210    2.2259    0.0683    0.2509    2.8010   36.0000   36.0000 
1801.0632  144.3650    2.3399    0.0760    0.2875    2.8101   37.0000   37.0000 
1801.2156  144.3650    2.3399    0.0760    0.2875    2.8101   37.0000   37.0000 
1801.3680  166.9322    2.3339    0.0895    0.3082    3.0605   37.0000   37.0000 
1801.5204  166.9322    2.3339    0.0895    0.3082    3.0605   37.0000   37.0000 
1801.6728  140.1338    2.2686    0.0809    0.2812    3.1088   37.0000   37.0000 
1801.8252  124.7261    2.2445    0.0826    0.2732    3.0648   37.0000   37.0000 
1801.9776  117.5973    2.2098    0.0726    0.2887    3.1326   37.0000   37.0000 
1802.1300  115.3967    2.1827    0.0754    0.2909    3.2043   37.0000   31.0000 
1802.2824  120.4906    2.1591    0.0764    0.2952    3.2200   37.0000   31.0000 
1802.4348  120.5086    2.1488    0.0797    0.2821    3.1714   37.0000   31.0000 
1802.5872  119.9590    2.1398    0.0747    0.2911    3.1788   37.0000   31.0000 
1802.7396  121.7907    2.1447    0.0848    0.3010    3.2685   37.0000   31.0000 
1802.8920  124.3415    2.1524    0.0874    0.2992    3.3226   37.0000   31.0000 
1803.0444  126.2029    2.1689    0.0969    0.2914    3.2616   37.0000   31.0000 
1803.1968  123.6059    2.1741    0.0935    0.2914    3.2296   37.0000   31.0000 
1803.3492  125.4688    2.1862    0.0998    0.3276    3.3264   37.0000   31.0000 
1803.5016  125.4688    2.1862    0.0998    0.3276    3.3264   37.0000   31.0000 
1803.6540  129.8777    2.1898    0.1156    0.2751    3.4964   37.0000   31.0000 
1803.8064  129.8777    2.1898    0.1156    0.2751    3.4964   37.0000   31.0000 
1803.9588  124.4864    2.1920    0.1162    0.2884    3.4647   37.0000   31.0000 
1804.1112  124.4864    2.1920    0.1162    0.2884    3.4647   37.0000   31.0000 
1804.2636   89.7920    2.2707    0.1454    0.2444    3.7978   37.0000   31.0000 
1804.4160   89.7920    2.2707    0.1454    0.2444    3.7978   37.0000   36.0000 
1804.5684   62.9487    2.2837    0.1385    0.2094    3.3469   27.0000   36.0000 
1804.7208   62.9487    2.2837    0.1385    0.2094    3.3469   27.0000   36.0000 
1804.8732  112.1925    2.2946    0.1081    0.2490    3.0908   37.0000   37.0000 
1805.0256  124.3815    2.2416    0.1069    0.3421    3.3019   37.0000   37.0000 
1805.1780  110.0677    2.1783    0.1133    0.3390    3.4164   37.0000   37.0000 
1805.3304   94.3816    2.1394    0.1179    0.3037    3.3951   37.0000   36.0000 
1805.4828   83.8645    2.1330    0.1016    0.3096    3.2055   36.0000   36.0000 
1805.6352   82.9233    2.1426    0.0947    0.3143    3.0075   36.0000   36.0000 
1805.7876   86.4555    2.1509    0.0844    0.3056    2.8546   36.0000   36.0000 
1805.9400   93.8764    2.1734    0.0837    0.2958    2.8015   36.0000   36.0000 
1806.0924   85.6786    2.1937    0.0726    0.2669    2.7190   36.0000   36.0000 
1806.2448   71.1165    2.2250    0.0783    0.2532    2.6580   27.0000   27.0000 
1806.3972   55.8685    2.2358    0.0803    0.2429    2.6758   27.0000   27.0000 
1806.5496   49.6930    2.2305    0.0884    0.2545    2.7496   27.0000   27.0000 
1806.7020   49.6930    2.2305    0.0884    0.2545    2.7496   27.0000   27.0000 
1806.8544   43.5323    2.1925    0.0893    0.2598    2.9072   27.0000   27.0000 
1807.0068   43.5323    2.1925    0.0893    0.2598    2.9072   27.0000   27.0000 
1807.1592   44.3498    2.1799    0.0729    0.2592    2.7475   27.0000   27.0000 
1807.3116   44.3498    2.1799    0.0729    0.2592    2.7475   27.0000   27.0000 
1807.4640   49.2842    2.2205    0.0775    0.2392    2.7111   27.0000   27.0000 
1807.6164   49.2842    2.2205    0.0775    0.2392    2.7111   27.0000   27.0000 
1807.7688   45.2322    2.2191    0.0813    0.2335    2.7365   27.0000   27.0000 
1807.9212   45.2322    2.2191    0.0813    0.2335    2.7365   27.0000   27.0000 
1808.0736   43.1555    2.2245    0.0755    0.2299    2.8230   27.0000   27.0000 
1808.2260   47.0739    2.2290    0.0653    0.2323    2.8487   27.0000   27.0000 
1808.3784   56.3997    2.2678    0.0920    0.2357    2.8013   27.0000   27.0000 
1808.5308   85.9393    2.2990    0.1075    0.2491    2.8445   27.0000   27.0000 
1808.6832  119.7901    2.3107    0.1112    0.2855    3.0273   27.0000   27.0000 
1808.8356  149.5529    2.3388    0.1257    0.3174    3.0821   37.0000   37.0000 
1808.9880  155.2276    2.2959    0.1179    0.4048    3.2569   37.0000   37.0000 
1809.1404  149.5553    2.2677    0.1253    0.4720    3.1639   37.0000   37.0000 
1809.2928  139.5022    2.2052    0.1103    0.5067    3.1438   37.0000   37.0000 
1809.4452  142.9687    2.2126    0.1207    0.4657    3.0799   37.0000   37.0000 
1809.5976  151.9000    2.2695    0.1133    0.4247    3.1227   37.0000   37.0000 
1809.7500  157.1644    2.3416    0.1139    0.4253    3.1779   37.0000   37.0000 
1809.9024  157.1644    2.3416    0.1139    0.4253    3.1779   37.0000   37.0000 
1810.0548  153.0220    2.3142    0.1200    0.4138    3.2743   37.0000   37.0000 
1810.2072  153.0220    2.3142    0.1200    0.4138    3.2743   37.0000   37.0000 
1810.3596  151.5375    2.3916    0.1343    0.2926    3.1453   37.0000   37.0000 
