~VERSION INFORMATION
 VERS.                 2.0:   CWLS LOG ASCII STANDARD - VERSION 2.0
 WRAP.                  NO:   SINGLE LINE PER DEPTH STEP
 CREA.                 01/02/2018 09:42:10
#CREATED USING DSPetro VERSION 5000.10.1.3 BY H191660 ON 01/02/2018 09:42:10
~WELL INFORMATION
#MNEM.UNIT       DATA                          DESCRIPTION MNEMONIC
#---------      ---------------------------   --------------------------
 STRT    .M         0.0000                    : START DEPTH
 STOP    .M         2934.9192                 : STOP DEPTH
 STEP    .M         0.1524                    : STEP VALUE
 NULL    .      -999.0000                     : NULL VALUE
 DATE    .      01/02/2018                    : LAS file Creation Date
 WELL .      1267-Charm-1                : Well Name
 COMP .      Neftex Exploration Insights : Company
 FLD  .                                  : Field
 UWI  .      ZAUWL_006843                : Unique Well Identifier (UWI)
 LOC  .                                  : Location
 RWS  .      -999                        : Def_Rw
 WST  .      -999                        : Def_Rwt
 SRVC .                                  : Contractor
~CURVE INFORMATION
#MNEM              UNIT       API CODE   Curve Type Comments
#----------  --------------- ----------  ---------- -----------
 DEPTH      .M                         : Depth       
 GR2_API    .API                       : gammaRay    Gamma Ray (API) - Measures the intensity of natural gamma-ray radiation emitted from formations containing radioactive elements, such as K, Th and U
 RHOB_G_CC  .g/cc                      : density     Bulk Density - Measures the density of bulk material, including any void space or other materials contained in the subject volume
 DRHO_G_CC  .g/cc                      : drho        Density Correction - Investigates the correction to the Bulk Density log; used as an indication of hole condition to validate the Bulk Density measure
 NPHI_v/v   .usl                       : neutron     Neutron Porosity - Measured with an neutron logging device calibrated to a given matrix (limestone, sandstone and dolomite) - unscaled
 PEF_B_E    .b/e-                      : PEF         Photoelectric Factor - A log of photoelectric absorption properties. Often expressed in an approximation unit barns/electron (b/e-)
 LITH       .                          : LITH        Lithology Curve
 LITH_v2    .                          : LITH        Lithology Curve
~A  DEPTH  GR2_API  RHOB_G_C  DRHO_G_C   NPHI_v/v  PEF_B_E     LITH    LITH_v2  
# ...
1855.7748   51.4998    2.2732    0.1152    0.2185    2.8490   31.0000   27.0000 
1855.9272   46.2034    2.2729    0.1279    0.2196    2.9060   31.0000   27.0000 
1856.0796   42.7866    2.2595    0.1185    0.1920    2.6998   31.0000   27.0000 
1856.2320   42.6114    2.2425    0.0858    0.2118    2.4079   31.0000   36.0000 
1856.3844   56.0427    2.2555    0.0790    0.2257    2.4683   31.0000   36.0000 
1856.5368   76.8963    2.2514    0.0806    0.2284    2.6602   31.0000   36.0000 
1856.6892   99.0808    2.2386    0.0884    0.2441    2.8655   31.0000   36.0000 
1856.8416  111.1424    2.2267    0.0928    0.2513    2.8565   31.0000   36.0000 
1856.9940  110.4195    2.2340    0.0932    0.2093    2.7545   31.0000   36.0000 
1857.1464  101.1455    2.2358    0.0830    0.2153    2.5908   31.0000   36.0000 
1857.2988   87.5423    2.2316    0.0738    0.2143    2.4739   31.0000   36.0000 
1857.4512   81.2552    2.2201    0.0754    0.2555    2.5496   31.0000   36.0000 
1857.6036   81.2552    2.2201    0.0754    0.2555    2.5496   31.0000   36.0000 
1857.7560   98.3079    2.2118    0.1002    0.2575    2.8846   31.0000   36.0000 
1857.9084   98.3079    2.2118    0.1002    0.2575    2.8846   31.0000   36.0000 
1858.0608  119.4990    2.2026    0.0906    0.2630    2.8617   31.0000   36.0000 
1858.2132  119.4990    2.2026    0.0906    0.2630    2.8617   31.0000   36.0000 
1858.3656  106.9337    2.2361    0.0911    0.2285    2.8181   31.0000   36.0000 
1858.5180  106.9337    2.2361    0.0911    0.2285    2.8181   31.0000   36.0000 
1858.6704   52.2046    2.2653    0.1130    0.2277    2.8287   31.0000   36.0000 
1858.8228   52.2046    2.2653    0.1130    0.2277    2.8287   31.0000   27.0000 
1858.9752   41.0623    2.2618    0.1076    0.2236    2.7183   31.0000   27.0000 
1859.1276   44.6228    2.2797    0.1079    0.2192    2.7050   31.0000   27.0000 
1859.2800   50.5654    2.2919    0.1139    0.2090    2.8958   31.0000   27.0000 
1859.4324   61.2131    2.3074    0.1302    0.2185    3.0820   31.0000   36.0000 
1859.5848   77.2241    2.2857    0.1086    0.2326    3.0499   31.0000   36.0000 
1859.7372   84.2139    2.2875    0.1079    0.2272    2.9005   31.0000   36.0000 
1859.8896   79.3914    2.2688    0.1019    0.2117    2.8112   31.0000   36.0000 
1860.0420   63.9797    2.2591    0.1094    0.2375    2.7481   31.0000   27.0000 
1860.1944   54.1356    2.2362    0.0926    0.2406    2.5921   31.0000   27.0000 
1860.3468   50.5386    2.2191    0.0725    0.2357    2.4008   31.0000   27.0000 
1860.4992   50.7021    2.2081    0.0595    0.2233    2.2728   31.0000   27.0000 
1860.6516   51.0973    2.1978    0.0560    0.2283    2.2322   31.0000   27.0000 
1860.8040   51.0973    2.1978    0.0560    0.2283    2.2322   31.0000   36.0000 
1860.9564   56.5223    2.1820    0.0513    0.2339    2.2442   31.0000   36.0000 
1861.1088   56.5223    2.1820    0.0513    0.2339    2.2442   31.0000   36.0000 
1861.2612   60.5776    2.1753    0.0500    0.2423    2.2684   31.0000   36.0000 
1861.4136   60.5776    2.1753    0.0500    0.2423    2.2684   31.0000   36.0000 
1861.5660   65.9332    2.1857    0.0477    0.2402    2.3274   31.0000   36.0000 
1861.7184   65.9332    2.1857    0.0477    0.2402    2.3274   31.0000   36.0000 
1861.8708   59.0251    2.2210    0.0439    0.2402    2.2070   31.0000   36.0000 
1862.0232   59.0251    2.2210    0.0439    0.2402    2.2070   31.0000   27.0000 
1862.1756   54.1388    2.1997    0.0586    0.2651    2.2701   31.0000   36.0000 
1862.3280   61.6690    2.2000    0.0542    0.2452    2.2774   31.0000   36.0000 
1862.4804   69.1248    2.2179    0.0511    0.2272    2.2810   31.0000   36.0000 
1862.6328   76.6735    2.2371    0.0446    0.2415    2.2700   31.0000   36.0000 
1862.7852   89.3556    2.2663    0.0493    0.2514    2.3312   31.0000   31.0000 
1862.9376  104.0209    2.2937    0.0495    0.2539    2.3870   31.0000   37.0000 
1863.0900  109.8132    2.3027    0.0529    0.2481    2.4079   31.0000   37.0000 
1863.2424  101.2203    2.2897    0.0487    0.2405    2.3824   31.0000   36.0000 
1863.3948   82.5142    2.2711    0.0529    0.2417    2.3787   31.0000   36.0000 
1863.5472   74.9370    2.2424    0.0525    0.2446    2.3897   31.0000   36.0000 
1863.6996   78.0683    2.2118    0.0545    0.2572    2.4731   31.0000   36.0000 
1863.8520   91.5995    2.2063    0.0520    0.2516    2.4719   31.0000   36.0000 
1864.0044   91.5995    2.2063    0.0520    0.2516    2.4719   31.0000   31.0000 
1864.1568  124.1490    2.2854    0.0577    0.2353    2.5599   31.0000   31.0000 
1864.3092  124.1490    2.2854    0.0577    0.2353    2.5599   31.0000   31.0000 
1864.4616  128.9857    2.3079    0.0590    0.2663    2.5606   31.0000   37.0000 
1864.6140  128.9857    2.3079    0.0590    0.2663    2.5606   31.0000   37.0000 
1864.7664  115.6520    2.2644    0.0614    0.2511    2.5469   31.0000   31.0000 
1864.9188  115.6520    2.2644    0.0614    0.2511    2.5469   31.0000   31.0000 
1865.0712  113.2771    2.2294    0.0642    0.2705    2.5348   31.0000   31.0000 
1865.2236  113.2771    2.2294    0.0642    0.2705    2.5348   31.0000   31.0000 
1865.3760  147.3766    2.3182    0.0627    0.2926    2.6814   31.0000   37.0000 
1865.5284  156.6012    2.3326    0.0666    0.2822    2.7766   31.0000   37.0000 
1865.6808  141.8886    2.2901    0.0683    0.3034    2.6918   31.0000   37.0000 
1865.8332  124.6395    2.2395    0.0635    0.2663    2.5953   31.0000   31.0000 
1865.9856  113.6936    2.2293    0.0636    0.2687    2.5216   31.0000   31.0000 
1866.1380  111.5736    2.2213    0.0516    0.2634    2.5412   31.0000   31.0000 
1866.2904  110.9106    2.2330    0.0549    0.2692    2.5145   31.0000   31.0000 
1866.4428  116.0833    2.2351    0.0486    0.2556    2.5156   31.0000   31.0000 
1866.5952  125.0986    2.2473    0.0468    0.2589    2.4975   31.0000   31.0000 
1866.7476  121.9292    2.2457    0.0502    0.2556    2.4732   31.0000   31.0000 
1866.9000  106.3200    2.2198    0.0513    0.2924    2.4115   31.0000   31.0000 
1867.0524   85.9456    2.2040    0.0578    0.2423    2.3134   36.0000   36.0000 
1867.2048   85.9456    2.2040    0.0578    0.2423    2.3134   36.0000   36.0000 
1867.3572   76.0129    2.1901    0.0511    0.2565    2.3142   36.0000   36.0000 
1867.5096   76.0129    2.1901    0.0511    0.2565    2.3142   36.0000   36.0000 
1867.6620   72.9081    2.2063    0.0508    0.2300    2.2826   36.0000   36.0000 
1867.8144   72.9081    2.2063    0.0508    0.2300    2.2826   36.0000   36.0000 
1867.9668   82.9375    2.2225    0.0477    0.2371    2.2478   36.0000   36.0000 
1868.1192   82.9375    2.2225    0.0477    0.2371    2.2478   36.0000   36.0000 
1868.2716   89.6366    2.1925    0.0417    0.2514    2.2736   36.0000   36.0000 
1868.4240   85.7035    2.1852    0.0425    0.2518    2.2408   36.0000   36.0000 
1868.5764   79.8454    2.1850    0.0409    0.2531    2.1968   36.0000   36.0000 
1868.7288   77.6839    2.1978    0.0437    0.2508    2.2725   36.0000   36.0000 
1868.8812   74.8274    2.2140    0.0473    0.2398    2.3199   36.0000   36.0000 
1869.0336   75.0941    2.2240    0.0503    0.2632    2.3396   36.0000   36.0000 
1869.1860   76.8253    2.2252    0.0564    0.2538    2.3111   36.0000   36.0000 
1869.3384   79.9022    2.2075    0.0573    0.2416    2.3526   36.0000   36.0000 
1869.4908   84.1829    2.1970    0.0604    0.2510    2.3918   36.0000   36.0000 
1869.6432   86.7023    2.1807    0.0516    0.2610    2.3685   36.0000   36.0000 
1869.7956   91.5370    2.1894    0.0515    0.2568    2.3547   36.0000   36.0000 
1869.9480   93.3842    2.2014    0.0505    0.2599    2.3722   36.0000   36.0000 
1870.1004   93.1831    2.2200    0.0576    0.2496    2.4190   36.0000   36.0000 
1870.2528   87.4381    2.2212    0.0544    0.2321    2.4154   36.0000   36.0000 
1870.4052   87.4381    2.2212    0.0544    0.2321    2.4154   36.0000   36.0000 
1870.5576   79.8020    2.2249    0.0500    0.2346    2.3072   36.0000   36.0000 
1870.7100   79.8020    2.2249    0.0500    0.2346    2.3072   36.0000   36.0000 
