~VERSION INFORMATION
 VERS.                 2.0:   CWLS LOG ASCII STANDARD - VERSION 2.0
 WRAP.                  NO:   SINGLE LINE PER DEPTH STEP
 CREA.                 01/02/2018 09:42:10
#CREATED USING DSPetro VERSION 5000.10.1.3 BY H191660 ON 01/02/2018 09:42:10
~WELL INFORMATION
#MNEM.UNIT       DATA                          DESCRIPTION MNEMONIC
#---------      ---------------------------   --------------------------
 STRT    .M         0.0000                    : START DEPTH
 STOP    .M         2934.9192                 : STOP DEPTH
 STEP    .M         0.1524                    : STEP VALUE
 NULL    .      -999.0000                     : NULL VALUE
 DATE    .      01/02/2018                    : LAS file Creation Date
 WELL .      1267-Charm-1                : Well Name
 COMP .      Neftex Exploration Insights : Company
 FLD  .                                  : Field
 UWI  .      ZAUWL_006843                : Unique Well Identifier (UWI)
 LOC  .                                  : Location
 RWS  .      -999                        : Def_Rw
 WST  .      -999                        : Def_Rwt
 SRVC .                                  : Contractor
~CURVE INFORMATION
#MNEM              UNIT       API CODE   Curve Type Comments
#----------  --------------- ----------  ---------- -----------
 DEPTH      .M                         : Depth       
 GR2_API    .API                       : gammaRay    Gamma Ray (API) - Measures the intensity of natural gamma-ray radiation emitted from formations containing radioactive elements, such as K, Th and U
 RHOB_G_CC  .g/cc                      : density     Bulk Density - Measures the density of bulk material, including any void space or other materials contained in the subject volume
 DRHO_G_CC  .g/cc                      : drho        Density Correction - Investigates the correction to the Bulk Density log; used as an indication of hole condition to validate the Bulk Density measure
 NPHI_v/v   .usl                       : neutron     Neutron Porosity - Measured with an neutron logging device calibrated to a given matrix (limestone, sandstone and dolomite) - unscaled
 PEF_B_E    .b/e-                      : PEF         Photoelectric Factor - A log of photoelectric absorption properties. Often expressed in an approximation unit barns/electron (b/e-)
 LITH       .                          : LITH        Lithology Curve
 LITH_v2    .                          : LITH        Lithology Curve
~A  DEPTH  GR2_API  RHOB_G_C  DRHO_G_C   NPHI_v/v  PEF_B_E     LITH    LITH_v2  
# ...
1176.8328   97.1178    1.5408    0.0835    0.4561   13.7811   11.0000   11.0000 
1176.9852   96.7593    1.5365    0.0893    0.5179   13.8701   11.0000   11.0000 
1177.1376   97.1233    1.5918    0.1119    0.4792   13.1913   11.0000   11.0000 
1177.2900   92.9931    1.6114    0.1190    0.4757   12.9081   11.0000   11.0000 
1177.4424   91.3381    1.5813    0.1065    0.5440   13.2899   11.0000   11.0000 
1177.5948   92.8087    1.5558    0.0989    0.5128   13.6276   11.0000   11.0000 
1177.7472   95.0768    1.5023    0.0785    0.5325   14.4546   11.0000   11.0000 
1177.8996   99.4593    1.4585    0.0596    0.5958   15.0304   11.0000   11.0000 
1178.0520   99.5097    1.4489    0.0566    0.5555   15.2345   11.0000   11.0000 
1178.2044   99.5097    1.4489    0.0566    0.5555   15.2345   11.0000   11.0000 
1178.3568  101.1141    1.6458    0.1284    0.4475   12.5642   11.0000   11.0000 
1178.5092  101.1141    1.6458    0.1284    0.4475   12.5642   11.0000   11.0000 
1178.6616  100.2758    1.7555    0.1607    0.4520   11.3163   11.0000   11.0000 
1178.8140  100.2758    1.7555    0.1607    0.4520   11.3163   11.0000   11.0000 
1178.9664  104.2378    1.6984    0.1378    0.4897   11.7384   11.0000   11.0000 
1179.1188  104.2378    1.6984    0.1378    0.4897   11.7384   11.0000   11.0000 
1179.2712  100.4042    1.6217    0.1169    0.4798   12.8705   11.0000   11.0000 
1179.4236  100.4042    1.6217    0.1169    0.4798   12.8705   11.0000   11.0000 
1179.5760   87.3700    1.8339    0.1128    0.4315    7.4985   11.0000   11.0000 
1179.7284   82.1387    2.0651    0.1325    0.4306    5.0704   11.0000   11.0000 
1179.8808   81.1982    2.1894    0.1296    0.2628    4.1943   11.0000   11.0000 
1180.0332   83.7273    2.2222    0.1243    0.3576    4.0042   11.0000   11.0000 
1180.1856   80.7297    2.2388    0.1097    0.3753    3.9052   11.0000   11.0000 
1180.3380   79.2924    2.2526    0.0938    0.3533    3.9295   37.0000   37.0000 
1180.4904   75.1949    2.2581    0.0876    0.3379    3.9246   37.0000   37.0000 
1180.6428   80.5319    2.2334    0.0797    0.3564    3.8553   37.0000   37.0000 
1180.7952   81.3535    2.2131    0.0780    0.3256    3.6493   37.0000   37.0000 
1180.9476   80.3683    2.2085    0.0800    0.3579    3.5832   37.0000   37.0000 
1181.1000   77.9722    2.2079    0.0802    0.3642    3.5598   37.0000   37.0000 
1181.2524   77.5160    2.2025    0.0768    0.3995    3.5316   37.0000   37.0000 
1181.4048   77.5160    2.2025    0.0768    0.3995    3.5316   37.0000   37.0000 
1181.5572   76.7074    2.1912    0.0721    0.3352    3.6006   37.0000   37.0000 
1181.7096   76.7074    2.1912    0.0721    0.3352    3.6006   37.0000   37.0000 
1181.8620   73.7777    2.2054    0.0861    0.3128    3.7902   37.0000   37.0000 
1182.0144   73.7777    2.2054    0.0861    0.3128    3.7902   37.0000   37.0000 
1182.1668   74.1061    2.2066    0.0833    0.3787    3.6396   37.0000   37.0000 
1182.3192   74.1061    2.2066    0.0833    0.3787    3.6396   37.0000   37.0000 
1182.4716   76.7774    2.2062    0.0885    0.3907    3.5794   37.0000   37.0000 
1182.6240   78.7959    2.2071    0.0865    0.3509    3.5778   37.0000   37.0000 
1182.7764   76.2928    2.2019    0.0803    0.3686    3.5118   37.0000   37.0000 
1182.9288   73.6144    2.2082    0.0768    0.3162    3.5256   37.0000   37.0000 
1183.0812   73.0222    2.2372    0.0837    0.2993    3.6606   37.0000   37.0000 
1183.2336   75.9998    2.2602    0.0852    0.3019    3.7548   37.0000   37.0000 
1183.3860   80.1413    2.2657    0.0872    0.3373    3.7815   37.0000   37.0000 
1183.5384   81.4065    2.2434    0.0820    0.3493    3.6581   37.0000   37.0000 
1183.6908   80.6601    2.2341    0.0837    0.3295    3.6276   37.0000   37.0000 
1183.8432   77.8320    2.2330    0.0828    0.3884    3.6175   37.0000   37.0000 
1183.9956   77.0386    2.2341    0.0830    0.3547    3.5922   37.0000   37.0000 
1184.1480   77.9672    2.2310    0.0803    0.3766    3.5842   37.0000   37.0000 
1184.3004   79.1194    2.2291    0.0812    0.3447    3.6085   37.0000   37.0000 
1184.4528   81.5370    2.2269    0.0842    0.3868    3.6256   37.0000   37.0000 
1184.6052   81.5370    2.2269    0.0842    0.3868    3.6256   37.0000   37.0000 
1184.7576   87.8885    2.2131    0.0791    0.3768    3.5650   37.0000   37.0000 
1184.9100   87.8885    2.2131    0.0791    0.3768    3.5650   37.0000   37.0000 
1185.0624   85.5625    2.2258    0.0685    0.3423    3.5601   37.0000   37.0000 
1185.2148   85.5625    2.2258    0.0685    0.3423    3.5601   37.0000   37.0000 
1185.3672   83.8443    2.2538    0.0795    0.3417    3.6357   37.0000   37.0000 
1185.5196   83.8443    2.2538    0.0795    0.3417    3.6357   37.0000   37.0000 
1185.6720   88.3984    2.2643    0.0629    0.3615    3.5841   37.0000   37.0000 
1185.8244   89.8306    2.2487    0.0586    0.3621    3.5556   37.0000   37.0000 
1185.9768   88.6894    2.2394    0.0657    0.3599    3.5282   37.0000   37.0000 
1186.1292   84.1830    2.2265    0.0701    0.3981    3.6611   37.0000   37.0000 
1186.2816   86.5678    2.2180    0.0699    0.3864    3.7530   37.0000   37.0000 
1186.4340   85.7142    2.2039    0.0647    0.4335    3.7768   37.0000   37.0000 
1186.5864   89.4685    2.2090    0.0655    0.4069    3.7264   37.0000   37.0000 
1186.7388   87.9291    2.2048    0.0600    0.4079    3.6396   37.0000   37.0000 
1186.8912   90.9293    2.2206    0.0657    0.4100    3.6718   37.0000   37.0000 
1187.0436   93.7121    2.2237    0.0608    0.4166    3.7580   37.0000   37.0000 
1187.1960   92.8221    2.2446    0.0611    0.3661    3.8133   37.0000   37.0000 
1187.3484   91.2256    2.2486    0.0537    0.3796    3.8238   37.0000   37.0000 
1187.5008   84.6036    2.2981    0.0624    0.4229    3.9654   37.0000   23.0000 
1187.6532   80.8671    2.3672    0.0614    0.2674    4.2237   37.0000   37.0000 
1187.8056   80.8671    2.3672    0.0614    0.2674    4.2237   37.0000   37.0000 
1187.9580   83.7052    2.4797    0.0574    0.2421    4.6328   37.0000   23.0000 
1188.1104   83.7052    2.4797    0.0574    0.2421    4.6328   37.0000   23.0000 
1188.2628  100.2556    2.3740    0.0716    0.3135    4.3352   37.0000   23.0000 
1188.4152  100.2556    2.3740    0.0716    0.3135    4.3352   37.0000   23.0000 
1188.5676  103.8529    2.3191    0.0716    0.3545    4.1257   37.0000   23.0000 
1188.7200  103.8529    2.3191    0.0716    0.3545    4.1257   37.0000   23.0000 
1188.8724  101.8802    2.2989    0.0724    0.3987    4.0663   37.0000   23.0000 
1189.0248  101.5041    2.2925    0.0767    0.3322    4.1178   37.0000   37.0000 
1189.1772  100.1940    2.2937    0.0799    0.3980    4.1317   37.0000   23.0000 
1189.3296  100.9734    2.2933    0.0800    0.4006    4.1998   37.0000   23.0000 
1189.4820   97.6184    2.2957    0.0831    0.4215    4.2367   37.0000   23.0000 
1189.6344   95.4570    2.3179    0.0866    0.3709    4.3222   37.0000   23.0000 
1189.7868   97.0485    2.3557    0.0818    0.3222    4.5077   37.0000   23.0000 
1189.9392  104.6380    2.3998    0.0779    0.3140    4.6461   37.0000   23.0000 
1190.0916  110.3913    2.4130    0.0663    0.3959    4.8447   37.0000   23.0000 
1190.2440  113.3303    2.4162    0.0708    0.3287    4.8621   37.0000   23.0000 
1190.3964  115.6393    2.3944    0.0695    0.3170    4.8554   37.0000   23.0000 
1190.5488  112.0156    2.3600    0.0842    0.3709    4.3793   37.0000   23.0000 
1190.7012  107.7787    2.2900    0.0829    0.3812    3.9125   37.0000   37.0000 
1190.8536  104.8725    2.2443    0.0863    0.3974    3.5972   37.0000   37.0000 
1191.0060  104.8725    2.2443    0.0863    0.3974    3.5972   37.0000   37.0000 
1191.1584  107.9046    2.2223    0.0732    0.3544    3.3495   37.0000   37.0000 
1191.3108  107.9046    2.2223    0.0732    0.3544    3.3495   37.0000   37.0000 
1191.4632  103.9621    2.2158    0.0678    0.3884    3.1335   37.0000   37.0000 
1191.6156  103.9621    2.2158    0.0678    0.3884    3.1335   37.0000   37.0000 
1191.7680   99.2768    2.2221    0.0716    0.3875    3.2289   37.0000   37.0000 
