~VERSION INFORMATION
 VERS.                 2.0:   CWLS LOG ASCII STANDARD - VERSION 2.0
 WRAP.                  NO:   SINGLE LINE PER DEPTH STEP
 CREA.                 01/02/2018 09:42:10
#CREATED USING DSPetro VERSION 5000.10.1.3 BY H191660 ON 01/02/2018 09:42:10
~WELL INFORMATION
#MNEM.UNIT       DATA                          DESCRIPTION MNEMONIC
#---------      ---------------------------   --------------------------
 STRT    .M         0.0000                    : START DEPTH
 STOP    .M         2934.9192                 : STOP DEPTH
 STEP    .M         0.1524                    : STEP VALUE
 NULL    .      -999.0000                     : NULL VALUE
 DATE    .      01/02/2018                    : LAS file Creation Date
 WELL .      1267-Charm-1                : Well Name
 COMP .      Neftex Exploration Insights : Company
 FLD  .                                  : Field
 UWI  .      ZAUWL_006843                : Unique Well Identifier (UWI)
 LOC  .                                  : Location
 RWS  .      -999                        : Def_Rw
 WST  .      -999                        : Def_Rwt
 SRVC .                                  : Contractor
~CURVE INFORMATION
#MNEM              UNIT       API CODE   Curve Type Comments
#----------  --------------- ----------  ---------- -----------
 DEPTH      .M                         : Depth       
 GR2_API    .API                       : gammaRay    Gamma Ray (API) - Measures the intensity of natural gamma-ray radiation emitted from formations containing radioactive elements, such as K, Th and U
 RHOB_G_CC  .g/cc                      : density     Bulk Density - Measures the density of bulk material, including any void space or other materials contained in the subject volume
 DRHO_G_CC  .g/cc                      : drho        Density Correction - Investigates the correction to the Bulk Density log; used as an indication of hole condition to validate the Bulk Density measure
 NPHI_v/v   .usl                       : neutron     Neutron Porosity - Measured with an neutron logging device calibrated to a given matrix (limestone, sandstone and dolomite) - unscaled
 PEF_B_E    .b/e-                      : PEF         Photoelectric Factor - A log of photoelectric absorption properties. Often expressed in an approximation unit barns/electron (b/e-)
 LITH       .                          : LITH        Lithology Curve
 LITH_v2    .                          : LITH        Lithology Curve
~A  DEPTH  GR2_API  RHOB_G_C  DRHO_G_C   NPHI_v/v  PEF_B_E     LITH    LITH_v2  
# ...
1448.4096   67.6540    2.2552    0.0621    0.3132    3.4595   22.0000   22.0000 
1448.5620   78.2572    2.2929    0.0582    0.3706    3.6510   22.0000   22.0000 
1448.7144   78.2572    2.2929    0.0582    0.3706    3.6510   22.0000   22.0000 
1448.8668   80.9895    2.3072    0.0503    0.3120    3.7151   22.0000   22.0000 
1449.0192   80.9895    2.3072    0.0503    0.3120    3.7151   22.0000   22.0000 
1449.1716   82.2063    2.3050    0.0585    0.3669    3.8064   22.0000   22.0000 
1449.3240   81.9360    2.3116    0.0643    0.3340    3.8491   22.0000   22.0000 
1449.4764   82.0164    2.3236    0.0664    0.3235    3.9107   22.0000   22.0000 
1449.6288   78.2522    2.3429    0.0608    0.2998    3.9272   22.0000   22.0000 
1449.7812   74.1158    2.3753    0.0596    0.2751    4.0168   22.0000   22.0000 
1449.9336   62.4778    2.4009    0.0568    0.2794    4.0838   22.0000   22.0000 
1450.0860   56.5720    2.4126    0.0573    0.2615    4.1168   22.0000   22.0000 
1450.2384   57.8304    2.3838    0.0550    0.2853    4.0399   22.0000   22.0000 
1450.3908   65.8644    2.3398    0.0570    0.3147    3.9091   22.0000   22.0000 
1450.5432   71.2823    2.2968    0.0584    0.2978    3.7389   22.0000   22.0000 
1450.6956   73.9790    2.2721    0.0597    0.3432    3.6788   22.0000   22.0000 
1450.8480   75.4976    2.2683    0.0594    0.3341    3.6319   22.0000   22.0000 
1451.0004   76.2011    2.2688    0.0585    0.3002    3.6457   22.0000   22.0000 
1451.1528   75.5690    2.2725    0.0545    0.2992    3.5742   22.0000   22.0000 
1451.3052   75.5690    2.2725    0.0545    0.2992    3.5742   22.0000   22.0000 
1451.4576   75.0896    2.2958    0.0505    0.3285    3.5028   22.0000   22.0000 
1451.6100   75.0896    2.2958    0.0505    0.3285    3.5028   22.0000   22.0000 
1451.7624   74.6276    2.3274    0.0525    0.2968    3.7646   22.0000   22.0000 
1451.9148   74.6276    2.3274    0.0525    0.2968    3.7646   22.0000   22.0000 
1452.0672   72.6793    2.3700    0.0612    0.2797    4.0657   22.0000   22.0000 
1452.2196   72.6793    2.3700    0.0612    0.2797    4.0657   22.0000   22.0000 
1452.3720   66.0024    2.4057    0.0630    0.2601    4.1974   22.0000   22.0000 
1452.5244   63.1874    2.4025    0.0698    0.2483    4.1636   22.0000   22.0000 
1452.6768   67.8018    2.3780    0.0746    0.2800    4.1428   22.0000   22.0000 
1452.8292   74.5315    2.3534    0.0770    0.2961    4.1104   22.0000   22.0000 
1452.9816   78.7215    2.3400    0.0694    0.2652    4.0279   22.0000   22.0000 
1453.1340   74.3330    2.3231    0.0618    0.2984    3.7698   22.0000   22.0000 
1453.2864   66.4817    2.2892    0.0618    0.3404    3.5199   22.0000   22.0000 
1453.4388   60.3022    2.2427    0.0591    0.3267    3.2351   22.0000   22.0000 
1453.5912   59.4349    2.2221    0.0602    0.3385    3.1465   22.0000   22.0000 
1453.7436   59.9037    2.2163    0.0548    0.3529    3.1237   22.0000   22.0000 
1453.8960   62.2656    2.2194    0.0581    0.3290    3.1995   22.0000   22.0000 
1454.0484   63.6994    2.2086    0.0541    0.3101    3.1666   18.0000   22.0000 
1454.2008   63.9133    2.2061    0.0519    0.3090    3.1016   18.0000   36.0000 
1454.3532   63.2184    2.2070    0.0477    0.3245    3.0814   18.0000   22.0000 
1454.5056   63.2184    2.2070    0.0477    0.3245    3.0814   18.0000   22.0000 
1454.6580   63.3587    2.2233    0.0472    0.3242    3.2122   22.0000   22.0000 
1454.8104   63.3587    2.2233    0.0472    0.3242    3.2122   22.0000   22.0000 
1454.9628   62.1735    2.2408    0.0619    0.3274    3.3802   22.0000   22.0000 
1455.1152   62.1735    2.2408    0.0619    0.3274    3.3802   22.0000   22.0000 
1455.2676   65.7765    2.2471    0.0676    0.3333    3.5080   22.0000   22.0000 
1455.4200   65.7765    2.2471    0.0676    0.3333    3.5080   22.0000   22.0000 
1455.5724   62.8262    2.2512    0.0608    0.3454    3.4948   22.0000   22.0000 
1455.7248   63.1684    2.2603    0.0563    0.3159    3.4710   22.0000   22.0000 
1455.8772   60.6728    2.2712    0.0541    0.2991    3.5447   22.0000   22.0000 
1456.0296   60.4392    2.2757    0.0489    0.3164    3.5777   22.0000   22.0000 
1456.1820   57.1789    2.2914    0.0540    0.3091    3.6740   22.0000   22.0000 
1456.3344   57.2709    2.2972    0.0514    0.2601    3.7344   22.0000   22.0000 
1456.4868   57.4651    2.3170    0.0617    0.3178    3.8697   22.0000   22.0000 
1456.6392   60.1313    2.3212    0.0709    0.2990    3.9538   22.0000   22.0000 
1456.7916   59.5014    2.3230    0.0800    0.2825    3.9737   22.0000   22.0000 
1456.9440   57.8101    2.3200    0.0825    0.3153    3.9106   22.0000   22.0000 
1457.0964   53.3403    2.3122    0.0772    0.2945    3.8180   22.0000   22.0000 
1457.2488   52.5623    2.3085    0.0790    0.3087    3.7327   22.0000   22.0000 
1457.4012   51.1361    2.2974    0.0802    0.2946    3.6944   22.0000   22.0000 
1457.5536   52.5537    2.2794    0.0804    0.2993    3.5530   22.0000   22.0000 
1457.7060   52.5537    2.2794    0.0804    0.2993    3.5530   22.0000   22.0000 
1457.8584   50.9680    2.2113    0.0757    0.3258    3.2702   22.0000   22.0000 
1458.0108   50.9680    2.2113    0.0757    0.3258    3.2702   22.0000   22.0000 
1458.1632   49.2045    2.1520    0.0646    0.3760    3.0475   22.0000   22.0000 
1458.3156   49.2045    2.1520    0.0646    0.3760    3.0475   22.0000   22.0000 
1458.4680   52.9981    2.1579    0.0611    0.3307    2.9826   18.0000   36.0000 
1458.6204   52.9981    2.1579    0.0611    0.3307    2.9826   18.0000   36.0000 
1458.7728   54.4965    2.1793    0.0539    0.3360    3.0468   18.0000   22.0000 
1458.9252   52.1885    2.1837    0.0565    0.3195    2.9890   18.0000   36.0000 
1459.0776   52.7958    2.1721    0.0465    0.3360    2.9730   18.0000   36.0000 
1459.2300   50.9115    2.1671    0.0448    0.3106    2.9172   18.0000   36.0000 
1459.3824   51.2437    2.1532    0.0424    0.3402    2.9452   18.0000   36.0000 
1459.5348   49.1342    2.1499    0.0508    0.3236    2.9615   18.0000   36.0000 
1459.6872   50.4956    2.1595    0.0615    0.3198    3.0625   18.0000   36.0000 
1459.8396   49.1926    2.1702    0.0637    0.3230    3.1025   18.0000   36.0000 
1459.9920   50.6881    2.1808    0.0599    0.2999    3.1038   18.0000   36.0000 
1460.1444   50.7088    2.1944    0.0546    0.3508    3.1150   22.0000   22.0000 
1460.2968   53.1737    2.2150    0.0506    0.3180    3.1430   18.0000   22.0000 
1460.4492   56.0337    2.2437    0.0568    0.3029    3.2419   22.0000   22.0000 
1460.6016   56.0337    2.2437    0.0568    0.3029    3.2419   22.0000   22.0000 
1460.7540   57.7817    2.2831    0.0643    0.3034    3.5104   22.0000   22.0000 
1460.9064   57.7817    2.2831    0.0643    0.3034    3.5104   22.0000   22.0000 
1461.0588   50.5600    2.3369    0.0745    0.2661    3.7880   22.0000   22.0000 
1461.2112   50.5600    2.3369    0.0745    0.2661    3.7880   22.0000   22.0000 
1461.3636   52.4072    2.3393    0.0742    0.2890    3.8058   22.0000   22.0000 
1461.5160   52.4072    2.3393    0.0742    0.2890    3.8058   22.0000   22.0000 
1461.6684   51.0779    2.3031    0.0777    0.3126    3.6763   22.0000   22.0000 
1461.8208   51.0779    2.3031    0.0777    0.3126    3.6763   22.0000   22.0000 
1461.9732   52.0620    2.2450    0.0752    0.3215    3.4405   22.0000   22.0000 
1462.1256   53.2532    2.2278    0.0724    0.3429    3.3272   22.0000   22.0000 
1462.2780   53.7757    2.2167    0.0709    0.3038    3.1849   18.0000   22.0000 
1462.4304   51.3556    2.2013    0.0655    0.2847    3.1533   18.0000   36.0000 
1462.5828   49.5234    2.2055    0.0739    0.3058    3.1673   18.0000   22.0000 
1462.7352   50.9570    2.2196    0.0755    0.2982    3.2885   18.0000   22.0000 
1462.8876   51.9798    2.2705    0.0811    0.3127    3.4563   22.0000   22.0000 
1463.0400   54.5886    2.3115    0.0776    0.2616    3.6167   22.0000   22.0000 
1463.1924   51.8844    2.3326    0.0767    0.2815    3.6509   22.0000   22.0000 
1463.3448   52.0038    2.3097    0.0711    0.2904    3.6038   22.0000   22.0000 
