~VERSION INFORMATION
 VERS.                 2.0:   CWLS LOG ASCII STANDARD - VERSION 2.0
 WRAP.                  NO:   SINGLE LINE PER DEPTH STEP
 CREA.                 01/02/2018 09:42:10
#CREATED USING DSPetro VERSION 5000.10.1.3 BY H191660 ON 01/02/2018 09:42:10
~WELL INFORMATION
#MNEM.UNIT       DATA                          DESCRIPTION MNEMONIC
#---------      ---------------------------   --------------------------
 STRT    .M         0.0000                    : START DEPTH
 STOP    .M         2934.9192                 : STOP DEPTH
 STEP    .M         0.1524                    : STEP VALUE
 NULL    .      -999.0000                     : NULL VALUE
 DATE    .      01/02/2018                    : LAS file Creation Date
 WELL .      1267-Charm-1                : Well Name
 COMP .      Neftex Exploration Insights : Company
 FLD  .                                  : Field
 UWI  .      ZAUWL_006843                : Unique Well Identifier (UWI)
 LOC  .                                  : Location
 RWS  .      -999                        : Def_Rw
 WST  .      -999                        : Def_Rwt
 SRVC .                                  : Contractor
~CURVE INFORMATION
#MNEM              UNIT       API CODE   Curve Type Comments
#----------  --------------- ----------  ---------- -----------
 DEPTH      .M                         : Depth       
 GR2_API    .API                       : gammaRay    Gamma Ray (API) - Measures the intensity of natural gamma-ray radiation emitted from formations containing radioactive elements, such as K, Th and U
 RHOB_G_CC  .g/cc                      : density     Bulk Density - Measures the density of bulk material, including any void space or other materials contained in the subject volume
 DRHO_G_CC  .g/cc                      : drho        Density Correction - Investigates the correction to the Bulk Density log; used as an indication of hole condition to validate the Bulk Density measure
 NPHI_v/v   .usl                       : neutron     Neutron Porosity - Measured with an neutron logging device calibrated to a given matrix (limestone, sandstone and dolomite) - unscaled
 PEF_B_E    .b/e-                      : PEF         Photoelectric Factor - A log of photoelectric absorption properties. Often expressed in an approximation unit barns/electron (b/e-)
 LITH       .                          : LITH        Lithology Curve
 LITH_v2    .                          : LITH        Lithology Curve
~A  DEPTH  GR2_API  RHOB_G_C  DRHO_G_C   NPHI_v/v  PEF_B_E     LITH    LITH_v2  
# ...
1991.5632  154.2588    2.3987    0.0976    0.3513    3.6448   37.0000   37.0000 
1991.7156  154.2588    2.3987    0.0976    0.3513    3.6448   37.0000   37.0000 
1991.8680  145.7146    2.2432    0.0821    0.4243    3.8789   37.0000   37.0000 
1992.0204  145.7146    2.2432    0.0821    0.4243    3.8789   37.0000   37.0000 
1992.1728  142.4484    2.2868    0.0971    0.3413    3.6275   37.0000   37.0000 
1992.3252  131.8751    2.2843    0.0917    0.3221    3.0619   37.0000   37.0000 
1992.4776  117.8786    2.2499    0.0849    0.2824    2.9051   37.0000   31.0000 
1992.6300  109.2587    2.2299    0.0946    0.2541    2.8804   37.0000   31.0000 
1992.7824  106.3014    2.2309    0.1001    0.2405    2.9622   37.0000   31.0000 
1992.9348  109.6200    2.2345    0.0961    0.2680    2.9465   37.0000   31.0000 
1993.0872  113.3509    2.2322    0.0949    0.2727    2.9353   37.0000   31.0000 
1993.2396  110.0940    2.2409    0.0972    0.2447    2.8544   37.0000   31.0000 
1993.3920   96.3614    2.2426    0.0828    0.2649    2.7471   37.0000   27.0000 
1993.5444   77.7441    2.2525    0.0967    0.2235    2.7052   27.0000   27.0000 
1993.6968   63.2060    2.2508    0.0905    0.2306    2.6960   27.0000   27.0000 
1993.8492   58.1217    2.2482    0.0934    0.2286    2.7406   27.0000   27.0000 
1994.0016   58.1217    2.2482    0.0934    0.2286    2.7406   27.0000   27.0000 
1994.1540   61.0320    2.2394    0.0897    0.2391    2.6268   27.0000   27.0000 
1994.3064   61.0320    2.2394    0.0897    0.2391    2.6268   27.0000   27.0000 
1994.4588   58.2071    2.2502    0.1033    0.2372    2.6875   27.0000   27.0000 
1994.6112   58.2071    2.2502    0.1033    0.2372    2.6875   27.0000   27.0000 
1994.7636   54.0787    2.2525    0.1082    0.2278    2.6835   27.0000   27.0000 
1994.9160   54.0787    2.2525    0.1082    0.2278    2.6835   27.0000   27.0000 
1995.0684   56.6092    2.2585    0.1037    0.2091    2.5762   27.0000   27.0000 
1995.2208   56.6092    2.2585    0.1037    0.2091    2.5762   27.0000   27.0000 
1995.3732   59.8206    2.2610    0.0965    0.2203    2.6128   27.0000   27.0000 
1995.5256   58.4969    2.2561    0.0883    0.2368    2.6551   27.0000   27.0000 
1995.6780   56.3385    2.2619    0.1000    0.2120    2.6448   27.0000   27.0000 
1995.8304   55.0003    2.2590    0.0953    0.2097    2.5663   27.0000   27.0000 
1995.9828   52.5996    2.2619    0.0920    0.2080    2.5809   27.0000   27.0000 
1996.1352   51.8479    2.2626    0.0877    0.2235    2.5912   27.0000   27.0000 
1996.2876   50.8272    2.2557    0.0906    0.2251    2.6202   27.0000   27.0000 
1996.4400   51.6178    2.2533    0.1162    0.2351    2.7101   27.0000   27.0000 
1996.5924   50.7376    2.2413    0.0873    0.2254    2.6178   27.0000   27.0000 
1996.7448   51.4653    2.2368    0.1037    0.2466    2.6317   27.0000   27.0000 
1996.8972   59.1345    2.2369    0.0926    0.2387    2.5933   27.0000   27.0000 
1997.0496   75.5454    2.2573    0.0889    0.2544    2.6757   37.0000   27.0000 
1997.2020   75.5454    2.2573    0.0889    0.2544    2.6757   37.0000   27.0000 
1997.3544  139.0105    2.3337    0.1046    0.2453    3.0861   37.0000   37.0000 
1997.5068  139.0105    2.3337    0.1046    0.2453    3.0861   37.0000   37.0000 
1997.6592  159.6241    2.2861    0.1046    0.2758    3.1882   37.0000   37.0000 
1997.8116  159.6241    2.2861    0.1046    0.2758    3.1882   37.0000   31.0000 
1997.9640  114.0548    2.3023    0.1139    0.2287    3.1218   37.0000   31.0000 
1998.1164  114.0548    2.3023    0.1139    0.2287    3.1218   37.0000   31.0000 
1998.2688   74.6967    2.3845    0.1123    0.2352    3.1056   37.0000   37.0000 
1998.4212   74.6967    2.3845    0.1123    0.2352    3.1056   37.0000   37.0000 
1998.5736   74.4819    2.3768    0.1193    0.2285    3.1451   37.0000   37.0000 
1998.7260   87.4687    2.4085    0.1302    0.2374    3.1350   37.0000   37.0000 
1998.8784  112.6674    2.4547    0.1367    0.2374    3.2281   37.0000   37.0000 
1999.0308  134.0309    2.4652    0.1431    0.2378    3.2519   37.0000   37.0000 
1999.1832  136.6007    2.3932    0.1083    0.2578    3.2215   37.0000   37.0000 
1999.3356  118.6073    2.3371    0.1154    0.2552    3.1254   37.0000   37.0000 
1999.4880   97.6458    2.3154    0.1247    0.2344    3.1504   37.0000   31.0000 
1999.6404   75.9367    2.3222    0.1498    0.2045    2.8981   27.0000   31.0000 
1999.7928   58.8050    2.3156    0.1082    0.1999    2.7881   27.0000   27.0000 
1999.9452   49.4344    2.3124    0.0872    0.1961    2.6876   27.0000   27.0000 
2000.0976   49.6154    2.3141    0.0896    0.1900    2.6252   27.0000   27.0000 
2000.2500   50.8061    2.3216    0.0804    0.1894    2.5914   27.0000   27.0000 
2000.4024   50.8061    2.3216    0.0804    0.1894    2.5914   27.0000   27.0000 
2000.5548   48.9797    2.3504    0.0860    0.1716    2.5647   27.0000   27.0000 
2000.7072   48.9797    2.3504    0.0860    0.1716    2.5647   27.0000   27.0000 
2000.8596   54.1594    2.3658    0.0849    0.1742    2.6110   27.0000   27.0000 
2001.0120   54.1594    2.3658    0.0849    0.1742    2.6110   27.0000   27.0000 
2001.1644   91.6874    2.3655    0.0868    0.1794    2.7664   27.0000   36.0000 
2001.3168   91.6874    2.3655    0.0868    0.1794    2.7664   27.0000   36.0000 
2001.4692   83.2237    2.3573    0.0771    0.1689    2.6359   27.0000   36.0000 
2001.6216   83.2237    2.3573    0.0771    0.1689    2.6359   27.0000   36.0000 
2001.7740   49.9486    2.3691    0.0875    0.1719    2.6064   27.0000   27.0000 
2001.9264   49.7516    2.3844    0.0935    0.1558    2.6247   27.0000   27.0000 
2002.0788   49.1852    2.4047    0.0916    0.1597    2.6021   27.0000   27.0000 
2002.2312   48.3521    2.4198    0.0848    0.1530    2.5923   27.0000   27.0000 
2002.3836   49.3862    2.4323    0.0905    0.1420    2.6499   27.0000   27.0000 
2002.5360   50.0412    2.4347    0.0921    0.1373    2.6469   27.0000   27.0000 
2002.6884   50.4582    2.4327    0.0923    0.1331    2.6434   27.0000   27.0000 
2002.8408   48.9104    2.4312    0.0930    0.1269    2.6135   27.0000   27.0000 
2002.9932   47.4343    2.4429    0.0892    0.1258    2.6400   27.0000   27.0000 
2003.1456   45.0100    2.4514    0.0823    0.1200    2.6275   27.0000   27.0000 
2003.2980   44.3439    2.4563    0.1109    0.1175    2.6553   27.0000   27.0000 
2003.4504   43.9178    2.4569    0.1023    0.1169    2.6707   27.0000   27.0000 
2003.6028   43.9178    2.4569    0.1023    0.1169    2.6707   27.0000   27.0000 
2003.7552   45.0181    2.4563    0.1050    0.1081    2.6967   27.0000   27.0000 
2003.9076   45.0181    2.4563    0.1050    0.1081    2.6967   27.0000   27.0000 
2004.0600   52.1154    2.4364    0.0964    0.1304    2.7003   27.0000   27.0000 
2004.2124   52.1154    2.4364    0.0964    0.1304    2.7003   27.0000   27.0000 
2004.3648   66.4900    2.4101    0.1051    0.1304    2.9297   27.0000   27.0000 
2004.5172   66.4900    2.4101    0.1051    0.1304    2.9297   27.0000   31.0000 
2004.6696  121.0073    2.2348    0.0793    0.2603    2.8779   27.0000   31.0000 
2004.8220  121.0073    2.2348    0.0793    0.2603    2.8779   27.0000   31.0000 
2004.9744  137.6616    2.2338    0.0900    0.2153    3.0371   37.0000   37.0000 
2005.1268  134.2107    2.2885    0.0849    0.3099    3.1901   37.0000   37.0000 
2005.2792  142.3874    2.3435    0.1197    0.2713    3.1690   37.0000   37.0000 
2005.4316  152.9950    2.3711    0.1097    0.2314    3.0616   37.0000   37.0000 
2005.5840  149.7954    2.3757    0.1251    0.2223    3.1912   37.0000   37.0000 
2005.7364  139.8701    2.3483    0.1173    0.2118    3.1003   37.0000   31.0000 
2005.8888  128.2739    2.3323    0.1381    0.2068    3.0861   37.0000   31.0000 
2006.0412  122.7191    2.3377    0.1148    0.1934    3.1158   37.0000   31.0000 
2006.1936  113.0861    2.3502    0.1303    0.2019    3.1186   37.0000   31.0000 
2006.3460  108.3894    2.3549    0.1078    0.1995    3.0621   37.0000   31.0000 
2006.4984  109.4835    2.3596    0.1334    0.1945    3.1641   37.0000   31.0000 
