~VERSION INFORMATION
 VERS.                 2.0:   CWLS LOG ASCII STANDARD - VERSION 2.0
 WRAP.                  NO:   SINGLE LINE PER DEPTH STEP
 CREA.                 01/02/2018 09:42:10
#CREATED USING DSPetro VERSION 5000.10.1.3 BY H191660 ON 01/02/2018 09:42:10
~WELL INFORMATION
#MNEM.UNIT       DATA                          DESCRIPTION MNEMONIC
#---------      ---------------------------   --------------------------
 STRT    .M         0.0000                    : START DEPTH
 STOP    .M         2934.9192                 : STOP DEPTH
 STEP    .M         0.1524                    : STEP VALUE
 NULL    .      -999.0000                     : NULL VALUE
 DATE    .      01/02/2018                    : LAS file Creation Date
 WELL .      1267-Charm-1                : Well Name
 COMP .      Neftex Exploration Insights : Company
 FLD  .                                  : Field
 UWI  .      ZAUWL_006843                : Unique Well Identifier (UWI)
 LOC  .                                  : Location
 RWS  .      -999                        : Def_Rw
 WST  .      -999                        : Def_Rwt
 SRVC .                                  : Contractor
~CURVE INFORMATION
#MNEM              UNIT       API CODE   Curve Type Comments
#----------  --------------- ----------  ---------- -----------
 DEPTH      .M                         : Depth       
 GR2_API    .API                       : gammaRay    Gamma Ray (API) - Measures the intensity of natural gamma-ray radiation emitted from formations containing radioactive elements, such as K, Th and U
 RHOB_G_CC  .g/cc                      : density     Bulk Density - Measures the density of bulk material, including any void space or other materials contained in the subject volume
 DRHO_G_CC  .g/cc                      : drho        Density Correction - Investigates the correction to the Bulk Density log; used as an indication of hole condition to validate the Bulk Density measure
 NPHI_v/v   .usl                       : neutron     Neutron Porosity - Measured with an neutron logging device calibrated to a given matrix (limestone, sandstone and dolomite) - unscaled
 PEF_B_E    .b/e-                      : PEF         Photoelectric Factor - A log of photoelectric absorption properties. Often expressed in an approximation unit barns/electron (b/e-)
 LITH       .                          : LITH        Lithology Curve
 LITH_v2    .                          : LITH        Lithology Curve
~A  DEPTH  GR2_API  RHOB_G_C  DRHO_G_C   NPHI_v/v  PEF_B_E     LITH    LITH_v2  
# ...
2202.7896  124.4203    2.4365    0.1084 -999.0000    3.6385 -999.0000 -999.0000 
2202.9420  124.4202    2.4365    0.1084 -999.0000    3.6385 -999.0000 -999.0000 
2203.0944  124.4203    2.4365    0.1084 -999.0000    3.6385 -999.0000 -999.0000 
2203.2468  124.4203    2.4365    0.1084 -999.0000    3.6385 -999.0000 -999.0000 
2203.3992  124.4203    2.4365    0.1084 -999.0000    3.6385 -999.0000 -999.0000 
2203.5516  124.4203    2.4365    0.1084 -999.0000    3.6385 -999.0000 -999.0000 
2203.7040  124.4203    2.4365    0.1084 -999.0000    3.6385 -999.0000 -999.0000 
2203.8564  124.4203    2.4365    0.1084 -999.0000    3.6385 -999.0000 -999.0000 
2204.0088  124.4203    2.4365    0.1084 -999.0000    3.6385 -999.0000 -999.0000 
2204.1612  124.4203    2.4365    0.1084 -999.0000    3.6385 -999.0000 -999.0000 
2204.3136  124.4203    2.4365    0.1084 -999.0000    3.6385 -999.0000 -999.0000 
2204.4660  124.4203    2.4365    0.1084 -999.0000    3.6385 -999.0000 -999.0000 
2204.6184  124.4203    2.4365    0.1084 -999.0000    3.6385 -999.0000 -999.0000 
2204.7708  124.4203    2.4365    0.1084 -999.0000    3.6385 -999.0000 -999.0000 
2204.9232  124.4203    2.4365    0.1084 -999.0000    3.6385 -999.0000 -999.0000 
2205.0756  124.4203    2.4365    0.1084 -999.0000    3.6385 -999.0000 -999.0000 
2205.2280  124.4203    2.4365    0.1084 -999.0000    3.6385 -999.0000 -999.0000 
2205.3804  124.4203    2.4365    0.1084 -999.0000    3.6385 -999.0000 -999.0000 
2205.5328  124.4203    2.4365    0.1084 -999.0000    3.6385 -999.0000 -999.0000 
2205.6852  124.4203    2.4365    0.1084 -999.0000    3.6385 -999.0000 -999.0000 
2205.8376  124.4203    2.4365    0.1084 -999.0000    3.6385 -999.0000 -999.0000 
2205.9900  124.4203    2.4365    0.1084 -999.0000    3.6385 -999.0000 -999.0000 
2206.1424  124.4203    2.4365    0.1084 -999.0000    3.6385 -999.0000 -999.0000 
2206.2948  124.4203    2.4365    0.1084 -999.0000    3.6385 -999.0000 -999.0000 
2206.4472  124.4203    2.4365    0.1084 -999.0000    3.6385 -999.0000 -999.0000 
2206.5996  124.4203    2.4365    0.1084 -999.0000    3.6385 -999.0000 -999.0000 
2206.7520  124.4203    2.4365    0.1084 -999.0000    3.6385 -999.0000 -999.0000 
2206.9044  124.4203    2.4365    0.1084 -999.0000    3.6385 -999.0000 -999.0000 
2207.0568  124.4203    2.4365    0.1084 -999.0000    3.6385 -999.0000 -999.0000 
2207.2092  124.4203    2.4365    0.1084 -999.0000    3.6385 -999.0000 -999.0000 
2207.3616  124.4203    2.4365    0.1084 -999.0000    3.6385 -999.0000 -999.0000 
2207.5140  124.4203    2.4365    0.1084 -999.0000    3.6385 -999.0000 -999.0000 
2207.6664  124.4203    2.4365    0.1084 -999.0000    3.6385 -999.0000 -999.0000 
2207.8188  124.4203    2.4365    0.1084 -999.0000    3.6385 -999.0000 -999.0000 
2207.9712  124.4203    2.4365    0.1084 -999.0000    3.6385 -999.0000 -999.0000 
2208.1236  124.4203    2.4365    0.1084 -999.0000    3.6385 -999.0000 -999.0000 
2208.2760  124.4203    2.4365    0.1084 -999.0000    3.6385 -999.0000 -999.0000 
2208.4284  124.4203    2.4365    0.1084 -999.0000    3.6385 -999.0000 -999.0000 
2208.5808  124.4203    2.4365    0.1084 -999.0000    3.6385 -999.0000 -999.0000 
2208.7332  124.4203    2.4365    0.1084 -999.0000    3.6385 -999.0000 -999.0000 
2208.8856  124.4203    2.4365    0.1084 -999.0000    3.6385 -999.0000 -999.0000 
2209.0380  124.4203    2.4365    0.1084 -999.0000    3.6385 -999.0000 -999.0000 
2209.1904  124.4203    2.4365    0.1084 -999.0000    3.6385 -999.0000 -999.0000 
2209.3428  124.4203    2.4365    0.1084 -999.0000    3.6385 -999.0000 -999.0000 
2209.4952  124.4203    2.4365    0.1084 -999.0000    3.6385 -999.0000 -999.0000 
2209.6476  124.4203    2.4365    0.1084 -999.0000    3.6385 -999.0000 -999.0000 
2209.8000  124.4203    2.4365    0.1084 -999.0000    3.6385 -999.0000 -999.0000 
2209.9524  124.4203    2.4365    0.1084 -999.0000    3.6385 -999.0000 -999.0000 
2210.1048  124.4203    2.4365    0.1084 -999.0000    3.6385 -999.0000 -999.0000 
2210.2572  124.4203    2.4365    0.1084 -999.0000    3.6385 -999.0000 -999.0000 
2210.4096  124.4203    2.4365    0.1084 -999.0000    3.6385 -999.0000 -999.0000 
2210.5620  124.4203    2.4365    0.1084 -999.0000    3.6385 -999.0000 -999.0000 
2210.7144  124.4203    2.4365    0.1084 -999.0000    3.6385 -999.0000 -999.0000 
2210.8668  124.4203    2.4365    0.1084 -999.0000    3.6385 -999.0000 -999.0000 
2211.0192  124.4203    2.4365    0.1084 -999.0000    3.6385 -999.0000 -999.0000 
2211.1716  124.4203    2.4365    0.1084 -999.0000    3.6385 -999.0000 -999.0000 
2211.3240  124.4203    2.4365    0.1084 -999.0000    3.6385 -999.0000 -999.0000 
2211.4764  124.4203    2.4365    0.1084 -999.0000    3.6385 -999.0000 -999.0000 
2211.6288  124.4203    2.4365    0.1084 -999.0000    3.6385 -999.0000 -999.0000 
2211.7812  124.4203    2.4365    0.1084 -999.0000    3.6385 -999.0000 -999.0000 
2211.9336  124.4203    2.4365    0.1084 -999.0000    3.6385 -999.0000 -999.0000 
2212.0860  124.4203    2.4365    0.1084 -999.0000    3.6385 -999.0000 -999.0000 
2212.2384  124.4203    2.4365    0.1084 -999.0000    3.6385 -999.0000 -999.0000 
2212.3908  124.4203    2.4365    0.1084 -999.0000    3.6385 -999.0000 -999.0000 
2212.5432  124.4203    2.4365    0.1084 -999.0000    3.6385 -999.0000 -999.0000 
2212.6956  124.4203    2.4365    0.1084 -999.0000    3.6385 -999.0000 -999.0000 
2212.8480  124.4203    2.4365    0.1084 -999.0000    3.6385 -999.0000 -999.0000 
2213.0004  124.4203    2.4365    0.1084 -999.0000    3.6385 -999.0000 -999.0000 
2213.1528  124.4203    2.4365    0.1084 -999.0000    3.6385 -999.0000 -999.0000 
2213.3052  124.4203    2.4365    0.1084 -999.0000    3.6385 -999.0000 -999.0000 
2213.4576  124.4203    2.4365    0.1084 -999.0000    3.6385 -999.0000 -999.0000 
2213.6100  124.4203    2.4365    0.1084 -999.0000    3.6385 -999.0000 -999.0000 
2213.7624  124.4203    2.4365    0.1084 -999.0000    3.6385 -999.0000 -999.0000 
2213.9148  124.4203    2.4365    0.1084 -999.0000    3.6385 -999.0000 -999.0000 
2214.0672  124.4203    2.4365    0.1084 -999.0000    3.6385 -999.0000 -999.0000 
2214.2196  124.4203    2.4365    0.1084 -999.0000    3.6385 -999.0000 -999.0000 
2214.3720  124.4203    2.4365    0.1084 -999.0000    3.6385 -999.0000 -999.0000 
2214.5244  124.4203    2.4365    0.1084 -999.0000    3.6385 -999.0000 -999.0000 
2214.6768  124.4203    2.4365    0.1084 -999.0000    3.6385 -999.0000 -999.0000 
2214.8292  124.4203    2.4365    0.1084 -999.0000    3.6385 -999.0000 -999.0000 
2214.9816  124.4203    2.4365    0.1084 -999.0000    3.6385 -999.0000 -999.0000 
2215.1340  124.4203    2.4365    0.1084 -999.0000    3.6385 -999.0000 -999.0000 
2215.2864  124.4203    2.4365    0.1084 -999.0000    3.6385 -999.0000 -999.0000 
2215.4388  124.4203    2.4365    0.1084 -999.0000    3.6385 -999.0000 -999.0000 
2215.5912  124.4203    2.4365    0.1084 -999.0000    3.6385 -999.0000 -999.0000 
2215.7436  124.4203    2.4365    0.1084 -999.0000    3.6385 -999.0000 -999.0000 
2215.8960  124.4203    2.4365    0.1084 -999.0000    3.6385 -999.0000 -999.0000 
2216.0484  124.4203    2.4365    0.1084 -999.0000    3.6385 -999.0000 -999.0000 
2216.2008  124.4203    2.4365    0.1084 -999.0000    3.6385 -999.0000 -999.0000 
2216.3532  124.4203    2.4365    0.1084 -999.0000    3.6385 -999.0000 -999.0000 
2216.5056  124.4203    2.4365    0.1084 -999.0000    3.6385 -999.0000 -999.0000 
2216.6580  124.4203    2.4365    0.1084 -999.0000    3.6385 -999.0000 -999.0000 
2216.8104  124.4203    2.4365    0.1084 -999.0000    3.6385 -999.0000 -999.0000 
2216.9628  124.4203    2.4365    0.1084 -999.0000    3.6385 -999.0000 -999.0000 
2217.1152  124.4203    2.4365    0.1084 -999.0000    3.6385 -999.0000 -999.0000 
2217.2676  124.4203    2.4365    0.1084 -999.0000    3.6385 -999.0000 -999.0000 
2217.4200  124.4203    2.4365    0.1084 -999.0000    3.6385 -999.0000 -999.0000 
2217.5724  124.4203    2.4365    0.1084 -999.0000    3.6385 -999.0000 -999.0000 
2217.7248  124.4203    2.4365    0.1084 -999.0000    3.6385 -999.0000 -999.0000 
