~VERSION INFORMATION
 VERS.                 2.0:   CWLS LOG ASCII STANDARD - VERSION 2.0
 WRAP.                  NO:   SINGLE LINE PER DEPTH STEP
 CREA.                 01/02/2018 09:42:10
#CREATED USING DSPetro VERSION 5000.10.1.3 BY H191660 ON 01/02/2018 09:42:10
~WELL INFORMATION
#MNEM.UNIT       DATA                          DESCRIPTION MNEMONIC
#---------      ---------------------------   --------------------------
 STRT    .M         0.0000                    : START DEPTH
 STOP    .M         2934.9192                 : STOP DEPTH
 STEP    .M         0.1524                    : STEP VALUE
 NULL    .      -999.0000                     : NULL VALUE
 DATE    .      01/02/2018                    : LAS file Creation Date
 WELL .      1267-Charm-1                : Well Name
 COMP .      Neftex Exploration Insights : Company
 FLD  .                                  : Field
 UWI  .      ZAUWL_006843                : Unique Well Identifier (UWI)
 LOC  .                                  : Location
 RWS  .      -999                        : Def_Rw
 WST  .      -999                        : Def_Rwt
 SRVC .                                  : Contractor
~CURVE INFORMATION
#MNEM              UNIT       API CODE   Curve Type Comments
#----------  --------------- ----------  ---------- -----------
 DEPTH      .M                         : Depth       
 GR2_API    .API                       : gammaRay    Gamma Ray (API) - Measures the intensity of natural gamma-ray radiation emitted from formations containing radioactive elements, such as K, Th and U
 RHOB_G_CC  .g/cc                      : density     Bulk Density - Measures the density of bulk material, including any void space or other materials contained in the subject volume
 DRHO_G_CC  .g/cc                      : drho        Density Correction - Investigates the correction to the Bulk Density log; used as an indication of hole condition to validate the Bulk Density measure
 NPHI_v/v   .usl                       : neutron     Neutron Porosity - Measured with an neutron logging device calibrated to a given matrix (limestone, sandstone and dolomite) - unscaled
 PEF_B_E    .b/e-                      : PEF         Photoelectric Factor - A log of photoelectric absorption properties. Often expressed in an approximation unit barns/electron (b/e-)
 LITH       .                          : LITH        Lithology Curve
 LITH_v2    .                          : LITH        Lithology Curve
~A  DEPTH  GR2_API  RHOB_G_C  DRHO_G_C   NPHI_v/v  PEF_B_E     LITH    LITH_v2  
# ...
2127.3516  125.7113    2.3392    0.0650    0.2378    2.4753   37.0000   37.0000 
2127.5040  125.7113    2.3392    0.0650    0.2378    2.4753   37.0000   37.0000 
2127.6564  118.0247    2.3305    0.0668    0.2425    2.4236   37.0000   37.0000 
2127.8088  118.0247    2.3305    0.0668    0.2425    2.4236   37.0000   37.0000 
2127.9612  128.8643    2.3457    0.0707    0.2282    2.4869   37.0000   37.0000 
2128.1136  128.8643    2.3457    0.0707    0.2282    2.4869   37.0000   37.0000 
2128.2660  157.0299    2.4095    0.0769    0.2755    2.6520   37.0000   37.0000 
2128.4184  157.0299    2.4095    0.0769    0.2755    2.6520   37.0000   37.0000 
2128.5708  182.7310    2.4513    0.0882    0.2803    2.6929   37.0000   37.0000 
2128.7232  182.7310    2.4513    0.0882    0.2803    2.6929   37.0000   37.0000 
2128.8756  184.1416    2.4705    0.0889    0.2856    2.6919   37.0000   37.0000 
2129.0280  182.6420    2.4743    0.0828    0.2786    2.7753   37.0000   37.0000 
2129.1804  183.4292    2.4747    0.0814    0.2843    2.7981   37.0000   37.0000 
2129.3328  183.1208    2.4779    0.0849    0.3210    2.8839   37.0000   37.0000 
2129.4852  179.6069    2.4790    0.0889    0.2830    2.8910   37.0000   37.0000 
2129.6376  176.0977    2.4799    0.0882    0.2812    2.9532   37.0000   37.0000 
2129.7900  170.1132    2.4731    0.0847    0.2330    2.9905   37.0000   37.0000 
2129.9424  157.8772    2.4489    0.0810    0.2449    2.9580   37.0000   37.0000 
2130.0948  134.1722    2.4079    0.0772    0.2369    2.8358   37.0000   27.0000 
2130.2472  100.9971    2.3633    0.0746    0.2252    2.6348   37.0000   27.0000 
2130.3996   76.4663    2.3261    0.0691    0.2102    2.4791   27.0000   27.0000 
2130.5520   66.7490    2.3229    0.0735    0.1942    2.3991   27.0000   27.0000 
2130.7044   66.7490    2.3229    0.0735    0.1942    2.3991   27.0000   27.0000 
2130.8568   61.7555    2.3324    0.0782    0.1948    2.4243   27.0000   27.0000 
2131.0092   61.7555    2.3324    0.0782    0.1948    2.4243   27.0000   27.0000 
2131.1616   52.4224    2.3367    0.0724    0.1748    2.3848   27.0000   27.0000 
2131.3140   52.4224    2.3367    0.0724    0.1748    2.3848   27.0000   27.0000 
2131.4664   49.9335    2.3688    0.0709    0.1596    2.3171   27.0000   27.0000 
2131.6188   49.9335    2.3688    0.0709    0.1596    2.3171   27.0000   27.0000 
2131.7712   44.5894    2.3870    0.0753    0.1607    2.3351   27.0000   27.0000 
2131.9236   44.5894    2.3870    0.0753    0.1607    2.3351   27.0000   27.0000 
2132.0760   41.9593    2.3920    0.0728    0.1477    2.3284   27.0000   27.0000 
2132.2284   43.5148    2.3949    0.0662    0.1415    2.3102   27.0000   27.0000 
2132.3808   43.6256    2.3905    0.0564    0.1576    2.2624   27.0000   27.0000 
2132.5332   44.4049    2.3996    0.0628    0.1571    2.3101   27.0000   27.0000 
2132.6856   43.3538    2.4020    0.0746    0.1507    2.3763   27.0000   27.0000 
2132.8380   46.2121    2.3994    0.0868    0.1523    2.4410   27.0000   27.0000 
2132.9904   56.1122    2.3840    0.0864    0.1632    2.4620   27.0000   27.0000 
2133.1428   68.2208    2.3761    0.0820    0.1617    2.4774   36.0000   27.0000 
2133.2952   71.1004    2.3717    0.0812    0.1628    2.4766   36.0000   27.0000 
2133.4476   64.0167    2.3640    0.0744    0.1721    2.3758   27.0000   27.0000 
2133.6000   55.8303    2.3516    0.0647    0.1774    2.2397   36.0000   27.0000 
2133.7524   53.6339    2.3474    0.0612    0.1768    2.1998   36.0000   27.0000 
2133.9048   53.6339    2.3474    0.0612    0.1768    2.1998   36.0000   27.0000 
2134.0572   49.5451    2.3414    0.0622    0.1760    2.1555   36.0000   27.0000 
2134.2096   49.5451    2.3414    0.0622    0.1760    2.1555   36.0000   27.0000 
2134.3620   57.6703    2.3587    0.0615    0.1739    2.2034   36.0000   27.0000 
2134.5144   57.6703    2.3587    0.0615    0.1739    2.2034   36.0000   27.0000 
2134.6668   62.2146    2.3677    0.0631    0.1763    2.2686   36.0000   27.0000 
2134.8192   62.2146    2.3677    0.0631    0.1763    2.2686   36.0000   27.0000 
2134.9716   53.6472    2.3660    0.0640 -999.0000    2.2129   36.0000   27.0000 
2135.1240   52.8807    2.3622    0.0628 -999.0000    2.2086   36.0000 -999.0000 
2135.2764   51.3822    2.3614    0.0636 -999.0000    2.1964   36.0000 -999.0000 
2135.4288   53.1039    2.3584    0.0636 -999.0000    2.2111   36.0000 -999.0000 
2135.5812   54.2043    2.3568    0.0635 -999.0000    2.2142   36.0000 -999.0000 
2135.7336   57.2185    2.3563    0.0627 -999.0000    2.2304   36.0000 -999.0000 
2135.8860   58.1487    2.3563    0.0618 -999.0000    2.2316   36.0000 -999.0000 
2136.0384   56.4610    2.3588    0.0607 -999.0000    2.2406   36.0000 -999.0000 
2136.1908   52.7454    2.3615    0.0601 -999.0000    2.2398   36.0000 -999.0000 
2136.3432   50.1016    2.3628    0.0608 -999.0000    2.2363   36.0000 -999.0000 
2136.4956   49.4826    2.3610    0.0614 -999.0000    2.2480   36.0000 -999.0000 
2136.6480   50.1917    2.3587    0.0631 -999.0000    2.2518   36.0000 -999.0000 
2136.8004   50.5346    2.3535    0.0640 -999.0000    2.2424   36.0000 -999.0000 
2136.9528   52.6409    2.3472    0.0649 -999.0000    2.2089   36.0000 -999.0000 
2137.1052   52.6409    2.3472    0.0649 -999.0000    2.2089   36.0000 -999.0000 
2137.2576   64.0612    2.3450    0.0675 -999.0000    2.2947   36.0000 -999.0000 
2137.4100   64.0612    2.3450    0.0675 -999.0000    2.2947   36.0000 -999.0000 
2137.5624   65.4184    2.3528    0.0647 -999.0000    2.2877   36.0000 -999.0000 
2137.7148   65.4184    2.3528    0.0647 -999.0000    2.2877   36.0000 -999.0000 
2137.8672   59.8201    2.3533    0.0665 -999.0000    2.2756   36.0000 -999.0000 
2138.0196   59.8201    2.3533    0.0665 -999.0000    2.2756   36.0000 -999.0000 
2138.1720   51.4132    2.3448    0.0669 -999.0000    2.3000   36.0000 -999.0000 
2138.3244   48.3229    2.3502    0.0697 -999.0000    2.3393   36.0000 -999.0000 
2138.4768   48.0439    2.3545    0.0692 -999.0000    2.3416   36.0000 -999.0000 
2138.6292   48.0690    2.3599    0.0715 -999.0000    2.3702   36.0000 -999.0000 
2138.7816   50.0979    2.3598    0.0696 -999.0000    2.3523   36.0000 -999.0000 
2138.9340   54.2366    2.3580    0.0680 -999.0000    2.3586   36.0000 -999.0000 
2139.0864   58.4044    2.3544    0.0658 -999.0000    2.3406   36.0000 -999.0000 
2139.2388   55.4504    2.3327    0.0652 -999.0000    2.3718   36.0000 -999.0000 
2139.3912   50.4765    2.3341    0.0653 -999.0000    2.3601   36.0000 -999.0000 
2139.5436   46.1050    2.3297    0.0640 -999.0000    2.3642   36.0000 -999.0000 
2139.6960   46.8325    2.3297    0.0640 -999.0000    2.3642   36.0000 -999.0000 
2139.8484   49.9992    2.3297    0.0640 -999.0000    2.3642   36.0000 -999.0000 
2140.0008   53.0881    2.3297    0.0640 -999.0000    2.3642   36.0000 -999.0000 
2140.1532   54.3430    2.3297    0.0640 -999.0000    2.3642   36.0000 -999.0000 
2140.3056   54.3430    2.3297    0.0640 -999.0000    2.3642   36.0000 -999.0000 
2140.4580   46.2758    2.3297    0.0640 -999.0000    2.3642   36.0000 -999.0000 
2140.6104   46.2758    2.3297    0.0640 -999.0000    2.3642   36.0000 -999.0000 
2140.7628   36.5274    2.3297    0.0640 -999.0000    2.3642   36.0000 -999.0000 
2140.9152   36.5274    2.3297    0.0640 -999.0000    2.3642   36.0000 -999.0000 
2141.0676   36.5274    2.3297    0.0640 -999.0000    2.3642   36.0000 -999.0000 
2141.2200   36.5274    2.3297    0.0640 -999.0000    2.3642   36.0000 -999.0000 
2141.3724   36.5274    2.3192    0.0475 -999.0000    2.4937   36.0000 -999.0000 
2141.5248   36.5274    2.5093    0.0751 -999.0000    2.5842   36.0000 -999.0000 
2141.6772   36.5274    2.5064    0.0740 -999.0000    2.5287   36.0000 -999.0000 
2141.8296   36.5274    2.5048    0.0722 -999.0000    2.4393   36.0000 -999.0000 
2141.9820   36.5274    2.4888    0.0715 -999.0000    2.3808   27.0000 -999.0000 
2142.1344   36.5274    2.4674    0.0724 -999.0000    2.3369   27.0000 -999.0000 
2142.2868   36.5274    2.4555    0.0752 -999.0000    2.3085   27.0000 -999.0000 
