~VERSION INFORMATION
 VERS.                 2.0:   CWLS LOG ASCII STANDARD - VERSION 2.0
 WRAP.                  NO:   SINGLE LINE PER DEPTH STEP
 CREA.                 01/02/2018 09:42:10
#CREATED USING DSPetro VERSION 5000.10.1.3 BY H191660 ON 01/02/2018 09:42:10
~WELL INFORMATION
#MNEM.UNIT       DATA                          DESCRIPTION MNEMONIC
#---------      ---------------------------   --------------------------
 STRT    .M         0.0000                    : START DEPTH
 STOP    .M         2934.9192                 : STOP DEPTH
 STEP    .M         0.1524                    : STEP VALUE
 NULL    .      -999.0000                     : NULL VALUE
 DATE    .      01/02/2018                    : LAS file Creation Date
 WELL .      1267-Charm-1                : Well Name
 COMP .      Neftex Exploration Insights : Company
 FLD  .                                  : Field
 UWI  .      ZAUWL_006843                : Unique Well Identifier (UWI)
 LOC  .                                  : Location
 RWS  .      -999                        : Def_Rw
 WST  .      -999                        : Def_Rwt
 SRVC .                                  : Contractor
~CURVE INFORMATION
#MNEM              UNIT       API CODE   Curve Type Comments
#----------  --------------- ----------  ---------- -----------
 DEPTH      .M                         : Depth       
 GR2_API    .API                       : gammaRay    Gamma Ray (API) - Measures the intensity of natural gamma-ray radiation emitted from formations containing radioactive elements, such as K, Th and U
 RHOB_G_CC  .g/cc                      : density     Bulk Density - Measures the density of bulk material, including any void space or other materials contained in the subject volume
 DRHO_G_CC  .g/cc                      : drho        Density Correction - Investigates the correction to the Bulk Density log; used as an indication of hole condition to validate the Bulk Density measure
 NPHI_v/v   .usl                       : neutron     Neutron Porosity - Measured with an neutron logging device calibrated to a given matrix (limestone, sandstone and dolomite) - unscaled
 PEF_B_E    .b/e-                      : PEF         Photoelectric Factor - A log of photoelectric absorption properties. Often expressed in an approximation unit barns/electron (b/e-)
 LITH       .                          : LITH        Lithology Curve
 LITH_v2    .                          : LITH        Lithology Curve
~A  DEPTH  GR2_API  RHOB_G_C  DRHO_G_C   NPHI_v/v  PEF_B_E     LITH    LITH_v2  
# ...
1659.6360  102.7900    2.3103    0.0753    0.3219    3.3793   37.0000   37.0000 
1659.7884  100.1641    2.3099    0.0752    0.3000    3.4351   37.0000   37.0000 
1659.9408  100.3367    2.3067    0.0751    0.3117    3.3752   37.0000   37.0000 
1660.0932   98.4702    2.3014    0.0710    0.3063    3.2457   37.0000   37.0000 
1660.2456   99.4501    2.3003    0.0653    0.2970    3.1638   37.0000   37.0000 
1660.3980   99.1778    2.3070    0.0624    0.3039    3.1408   37.0000   37.0000 
1660.5504   99.6122    2.3078    0.0590    0.2897    3.1538   37.0000   37.0000 
1660.7028   99.6122    2.3078    0.0590    0.2897    3.1538   37.0000   37.0000 
1660.8552   94.4002    2.3121    0.0583    0.2752    3.2108   37.0000   37.0000 
1661.0076   94.4002    2.3121    0.0583    0.2752    3.2108   37.0000   37.0000 
1661.1600   96.8497    2.3088    0.0599    0.3166    3.2191   37.0000   37.0000 
1661.3124   96.8497    2.3088    0.0599    0.3166    3.2191   37.0000   37.0000 
1661.4648  100.0237    2.3073    0.0627    0.3009    3.2241   37.0000   37.0000 
1661.6172  100.0237    2.3073    0.0627    0.3009    3.2241   37.0000   37.0000 
1661.7696   97.6771    2.3094    0.0646    0.3403    3.2785   37.0000   37.0000 
1661.9220   97.6771    2.3094    0.0646    0.3403    3.2785   37.0000   37.0000 
1662.0744   99.8608    2.3036    0.0672    0.3188    3.3305   37.0000   37.0000 
1662.2268   97.8299    2.3076    0.0703    0.2860    3.3380   37.0000   37.0000 
1662.3792   95.9692    2.3073    0.0694    0.3287    3.3571   37.0000   37.0000 
1662.5316   97.8653    2.3056    0.0656    0.3266    3.3334   37.0000   37.0000 
1662.6840   99.1844    2.3019    0.0602    0.3378    3.2923   37.0000   37.0000 
1662.8364   99.4124    2.3032    0.0585    0.3391    3.2465   37.0000   37.0000 
1662.9888   95.6496    2.3058    0.0604    0.3339    3.2267   37.0000   37.0000 
1663.1412   92.2736    2.3100    0.0651    0.3307    3.2419   37.0000   37.0000 
1663.2936   90.7363    2.3102    0.0661    0.2959    3.2212   37.0000   37.0000 
1663.4460   93.7949    2.3077    0.0655    0.3132    3.2551   37.0000   37.0000 
1663.5984   93.2538    2.3031    0.0649    0.3159    3.2474   37.0000   37.0000 
1663.7508   93.7028    2.2976    0.0664    0.3104    3.3316   37.0000   37.0000 
1663.9032   93.7028    2.2976    0.0664    0.3104    3.3316   37.0000   37.0000 
1664.0556   93.7580    2.3025    0.0684    0.2875    3.3790   37.0000   37.0000 
1664.2080   93.7580    2.3025    0.0684    0.2875    3.3790   37.0000   37.0000 
1664.3604   94.7647    2.3098    0.0689    0.3411    3.2775   37.0000   37.0000 
1664.5128   94.7647    2.3098    0.0689    0.3411    3.2775   37.0000   37.0000 
1664.6652   93.9266    2.3077    0.0774    0.3618    3.3256   37.0000   37.0000 
1664.8176   93.9266    2.3077    0.0774    0.3618    3.3256   37.0000   37.0000 
1664.9700   98.1912    2.3005    0.0747    0.3224    3.3027   37.0000   37.0000 
1665.1224   98.1912    2.3005    0.0747    0.3224    3.3027   37.0000   37.0000 
1665.2748  102.0003    2.2994    0.0646    0.3487    3.2618   37.0000   37.0000 
1665.4272  101.7382    2.3048    0.0663    0.3060    3.3061   37.0000   37.0000 
1665.5796  105.2911    2.3060    0.0599    0.3421    3.3069   37.0000   37.0000 
1665.7320  105.4505    2.3168    0.0597    0.3094    3.3201   37.0000   37.0000 
1665.8844  107.1527    2.3259    0.0605    0.3199    3.3404   37.0000   37.0000 
1666.0368  106.6305    2.3315    0.0531    0.3271    3.5241   37.0000   37.0000 
1666.1892  106.3425    2.3675    0.0628    0.3317    3.7064   37.0000   37.0000 
1666.3416  101.5525    2.3676    0.0489    0.3110    4.0873   37.0000   37.0000 
1666.4940   99.1090    2.3930    0.0651    0.3068    4.2379   37.0000   37.0000 
1666.6464   99.9077    2.3767    0.0630    0.3147    4.3295   37.0000   37.0000 
1666.7988  102.8599    2.3861    0.0803    0.2969    4.0613   37.0000   37.0000 
1666.9512  107.5257    2.3725    0.0823    0.3272    3.9984   37.0000   37.0000 
1667.1036  107.5257    2.3725    0.0823    0.3272    3.9984   37.0000   37.0000 
1667.2560  108.2442    2.3499    0.0759    0.3356    3.8301   37.0000   37.0000 
1667.4084  108.2442    2.3499    0.0759    0.3356    3.8301   37.0000   37.0000 
1667.5608  107.7327    2.3382    0.0724    0.3426    3.6651   37.0000   37.0000 
1667.7132  107.7327    2.3382    0.0724    0.3426    3.6651   37.0000   37.0000 
1667.8656  107.9218    2.3417    0.0722    0.3427    3.5216   37.0000   37.0000 
1668.0180  107.9218    2.3417    0.0722    0.3427    3.5216   37.0000   37.0000 
1668.1704  114.1031    2.3457    0.0819    0.3457    3.5892   37.0000   37.0000 
1668.3228  114.1031    2.3457    0.0819    0.3457    3.5892   37.0000   37.0000 
1668.4752  112.0208    2.3438    0.0821    0.3750    3.5452   37.0000   37.0000 
1668.6276  108.3435    2.3369    0.0781    0.3908    3.5328   37.0000   37.0000 
1668.7800  110.6705    2.3401    0.0800    0.3333    3.5144   37.0000   37.0000 
1668.9324  109.4090    2.3391    0.0760    0.3465    3.4865   37.0000   37.0000 
1669.0848  108.8168    2.3382    0.0756    0.2762    3.5076   37.0000   37.0000 
1669.2372  110.4655    2.3351    0.0719    0.2954    3.5003   37.0000   37.0000 
1669.3896  113.0334    2.3370    0.0725    0.3290    3.5109   37.0000   37.0000 
1669.5420  112.5542    2.3384    0.0719    0.3004    3.4783   37.0000   37.0000 
1669.6944  109.4886    2.3350    0.0666    0.3190    3.4625   37.0000   37.0000 
1669.8468  104.6208    2.3376    0.0641    0.3222    3.4563   37.0000   37.0000 
1669.9992  102.1193    2.3441    0.0568    0.3064    3.4313   37.0000   37.0000 
1670.1516  102.1220    2.3535    0.0566    0.2873    3.3790   37.0000   37.0000 
1670.3040  102.1220    2.3535    0.0566    0.2873    3.3790   37.0000   37.0000 
1670.4564  106.3189    2.3361    0.0515    0.3191    3.2347   37.0000   37.0000 
1670.6088  106.3189    2.3361    0.0515    0.3191    3.2347   37.0000   37.0000 
1670.7612  107.4829    2.3282    0.0537    0.3257    3.2018   37.0000   37.0000 
1670.9136  107.4829    2.3282    0.0537    0.3257    3.2018   37.0000   37.0000 
1671.0660  109.6778    2.3217    0.0406    0.3066    3.1254   37.0000   37.0000 
1671.2184  109.6778    2.3217    0.0406    0.3066    3.1254   37.0000   37.0000 
1671.3708  109.3451    2.3480    0.0668    0.3236    3.4865   37.0000   37.0000 
1671.5232  109.3451    2.3480    0.0668    0.3236    3.4865   37.0000   37.0000 
1671.6756  104.8375    2.3487    0.0716    0.3200    3.5779   37.0000   37.0000 
1671.8280  101.8694    2.3539    0.0748    0.3034    3.5434   37.0000   37.0000 
1671.9804  103.4022    2.3527    0.0732    0.3424    3.5351   37.0000   37.0000 
1672.1328  104.7594    2.3575    0.0735    0.3024    3.5388   37.0000   37.0000 
1672.2852  104.3928    2.3548    0.0706    0.3015    3.5034   37.0000   37.0000 
1672.4376  105.8767    2.3528    0.0663    0.3093    3.4469   37.0000   37.0000 
1672.5900  106.9244    2.3520    0.0629    0.3111    3.4334   37.0000   37.0000 
1672.7424  105.2818    2.3561    0.0610    0.3010    3.5262   37.0000   37.0000 
1672.8948  104.0736    2.3666    0.0622    0.2919    3.6211   37.0000   37.0000 
1673.0472  102.7407    2.3712    0.0610    0.3190    3.6763   37.0000   37.0000 
1673.1996  102.3034    2.3896    0.0591    0.2950    3.8287   37.0000   37.0000 
1673.3520   99.0865    2.3858    0.0450    0.3005    4.1946   37.0000   37.0000 
1673.5044   99.0865    2.3858    0.0450    0.3005    4.1946   37.0000   37.0000 
1673.6568   99.3824    2.3800    0.0433    0.2884    4.1434   37.0000   37.0000 
1673.8092   99.3824    2.3800    0.0433    0.2884    4.1434   37.0000   37.0000 
1673.9616  102.2057    2.3895    0.0550    0.3023    3.7101   37.0000   37.0000 
1674.1140  102.2057    2.3895    0.0550    0.3023    3.7101   37.0000   37.0000 
1674.2664  101.3801    2.3775    0.0520    0.3236    3.9623   37.0000   37.0000 
1674.4188  101.3801    2.3775    0.0520    0.3236    3.9623   37.0000   37.0000 
1674.5712  101.0010    2.3566    0.0524    0.2973    3.9160   37.0000   37.0000 
