~VERSION INFORMATION
 VERS.                 2.0:   CWLS LOG ASCII STANDARD - VERSION 2.0
 WRAP.                  NO:   SINGLE LINE PER DEPTH STEP
 CREA.                 01/02/2018 09:42:10
#CREATED USING DSPetro VERSION 5000.10.1.3 BY H191660 ON 01/02/2018 09:42:10
~WELL INFORMATION
#MNEM.UNIT       DATA                          DESCRIPTION MNEMONIC
#---------      ---------------------------   --------------------------
 STRT    .M         0.0000                    : START DEPTH
 STOP    .M         2934.9192                 : STOP DEPTH
 STEP    .M         0.1524                    : STEP VALUE
 NULL    .      -999.0000                     : NULL VALUE
 DATE    .      01/02/2018                    : LAS file Creation Date
 WELL .      1267-Charm-1                : Well Name
 COMP .      Neftex Exploration Insights : Company
 FLD  .                                  : Field
 UWI  .      ZAUWL_006843                : Unique Well Identifier (UWI)
 LOC  .                                  : Location
 RWS  .      -999                        : Def_Rw
 WST  .      -999                        : Def_Rwt
 SRVC .                                  : Contractor
~CURVE INFORMATION
#MNEM              UNIT       API CODE   Curve Type Comments
#----------  --------------- ----------  ---------- -----------
 DEPTH      .M                         : Depth       
 GR2_API    .API                       : gammaRay    Gamma Ray (API) - Measures the intensity of natural gamma-ray radiation emitted from formations containing radioactive elements, such as K, Th and U
 RHOB_G_CC  .g/cc                      : density     Bulk Density - Measures the density of bulk material, including any void space or other materials contained in the subject volume
 DRHO_G_CC  .g/cc                      : drho        Density Correction - Investigates the correction to the Bulk Density log; used as an indication of hole condition to validate the Bulk Density measure
 NPHI_v/v   .usl                       : neutron     Neutron Porosity - Measured with an neutron logging device calibrated to a given matrix (limestone, sandstone and dolomite) - unscaled
 PEF_B_E    .b/e-                      : PEF         Photoelectric Factor - A log of photoelectric absorption properties. Often expressed in an approximation unit barns/electron (b/e-)
 LITH       .                          : LITH        Lithology Curve
 LITH_v2    .                          : LITH        Lithology Curve
~A  DEPTH  GR2_API  RHOB_G_C  DRHO_G_C   NPHI_v/v  PEF_B_E     LITH    LITH_v2  
# ...
1388.0592   84.2699    2.2288    0.0721    0.3999    3.5031   22.0000   22.0000 
1388.2116   84.2699    2.2288    0.0721    0.3999    3.5031   22.0000   22.0000 
1388.3640   82.0889    2.2134    0.0662    0.4069    3.4574   22.0000   22.0000 
1388.5164   82.0889    2.2134    0.0662    0.4069    3.4574   22.0000   22.0000 
1388.6688   82.5287    2.2056    0.0570    0.3857    3.2759   22.0000   22.0000 
1388.8212   82.5287    2.2056    0.0570    0.3857    3.2759   22.0000   22.0000 
1388.9736   75.1932    2.2087    0.0631    0.4162    3.2693   22.0000   22.0000 
1389.1260   76.2644    2.2022    0.0632    0.4186    3.2143   22.0000   22.0000 
1389.2784   80.5979    2.1909    0.0588    0.4132    3.1690   22.0000   22.0000 
1389.4308   83.4058    2.1938    0.0563    0.4085    3.1640   22.0000   22.0000 
1389.5832   82.7924    2.2120    0.0654    0.3957    3.2788   22.0000   22.0000 
1389.7356   81.2616    2.2263    0.0707    0.4040    3.3710   22.0000   22.0000 
1389.8880   78.7142    2.2287    0.0715    0.3418    3.3967   22.0000   22.0000 
1390.0404   77.7397    2.2208    0.0651    0.3815    3.3585   22.0000   22.0000 
1390.1928   77.5493    2.2088    0.0536    0.4008    3.3019   22.0000   22.0000 
1390.3452   79.2884    2.2024    0.0479    0.4440    3.2768   22.0000   22.0000 
1390.4976   80.3523    2.2044    0.0527    0.4119    3.3208   22.0000   22.0000 
1390.6500   82.3031    2.2138    0.0685    0.3485    3.4387   22.0000   22.0000 
1390.8024   82.3031    2.2138    0.0685    0.3485    3.4387   22.0000   22.0000 
1390.9548   81.5850    2.2129    0.0774    0.4333    3.4906   22.0000   22.0000 
1391.1072   81.5850    2.2129    0.0774    0.4333    3.4906   22.0000   22.0000 
1391.2596   81.9132    2.2136    0.0686    0.4311    3.3365   22.0000   22.0000 
1391.4120   81.9132    2.2136    0.0686    0.4311    3.3365   22.0000   22.0000 
1391.5644   79.8834    2.2222    0.0760    0.4390    3.4206   22.0000   22.0000 
1391.7168   79.8834    2.2222    0.0760    0.4390    3.4206   22.0000   22.0000 
1391.8692   86.3997    2.2316    0.0754    0.3599    3.4845   22.0000   22.0000 
1392.0216   86.3997    2.2316    0.0754    0.3599    3.4845   22.0000   22.0000 
1392.1740   77.6033    2.2513    0.0757    0.3701    3.5984   22.0000   22.0000 
1392.3264   73.6928    2.2614    0.0794    0.3403    3.6605   22.0000   22.0000 
1392.4788   70.4741    2.2620    0.0840    0.3700    3.7191   22.0000   22.0000 
1392.6312   70.7464    2.2529    0.0841    0.3197    3.6897   22.0000   22.0000 
1392.7836   73.9517    2.2483    0.0817    0.3462    3.5926   22.0000   22.0000 
1392.9360   75.1656    2.2479    0.0753    0.3358    3.4300   22.0000   22.0000 
1393.0884   76.5040    2.2414    0.0787    0.3116    3.2988   22.0000   22.0000 
1393.2408   73.4801    2.2112    0.0776    0.3571    3.2455   22.0000   22.0000 
1393.3932   71.6721    2.1796    0.0740    0.3823    3.2053   22.0000   22.0000 
1393.5456   68.5268    2.1661    0.0663    0.4192    3.1739   22.0000   22.0000 
1393.6980   69.2685    2.1745    0.0648    0.4188    3.1448   22.0000   22.0000 
1393.8504   71.2459    2.1930    0.0680    0.3492    3.1617   22.0000   22.0000 
1394.0028   71.2459    2.1930    0.0680    0.3492    3.1617   22.0000   22.0000 
1394.1552   75.6701    2.2021    0.0652    0.3628    3.2207   22.0000   22.0000 
1394.3076   75.6701    2.2021    0.0652    0.3628    3.2207   22.0000   22.0000 
1394.4600   79.5669    2.2095    0.0599    0.4238    3.2119   22.0000   22.0000 
1394.6124   79.5669    2.2095    0.0599    0.4238    3.2119   22.0000   22.0000 
1394.7648   87.7443    2.2362    0.0634    0.4133    3.3155   22.0000   22.0000 
1394.9172   87.7443    2.2362    0.0634    0.4133    3.3155   22.0000   22.0000 
1395.0696   94.9783    2.2474    0.0577    0.4833    3.3827   22.0000   22.0000 
1395.2220   94.9783    2.2474    0.0577    0.4833    3.3827   22.0000   22.0000 
1395.3744   80.7478    2.2689    0.0529    0.3790    3.2243   22.0000   22.0000 
1395.5268   72.4943    2.2539    0.0666    0.4524    3.1526   22.0000   22.0000 
1395.6792   66.0151    2.2044    0.0728    0.3397    3.1292   22.0000   22.0000 
1395.8316   65.9150    2.1597    0.0725    0.3572    3.1225   22.0000   22.0000 
1395.9840   63.7740    2.1338    0.0608    0.3276    3.0873   18.0000   36.0000 
1396.1364   61.9762    2.1451    0.0589    0.3449    3.0621   18.0000   22.0000 
1396.2888   59.3644    2.1626    0.0599    0.3655    3.1018   22.0000   22.0000 
1396.4412   61.2945    2.1799    0.0529    0.3630    3.1146   22.0000   22.0000 
1396.5936   61.8168    2.1872    0.0450    0.3801    3.1011   22.0000   22.0000 
1396.7460   65.3648    2.1996    0.0459    0.3862    3.1069   22.0000   22.0000 
1396.8984   69.6688    2.1998    0.0520    0.3926    3.1591   22.0000   22.0000 
1397.0508   72.7624    2.2022    0.0576    0.3995    3.2134   22.0000   22.0000 
1397.2032   72.7624    2.2022    0.0576    0.3995    3.2134   22.0000   22.0000 
1397.3556   76.9966    2.2105    0.0593    0.3666    3.2564   22.0000   22.0000 
1397.5080   76.9966    2.2105    0.0593    0.3666    3.2564   22.0000   22.0000 
1397.6604   83.9316    2.2194    0.0518    0.3797    3.2808   22.0000   22.0000 
1397.8128   83.9316    2.2194    0.0518    0.3797    3.2808   22.0000   22.0000 
1397.9652   85.5274    2.2576    0.0679    0.4401    3.4026   22.0000   22.0000 
1398.1176   85.5274    2.2576    0.0679    0.4401    3.4026   22.0000   22.0000 
1398.2700   82.4761    2.2749    0.0729    0.3758    3.3936   22.0000   22.0000 
1398.4224   82.4761    2.2749    0.0729    0.3758    3.3936   22.0000   22.0000 
1398.5748   81.8582    2.2234    0.0773    0.3687    3.3893   22.0000   22.0000 
1398.7272   81.1204    2.1975    0.0772    0.3736    3.3316   22.0000   22.0000 
1398.8796   79.8395    2.1901    0.0774    0.3079    3.3243   18.0000   22.0000 
1399.0320   75.5124    2.2036    0.0793    0.4193    3.3664   22.0000   22.0000 
1399.1844   79.1851    2.2218    0.0763    0.3870    3.4119   22.0000   22.0000 
1399.3368   83.3158    2.2427    0.0737    0.3762    3.4451   22.0000   22.0000 
1399.4892   87.3367    2.2534    0.0690    0.3513    3.4321   22.0000   22.0000 
1399.6416   86.8947    2.2623    0.0721    0.3273    3.4324   22.0000   22.0000 
1399.7940   85.3729    2.2462    0.0715    0.3627    3.3671   22.0000   22.0000 
1399.9464   83.8963    2.2272    0.0754    0.3808    3.3293   22.0000   22.0000 
1400.0988   83.9487    2.2023    0.0712    0.3652    3.2915   22.0000   22.0000 
1400.2512   85.8207    2.1989    0.0708    0.3271    3.3191   22.0000   22.0000 
1400.4036   85.8207    2.1989    0.0708    0.3271    3.3191   22.0000   22.0000 
1400.5560   79.7257    2.2234    0.0716    0.3163    3.3475   22.0000   22.0000 
1400.7084   79.7257    2.2234    0.0716    0.3163    3.3475   22.0000   22.0000 
1400.8608   72.6481    2.2677    0.0733    0.3221    3.3773   22.0000   22.0000 
1401.0132   72.6481    2.2677    0.0733    0.3221    3.3773   22.0000   22.0000 
1401.1656   73.5194    2.2893    0.0773    0.3207    3.4736   22.0000   22.0000 
1401.3180   73.5194    2.2893    0.0773    0.3207    3.4736   22.0000   22.0000 
1401.4704   85.5563    2.2604    0.0650    0.3712    3.4955   22.0000   22.0000 
1401.6228   85.5563    2.2604    0.0650    0.3712    3.4955   22.0000   22.0000 
1401.7752   94.1519    2.2332    0.0628    0.3565    3.3981   22.0000   22.0000 
1401.9276   87.1790    2.2218    0.0668    0.3684    3.3144   22.0000   22.0000 
1402.0800   81.0801    2.2037    0.0580    0.4454    3.2047   22.0000   22.0000 
1402.2324   80.8892    2.1991    0.0552    0.3947    3.1215   22.0000   22.0000 
1402.3848   82.4326    2.1955    0.0525    0.3610    3.1337   22.0000   22.0000 
1402.5372   86.6286    2.2100    0.0566    0.4695    3.2220   22.0000   22.0000 
1402.6896   86.0418    2.2154    0.0539    0.4381    3.2142   22.0000   22.0000 
1402.8420   85.8549    2.2191    0.0556    0.4187    3.1751   22.0000   22.0000 
1402.9944   82.9988    2.2028    0.0521    0.4218    3.1313   22.0000   22.0000 
