~VERSION INFORMATION
 VERS.                 2.0:   CWLS LOG ASCII STANDARD - VERSION 2.0
 WRAP.                  NO:   SINGLE LINE PER DEPTH STEP
 CREA.                 01/02/2018 09:42:10
#CREATED USING DSPetro VERSION 5000.10.1.3 BY H191660 ON 01/02/2018 09:42:10
~WELL INFORMATION
#MNEM.UNIT       DATA                          DESCRIPTION MNEMONIC
#---------      ---------------------------   --------------------------
 STRT    .M         0.0000                    : START DEPTH
 STOP    .M         2934.9192                 : STOP DEPTH
 STEP    .M         0.1524                    : STEP VALUE
 NULL    .      -999.0000                     : NULL VALUE
 DATE    .      01/02/2018                    : LAS file Creation Date
 WELL .      1267-Charm-1                : Well Name
 COMP .      Neftex Exploration Insights : Company
 FLD  .                                  : Field
 UWI  .      ZAUWL_006843                : Unique Well Identifier (UWI)
 LOC  .                                  : Location
 RWS  .      -999                        : Def_Rw
 WST  .      -999                        : Def_Rwt
 SRVC .                                  : Contractor
~CURVE INFORMATION
#MNEM              UNIT       API CODE   Curve Type Comments
#----------  --------------- ----------  ---------- -----------
 DEPTH      .M                         : Depth       
 GR2_API    .API                       : gammaRay    Gamma Ray (API) - Measures the intensity of natural gamma-ray radiation emitted from formations containing radioactive elements, such as K, Th and U
 RHOB_G_CC  .g/cc                      : density     Bulk Density - Measures the density of bulk material, including any void space or other materials contained in the subject volume
 DRHO_G_CC  .g/cc                      : drho        Density Correction - Investigates the correction to the Bulk Density log; used as an indication of hole condition to validate the Bulk Density measure
 NPHI_v/v   .usl                       : neutron     Neutron Porosity - Measured with an neutron logging device calibrated to a given matrix (limestone, sandstone and dolomite) - unscaled
 PEF_B_E    .b/e-                      : PEF         Photoelectric Factor - A log of photoelectric absorption properties. Often expressed in an approximation unit barns/electron (b/e-)
 LITH       .                          : LITH        Lithology Curve
 LITH_v2    .                          : LITH        Lithology Curve
~A  DEPTH  GR2_API  RHOB_G_C  DRHO_G_C   NPHI_v/v  PEF_B_E     LITH    LITH_v2  
# ...
1584.1980  134.6146    2.2635    0.0599    0.4240    3.7251   37.0000   37.0000 
1584.3504  135.3789    2.2692    0.0578    0.3921    3.7283   37.0000   37.0000 
1584.5028  135.3789    2.2692    0.0578    0.3921    3.7283   37.0000   37.0000 
1584.6552  143.2336    2.2975    0.0700    0.3983    3.7278   37.0000   37.0000 
1584.8076  143.2336    2.2975    0.0700    0.3983    3.7278   37.0000   37.0000 
1584.9600  144.4523    2.3097    0.0625    0.3279    3.6347   37.0000   37.0000 
1585.1124  144.4523    2.3097    0.0625    0.3279    3.6347   37.0000   37.0000 
1585.2648  140.2977    2.3282    0.0605    0.3398    3.6488   37.0000   37.0000 
1585.4172  140.2977    2.3282    0.0605    0.3398    3.6488   37.0000   37.0000 
1585.5696  139.8555    2.3548    0.0678    0.3279    3.8220   37.0000   37.0000 
1585.7220  139.8555    2.3548    0.0678    0.3279    3.8220   37.0000   37.0000 
1585.8744  139.9858    2.3709    0.0688    0.3001    4.0164   37.0000   37.0000 
1586.0268  138.7120    2.3764    0.0721    0.2736    4.0774   37.0000   37.0000 
1586.1792  138.1190    2.3803    0.0730    0.3007    4.0751   37.0000   37.0000 
1586.3316  134.6630    2.3848    0.0725    0.3051    4.0721   37.0000   37.0000 
1586.4840  131.4831    2.3922    0.0710    0.2663    4.1099   37.0000   37.0000 
1586.6364  128.9952    2.4011    0.0732    0.2687    4.1674   37.0000   37.0000 
1586.7888  128.6305    2.3962    0.0741    0.3051    4.1759   37.0000   37.0000 
1586.9412  132.8191    2.3859    0.0770    0.2901    4.1605   37.0000   37.0000 
1587.0936  131.3721    2.3770    0.0778    0.3028    4.1330   37.0000   37.0000 
1587.2460  132.5900    2.3758    0.0776    0.3112    4.1126   37.0000   37.0000 
1587.3984  128.6927    2.3820    0.0806    0.3029    4.1026   37.0000   37.0000 
1587.5508  125.4977    2.3845    0.0809    0.2984    4.1021   37.0000   37.0000 
1587.7032  125.4977    2.3845    0.0809    0.2984    4.1021   37.0000   37.0000 
1587.8556  121.6383    2.3818    0.0723    0.3030    4.0613   37.0000   37.0000 
1588.0080  121.6383    2.3818    0.0723    0.3030    4.0613   37.0000   37.0000 
1588.1604  126.5282    2.3767    0.0779    0.3271    4.0095   37.0000   37.0000 
1588.3128  126.5282    2.3767    0.0779    0.3271    4.0095   37.0000   37.0000 
1588.4652  128.7063    2.3632    0.0744    0.3026    3.9359   37.0000   37.0000 
1588.6176  128.7063    2.3632    0.0744    0.3026    3.9359   37.0000   37.0000 
1588.7700  124.9142    2.3543    0.0711    0.3057    3.8698   37.0000   37.0000 
1588.9224  124.9142    2.3543    0.0711    0.3057    3.8698   37.0000   37.0000 
1589.0748  122.0989    2.3419    0.0683    0.3202    3.9126   37.0000   37.0000 
1589.2272  121.8163    2.3458    0.0735    0.3433    3.9237   37.0000   37.0000 
1589.3796  122.1787    2.3453    0.0748    0.3247    3.8928   37.0000   37.0000 
1589.5320  120.9354    2.3443    0.0747    0.3328    3.7992   37.0000   37.0000 
1589.6844  121.4471    2.3366    0.0694    0.3564    3.7097   37.0000   37.0000 
1589.8368  121.6956    2.3385    0.0683    0.3107    3.7026   37.0000   37.0000 
1589.9892  122.4177    2.3346    0.0623    0.3223    3.7103   37.0000   37.0000 
1590.1416  118.7339    2.3411    0.0554    0.2918    3.7793   37.0000   37.0000 
1590.2940  113.6446    2.3536    0.0503    0.2948    3.8472   37.0000   37.0000 
1590.4464  109.8950    2.3729    0.0587    0.3094    3.9415   37.0000   37.0000 
1590.5988  110.2563    2.3787    0.0688    0.3136    4.0182   37.0000   37.0000 
1590.7512  114.0585    2.3738    0.0748    0.3029    4.0797   37.0000   37.0000 
1590.9036  114.0585    2.3738    0.0748    0.3029    4.0797   37.0000   37.0000 
1591.0560  115.6978    2.3827    0.0746    0.2984    4.1444   37.0000   37.0000 
1591.2084  115.6978    2.3827    0.0746    0.2984    4.1444   37.0000   37.0000 
1591.3608  112.3010    2.3740    0.0713    0.3074    4.0920   37.0000   37.0000 
1591.5132  112.3010    2.3740    0.0713    0.3074    4.0920   37.0000   37.0000 
1591.6656  117.9601    2.3318    0.0757    0.3535    3.8806   37.0000   37.0000 
1591.8180  117.9601    2.3318    0.0757    0.3535    3.8806   37.0000   37.0000 
1591.9704  128.6035    2.3063    0.0667    0.3349    3.5392   37.0000   37.0000 
1592.1228  128.6035    2.3063    0.0667    0.3349    3.5392   37.0000   37.0000 
1592.2752  134.8547    2.3189    0.0698    0.3673    3.5601   37.0000   37.0000 
1592.4276  133.6061    2.3108    0.0739    0.3679    3.6037   37.0000   37.0000 
1592.5800  130.6752    2.3052    0.0794    0.3418    3.6385   37.0000   37.0000 
1592.7324  130.5198    2.2970    0.0782    0.3799    3.5836   37.0000   37.0000 
1592.8848  128.6111    2.3004    0.0812    0.3401    3.5640   37.0000   37.0000 
1593.0372  128.0170    2.2992    0.0790    0.3415    3.5261   37.0000   37.0000 
1593.1896  125.5698    2.2978    0.0740    0.3586    3.5270   37.0000   37.0000 
1593.3420  122.3871    2.3004    0.0712    0.3764    3.5166   37.0000   37.0000 
1593.4944  121.7303    2.3088    0.0731    0.3713    3.5493   37.0000   37.0000 
1593.6468  123.4859    2.3160    0.0752    0.3581    3.5810   37.0000   37.0000 
1593.7992  126.3991    2.3170    0.0737    0.3324    3.5939   37.0000   37.0000 
1593.9516  125.9185    2.3182    0.0725    0.3575    3.6164   37.0000   37.0000 
1594.1040  125.9185    2.3182    0.0725    0.3575    3.6164   37.0000   37.0000 
1594.2564  120.9948    2.3051    0.0725    0.3028    3.6562   37.0000   37.0000 
1594.4088  120.9948    2.3051    0.0725    0.3028    3.6562   37.0000   37.0000 
1594.5612  118.7573    2.2805    0.0606    0.3730    3.5131   37.0000   37.0000 
1594.7136  118.7573    2.2805    0.0606    0.3730    3.5131   37.0000   37.0000 
1594.8660  119.9991    2.2962    0.0630    0.3630    3.3987   37.0000   37.0000 
1595.0184  119.9991    2.2962    0.0630    0.3630    3.3987   37.0000   37.0000 
1595.1708  116.0133    2.3331    0.0750    0.3266    3.6057   37.0000   37.0000 
1595.3232  116.0133    2.3331    0.0750    0.3266    3.6057   37.0000   37.0000 
1595.4756  114.7345    2.3360    0.0731    0.3355    3.6016   37.0000   37.0000 
1595.6280  110.8285    2.3289    0.0737    0.3301    3.6164   37.0000   37.0000 
1595.7804  109.6154    2.3259    0.0754    0.3294    3.6822   37.0000   37.0000 
1595.9328  111.0580    2.3267    0.0771    0.3131    3.7291   37.0000   37.0000 
1596.0852  112.0157    2.3274    0.0745    0.3292    3.7149   37.0000   37.0000 
1596.2376  109.5630    2.3338    0.0771    0.3041    3.6793   37.0000   37.0000 
1596.3900  108.2510    2.3307    0.0790    0.2952    3.6979   37.0000   37.0000 
1596.5424  109.4007    2.3250    0.0792    0.3354    3.6778   37.0000   37.0000 
1596.6948  113.2847    2.3200    0.0795    0.3305    3.6916   37.0000   37.0000 
1596.8472  113.6727    2.3146    0.0752    0.3167    3.6586   37.0000   37.0000 
1596.9996  116.4821    2.3168    0.0745    0.3327    3.6753   37.0000   37.0000 
1597.1520  117.1147    2.3132    0.0738    0.3040    3.6293   37.0000   37.0000 
1597.3044  117.1147    2.3132    0.0738    0.3040    3.6293   37.0000   37.0000 
1597.4568  116.0906    2.2956    0.0697    0.3505    3.5922   37.0000   37.0000 
1597.6092  116.0906    2.2956    0.0697    0.3505    3.5922   37.0000   37.0000 
1597.7616  117.1128    2.2915    0.0564    0.3087    3.4792   37.0000   37.0000 
1597.9140  117.1128    2.2915    0.0564    0.3087    3.4792   37.0000   37.0000 
1598.0664  118.6751    2.3053    0.0584    0.3695    3.4036   37.0000   37.0000 
1598.2188  118.6751    2.3053    0.0584    0.3695    3.4036   37.0000   37.0000 
1598.3712  116.2105    2.3307    0.0690    0.3205    3.5717   37.0000   37.0000 
1598.5236  116.2105    2.3307    0.0690    0.3205    3.5717   37.0000   37.0000 
1598.6760  113.7315    2.3249    0.0742    0.3264    3.5847   37.0000   37.0000 
1598.8284  114.2176    2.3299    0.0810    0.3459    3.6054   37.0000   37.0000 
1598.9808  118.9713    2.3251    0.0787    0.3135    3.6841   37.0000   37.0000 
1599.1332  118.2794    2.3362    0.0772    0.2881    3.7017   37.0000   37.0000 
