~VERSION INFORMATION
 VERS.                 2.0:   CWLS LOG ASCII STANDARD - VERSION 2.0
 WRAP.                  NO:   SINGLE LINE PER DEPTH STEP
 CREA.                 01/02/2018 09:42:10
#CREATED USING DSPetro VERSION 5000.10.1.3 BY H191660 ON 01/02/2018 09:42:10
~WELL INFORMATION
#MNEM.UNIT       DATA                          DESCRIPTION MNEMONIC
#---------      ---------------------------   --------------------------
 STRT    .M         0.0000                    : START DEPTH
 STOP    .M         2934.9192                 : STOP DEPTH
 STEP    .M         0.1524                    : STEP VALUE
 NULL    .      -999.0000                     : NULL VALUE
 DATE    .      01/02/2018                    : LAS file Creation Date
 WELL .      1267-Charm-1                : Well Name
 COMP .      Neftex Exploration Insights : Company
 FLD  .                                  : Field
 UWI  .      ZAUWL_006843                : Unique Well Identifier (UWI)
 LOC  .                                  : Location
 RWS  .      -999                        : Def_Rw
 WST  .      -999                        : Def_Rwt
 SRVC .                                  : Contractor
~CURVE INFORMATION
#MNEM              UNIT       API CODE   Curve Type Comments
#----------  --------------- ----------  ---------- -----------
 DEPTH      .M                         : Depth       
 GR2_API    .API                       : gammaRay    Gamma Ray (API) - Measures the intensity of natural gamma-ray radiation emitted from formations containing radioactive elements, such as K, Th and U
 RHOB_G_CC  .g/cc                      : density     Bulk Density - Measures the density of bulk material, including any void space or other materials contained in the subject volume
 DRHO_G_CC  .g/cc                      : drho        Density Correction - Investigates the correction to the Bulk Density log; used as an indication of hole condition to validate the Bulk Density measure
 NPHI_v/v   .usl                       : neutron     Neutron Porosity - Measured with an neutron logging device calibrated to a given matrix (limestone, sandstone and dolomite) - unscaled
 PEF_B_E    .b/e-                      : PEF         Photoelectric Factor - A log of photoelectric absorption properties. Often expressed in an approximation unit barns/electron (b/e-)
 LITH       .                          : LITH        Lithology Curve
 LITH_v2    .                          : LITH        Lithology Curve
~A  DEPTH  GR2_API  RHOB_G_C  DRHO_G_C   NPHI_v/v  PEF_B_E     LITH    LITH_v2  
# ...
1523.8476   95.1464    2.2533    0.0445    0.3690    2.9888   22.0000   22.0000 
1524.0000   96.7280    2.2812    0.0457    0.3653    3.0734   22.0000   22.0000 
1524.1524   96.1655    2.2921    0.0487    0.3544    3.1034   22.0000   22.0000 
1524.3048   96.1655    2.2921    0.0487    0.3544    3.1034   22.0000   22.0000 
1524.4572  100.5550    2.2888    0.0631    0.3225    3.2111   22.0000   22.0000 
1524.6096  100.5550    2.2888    0.0631    0.3225    3.2111   22.0000   22.0000 
1524.7620   97.9629    2.2997    0.0664    0.3293    3.3188   22.0000   22.0000 
1524.9144   97.9629    2.2997    0.0664    0.3293    3.3188   22.0000   22.0000 
1525.0668   95.3429    2.2963    0.0628    0.3729    3.2523   22.0000   22.0000 
1525.2192   95.3429    2.2963    0.0628    0.3729    3.2523   22.0000   22.0000 
1525.3716   87.5800    2.2615    0.0639    0.3922    3.1997   22.0000   22.0000 
1525.5240   84.5755    2.2536    0.0630    0.3915    3.1958   22.0000   22.0000 
1525.6764   84.7055    2.2508    0.0631    0.3365    3.2413   22.0000   22.0000 
1525.8288   86.5212    2.2467    0.0613    0.4110    3.2830   22.0000   22.0000 
1525.9812   86.5543    2.2415    0.0596    0.3535    3.2663   22.0000   22.0000 
1526.1336   84.6214    2.2416    0.0539    0.3533    3.1894   22.0000   22.0000 
1526.2860   81.7828    2.2418    0.0474    0.3739    3.0597   22.0000   22.0000 
1526.4384   84.1833    2.2508    0.0451    0.3566    3.0104   22.0000   22.0000 
1526.5908   87.8219    2.2562    0.0426    0.3615    2.9879   22.0000   22.0000 
1526.7432   94.3215    2.2723    0.0412    0.3965    2.9959   22.0000   22.0000 
1526.8956   99.6918    2.2858    0.0368    0.3660    2.9689   22.0000   22.0000 
1527.0480  105.3150    2.3016    0.0382    0.3243    2.9539   22.0000   22.0000 
1527.2004  103.2951    2.2981    0.0393    0.3315    2.9727   22.0000   22.0000 
1527.3528   99.2516    2.2907    0.0415    0.3723    2.9389   22.0000   22.0000 
1527.5052   99.2516    2.2907    0.0415    0.3723    2.9389   22.0000   22.0000 
1527.6576   90.5105    2.2656    0.0402    0.3279    2.8451   22.0000   22.0000 
1527.8100   90.5105    2.2656    0.0402    0.3279    2.8451   22.0000   22.0000 
1527.9624   76.4363    2.2391    0.0400    0.3895    2.7976   22.0000   22.0000 
1528.1148   76.4363    2.2391    0.0400    0.3895    2.7976   22.0000   22.0000 
1528.2672   70.5640    2.2271    0.0521    0.3522    2.8120   22.0000   22.0000 
1528.4196   70.5640    2.2271    0.0521    0.3522    2.8120   22.0000   22.0000 
1528.5720   65.4080    2.2116    0.0667    0.3158    2.8411   18.0000   36.0000 
1528.7244   63.1228    2.1978    0.0598    0.3300    2.7432   18.0000   36.0000 
1528.8768   61.4843    2.1927    0.0570    0.3170    2.7180   18.0000   36.0000 
1529.0292   63.4492    2.2012    0.0583    0.3486    2.7211   18.0000   36.0000 
1529.1816   68.6396    2.2168    0.0657    0.3030    2.8669   18.0000   36.0000 
1529.3340   74.6069    2.2309    0.0659    0.3611    2.9645   22.0000   37.0000 
1529.4864   82.1188    2.2522    0.0671    0.3335    3.0685   22.0000   37.0000 
1529.6388   86.2370    2.2564    0.0508    0.3338    3.0432   22.0000   37.0000 
1529.7912   95.8198    2.2766    0.0413    0.3075    3.0487   22.0000   37.0000 
1529.9436  102.5288    2.2890    0.0346    0.3628    3.0355   22.0000   37.0000 
1530.0960  108.0752    2.2994    0.0396    0.3436    3.0946   22.0000   37.0000 
1530.2484  107.7842    2.2979    0.0384    0.3631    3.1396   22.0000   37.0000 
1530.4008  108.4867    2.2967    0.0349    0.4160    3.1527   22.0000   37.0000 
1530.5532  107.7200    2.3091    0.0447    0.3840    3.2069   22.0000   37.0000 
1530.7056  107.7200    2.3091    0.0447    0.3840    3.2069   22.0000   37.0000 
1530.8580  103.0933    2.3246    0.0581    0.3723    3.5867   22.0000   37.0000 
1531.0104  103.0933    2.3246    0.0581    0.3723    3.5867   22.0000   37.0000 
1531.1628  101.5880    2.3354    0.0623    0.4483    3.9350   22.0000   23.0000 
1531.3152  101.5880    2.3354    0.0623    0.4483    3.9350   22.0000   23.0000 
1531.4676  101.8653    2.2724    0.0695    0.4012    3.5845   22.0000   37.0000 
1531.6200  101.8653    2.2724    0.0695    0.4012    3.5845   22.0000   37.0000 
1531.7724  109.7615    2.2388    0.0612    0.4074    3.4129   22.0000   37.0000 
1531.9248  110.9008    2.2462    0.0629    0.3923    3.4153   22.0000   37.0000 
1532.0772  114.7830    2.2609    0.0581    0.4772    3.3384   22.0000   37.0000 
1532.2296  117.0285    2.2805    0.0527    0.3849    3.3015   22.0000   37.0000 
1532.3820  121.6606    2.3008    0.0530    0.4076    3.2524   22.0000   37.0000 
1532.5344  122.0243    2.3078    0.0524    0.3936    3.2597   22.0000   37.0000 
1532.6868  121.5141    2.3219    0.0588    0.3691    3.3663   22.0000   37.0000 
1532.8392  123.5914    2.3353    0.0627    0.3736    3.4300   22.0000   37.0000 
1532.9916  126.1567    2.3508    0.0729    0.4106    3.5234   22.0000   37.0000 
1533.1440  130.1737    2.3586    0.0793    0.3946    3.5443   22.0000   37.0000 
1533.2964  133.3572    2.3622    0.0841    0.4154    3.5834   22.0000   37.0000 
1533.4488  131.1707    2.3629    0.0854    0.4025    3.5792   22.0000   37.0000 
1533.6012  128.4549    2.3582    0.0820    0.3602    3.5468   22.0000   37.0000 
1533.7536  125.8392    2.3487    0.0762    0.3893    3.5229   22.0000   37.0000 
1533.9060  125.8392    2.3487    0.0762    0.3893    3.5229   22.0000   37.0000 
1534.0584  131.0740    2.3451    0.0754    0.3623    3.4836   22.0000   37.0000 
1534.2108  131.0740    2.3451    0.0754    0.3623    3.4836   22.0000   37.0000 
1534.3632  129.1138    2.3334    0.0730    0.4068    3.4589   22.0000   37.0000 
1534.5156  129.1138    2.3334    0.0730    0.4068    3.4589   22.0000   37.0000 
1534.6680  121.8315    2.3078    0.0668    0.3723    3.4591   22.0000   37.0000 
1534.8204  121.8315    2.3078    0.0668    0.3723    3.4591   22.0000   37.0000 
1534.9728  117.7337    2.3122    0.0569    0.3959    3.3294   22.0000   37.0000 
1535.1252  117.9545    2.3187    0.0517    0.4683    3.3076   22.0000   37.0000 
1535.2776  120.0079    2.3249    0.0539    0.3745    3.3117   22.0000   37.0000 
1535.4300  120.3355    2.3155    0.0502    0.3817    3.2797   22.0000   37.0000 
1535.5824  118.6786    2.3076    0.0486    0.3612    3.2433   22.0000   37.0000 
1535.7348  115.5939    2.3006    0.0473    0.3971    3.1936   22.0000   37.0000 
1535.8872  114.1421    2.2994    0.0518    0.3586    3.2344   22.0000   37.0000 
1536.0396  114.3290    2.2984    0.0595    0.3951    3.2869   22.0000   37.0000 
1536.1920  113.4391    2.2992    0.0668    0.3794    3.4029   22.0000   37.0000 
1536.3444  112.2989    2.3023    0.0641    0.4186    3.4906   22.0000   37.0000 
1536.4968  110.6165    2.3217    0.0595    0.3943    3.7731   22.0000   37.0000 
1536.6492  108.5047    2.3550    0.0561    0.3762    4.1216   22.0000   37.0000 
1536.8016  108.5047    2.3550    0.0561    0.3762    4.1216   22.0000   37.0000 
1536.9540  111.2484    2.3028    0.0509    0.4708    3.9631   22.0000   23.0000 
1537.1064  111.2484    2.3028    0.0509    0.4708    3.9631   22.0000   23.0000 
1537.2588  125.9084    2.1910    0.0396    0.4268    3.1705   22.0000   37.0000 
1537.4112  125.9084    2.1910    0.0396    0.4268    3.1705   22.0000   37.0000 
1537.5636  123.1416    2.2595    0.0434    0.4036    3.1347   22.0000   37.0000 
1537.7160  123.1416    2.2595    0.0434    0.4036    3.1347   22.0000   37.0000 
1537.8684  110.2866    2.2844    0.0605    0.4053    3.2146   22.0000   37.0000 
1538.0208  110.2866    2.2844    0.0605    0.4053    3.2146   22.0000   37.0000 
1538.1732  105.3846    2.2562    0.0563    0.3839    3.1354   22.0000   37.0000 
1538.3256  100.2691    2.2462    0.0539    0.3870    3.1084   22.0000   37.0000 
1538.4780   96.7596    2.2470    0.0555    0.4045    3.1340   22.0000   37.0000 
1538.6304   95.6901    2.2443    0.0515    0.4090    3.1059   22.0000   37.0000 
1538.7828   97.0479    2.2459    0.0501    0.4014    3.1181   22.0000   37.0000 
