~VERSION INFORMATION
 VERS.                 2.0:   CWLS LOG ASCII STANDARD - VERSION 2.0
 WRAP.                  NO:   SINGLE LINE PER DEPTH STEP
 CREA.                 01/02/2018 09:42:10
#CREATED USING DSPetro VERSION 5000.10.1.3 BY H191660 ON 01/02/2018 09:42:10
~WELL INFORMATION
#MNEM.UNIT       DATA                          DESCRIPTION MNEMONIC
#---------      ---------------------------   --------------------------
 STRT    .M         0.0000                    : START DEPTH
 STOP    .M         2934.9192                 : STOP DEPTH
 STEP    .M         0.1524                    : STEP VALUE
 NULL    .      -999.0000                     : NULL VALUE
 DATE    .      01/02/2018                    : LAS file Creation Date
 WELL .      1267-Charm-1                : Well Name
 COMP .      Neftex Exploration Insights : Company
 FLD  .                                  : Field
 UWI  .      ZAUWL_006843                : Unique Well Identifier (UWI)
 LOC  .                                  : Location
 RWS  .      -999                        : Def_Rw
 WST  .      -999                        : Def_Rwt
 SRVC .                                  : Contractor
~CURVE INFORMATION
#MNEM              UNIT       API CODE   Curve Type Comments
#----------  --------------- ----------  ---------- -----------
 DEPTH      .M                         : Depth       
 GR2_API    .API                       : gammaRay    Gamma Ray (API) - Measures the intensity of natural gamma-ray radiation emitted from formations containing radioactive elements, such as K, Th and U
 RHOB_G_CC  .g/cc                      : density     Bulk Density - Measures the density of bulk material, including any void space or other materials contained in the subject volume
 DRHO_G_CC  .g/cc                      : drho        Density Correction - Investigates the correction to the Bulk Density log; used as an indication of hole condition to validate the Bulk Density measure
 NPHI_v/v   .usl                       : neutron     Neutron Porosity - Measured with an neutron logging device calibrated to a given matrix (limestone, sandstone and dolomite) - unscaled
 PEF_B_E    .b/e-                      : PEF         Photoelectric Factor - A log of photoelectric absorption properties. Often expressed in an approximation unit barns/electron (b/e-)
 LITH       .                          : LITH        Lithology Curve
 LITH_v2    .                          : LITH        Lithology Curve
~A  DEPTH  GR2_API  RHOB_G_C  DRHO_G_C   NPHI_v/v  PEF_B_E     LITH    LITH_v2  
# ...
2067.0012   44.3775    2.5245    0.1550    0.0976    3.2349   27.0000   27.0000 
2067.1536   44.5296    2.5373    0.1295    0.0887    2.9405   27.0000   27.0000 
2067.3060   44.5296    2.5373    0.1295    0.0887    2.9405   27.0000   27.0000 
2067.4584   43.7581    2.5480    0.1220    0.0776    2.7485   27.0000   27.0000 
2067.6108   43.7581    2.5480    0.1220    0.0776    2.7485   27.0000   27.0000 
2067.7632   40.3839    2.5420    0.1244    0.0765    2.6931   27.0000   27.0000 
2067.9156   40.3839    2.5420    0.1244    0.0765    2.6931   27.0000   27.0000 
2068.0680   41.0184    2.5212    0.1124    0.0790    2.7021   27.0000   27.0000 
2068.2204   41.0184    2.5212    0.1124    0.0790    2.7021   27.0000   27.0000 
2068.3728   40.1235    2.5222    0.1378    0.0782    2.7042   27.0000   27.0000 
2068.5252   40.8121    2.5222    0.1137    0.0790    2.6890   27.0000   27.0000 
2068.6776   43.1950    2.5253    0.1311    0.0796    2.7705   27.0000   27.0000 
2068.8300   47.7858    2.5243    0.1245    0.0805    2.7202   27.0000   27.0000 
2068.9824   48.4841    2.5431    0.1297    0.0809    2.7613   27.0000   27.0000 
2069.1348   49.1996    2.5532    0.1526    0.0793    2.8495   27.0000   27.0000 
2069.2872   54.1469    2.5538    0.1334    0.0770    2.7949   27.0000   27.0000 
2069.4396   75.2111    2.5295    0.1500    0.1139    2.8972   27.0000   27.0000 
2069.5920   97.5814    2.4879    0.1290    0.1430    2.9824   27.0000   27.0000 
2069.7444  113.8866    2.4772    0.1254    0.1708    3.3312   37.0000   37.0000 
2069.8968  115.7894    2.4858    0.1249    0.2110    3.4782   37.0000   37.0000 
2070.0492  111.5430    2.5098    0.1239    0.1783    3.3456   37.0000   37.0000 
2070.2016  111.5430    2.5098    0.1239    0.1783    3.3456   37.0000   37.0000 
2070.3540   83.3532    2.5623    0.1392    0.1391    2.9467   37.0000   37.0000 
2070.5064   83.3532    2.5623    0.1392    0.1391    2.9467   37.0000   37.0000 
2070.6588   55.6277    2.6232    0.1430    0.0752    3.0237   18.0000   37.0000 
2070.8112   55.6277    2.6232    0.1430    0.0752    3.0237   18.0000   37.0000 
2070.9636   39.5121    2.6385    0.1225    0.0366    3.1446   18.0000   27.0000 
2071.1160   39.5121    2.6385    0.1225    0.0366    3.1446   18.0000   27.0000 
2071.2684   37.3125    2.6271    0.1260    0.0340    2.9850   18.0000   27.0000 
2071.4208   37.3125    2.6271    0.1260    0.0340    2.9850   18.0000   27.0000 
2071.5732   41.8595    2.6468    0.1373    0.0286    2.9685   18.0000   27.0000 
2071.7256   40.5642    2.6467    0.1112    0.0241    2.9011   18.0000   27.0000 
2071.8780   38.7021    2.6622    0.1427    0.0194    2.7939   18.0000   27.0000 
2072.0304   36.5148    2.6719    0.1343    0.0168    2.7170   18.0000   27.0000 
2072.1828   38.4731    2.6622    0.1240    0.0174    2.7034   18.0000   27.0000 
2072.3352   43.5430    2.6589    0.1266    0.0284    2.7220   18.0000   27.0000 
2072.4876   44.5429    2.6506    0.1204    0.0250    2.7566   18.0000   27.0000 
2072.6400   40.9064    2.6582    0.1248    0.0219    2.8203   18.0000   27.0000 
2072.7924   34.4415    2.6751    0.1293    0.0209    2.9715   18.0000   27.0000 
2072.9448   32.1771    2.6963    0.1379    0.0167    3.0275   18.0000   27.0000 
2073.0972   32.8018    2.7021    0.1365    0.0139    3.1094   18.0000   27.0000 
2073.2496   34.9945    2.6858    0.1287    0.0147    2.8817   18.0000   27.0000 
2073.4020   34.9945    2.6858    0.1287    0.0147    2.8817   18.0000   27.0000 
2073.5544   38.5538    2.6660    0.1097    0.0195    2.6149   18.0000   27.0000 
2073.7068   38.5538    2.6660    0.1097    0.0195    2.6149   18.0000   27.0000 
2073.8592   36.7948    2.6467    0.1061    0.0356    2.9094   18.0000   27.0000 
2074.0116   36.7948    2.6467    0.1061    0.0356    2.9094   18.0000   27.0000 
2074.1640   36.1507    2.6386    0.1107    0.0315    3.1272   18.0000   27.0000 
2074.3164   36.1507    2.6386    0.1107    0.0315    3.1272   18.0000   27.0000 
2074.4688   34.0294    2.6731    0.0921    0.0277    3.0549   18.0000   27.0000 
2074.6212   34.0294    2.6731    0.0921    0.0277    3.0549   18.0000   27.0000 
2074.7736   33.2648    2.6825    0.1039    0.0209    3.0069   18.0000   27.0000 
2074.9260   32.9807    2.6876    0.1191    0.0195    2.9733   18.0000   27.0000 
2075.0784   32.0425    2.6787    0.1203    0.0168    2.9537   18.0000   27.0000 
2075.2308   31.5741    2.6680    0.1134    0.0165    2.8579   18.0000   27.0000 
2075.3832   32.1482    2.6626    0.1045    0.0158    2.8163   18.0000   27.0000 
2075.5356   33.2392    2.6733    0.1062    0.0169    2.9638   18.0000   27.0000 
2075.6880   33.4137    2.6917    0.1151    0.0162    3.1224   18.0000   27.0000 
2075.8404   33.3596    2.6913    0.1193    0.0174    3.2330   18.0000   22.0000 
2075.9928   32.7387    2.6763    0.1163    0.0160    3.1439   18.0000   27.0000 
2076.1452   32.3144    2.6641    0.1128    0.0161    2.9613   18.0000   27.0000 
2076.2976   31.9765    2.6562    0.1047    0.0165    2.8295   18.0000   27.0000 
2076.4500   32.2790    2.6607    0.0943    0.0197    2.6974   18.0000   27.0000 
2076.6024   32.2790    2.6607    0.0943    0.0197    2.6974   18.0000   27.0000 
2076.7548   31.3747    2.6930    0.0898    0.0164    2.9284   18.0000   27.0000 
2076.9072   31.3747    2.6930    0.0898    0.0164    2.9284   18.0000   27.0000 
2077.0596   30.7753    2.6792    0.0914    0.0175    2.8842   18.0000   27.0000 
2077.2120   30.7753    2.6792    0.0914    0.0175    2.8842   18.0000   27.0000 
2077.3644   31.1887    2.6842    0.0920    0.0121    2.7783   18.0000   27.0000 
2077.5168   31.1887    2.6842    0.0920    0.0121    2.7783   18.0000   27.0000 
2077.6692   31.6669    2.6996    0.1060    0.0122    2.9268   18.0000   27.0000 
2077.8216   31.6669    2.6996    0.1060    0.0122    2.9268   18.0000   27.0000 
2077.9740   31.4206    2.6906    0.1173    0.0116    2.8922   18.0000   27.0000 
2078.1264   31.6336    2.6707    0.1010    0.0125    2.7796   18.0000   27.0000 
2078.2788   30.9349    2.6672    0.1163    0.0136    2.7607   18.0000   27.0000 
2078.4312   31.3089    2.6735    0.1135    0.0124    2.7752   18.0000   27.0000 
2078.5836   30.2012    2.6854    0.1049    0.0114    2.6887   18.0000   27.0000 
2078.7360   31.5002    2.6900    0.0895    0.0106    2.6864   18.0000   27.0000 
2078.8884   31.2467    2.6879    0.0908    0.0112    2.6729   18.0000   27.0000 
2079.0408   32.5944    2.6840    0.1021    0.0124    2.7092   18.0000   27.0000 
2079.1932   29.8519    2.6818    0.1051    0.0131    2.7078   18.0000   27.0000 
2079.3456   29.4072    2.6802    0.1126    0.0130    2.7445   18.0000   27.0000 
2079.4980   28.1994    2.6881    0.1190    0.0123    2.6870   18.0000   27.0000 
2079.6504   28.0547    2.6898    0.1181    0.0122    2.7288   18.0000   27.0000 
2079.8028   28.0547    2.6898    0.1181    0.0122    2.7288   18.0000   27.0000 
2079.9552   30.6713    2.6723    0.1053    0.0122    2.8055   18.0000   27.0000 
2080.1076   30.6713    2.6723    0.1053    0.0122    2.8055   18.0000   27.0000 
2080.2600   32.9484    2.6533    0.1001    0.0191    2.7833   18.0000   27.0000 
2080.4124   32.9484    2.6533    0.1001    0.0191    2.7833   18.0000   27.0000 
2080.5648   35.8624    2.6682    0.1047    0.0163    2.8465   18.0000   27.0000 
2080.7172   35.8624    2.6682    0.1047    0.0163    2.8465   18.0000   27.0000 
2080.8696   35.0266    2.6631    0.1032    0.0163    2.7643   18.0000   27.0000 
2081.0220   35.0266    2.6631    0.1032    0.0163    2.7643   18.0000   27.0000 
2081.1744   33.7098    2.6796    0.1067    0.0160    2.7219   18.0000   27.0000 
2081.3268   33.9487    2.6740    0.1000    0.0149    2.7078   18.0000   27.0000 
2081.4792   30.9025    2.6757    0.0992    0.0155    2.7260   18.0000   27.0000 
2081.6316   30.6662    2.6665    0.0939    0.0190    2.7217   18.0000   27.0000 
2081.7840   30.8166    2.6690    0.0968    0.0211    2.7502   18.0000   27.0000 
2081.9364   31.7581    2.6706    0.1020    0.0196    2.7471   18.0000   27.0000 
