~VERSION INFORMATION
 VERS.                 2.0:   CWLS LOG ASCII STANDARD - VERSION 2.0
 WRAP.                  NO:   SINGLE LINE PER DEPTH STEP
 CREA.                 01/02/2018 09:42:10
#CREATED USING DSPetro VERSION 5000.10.1.3 BY H191660 ON 01/02/2018 09:42:10
~WELL INFORMATION
#MNEM.UNIT       DATA                          DESCRIPTION MNEMONIC
#---------      ---------------------------   --------------------------
 STRT    .M         0.0000                    : START DEPTH
 STOP    .M         2934.9192                 : STOP DEPTH
 STEP    .M         0.1524                    : STEP VALUE
 NULL    .      -999.0000                     : NULL VALUE
 DATE    .      01/02/2018                    : LAS file Creation Date
 WELL .      1267-Charm-1                : Well Name
 COMP .      Neftex Exploration Insights : Company
 FLD  .                                  : Field
 UWI  .      ZAUWL_006843                : Unique Well Identifier (UWI)
 LOC  .                                  : Location
 RWS  .      -999                        : Def_Rw
 WST  .      -999                        : Def_Rwt
 SRVC .                                  : Contractor
~CURVE INFORMATION
#MNEM              UNIT       API CODE   Curve Type Comments
#----------  --------------- ----------  ---------- -----------
 DEPTH      .M                         : Depth       
 GR2_API    .API                       : gammaRay    Gamma Ray (API) - Measures the intensity of natural gamma-ray radiation emitted from formations containing radioactive elements, such as K, Th and U
 RHOB_G_CC  .g/cc                      : density     Bulk Density - Measures the density of bulk material, including any void space or other materials contained in the subject volume
 DRHO_G_CC  .g/cc                      : drho        Density Correction - Investigates the correction to the Bulk Density log; used as an indication of hole condition to validate the Bulk Density measure
 NPHI_v/v   .usl                       : neutron     Neutron Porosity - Measured with an neutron logging device calibrated to a given matrix (limestone, sandstone and dolomite) - unscaled
 PEF_B_E    .b/e-                      : PEF         Photoelectric Factor - A log of photoelectric absorption properties. Often expressed in an approximation unit barns/electron (b/e-)
 LITH       .                          : LITH        Lithology Curve
 LITH_v2    .                          : LITH        Lithology Curve
~A  DEPTH  GR2_API  RHOB_G_C  DRHO_G_C   NPHI_v/v  PEF_B_E     LITH    LITH_v2  
# ...
1931.2128  190.9657    2.3587    0.0358    0.4978    2.4333   37.0000   37.0000 
1931.3652  181.0624    2.2979    0.0864    0.4688    2.2601   37.0000   37.0000 
1931.5176  181.0624    2.2979    0.0864    0.4688    2.2601   37.0000   37.0000 
1931.6700  106.1785    2.2669    0.0560    0.3301    2.4027   37.0000   37.0000 
1931.8224  106.1785    2.2669    0.0560    0.3301    2.4027   37.0000   36.0000 
1931.9748   73.9720    2.2621    0.0449    0.2293    2.1049   37.0000   36.0000 
1932.1272   82.0613    2.2567    0.0384    0.2103    2.1702   27.0000   27.0000 
1932.2796   83.4297    2.2680    0.0466    0.2148    2.2826   27.0000   27.0000 
1932.4320   81.0296    2.2655    0.0475    0.2205    2.3016   27.0000   27.0000 
1932.5844   74.5500    2.2584    0.0477    0.2144    2.2597   27.0000   27.0000 
1932.7368   66.9650    2.2512    0.0435    0.2224    2.2293   27.0000   27.0000 
1932.8892   60.3010    2.2548    0.0443    0.2008    2.2577   27.0000   27.0000 
1933.0416   55.9004    2.2692    0.0477    0.2083    2.2556   27.0000   27.0000 
1933.1940   50.5072    2.2765    0.0436    0.1887    2.1844   27.0000   27.0000 
1933.3464   44.2689    2.2874    0.0478    0.1985    2.1745   27.0000   27.0000 
1933.4988   41.8114    2.2885    0.0472    0.1854    2.2011   27.0000   27.0000 
1933.6512   40.1167    2.2910    0.0522    0.1901    2.1966   27.0000   27.0000 
1933.8036   40.1167    2.2910    0.0522    0.1901    2.1966   27.0000   27.0000 
1933.9560   37.8381    2.2648    0.0514    0.2062    2.1026   27.0000   27.0000 
1934.1084   37.8381    2.2648    0.0514    0.2062    2.1026   27.0000   27.0000 
1934.2608   34.2736    2.2430    0.0553    0.1936    2.3001   27.0000   27.0000 
1934.4132   34.2736    2.2430    0.0553    0.1936    2.3001   27.0000   27.0000 
1934.5656   34.1126    2.2393    0.0480    0.2168    2.3023   27.0000   27.0000 
1934.7180   34.1126    2.2393    0.0480    0.2168    2.3023   27.0000   27.0000 
1934.8704   42.6910    2.2444    0.0449    0.2231    2.1881   27.0000   27.0000 
1935.0228   42.6910    2.2444    0.0449    0.2231    2.1881   27.0000   27.0000 
1935.1752   41.8542    2.2369    0.0511    0.2432    2.1898   27.0000   27.0000 
1935.3276   40.5921    2.2387    0.0476    0.1942    2.1417   27.0000   27.0000 
1935.4800   38.4403    2.2409    0.0397    0.2060    2.0951   27.0000   27.0000 
1935.6324   35.1741    2.2521    0.0440    0.2060    2.0709   27.0000   27.0000 
1935.7848   35.4571    2.2525    0.0464    0.2086    2.0630   27.0000   27.0000 
1935.9372   35.9933    2.2492    0.0463    0.2044    2.0729   27.0000   27.0000 
1936.0896   39.8655    2.2430    0.0404    0.2019    2.0965   27.0000   27.0000 
1936.2420   42.6139    2.2355    0.0395    0.2109    2.1421   27.0000   27.0000 
1936.3944   51.8916    2.2132    0.0421    0.2526    2.2167   27.0000   27.0000 
1936.5468   68.4729    2.1903    0.0488    0.2608    2.3275   27.0000   27.0000 
1936.6992   82.0535    2.1627    0.0467    0.2764    2.3573   27.0000   27.0000 
1936.8516   92.7592    2.1515    0.0466    0.2990    2.3860   27.0000   36.0000 
1937.0040   92.7592    2.1515    0.0466    0.2990    2.3860   27.0000   36.0000 
1937.1564  111.5736    2.1585    0.0429    0.2877    2.5524   27.0000   36.0000 
1937.3088  111.5736    2.1585    0.0429    0.2877    2.5524   27.0000   36.0000 
1937.4612  130.0182    2.2188    0.0523    0.2606    2.6523   27.0000   36.0000 
1937.6136  130.0182    2.2188    0.0523    0.2606    2.6523   27.0000   37.0000 
1937.7660  151.7287    2.3276    0.0523    0.2071    2.8625   37.0000   37.0000 
1937.9184  151.7287    2.3276    0.0523    0.2071    2.8625   37.0000   37.0000 
1938.0708  122.5229    2.4166    0.0544    0.2352    3.0284   37.0000   37.0000 
1938.2232  122.5229    2.4166    0.0544    0.2352    3.0284   37.0000   37.0000 
1938.3756   85.1086    2.4056    0.0693    0.2194    2.8544   37.0000   36.0000 
1938.5280   82.7820    2.3766    0.0672    0.2004    2.6918   37.0000   36.0000 
1938.6804   79.1561    2.3460    0.0661    0.1778    2.4375   27.0000   27.0000 
1938.8328   66.5805    2.3200    0.0623    0.1886    2.3709   27.0000   27.0000 
1938.9852   49.6418    2.2997    0.0657    0.1899    2.3192   27.0000   27.0000 
1939.1376   39.6375    2.2919    0.0653    0.1896    2.3342   27.0000   27.0000 
1939.2900   40.4777    2.3065    0.0668    0.1686    2.2884   27.0000   27.0000 
1939.4424   47.4593    2.3359    0.0621    0.1414    2.2841   27.0000   27.0000 
1939.5948   51.8856    2.3736    0.0629    0.1541    2.2785   27.0000   27.0000 
1939.7472   50.7156    2.3976    0.0576    0.1310    2.2660   27.0000   27.0000 
1939.8996   46.9362    2.4259    0.0620    0.1238    2.2373   27.0000   27.0000 
1940.0520   45.9571    2.4425    0.0630    0.1164    2.2577   27.0000   27.0000 
1940.2044   45.9571    2.4425    0.0630    0.1164    2.2577   27.0000   27.0000 
1940.3568   43.6517    2.4591    0.0570    0.0982    2.3295   27.0000   27.0000 
1940.5092   43.6517    2.4591    0.0570    0.0982    2.3295   27.0000   27.0000 
1940.6616   50.4681    2.4622    0.0639    0.1032    2.4097   27.0000   27.0000 
1940.8140   50.4681    2.4622    0.0639    0.1032    2.4097   27.0000   27.0000 
1940.9664   57.3236    2.3940    0.0640    0.1437    2.4047   27.0000   27.0000 
1941.1188   57.3236    2.3940    0.0640    0.1437    2.4047   27.0000   27.0000 
1941.2712   40.0581    2.3049    0.0517    0.1862    2.2550   27.0000   27.0000 
1941.4236   40.0581    2.3049    0.0517    0.1862    2.2550   27.0000   27.0000 
1941.5760   37.7375    2.2846    0.0607    0.2024    2.2406   27.0000   27.0000 
1941.7284   48.9240    2.3106    0.0742    0.1938    2.4040   27.0000   36.0000 
1941.8808   75.6197    2.3520    0.0790    0.1955    2.7019   27.0000   36.0000 
1942.0332  114.2718    2.3915    0.0845    0.2333    2.9039   37.0000   37.0000 
1942.1856  137.9177    2.4068    0.0791    0.2275    2.9306   37.0000   37.0000 
1942.3380  137.4187    2.4094    0.0743    0.2354    2.7850   37.0000   37.0000 
1942.4904  111.7986    2.4037    0.0694    0.2312    2.7937   37.0000   36.0000 
1942.6428   89.6729    2.3622    0.0604    0.2190    2.8490   37.0000   36.0000 
1942.7952   77.3867    2.3137    0.0597    0.2100    2.8074   37.0000   36.0000 
1942.9476   79.4982    2.2680    0.0458    0.2093    2.6231   27.0000   36.0000 
1943.1000   82.0150    2.2724    0.0418    0.2052    2.4367   27.0000   36.0000 
1943.2524   78.4963    2.2819    0.0300    0.2044    2.2876   27.0000   27.0000 
1943.4048   78.4963    2.2819    0.0300    0.2044    2.2876   27.0000   27.0000 
1943.5572   63.5793    2.3046    0.0403    0.1780    2.1799   27.0000   27.0000 
1943.7096   63.5793    2.3046    0.0403    0.1780    2.1799   27.0000   27.0000 
1943.8620   50.3648    2.3045    0.0482    0.1886    2.2035   27.0000   27.0000 
1944.0144   50.3648    2.3045    0.0482    0.1886    2.2035   27.0000   27.0000 
1944.1668   50.0975    2.3253    0.0461    0.1663    2.2976   27.0000   27.0000 
1944.3192   50.0975    2.3253    0.0461    0.1663    2.2976   27.0000   27.0000 
1944.4716   46.3555    2.3252    0.0507    0.1854    2.3185   27.0000   27.0000 
1944.6240   41.4097    2.3151    0.0512    0.1719    2.2316   27.0000   27.0000 
1944.7764   38.0458    2.3011    0.0437    0.1763    2.1000   27.0000   27.0000 
1944.9288   37.8120    2.2934    0.0480    0.1903    2.0453   27.0000   27.0000 
1945.0812   35.1298    2.2938    0.0493    0.1995    2.1107   27.0000   27.0000 
1945.2336   35.8284    2.2937    0.0482    0.1797    2.2102   27.0000   27.0000 
1945.3860   34.8230    2.2971    0.0463    0.1659    2.2353   27.0000   27.0000 
1945.5384   34.2350    2.2869    0.0448    0.1766    2.1222   27.0000   27.0000 
1945.6908   35.8237    2.2718    0.0430    0.1931    2.0134   27.0000   27.0000 
1945.8432   38.8826    2.2692    0.0422    0.1991    2.0436   27.0000   27.0000 
1945.9956   42.1295    2.2744    0.0441    0.1915    2.0964   27.0000   27.0000 
1946.1480   40.0877    2.2938    0.0472    0.2104    2.1954   27.0000   27.0000 
