~VERSION INFORMATION
 VERS.                 2.0:   CWLS LOG ASCII STANDARD - VERSION 2.0
 WRAP.                  NO:   SINGLE LINE PER DEPTH STEP
 CREA.                 01/02/2018 09:42:10
#CREATED USING DSPetro VERSION 5000.10.1.3 BY H191660 ON 01/02/2018 09:42:10
~WELL INFORMATION
#MNEM.UNIT       DATA                          DESCRIPTION MNEMONIC
#---------      ---------------------------   --------------------------
 STRT    .M         0.0000                    : START DEPTH
 STOP    .M         2934.9192                 : STOP DEPTH
 STEP    .M         0.1524                    : STEP VALUE
 NULL    .      -999.0000                     : NULL VALUE
 DATE    .      01/02/2018                    : LAS file Creation Date
 WELL .      1267-Charm-1                : Well Name
 COMP .      Neftex Exploration Insights : Company
 FLD  .                                  : Field
 UWI  .      ZAUWL_006843                : Unique Well Identifier (UWI)
 LOC  .                                  : Location
 RWS  .      -999                        : Def_Rw
 WST  .      -999                        : Def_Rwt
 SRVC .                                  : Contractor
~CURVE INFORMATION
#MNEM              UNIT       API CODE   Curve Type Comments
#----------  --------------- ----------  ---------- -----------
 DEPTH      .M                         : Depth       
 GR2_API    .API                       : gammaRay    Gamma Ray (API) - Measures the intensity of natural gamma-ray radiation emitted from formations containing radioactive elements, such as K, Th and U
 RHOB_G_CC  .g/cc                      : density     Bulk Density - Measures the density of bulk material, including any void space or other materials contained in the subject volume
 DRHO_G_CC  .g/cc                      : drho        Density Correction - Investigates the correction to the Bulk Density log; used as an indication of hole condition to validate the Bulk Density measure
 NPHI_v/v   .usl                       : neutron     Neutron Porosity - Measured with an neutron logging device calibrated to a given matrix (limestone, sandstone and dolomite) - unscaled
 PEF_B_E    .b/e-                      : PEF         Photoelectric Factor - A log of photoelectric absorption properties. Often expressed in an approximation unit barns/electron (b/e-)
 LITH       .                          : LITH        Lithology Curve
 LITH_v2    .                          : LITH        Lithology Curve
~A  DEPTH  GR2_API  RHOB_G_C  DRHO_G_C   NPHI_v/v  PEF_B_E     LITH    LITH_v2  
# ...
1252.2708   92.1625    2.3904    0.0842    0.3376    4.3094   22.0000   37.0000 
1252.4232   92.1625    2.3904    0.0842    0.3376    4.3094   22.0000   37.0000 
1252.5756   93.8901    2.3933    0.0866    0.3027    4.2694   22.0000   37.0000 
1252.7280   93.2274    2.3980    0.0906    0.2874    4.3251   22.0000   37.0000 
1252.8804   89.8244    2.4032    0.0924    0.3055    4.3251   22.0000   37.0000 
1253.0328   88.3840    2.4102    0.0960    0.3379    4.3356   22.0000   37.0000 
1253.1852   87.2857    2.4104    0.0939    0.3089    4.3526   22.0000   37.0000 
1253.3376   84.0723    2.4328    0.0983    0.2576    4.4033   22.0000   37.0000 
1253.4900   82.5246    2.4406    0.0922    0.3229    4.4267   22.0000   22.0000 
1253.6424   80.0989    2.4488    0.0914    0.2744    4.3983   22.0000   22.0000 
1253.7948   79.5747    2.4385    0.0884    0.2769    4.3997   22.0000   22.0000 
1253.9472   78.9331    2.4374    0.0932    0.3120    4.4042   22.0000   22.0000 
1254.0996   81.4356    2.4300    0.0903    0.2894    4.4092   22.0000   22.0000 
1254.2520   79.2719    2.4250    0.0849    0.3044    4.3953   22.0000   22.0000 
1254.4044   79.2719    2.4250    0.0849    0.3044    4.3953   22.0000   22.0000 
1254.5568   67.7337    2.4320    0.0862    0.2966    4.5142   22.0000   22.0000 
1254.7092   67.7337    2.4320    0.0862    0.2966    4.5142   22.0000   22.0000 
1254.8616   71.6145    2.4322    0.0920    0.2965    4.6478   22.0000   22.0000 
1255.0140   71.6145    2.4322    0.0920    0.2965    4.6478   22.0000   22.0000 
1255.1664   76.4272    2.4325    0.0943    0.2678    4.4359   22.0000   22.0000 
1255.3188   76.4272    2.4325    0.0943    0.2678    4.4359   22.0000   22.0000 
1255.4712   74.0363    2.4278    0.1067    0.2564    4.6004   22.0000   22.0000 
1255.6236   74.0363    2.4278    0.1067    0.2564    4.6004   22.0000   22.0000 
1255.7760   64.4359    2.4317    0.1221    0.2690    4.9402   22.0000   22.0000 
1255.9284   59.4958    2.4388    0.1297    0.2570    4.9278   22.0000   11.0000 
1256.0808   53.9246    2.4370    0.1326    0.2456    4.9931   22.0000   11.0000 
1256.2332   50.4226    2.4399    0.1380    0.2437    4.9868   22.0000   11.0000 
1256.3856   51.6665    2.4389    0.1377    0.2465    4.9704   22.0000   11.0000 
1256.5380   59.8140    2.4379    0.1363    0.2673    4.8985   22.0000   11.0000 
1256.6904   66.5174    2.4309    0.1225    0.2881    4.7749   22.0000   11.0000 
1256.8428   71.4987    2.4300    0.1134    0.2442    4.6796   22.0000   11.0000 
1256.9952   70.8886    2.4227    0.1029    0.2819    4.5897   22.0000   11.0000 
1257.1476   69.7091    2.4171    0.0968    0.2739    4.4975   22.0000   22.0000 
1257.3000   72.6132    2.4103    0.0910    0.2978    4.4283   22.0000   22.0000 
1257.4524   74.7709    2.4001    0.0796    0.3095    4.3901   22.0000   22.0000 
1257.6048   74.7709    2.4001    0.0796    0.3095    4.3901   22.0000   22.0000 
1257.7572   68.8551    2.4097    0.0675    0.3045    4.4639   22.0000   22.0000 
1257.9096   68.8551    2.4097    0.0675    0.3045    4.4639   22.0000   22.0000 
1258.0620   58.7798    2.4315    0.0816    0.2615    4.6882   22.0000   22.0000 
1258.2144   58.7798    2.4315    0.0816    0.2615    4.6882   22.0000   22.0000 
1258.3668   60.1973    2.4334    0.0820    0.2733    4.6113   22.0000   22.0000 
1258.5192   60.1973    2.4334    0.0820    0.2733    4.6113   22.0000   22.0000 
1258.6716   63.8691    2.4352    0.0889    0.2533    4.6355   22.0000   22.0000 
1258.8240   64.7647    2.4353    0.0876    0.2593    4.6328   22.0000   22.0000 
1258.9764   61.5235    2.4328    0.0862    0.2430    4.6385   22.0000   22.0000 
1259.1288   60.5065    2.4394    0.0886    0.2434    4.6621   22.0000   22.0000 
1259.2812   54.3125    2.4345    0.0887    0.2556    4.7293   22.0000   22.0000 
1259.4336   56.1121    2.4235    0.0850    0.2574    4.7300   22.0000   22.0000 
1259.5860   60.6183    2.4089    0.0823    0.2529    4.6857   22.0000   22.0000 
1259.7384   65.8666    2.4101    0.0852    0.2706    4.6397   22.0000   22.0000 
1259.8908   68.7084    2.4150    0.0871    0.2703    4.6394   22.0000   22.0000 
1260.0432   67.8840    2.4223    0.0868    0.2973    4.6391   22.0000   22.0000 
1260.1956   68.2008    2.4173    0.0787    0.2793    4.5931   22.0000   22.0000 
1260.3480   68.6493    2.4173    0.0745    0.2695    4.4867   22.0000   22.0000 
1260.5004   66.7558    2.4223    0.0767    0.2781    4.4865   22.0000   22.0000 
1260.6528   66.4628    2.4227    0.0827    0.2689    4.4960   22.0000   22.0000 
1260.8052   66.4628    2.4227    0.0827    0.2689    4.4960   22.0000   22.0000 
1260.9576   71.2113    2.4096    0.0839    0.2646    4.5273   22.0000   22.0000 
1261.1100   71.2113    2.4096    0.0839    0.2646    4.5273   22.0000   22.0000 
1261.2624   74.0125    2.3867    0.0589    0.2810    4.4255   22.0000   22.0000 
1261.4148   74.0125    2.3867    0.0589    0.2810    4.4255   22.0000   22.0000 
1261.5672   73.2203    2.3974    0.0527    0.2764    4.4207   22.0000   22.0000 
1261.7196   73.2203    2.3974    0.0527    0.2764    4.4207   22.0000   22.0000 
1261.8720   77.1264    2.4165    0.0686    0.2724    4.4557   22.0000   22.0000 
1262.0244   80.2563    2.4122    0.0695    0.2834    4.4490   22.0000   22.0000 
1262.1768   80.7743    2.4182    0.0742    0.2631    4.4720   22.0000   22.0000 
1262.3292   78.1789    2.4279    0.0817    0.2535    4.5135   22.0000   22.0000 
1262.4816   77.7909    2.4337    0.0884    0.3164    4.5668   22.0000   22.0000 
1262.6340   77.4594    2.4322    0.0908    0.2995    4.5730   22.0000   22.0000 
1262.7864   76.0582    2.4223    0.0867    0.2666    4.5664   22.0000   22.0000 
1262.9388   73.8140    2.4144    0.0823    0.2936    4.5304   22.0000   22.0000 
1263.0912   76.1057    2.4169    0.0860    0.2723    4.5373   22.0000   22.0000 
1263.2436   80.9041    2.4155    0.0882    0.2943    4.5284   22.0000   22.0000 
1263.3960   84.9983    2.4165    0.0884    0.2927    4.4545   22.0000   22.0000 
1263.5484   85.2801    2.4081    0.0838    0.3038    4.3915   22.0000   22.0000 
1263.7008   85.7334    2.4049    0.0808    0.2907    4.3180   22.0000   22.0000 
1263.8532   83.3153    2.4035    0.0828    0.3225    4.3468   22.0000   22.0000 
1264.0056   83.3153    2.4035    0.0828    0.3225    4.3468   22.0000   22.0000 
1264.1580   83.6115    2.4079    0.0857    0.2965    4.3794   22.0000   22.0000 
1264.3104   83.6115    2.4079    0.0857    0.2965    4.3794   22.0000   22.0000 
1264.4628   82.8609    2.4109    0.0845    0.3093    4.4526   22.0000   22.0000 
1264.6152   82.8609    2.4109    0.0845    0.3093    4.4526   22.0000   22.0000 
1264.7676   79.3770    2.4028    0.0773    0.2909    4.3428   22.0000   22.0000 
1264.9200   79.3770    2.4028    0.0773    0.2909    4.3428   22.0000   22.0000 
1265.0724   82.0615    2.4089    0.0750    0.3113    4.2620   22.0000   22.0000 
1265.2248   83.3532    2.4219    0.0779    0.2595    4.2877   22.0000   22.0000 
1265.3772   83.4449    2.4260    0.0780    0.2822    4.3452   22.0000   22.0000 
1265.5296   83.5136    2.4214    0.0758    0.2676    4.3354   22.0000   22.0000 
1265.6820   85.5755    2.4138    0.0750    0.3039    4.3126   22.0000   22.0000 
1265.8344   85.1385    2.4160    0.0790    0.2837    4.3066   22.0000   22.0000 
1265.9868   81.8875    2.4170    0.0784    0.3096    4.3909   22.0000   22.0000 
1266.1392   77.7470    2.4288    0.0767    0.2413    4.4567   22.0000   22.0000 
1266.2916   73.4223    2.4334    0.0701    0.2476    4.4877   22.0000   22.0000 
1266.4440   70.7717    2.4377    0.0655    0.2840    4.4375   22.0000   22.0000 
1266.5964   69.4432    2.4400    0.0682    0.2446    4.4572   22.0000   22.0000 
1266.7488   69.6402    2.4420    0.0718    0.2485    4.4563   22.0000   22.0000 
1266.9012   71.6837    2.4418    0.0782    0.2742    4.4444   22.0000   22.0000 
1267.0536   74.0162    2.4347    0.0778    0.2549    4.3570   22.0000   22.0000 
1267.2060   74.0162    2.4347    0.0778    0.2549    4.3570   22.0000   22.0000 
