~VERSION INFORMATION
 VERS.                 2.0:   CWLS LOG ASCII STANDARD - VERSION 2.0
 WRAP.                  NO:   SINGLE LINE PER DEPTH STEP
 CREA.                 19/12/2017 10:26:08
#CREATED USING DSPetro VERSION 5000.10.1.3 BY H191660 ON 19/12/2017 10:26:08
~WELL INFORMATION
#MNEM.UNIT       DATA                          DESCRIPTION MNEMONIC
#---------      ---------------------------   --------------------------
 STRT    .M         0.0000                    : START DEPTH
 STOP    .M         3393.9480                 : STOP DEPTH
 STEP    .M         0.1524                    : STEP VALUE
 NULL    .      -999.0000                     : NULL VALUE
 DATE    .      19/12/2017                    : LAS file Creation Date
 WELL  .      1549_eendracht_1            : Well Name
 COMP  .      Neftex Exploration Insights : Company
 FLD   .      EENDRACHT                   : Field
 UWI   .      ZAUWL_005203                : Unique Well Identifier (UWI)
 LOC   .      Location                    : Location
 PDAT  .      Mean Sea Level              : Permanent Datum
 EPDAT .      0                           : Reference Elevation
 LGMEA .      Kelly Bushing               : Log Measured from
 DRMEA .      Kelly Bushing               : Drill Measured From
 APDAT .      9.8                         : Elevation Above Permanent Datum
 KB    .      9.8                         : KB Elevation
 DF    .      9.8                         : DF Elevation
 GL    .      0                           : GL Elevation
 RWS   .      0                           : Def_Rw
 WST   .      0                           : Def_Rwt
 MDEC  .      0                           : Magnetic Declination
 SRVC  .      SCH                         : Contractor
~CURVE INFORMATION
#MNEM               UNIT       API CODE   Curve Type Comments
#----------   --------------- ----------  ---------- -----------
 DEPTH       .M                         : Depth       
 Bitsize     .in                        : bitSize     caliper     Caliper Log - A representation of the measured diameter of a borehole along its depth
 CAL_INCH    .inch                      : caliper     Caliper Log - A representation of the measured diameter of a borehole along its depth
 GR_API_ds   .API                       : gammaRay    
 SP_MV1      .mv                        : SP          Spontaneous Potential - Records the electrical potential produced by the interaction of formation water, conductive drilling mud, and certain ion-sele
 ILD_OHMMds  .ohmm                      : deepRes     
 MSFL_OHMMds .ohmm                      : shalRes     
 DT_US_FTds  .us/ft                     : sonic       
 RHOB_G_CC   .g/cc                      : density     Bulk Density - Measures the density of bulk material, including any void space or other materials contained in the subject volume
 NPHI_v/vds  .v/v                       :             
 PEF_B_Eds   .b/e-                      : PEF         
 LITH        .                          : LITH        Lithology Curve
 LITH_v2     .                          : LITH        Lithology Curve
~A  DEPTH  Bitsize   CAL_INCH GR_API     SP_MV1  ILD_OHMM  MSFL_OHM  DT_US_FT  RHOB_G_C  NPHI_v/v  PEF_B_       LITH    LITH_v2  
# ...
2777.9472   12.2500   14.5469  111.3840   -2.9738    2.0095    3.7059  111.1883    2.1152    0.4019    3.0754   11.0000   11.0000 
2778.0996   12.2500   13.7109  109.6462   -3.4631    1.9959    3.5961  111.7816    2.1523    0.4143    2.8906   11.0000   11.0000 
2778.2520   12.2500   14.5469  109.0516   -3.5773    1.9824    3.4870  112.0744    2.0996    0.4287    2.8398   11.0000   11.0000 
2778.4044   12.2500   14.2891  111.1206   -3.7541    1.9756    3.3985  112.1606    2.1172    0.4311    2.8001   11.0000   11.0000 
2778.5568   12.2500   14.1016  110.1517   -3.8058    1.9688    3.3104  112.0207    2.1465    0.4436    2.8178   11.0000   11.0000 
2778.7092   12.2500   13.9609  108.2850   -4.1076    1.9680    3.4521  112.1194    2.1387    0.4588    2.9039   11.0000   11.0000 
2778.8616   12.2500   13.4766  105.3783   -4.1593    1.9697    3.6928  112.1875    2.1914    0.4378    2.9029   11.0000   11.0000 
2779.0140   12.2500   14.4375  106.4613   -5.0236    1.9735    3.8754  112.7317    2.1426    0.4252    2.9736   11.0000   11.0000 
2779.1664   12.2500   13.9063  108.9247   -3.7628    1.9807    3.9680  112.6265    2.1738    0.4072    2.9823   11.0000   11.0000 
2779.3188   12.2500   14.5313  112.9479   -3.6271    1.9879    4.0578  113.1416    2.1758    0.4064    3.0093   11.0000   11.0000 
2779.4712   12.2500   14.1953  112.2158   -3.3038    1.9951    4.1185  112.1634    2.1953    0.3970    2.9164   11.0000   11.0000 
2779.6236   12.2500   13.8516  110.3275   -2.7931    2.0023    4.1792  111.5995    2.2031    0.4163    2.8072   11.0000   11.0000 
2779.7760   12.2500   14.1172  107.9783   -3.3448    2.0033    4.0429  111.1994    2.1875    0.4319    2.7525   11.0000   11.0000 
2779.9284   12.2500   14.2969  106.5319   -3.2716    2.0024    3.8501  111.0213    2.1953    0.4309    2.7109   11.0000   11.0000 
2780.0808   12.2500   14.4063  106.4779   -2.6358    1.9978    3.7338  111.9258    2.1875    0.4322    2.6607   11.0000   11.0000 
2780.2332   12.2500   14.1406  103.9189   -2.0001    1.9889    3.7036  111.4292    2.1797    0.4440    2.6138   11.0000   11.0000 
2780.3856   12.2500   14.0313   98.2879   -2.4893    1.9800    3.7151  112.7876    2.1582    0.4583    2.6362   11.0000   11.0000 
2780.5380   12.2500   13.1563   90.5650   -2.6036    1.9716    3.9397  105.4314    2.1621    0.4474    2.7523   11.0000   11.0000 
2780.6904   12.2500   13.3125   87.8590   -3.2179    1.9631    4.1643  104.9285    2.2148    0.4286    2.9798   11.0000   11.0000 
2780.8428   12.2500   12.6328   91.4206   -3.4571    1.9557    4.2789  103.5423    2.2969    0.4307    3.7177   11.0000   11.0000 
2780.9952   12.2500   13.5703   96.3080   -3.6964    1.9485    4.3750  100.4036    2.2617    0.4599    4.0182   11.0000   11.0000 
2781.1476   12.2500   12.9844   97.9064   -3.6856    1.9398    3.9639  104.3317    2.1855    0.4667    3.8328   11.0000   11.0000 
2781.3000   12.2500   13.6641  100.6501   -3.6124    1.9355    3.6278  107.3895    2.1191    0.4488    3.7278   11.0000   11.0000 
2781.4524   12.2500   13.7031  103.8014   -3.6016    1.9297    3.9145  109.6114    2.1836    0.4121    3.6325   11.0000   11.0000 
2781.6048   12.2500   14.0078  107.4513   -3.2159    1.9209    4.2536  113.3196    2.2461    0.4021    3.5611   11.0000   11.0000 
2781.7572   12.2500   13.5859  109.1250   -3.3926    1.9232    3.8886  112.3806    2.2715    0.4031    3.1784   11.0000   11.0000 
2781.9096   12.2500   14.0156  107.6379   -3.1944    1.9288    3.9591  113.8730    2.2598    0.4084    3.0183   11.0000   11.0000 
2782.0620   12.2500   13.9922  105.7759   -3.1836    1.9543    4.2199  112.3263    2.2285    0.4152    3.0345   11.0000   11.0000 
2782.2144   12.2500   13.6563  106.4694   -2.7354    1.9910    4.0399  110.6245    2.2578    0.4018    3.1299   11.0000   11.0000 
2782.3668   12.2500   14.0703  109.7154   -2.4746    2.0400    4.2719  110.7117    2.2500    0.3784    3.2111   11.0000   11.0000 
2782.5192   12.2500   14.5703  112.8576   -2.2764    2.1020    4.7271  110.4225    2.2695    0.3768    3.2403   11.0000   11.0000 
2782.6716   12.2500   13.3828  112.2779   -2.1406    2.1368    4.5300  109.9720    2.2637    0.4277    3.2225   11.0000   11.0000 
2782.8240   12.2500   13.5156  110.4868   -1.8799    2.1812    5.9329  107.3574    2.1973    0.4510    3.0554   11.0000   11.0000 
2782.9764   12.2500   14.3516  104.2273   -2.0566    2.2010    4.4121  102.9808    2.1113    0.4702    2.8792   11.0000   11.0000 
2783.1288   12.2500   13.5234   98.3254   -1.6709    2.1870    5.8521   98.7866    2.0762    0.4652    2.8118   11.0000   11.0000 
2783.2812   12.2500   13.4922   96.5633   -1.4101    2.1784   13.4450   97.9692    2.1484    0.4701    3.1857   11.0000   11.0000 
2783.4336   12.2500   14.5547  101.9539   -1.3994    2.1455    6.3461   98.7025    2.2090    0.4452    3.7188   11.0000   11.0000 
2783.5860   12.2500   14.2578  108.8384   -0.7011    2.1171    3.9765  101.6272    2.2402    0.4359    3.7384   11.0000   11.0000 
2783.7384   12.2500   14.1172  113.2641   -1.5029    2.0732    4.0985  106.4947    2.1777    0.4255    3.3608   11.0000   11.0000 
2783.8908   12.2500   14.6094  110.9279   -1.1797    2.0219    4.0750  110.7374    2.1445    0.4346    2.9821   11.0000   11.0000 
2784.0432   12.2500   14.7656  107.1317   -1.6689    1.9951    4.2008  111.5686    2.1250    0.4440    2.8012   11.0000   11.0000 
2784.1956   12.2500   14.4375  105.6039   -1.0332    1.9707    4.0747  112.1039    2.1543    0.4433    2.7114   11.0000   11.0000 
2784.3480   12.2500   14.3125  110.0318   -1.0849    1.9575    4.2022  111.8601    2.2031    0.4598    2.6888   11.0000   11.0000 
2784.5004   12.2500   14.4141  113.5138   -1.0742    1.9342    3.8031  110.8516    2.2090    0.4586    2.7607   11.0000   11.0000 
2784.6528   12.2500   14.4844  110.8196   -1.6259    1.9000    3.7725  110.1950    2.2285    0.4771    2.7452   11.0000   11.0000 
2784.8052   12.2500   14.0781  108.2763   -1.6152    1.8792    3.4606  109.0391    2.1953    0.4481    2.7076   11.0000   11.0000 
2784.9576   12.2500   14.2813  109.0544   -2.0419    1.8740    3.2701  108.7500    2.2207    0.4127    2.6973   11.0000   11.0000 
2785.1100   12.2500   14.6094  113.9565   -1.5312    1.8709    3.0731  109.7620    2.2188    0.3968    2.6705   11.0000   11.0000 
2785.2624   12.2500   13.7344  117.1891   -1.4579    1.8615    3.1092  111.0479    2.1992    0.4125    2.7144   11.0000   11.0000 
2785.4148   12.2500   13.6250  118.2815   -1.3222    1.8473    3.7120  110.5684    2.2090    0.4334    2.7095   11.0000   11.0000 
2785.5672   12.2500   13.7422  120.6495   -1.0614    1.8500    3.8288  110.7199    2.1992    0.4381    2.7273   11.0000   11.0000 
2785.7196   12.2500   13.6094  124.7142   -1.4882    1.8735    3.5749  111.6812    2.2754    0.4405    2.7899   11.0000   11.0000 
2785.8720   12.2500   13.7969  126.0290   -1.2899    1.8982    3.2752  110.6202    2.2324    0.4472    2.9145   11.0000   11.0000 
2786.0244   12.2500   13.7578  122.2239   -0.7792    1.9089    3.5058  108.7005    2.2305    0.4673    2.9714   11.0000   11.0000 
2786.1768   12.2500   13.6094  112.7895   -0.0184    1.9091    3.3509  108.4315    2.2168    0.4541    2.8438   11.0000   11.0000 
2786.3292   12.2500   14.1016  106.4261   -0.0077    1.9102    3.4841  106.9668    2.2051    0.4175    2.7597   11.0000   11.0000 
2786.4816   12.2500   13.3203  106.5383    0.4406    1.9116    3.0947  106.4207    2.1699    0.3974    2.8415   11.0000   11.0000 
2786.6340   12.2500   13.5391  111.0830    0.0138    1.8831    3.2975  112.3128    2.1328    0.3937    3.0502   11.0000   11.0000 
2786.7864   12.2500   13.5000  117.6687    0.4620    1.8466    2.9398  109.4855    2.1680    0.3957    3.1754   11.0000   11.0000 
2786.9388   12.2500   13.5781  115.8432    0.0353    1.8179    2.9128  111.2092    2.2285    0.4023    3.1175   11.0000   11.0000 
2787.0912   12.2500   13.5313  114.3911   -0.1415    1.7919    2.4499  106.1368    2.2754    0.4159    3.1762   11.0000   11.0000 
2787.2436   12.2500   13.6953  109.4347   -0.5682    1.7741    2.3227  105.9635    2.2637    0.4402    3.4483   11.0000   11.0000 
