~VERSION INFORMATION
 VERS.                 2.0:   CWLS LOG ASCII STANDARD - VERSION 2.0
 WRAP.                  NO:   SINGLE LINE PER DEPTH STEP
 CREA.                 19/12/2017 10:26:08
#CREATED USING DSPetro VERSION 5000.10.1.3 BY H191660 ON 19/12/2017 10:26:08
~WELL INFORMATION
#MNEM.UNIT       DATA                          DESCRIPTION MNEMONIC
#---------      ---------------------------   --------------------------
 STRT    .M         0.0000                    : START DEPTH
 STOP    .M         3393.9480                 : STOP DEPTH
 STEP    .M         0.1524                    : STEP VALUE
 NULL    .      -999.0000                     : NULL VALUE
 DATE    .      19/12/2017                    : LAS file Creation Date
 WELL  .      1549_eendracht_1            : Well Name
 COMP  .      Neftex Exploration Insights : Company
 FLD   .      EENDRACHT                   : Field
 UWI   .      ZAUWL_005203                : Unique Well Identifier (UWI)
 LOC   .      Location                    : Location
 PDAT  .      Mean Sea Level              : Permanent Datum
 EPDAT .      0                           : Reference Elevation
 LGMEA .      Kelly Bushing               : Log Measured from
 DRMEA .      Kelly Bushing               : Drill Measured From
 APDAT .      9.8                         : Elevation Above Permanent Datum
 KB    .      9.8                         : KB Elevation
 DF    .      9.8                         : DF Elevation
 GL    .      0                           : GL Elevation
 RWS   .      0                           : Def_Rw
 WST   .      0                           : Def_Rwt
 MDEC  .      0                           : Magnetic Declination
 SRVC  .      SCH                         : Contractor
~CURVE INFORMATION
#MNEM               UNIT       API CODE   Curve Type Comments
#----------   --------------- ----------  ---------- -----------
 DEPTH       .M                         : Depth       
 Bitsize     .in                        : bitSize     caliper     Caliper Log - A representation of the measured diameter of a borehole along its depth
 CAL_INCH    .inch                      : caliper     Caliper Log - A representation of the measured diameter of a borehole along its depth
 GR_API_ds   .API                       : gammaRay    
 SP_MV1      .mv                        : SP          Spontaneous Potential - Records the electrical potential produced by the interaction of formation water, conductive drilling mud, and certain ion-sele
 ILD_OHMMds  .ohmm                      : deepRes     
 MSFL_OHMMds .ohmm                      : shalRes     
 DT_US_FTds  .us/ft                     : sonic       
 RHOB_G_CC   .g/cc                      : density     Bulk Density - Measures the density of bulk material, including any void space or other materials contained in the subject volume
 NPHI_v/vds  .v/v                       :             
 PEF_B_Eds   .b/e-                      : PEF         
 LITH        .                          : LITH        Lithology Curve
 LITH_v2     .                          : LITH        Lithology Curve
~A  DEPTH  Bitsize   CAL_INCH GR_API     SP_MV1  ILD_OHMM  MSFL_OHM  DT_US_FT  RHOB_G_C  NPHI_v/v  PEF_B_       LITH    LITH_v2  
# ...
2872.4352   12.2500   13.3203  108.9967   -1.7535    1.3443    3.6996  106.4146    2.1406    0.4253    3.0571   11.0000   11.0000 
2872.5876   12.2500   13.9609  110.6297   -1.7593    1.4087    3.3988  105.8308    2.1719    0.4088    2.8224   11.0000   11.0000 
2872.7400   12.2500   14.0000  106.8847   -1.5151    1.4985    3.4531  105.3455    2.1816    0.4053    2.6568   11.0000   11.0000 
2872.8924   12.2500   14.1250  106.2702   -1.7709    1.6112    3.6374  105.2108    2.2754    0.4026    2.6177   11.0000   11.0000 
2873.0448   12.2500   13.1875  103.1912   -1.9018    1.7244    3.6132  110.0550    2.2402    0.4162    2.6133   11.0000   11.0000 
2873.1972   12.2500   12.8359   97.5993   -2.1576    1.8474    3.5580  115.8204    2.2734    0.4602    2.4001   11.0000   11.0000 
2873.3496   12.2500   12.9063   83.0559   -1.9134    1.9754    3.8408  121.2190    2.0098    0.5252    1.9713    9.0000   37.0000 
2873.5020   12.2500   13.6328   76.8931   -1.9192    2.0940    5.4473  121.9375    1.9102    0.5512    1.7317    9.0000   37.0000 
2873.6544   12.2500   12.8672   82.6371   -2.1125    2.2294    6.9879  122.0996    1.8750    0.5058    1.6674    9.0000   37.0000 
2873.8068   12.2500   12.8203   91.7811   -1.5558    2.3859    5.4600  120.4568    2.0117    0.4373    1.7784   37.0000   37.0000 
2873.9592   12.2500   13.2813   98.5703   -1.7492    2.4863    4.5612  114.5291    2.1504    0.3894    2.0353   37.0000   37.0000 
2874.1116   12.2500   13.1328  101.8290   -2.1300    2.4726    4.8365  108.9135    2.2090    0.3729    2.2422   37.0000   37.0000 
2874.2640   12.2500   12.9844  105.7221   -2.3858    2.4105    4.9236  105.4433    2.2441    0.3764    2.3550   37.0000   37.0000 
2874.4164   12.2500   13.0000  106.6296   -1.6416    2.3506    4.7527  104.2134    2.2539    0.3717    2.3815   37.0000   37.0000 
2874.5688   12.2500   13.0469  110.4724   -2.0849    2.3171    4.6634  102.3725    2.2559    0.3867    2.3673   37.0000   37.0000 
2874.7212   12.2500   13.1250  110.1459   -1.9658    2.2946    4.5322  100.9639    2.2383    0.3856    2.3588   37.0000   37.0000 
2874.8736   12.2500   13.1953  110.0538   -2.2216    2.2618    4.3439   99.8510    2.2461    0.3780    2.3566   37.0000   37.0000 
2875.0260   12.2500   12.9375  104.4339   -2.8524    2.2190    4.2723   99.6094    2.2598    0.3539    2.3622   37.0000   37.0000 
2875.1784   12.2500   12.9141  103.4465   -3.1082    2.1851    4.4652  100.3145    2.2598    0.3406    2.4425   37.0000   37.0000 
2875.3308   12.2500   12.9141   99.9732   -3.0515    2.1479    4.9974  100.6354    2.2617    0.3441    2.5308   37.0000   37.0000 
2875.4832   12.2500   12.9453   98.5779   -3.0573    2.1151    4.6855  101.1066    2.2656    0.3497    2.5294   37.0000   37.0000 
2875.6356   12.2500   13.0391   95.2582   -2.5632    2.1016    4.2245  102.2654    2.2207    0.3758    2.4439   37.0000   37.0000 
2875.7880   12.2500   13.7344   96.0612   -2.2565    2.1104    3.7715  104.7184    2.1973    0.4091    2.3905   37.0000   37.0000 
2875.9404   12.2500   13.0234   93.6258   -3.0123    2.1323    3.6853  106.4085    2.1348    0.4415    2.3708   37.0000   37.0000 
2876.0928   12.2500   12.9609   89.5008   -3.2681    2.1371    4.3548  106.5625    2.1563    0.4407    2.4019   37.0000   37.0000 
2876.2452   12.2500   12.8828   85.9845   -3.6489    2.1604    5.4017  105.3129    2.1563    0.4098    2.4755   37.0000   37.0000 
2876.3976   12.2500   12.8828   87.1084   -3.1547    2.2035    5.0007  104.7500    2.2031    0.3719    2.5758   37.0000   37.0000 
2876.5500   12.2500   12.8906   89.3117   -3.6606    2.2640    4.5491  105.0955    2.2109    0.3543    2.6253   37.0000   37.0000 
2876.7024   12.2500   12.9141   91.2447   -2.9164    2.3194    4.3318  104.6626    2.2031    0.3673    2.5167   37.0000   37.0000 
2876.8548   12.2500   12.9688   92.2870   -2.5472    2.2565    4.8112  104.9518    2.1973    0.3963    2.3410   37.0000   37.0000 
2877.0072   12.2500   13.0313   92.3859   -2.4280    2.1048    4.4546  105.0000    2.1973    0.4072    2.1931   37.0000   37.0000 
2877.1596   12.2500   12.9141   90.8317   -2.9338    1.9586    4.4003  102.4009    2.2129    0.4028    2.1685   37.0000   37.0000 
2877.3120   12.2500   12.7969   92.3464   -3.1897    1.8878    4.0571  101.5147    2.2070    0.3817    2.2601   37.0000   37.0000 
2877.4644   12.2500   12.5703   93.2102   -2.8205    1.8706    3.6021  100.1773    2.2129    0.3607    2.3812   37.0000   37.0000 
2877.6168   12.2500   12.3828   91.7831   -4.8263    1.8467    2.8067   98.3807    2.2324    0.3518    2.5054   37.0000   37.0000 
2877.7692   12.2500   12.3125   91.9966   -5.9571    1.8258    3.0229   99.6816    2.2480    0.3508    2.6278   37.0000   37.0000 
2877.9216   12.2500   12.1953   91.7196   -4.5254    1.8128    3.8201  100.2778    2.2598    0.3477    2.6955   37.0000   37.0000 
2878.0740   12.2500   12.3203   95.6159   -5.3437    1.8038    3.9438  100.5625    2.2344    0.3449    2.7261   37.0000   37.0000 
2878.2264   12.2500   12.3203   91.1737   -6.0371    1.8048    3.7684  101.1165    2.2461    0.3353    2.7138   37.0000   37.0000 
2878.3788   12.2500   12.3125   84.8542   -5.9804    1.8284    3.5195  102.0164    2.2266    0.3326    2.7433   37.0000   37.0000 
2878.5312   12.2500   12.3203   81.3726   -6.7987    1.8690    3.6676  101.6673    2.2246    0.3376    2.7666   37.0000   37.0000 
2878.6836   12.2500   12.3203   85.9022   -6.4295    1.9110    3.9792  101.4704    2.2227    0.3520    2.7599   37.0000   37.0000 
2878.8360   12.2500   12.3203   90.2219   -6.3728    1.9484    3.8749  101.1720    2.2480    0.3791    2.8016   37.0000   37.0000 
2878.9884   12.2500   12.3438   90.9008   -6.5661    1.9819    3.7768  101.3327    2.2637    0.3896    2.8489   37.0000   37.0000 
2879.1408   12.2500   12.3438   85.5853   -6.0095    2.0063    3.9184  101.5625    2.2734    0.3884    2.9396   37.0000   37.0000 
2879.2932   12.2500   12.3516   84.1875   -6.4528    2.0150    4.5672  101.2216    2.2656    0.3715    3.0298   37.0000   37.0000 
2879.4456   12.2500   12.3672   85.3666   -5.8961    2.0134    4.5833  100.7853    2.2695    0.3633    3.0800   37.0000   37.0000 
2879.5980   12.2500   12.3359   88.8707   -6.2769    2.0338    4.7099  101.1832    2.2598    0.3716    3.0317   37.0000   37.0000 
2879.7504   12.2500   12.3438   91.0193   -5.7202    2.0685    4.2580  101.3132    2.2578    0.3906    2.9211   37.0000   37.0000 
2879.9028   12.2500   12.3516   92.4456   -5.3510    2.0997    4.2841  101.1938    2.2695    0.3926    2.9550   37.0000   37.0000 
2880.0552   12.2500   12.3984   92.6045   -5.5444    2.1195    4.5453  101.1875    2.2695    0.3759    3.0910   37.0000   37.0000 
2880.2076   12.2500   12.4297   95.3671   -5.4252    2.1319    4.6082  101.3222    2.2832    0.3557    3.1583   37.0000   37.0000 
2880.3600   12.2500   12.4453   95.3199   -5.4935    2.1415    4.7426  101.6803    2.2852    0.3547    3.1138   37.0000   37.0000 
2880.5124   12.2500   12.4766   94.1977   -4.4993    2.1519    4.7918  101.5770    2.2891    0.3579    3.0399   37.0000   37.0000 
2880.6648   12.2500   12.5469   90.2498   -4.5676    2.1618    4.6637  101.5928    2.2930    0.3622    3.0680   37.0000   37.0000 
2880.8172   12.2500   12.6016   87.9316   -3.7609    2.1690    4.5260  102.0405    2.3008    0.3732    3.1809   37.0000   37.0000 
2880.9696   12.2500   12.6406   92.2256   -3.3918    2.1787    4.4854  101.9606    2.3145    0.3996    3.3815   37.0000   37.0000 
2881.1220   12.2500   12.6406   97.0549   -3.1476    2.2115    4.3557  102.1679    2.3164    0.4083    3.4559   37.0000   37.0000 
2881.2744   12.2500   12.6406  104.3651   -2.9034    2.2742    4.2355  101.8471    2.3125    0.3976    3.4123   37.0000   37.0000 
2881.4268   12.2500   12.6406  103.4536   -2.5967    2.3380    4.7303  102.6807    2.3086    0.3799    3.2923   37.0000   37.0000 
2881.5792   12.2500   12.6484  102.8757   -2.2275    2.3903    5.5858  103.1782    2.3066    0.3728    3.0740   37.0000   37.0000 
2881.7316   12.2500   12.7188   99.2084   -1.4834    2.4398    5.8366  102.9697    2.2813    0.3932    2.8248   37.0000   37.0000 
