~VERSION INFORMATION
 VERS.                 2.0:   CWLS LOG ASCII STANDARD - VERSION 2.0
 WRAP.                  NO:   SINGLE LINE PER DEPTH STEP
 CREA.                 19/12/2017 10:26:08
#CREATED USING DSPetro VERSION 5000.10.1.3 BY H191660 ON 19/12/2017 10:26:08
~WELL INFORMATION
#MNEM.UNIT       DATA                          DESCRIPTION MNEMONIC
#---------      ---------------------------   --------------------------
 STRT    .M         0.0000                    : START DEPTH
 STOP    .M         3393.9480                 : STOP DEPTH
 STEP    .M         0.1524                    : STEP VALUE
 NULL    .      -999.0000                     : NULL VALUE
 DATE    .      19/12/2017                    : LAS file Creation Date
 WELL  .      1549_eendracht_1            : Well Name
 COMP  .      Neftex Exploration Insights : Company
 FLD   .      EENDRACHT                   : Field
 UWI   .      ZAUWL_005203                : Unique Well Identifier (UWI)
 LOC   .      Location                    : Location
 PDAT  .      Mean Sea Level              : Permanent Datum
 EPDAT .      0                           : Reference Elevation
 LGMEA .      Kelly Bushing               : Log Measured from
 DRMEA .      Kelly Bushing               : Drill Measured From
 APDAT .      9.8                         : Elevation Above Permanent Datum
 KB    .      9.8                         : KB Elevation
 DF    .      9.8                         : DF Elevation
 GL    .      0                           : GL Elevation
 RWS   .      0                           : Def_Rw
 WST   .      0                           : Def_Rwt
 MDEC  .      0                           : Magnetic Declination
 SRVC  .      SCH                         : Contractor
~CURVE INFORMATION
#MNEM               UNIT       API CODE   Curve Type Comments
#----------   --------------- ----------  ---------- -----------
 DEPTH       .M                         : Depth       
 Bitsize     .in                        : bitSize     caliper     Caliper Log - A representation of the measured diameter of a borehole along its depth
 CAL_INCH    .inch                      : caliper     Caliper Log - A representation of the measured diameter of a borehole along its depth
 GR_API_ds   .API                       : gammaRay    
 SP_MV1      .mv                        : SP          Spontaneous Potential - Records the electrical potential produced by the interaction of formation water, conductive drilling mud, and certain ion-sele
 ILD_OHMMds  .ohmm                      : deepRes     
 MSFL_OHMMds .ohmm                      : shalRes     
 DT_US_FTds  .us/ft                     : sonic       
 RHOB_G_CC   .g/cc                      : density     Bulk Density - Measures the density of bulk material, including any void space or other materials contained in the subject volume
 NPHI_v/vds  .v/v                       :             
 PEF_B_Eds   .b/e-                      : PEF         
 LITH        .                          : LITH        Lithology Curve
 LITH_v2     .                          : LITH        Lithology Curve
~A  DEPTH  Bitsize   CAL_INCH GR_API     SP_MV1  ILD_OHMM  MSFL_OHM  DT_US_FT  RHOB_G_C  NPHI_v/v  PEF_B_       LITH    LITH_v2  
# ...
2267.7120   12.2500   14.3828   65.9393  -12.1215    1.5136    2.9114  123.6115    1.8848    0.5281    4.1086   11.0000   11.0000 
2267.8644   12.2500   13.9844   64.2523  -11.3715    1.5275    2.8432  121.7539    1.8594    0.4930    4.2408   11.0000   11.0000 
2268.0168   12.2500   13.9688   65.3079  -11.0278    1.5372    2.9392  121.2199    1.8691    0.4682    4.2998   11.0000   11.0000 
2268.1692   12.2500   14.1406   62.6638  -10.8715    1.5385    2.9494  120.7873    1.8750    0.4840    4.4459   11.0000   11.0000 
2268.3216   12.2500   14.2109   63.8677  -10.0853    1.5283    2.9982  120.7500    1.8984    0.5153    4.5528   11.0000   11.0000 
2268.4740   12.2500   14.3594   60.3050   -9.6215    1.5053    3.1717  120.7500    1.8945    0.5455    4.6896   11.0000   11.0000 
2268.6264   12.2500   14.6484   62.4152   -8.6840    1.4902    3.2432  119.8318    1.9092    0.5520    4.8974   11.0000   11.0000 
2268.7788   12.2500   14.9922   63.0874   -8.2778    1.4842    3.0869  118.8306    1.9121    0.5726    4.9639   11.0000   11.0000 
2268.9312   12.2500   16.5469   65.9626   -7.2465    1.4849    2.9954  120.2459    1.9277    0.5878    5.0041   11.0000   11.0000 
2269.0836   12.2500   17.7969   66.6250   -6.5590    1.4937    3.0339  126.6540    1.9258    0.5792    4.4992   11.0000   11.0000 
2269.2360   12.2500   18.2500   66.5520   -7.3715    1.5123    2.9726  127.0145    1.8799    0.5379    3.0749   11.0000   11.0000 
2269.3884   12.2500   14.9609   66.0292   -6.8090    1.5243    2.8710  127.5197    1.7754    0.4919    2.5571   11.0000   11.0000 
2269.5408   12.2500   14.3672   66.1989   -8.1840    1.5320    2.7833  126.8108    1.7568    0.4928    2.4452   11.0000   11.0000 
2269.6932   12.2500   12.8906   65.7760   -9.1528    1.5521    2.7752  126.2290    1.7676    0.5292    3.0573   11.0000   11.0000 
2269.8456   12.2500   13.1563   65.3175   -9.8715    1.5767    2.7531  128.5641    1.8467    0.5676    3.9901   11.0000   11.0000 
2269.9980   12.2500   13.8047   63.9302  -10.4340    1.6102    2.8218  125.9642    1.8779    0.5963    4.2975   11.0000   11.0000 
2270.1504   12.2500   14.4219   63.9699   -8.5278    1.6285    2.7933  119.2417    1.8848    0.5990    3.8417   11.0000   11.0000 
2270.3028   12.2500   15.3125   65.0744   -7.8090    1.6321    2.6735  120.2627    1.8389    0.6211    3.3866   11.0000   11.0000 
2270.4552   12.2500   16.1250   68.0949   -7.7465    1.6309    2.7633  123.3459    1.8213    0.6265    2.9446   11.0000   11.0000 
2270.6076   12.2500   15.7188   68.6519   -7.1840    1.6254    3.0999  122.1044    1.8379    0.6310    2.2595   11.0000   11.0000 
2270.7600   12.2500   15.8281   66.8097   -5.5590    1.6115    2.4421  124.5695    1.7920    0.6043    1.8806   11.0000   11.0000 
2270.9124   12.2500   16.3750   62.1720   -5.0903    1.5984    1.2108  132.9357    1.7012    0.6004    1.6181   11.0000   11.0000 
2271.0648   12.2500   17.7500   62.6825   -3.7778    1.5747    0.6829  143.8033    1.5869    0.5643    1.5293   11.0000   11.0000 
2271.2172   12.2500   18.3125   60.1754   -3.6215    1.5386    0.6003  153.7609    1.5664    0.5293    1.5031   11.0000   11.0000 
2271.3696   12.2500   18.3125   59.3385   -1.4028    1.5118    0.5741  159.6567    1.5654    0.5258    1.5407   11.0000   11.0000 
2271.5220   12.2500   18.3125   59.3290   -1.4028    1.4925    0.5687  157.2971    1.5752    0.5752    1.6456   11.0000   11.0000 
2271.6744   12.2500   18.3125   61.4460   -0.7778    1.4674    0.5730  162.7726    1.5918    0.6023    1.7605   11.0000   11.0000 
2271.8268   12.2500   18.3125   61.8793   -0.5278    1.4462    0.5734  166.5413    1.6152    0.6046    1.8925   11.0000   11.0000 
2271.9792   12.2500   18.3125   59.4987   -0.4028    1.4299    0.5712  168.6371    1.6279    0.5877    1.8726   11.0000   11.0000 
2272.1316   12.2500   18.3125   61.2822   -1.2778    1.4143    0.5691  174.4184    1.6143    0.5870    1.8259   11.0000   11.0000 
2272.2840   12.2500   18.3125   65.1543   -0.5278    1.4152    0.5760  167.5377    1.6221    0.5712    1.6906   11.0000   11.0000 
2272.4364   12.2500   18.3125   73.5799   -1.3403    1.4372    0.5935  172.8072    1.6230    0.5543    1.7333   11.0000   11.0000 
2272.5888   12.2500   18.3125   78.5689   -1.6528    1.4629    0.6121  175.6140    1.6719    0.5592    1.8125   11.0000   11.0000 
2272.7412   12.2500   18.3125   79.0150   -2.2778    1.4900    0.7513  175.3940    1.7393    0.5711    2.1823   11.0000   11.0000 
2272.8936   12.2500   18.3125   74.9553   -2.4028    1.5070    1.3723  174.4245    1.8877    0.5771    2.5457   11.0000   11.0000 
2273.0460   12.2500   18.3125   75.8034   -2.2778    1.5094    1.7585  170.9253    2.0430    0.5765    2.8397   11.0000   11.0000 
2273.1984   12.2500   18.3125   77.6031   -2.5903    1.5169    1.7920  169.5590    2.1406    0.5535    2.9343   11.0000   11.0000 
2273.3508   12.2500   18.3125   77.0579   -3.1840    1.5307    1.6476  169.0230    2.1699    0.5352    3.0191   11.0000   11.0000 
2273.5032   12.2500   18.3125   74.1656   -2.6528    1.5426    1.4197  167.5674    2.1230    0.5308    2.7766   11.0000   11.0000 
2273.6556   12.2500   18.3125   74.0073   -3.2465    1.5520    1.0932  167.1414    1.9961    0.5328    2.5893   11.0000   11.0000 
2273.8080   12.2500   18.3125   74.6027   -3.1528    1.5486    0.9053  165.4496    1.9717    0.5370    2.5529   11.0000   11.0000 
2273.9604   12.2500   18.3125   79.1985   -2.5903    1.5350    1.0210  164.0570    1.9902    0.5538    2.8386   11.0000   11.0000 
2274.1128   12.2500   18.3125   83.0479   -2.0278    1.5241    1.5709  162.0806    2.0938    0.5604    3.0864   11.0000   11.0000 
2274.2652   12.2500   18.3125   83.1492   -1.5903    1.5098    1.5979  161.3995    2.1270    0.5485    3.0900   11.0000   11.0000 
2274.4176   12.2500   18.3125   84.5602   -1.8403    1.4925    1.3343  158.1282    2.1367    0.5073    3.0014   11.0000   11.0000 
2274.5700   12.2500   18.3125   83.9426   -1.5903    1.4825    1.7247  157.1572    2.1465    0.4623    3.1370   11.0000   11.0000 
2274.7224   12.2500   18.3125   90.5630   -1.6528    1.4826    1.5893  159.2947    2.1777    0.4682    3.2636   11.0000   11.0000 
2274.8748   12.2500   18.3125   94.1159   -1.4028    1.4945    1.4759  157.2027    2.1895    0.4933    3.0193   11.0000   11.0000 
2275.0272   12.2500   18.3125   96.5580   -0.8403    1.5199    1.5655  155.5543    2.1348    0.5159    2.8686   11.0000   11.0000 
2275.1796   12.2500   18.2031  100.6952   -1.7153    1.5297    1.5926  155.1371    2.1055    0.5068    2.8537   11.0000   11.0000 
2275.3320   12.2500   16.9844   96.8066   -1.3403    1.5226    1.7401  150.1593    2.0840    0.4855    3.2226   37.0000   37.0000 
2275.4844   12.2500   17.2969   98.8768   -1.8403    1.5251    1.8233  142.9670    2.1289    0.5047    3.6821   37.0000   37.0000 
2275.6368   12.2500   17.4844   97.9125   -1.2778    1.5414    1.9430  137.8939    2.1250    0.4992    3.9279   37.0000   37.0000 
2275.7892   12.2500   18.1406  104.8636   -1.6528    1.5603    2.0909  138.3577    2.1367    0.4999    4.0481   37.0000   37.0000 
2275.9416   12.2500   17.4688  105.1332   -1.5903    1.5796    1.9391  138.1316    2.1504    0.4745    3.9102   37.0000   37.0000 
2276.0940   12.2500   17.0000  104.0018   -1.5278    1.6006    1.9095  141.0490    2.1484    0.4743    3.9139   37.0000   37.0000 
2276.2464   12.2500   17.4688  101.4315   -1.4653    1.6050    2.0587  141.7349    2.1699    0.4650    3.9531   37.0000   37.0000 
2276.3988   12.2500   17.4063   96.5087   -1.4653    1.5909    2.1813  137.4757    2.1738    0.4484    4.1195   37.0000   37.0000 
2276.5512   12.2500   17.2031   98.8791   -1.9028    1.5752    2.0151  133.8293    2.1875    0.4569    4.0767   37.0000   37.0000 
2276.7036   12.2500   17.2344   99.2770   -1.8403    1.5627    1.9832  136.0758    2.1660    0.4742    4.0208   37.0000   37.0000 
2276.8560   12.2500   16.4531  105.6031   -2.3403    1.5480    2.1158  137.1054    2.1738    0.5111    3.9538   37.0000   37.0000 
2277.0084   12.2500   16.4219  105.1601   -1.6528    1.5353    2.0288  135.5299    2.1504    0.5243    3.8501   37.0000   37.0000 
