~VERSION INFORMATION
 VERS.                 2.0:   CWLS LOG ASCII STANDARD - VERSION 2.0
 WRAP.                  NO:   SINGLE LINE PER DEPTH STEP
 CREA.                 19/12/2017 10:26:08
#CREATED USING DSPetro VERSION 5000.10.1.3 BY H191660 ON 19/12/2017 10:26:08
~WELL INFORMATION
#MNEM.UNIT       DATA                          DESCRIPTION MNEMONIC
#---------      ---------------------------   --------------------------
 STRT    .M         0.0000                    : START DEPTH
 STOP    .M         3393.9480                 : STOP DEPTH
 STEP    .M         0.1524                    : STEP VALUE
 NULL    .      -999.0000                     : NULL VALUE
 DATE    .      19/12/2017                    : LAS file Creation Date
 WELL  .      1549_eendracht_1            : Well Name
 COMP  .      Neftex Exploration Insights : Company
 FLD   .      EENDRACHT                   : Field
 UWI   .      ZAUWL_005203                : Unique Well Identifier (UWI)
 LOC   .      Location                    : Location
 PDAT  .      Mean Sea Level              : Permanent Datum
 EPDAT .      0                           : Reference Elevation
 LGMEA .      Kelly Bushing               : Log Measured from
 DRMEA .      Kelly Bushing               : Drill Measured From
 APDAT .      9.8                         : Elevation Above Permanent Datum
 KB    .      9.8                         : KB Elevation
 DF    .      9.8                         : DF Elevation
 GL    .      0                           : GL Elevation
 RWS   .      0                           : Def_Rw
 WST   .      0                           : Def_Rwt
 MDEC  .      0                           : Magnetic Declination
 SRVC  .      SCH                         : Contractor
~CURVE INFORMATION
#MNEM               UNIT       API CODE   Curve Type Comments
#----------   --------------- ----------  ---------- -----------
 DEPTH       .M                         : Depth       
 Bitsize     .in                        : bitSize     caliper     Caliper Log - A representation of the measured diameter of a borehole along its depth
 CAL_INCH    .inch                      : caliper     Caliper Log - A representation of the measured diameter of a borehole along its depth
 GR_API_ds   .API                       : gammaRay    
 SP_MV1      .mv                        : SP          Spontaneous Potential - Records the electrical potential produced by the interaction of formation water, conductive drilling mud, and certain ion-sele
 ILD_OHMMds  .ohmm                      : deepRes     
 MSFL_OHMMds .ohmm                      : shalRes     
 DT_US_FTds  .us/ft                     : sonic       
 RHOB_G_CC   .g/cc                      : density     Bulk Density - Measures the density of bulk material, including any void space or other materials contained in the subject volume
 NPHI_v/vds  .v/v                       :             
 PEF_B_Eds   .b/e-                      : PEF         
 LITH        .                          : LITH        Lithology Curve
 LITH_v2     .                          : LITH        Lithology Curve
~A  DEPTH  Bitsize   CAL_INCH GR_API     SP_MV1  ILD_OHMM  MSFL_OHM  DT_US_FT  RHOB_G_C  NPHI_v/v  PEF_B_       LITH    LITH_v2  
# ...
1842.5160   12.2500   12.1172   19.0589  -18.5969    1.7888    1.3106  106.3071    1.8662 -999.0000 -999.0000   22.0000 -999.0000 
1842.6684   12.2500   12.2734   18.9127  -17.5657    1.7482    1.7136  106.3248    1.7432 -999.0000 -999.0000   22.0000 -999.0000 
1842.8208   12.2500   12.4688   17.8349  -18.0657    1.6978    2.0577  104.8430    1.7031 -999.0000 -999.0000   22.0000 -999.0000 
1842.9732   12.2500   13.2188   16.5272  -17.9563    1.6376    2.2268  105.3071    1.6592 -999.0000 -999.0000   22.0000 -999.0000 
1843.1256   12.2500   13.2266   17.0290  -17.3313    1.5792    2.2730  105.9227    1.7158 -999.0000 -999.0000   22.0000 -999.0000 
1843.2780   12.2500   13.5234   17.4588  -18.3938    1.5483    2.2596  106.3898    1.7383 -999.0000 -999.0000   22.0000 -999.0000 
1843.4304   12.2500   13.7188   17.4445  -18.6125    1.5295    2.3658  105.7101    1.7588 -999.0000 -999.0000   22.0000 -999.0000 
1843.5828   12.2500   13.7734   18.8571  -18.0813    1.5229    2.4561  105.3100    1.7207 -999.0000 -999.0000   22.0000 -999.0000 
1843.7352   12.2500   13.7656   19.1884  -18.5813    1.5087    2.1557  104.4149    1.6582 -999.0000 -999.0000   22.0000 -999.0000 
1843.8876   12.2500   12.5781   18.0456  -18.6594    1.5019    2.1762  104.5625    1.6084 -999.0000 -999.0000   22.0000 -999.0000 
1844.0400   12.2500   12.4297   16.4088  -18.1438    1.5029    2.2844  104.9080    1.6240 -999.0000 -999.0000   22.0000 -999.0000 
1844.1924   12.2500   13.1875   15.7735  -18.7532    1.5206    2.1559  106.2672    1.6338 -999.0000 -999.0000   22.0000 -999.0000 
1844.3448   12.2500   12.9844   16.3280  -17.9563    1.5482    2.2535  106.7751    1.5615 -999.0000 -999.0000   22.0000 -999.0000 
1844.4972   12.2500   12.2578   17.4764  -17.8000    1.5816    2.1749  108.1604    1.5059 -999.0000 -999.0000   22.0000 -999.0000 
1844.6496   12.2500   13.1016   18.2126  -18.2844    1.6235    2.2109  110.7603    1.4961 -999.0000 -999.0000   22.0000 -999.0000 
1844.8020   12.2500   15.7109   18.8184  -17.5188    1.6753    2.3313  112.5197    1.5498 -999.0000 -999.0000   22.0000 -999.0000 
1844.9544   12.2500   16.7031   18.2756  -17.6907    1.7339    2.1711  114.0955    1.5625 -999.0000 -999.0000   22.0000 -999.0000 
1845.1068   12.2500   16.8906   17.6454  -16.7063    1.7937    2.0254  115.8002    1.5879 -999.0000 -999.0000   22.0000 -999.0000 
1845.2592   12.2500   16.2500   19.6630  -15.9875    1.8437    2.4336  117.5079    1.6406 -999.0000 -999.0000   22.0000 -999.0000 
1845.4116   12.2500   15.2188   21.2792  -16.4875    1.8744    2.7423  118.0399    1.7197 -999.0000 -999.0000   22.0000 -999.0000 
1845.5640   12.2500   15.3438   21.3540  -16.5188    1.8856    1.9484  118.1476    1.7832 -999.0000 -999.0000   22.0000 -999.0000 
1845.7164   12.2500   16.1250   19.8941  -17.3469    1.8903    1.8718  118.7175    1.7871 -999.0000 -999.0000   22.0000 -999.0000 
1845.8688   12.2500   16.3281   17.3199  -16.3469    1.8878    2.0177  122.0527    1.7646 -999.0000 -999.0000   22.0000 -999.0000 
1846.0212   12.2500   16.1563   18.2268  -16.7844    1.8813    2.1024  125.0807    1.7061 -999.0000 -999.0000   22.0000 -999.0000 
1846.1736   12.2500   15.7109   18.4957  -17.6907    1.8778    2.1136  127.3189    1.6699 -999.0000 -999.0000   22.0000 -999.0000 
1846.3260   12.2500   15.8281   19.2011  -17.1125    1.8843    2.0093  128.8986    1.6494 -999.0000 -999.0000   22.0000 -999.0000 
1846.4784   12.2500   15.9844   19.3106  -16.9250    1.9045    1.7081  131.7835    1.6514 -999.0000 -999.0000   22.0000 -999.0000 
1846.6308   12.2500   16.0781   18.4122  -17.2219    1.9322    1.4978  138.1693    1.6387 -999.0000 -999.0000   22.0000 -999.0000 
1846.7832   12.2500   15.4922   17.9880  -16.8782    1.9475    1.4602  142.4734    1.6406 -999.0000 -999.0000   22.0000 -999.0000 
1846.9356   12.2500   14.1563   18.2200  -17.5188    1.9459    1.5644  141.9498    1.6406 -999.0000 -999.0000   22.0000 -999.0000 
1847.0880   12.2500   13.4453   19.9992  -17.3000    1.9382    1.6787  140.7205    1.6367 -999.0000 -999.0000   22.0000 -999.0000 
1847.2404   12.2500   13.6484   21.7036  -16.8157    1.9371    1.5821  140.5118    1.6328 -999.0000 -999.0000   22.0000 -999.0000 
1847.3928   12.2500   14.6641   21.2015  -18.0657    1.9487    1.3941  136.0098    1.6436 -999.0000 -999.0000   22.0000 -999.0000 
1847.5452   12.2500   15.7422   20.9203  -16.9719    1.9542    1.1436  140.6004    1.6758 -999.0000 -999.0000   22.0000 -999.0000 
1847.6976   12.2500   17.0781   20.5259  -18.5657    1.9242    1.2025  144.3346    1.6914 -999.0000 -999.0000   22.0000 -999.0000 
1847.8500   12.2500   17.3750   19.5131  -19.0813    1.8852    1.4076  146.4203    1.6631 -999.0000 -999.0000   22.0000 -999.0000 
1848.0024   12.2500   17.0469   20.1137  -18.5344    1.8587    1.5382  146.1250    1.6299 -999.0000 -999.0000   22.0000 -999.0000 
1848.1548   12.2500   16.4219   19.7678  -18.7844    1.8331    1.7254  145.5669    1.6465 -999.0000 -999.0000   22.0000 -999.0000 
1848.3072   12.2500   18.6875   22.2711  -18.1282    1.8008    1.8043  142.7559    1.6934 -999.0000 -999.0000   22.0000 -999.0000 
1848.4596   12.2500   19.7344   22.5242  -18.6907    1.7891    1.6929  139.7874    1.7773 -999.0000 -999.0000   22.0000 -999.0000 
1848.6120   12.2500   19.7344   24.3586  -17.1282    1.7969    1.2618  138.2559    1.7578 -999.0000 -999.0000   22.0000 -999.0000 
1848.7644   12.2500   19.7344   25.9462  -17.4407    1.8030    0.7033  132.3243    1.7012 -999.0000 -999.0000   22.0000 -999.0000 
1848.9168   12.2500   19.7344   24.5044  -17.2532    1.8029    0.5885  120.9877    1.6289 -999.0000 -999.0000   22.0000 -999.0000 
1849.0692   12.2500   19.7344   23.3226  -17.8782    1.8023    0.5792  122.6024    1.6104 -999.0000 -999.0000   22.0000 -999.0000 
1849.2216   12.2500   19.7344   19.4690  -17.3938    1.8128    0.5841  122.8829    1.6396 -999.0000 -999.0000   22.0000 -999.0000 
1849.3740   12.2500   19.7344   19.0866  -17.5813    1.8383    0.5856  123.3351    1.6992 -999.0000 -999.0000   22.0000 -999.0000 
1849.5264   12.2500   19.7344   17.9378  -16.3469    1.8708    0.5882  123.1476    1.7412 -999.0000 -999.0000   22.0000 -999.0000 
1849.6788   12.2500   19.7344   17.7341  -16.7219    1.9003    0.5980  123.2923    1.7363 -999.0000 -999.0000   22.0000 -999.0000 
1849.8312   12.2500   19.7344   18.0035  -16.3000    1.9110    0.6159  124.5079    1.7520 -999.0000 -999.0000   22.0000 -999.0000 
1849.9836   12.2500   19.7344   18.1506  -16.8625    1.9230    0.6256  125.0000    1.7793 -999.0000 -999.0000   22.0000 -999.0000 
1850.1360   12.2500   19.7344   17.2849  -17.0032    1.9382    0.6343  124.9070    1.8281 -999.0000 -999.0000   22.0000 -999.0000 
1850.2884   12.2500   19.7344   17.1902  -17.8625    1.9544    0.6498  124.4429    1.8428 -999.0000 -999.0000   22.0000 -999.0000 
1850.4408   12.2500   19.7500   16.4098  -17.1282    1.9789    0.6693  124.0000    1.8193 -999.0000 -999.0000   22.0000 -999.0000 
1850.5932   12.2500   19.7500   17.4380  -18.0500    1.9998    0.6768  124.2126    1.7832 -999.0000 -999.0000   22.0000 -999.0000 
1850.7456   12.2500   19.7500   17.2608  -17.5500    1.9948    0.6732  125.0797    1.7529 -999.0000 -999.0000   22.0000 -999.0000 
1850.8980   12.2500   19.7500   19.4086  -18.1125    1.9636    0.6867  125.4149    1.7568 -999.0000 -999.0000   22.0000 -999.0000 
1851.0504   12.2500   19.7500   19.0407  -17.5500    1.9288    0.7249  125.3499    1.8115 -999.0000 -999.0000   22.0000 -999.0000 
1851.2028   12.2500   19.7500   19.4111  -17.1594    1.9175    0.7804  124.5226    1.8945 -999.0000 -999.0000   22.0000 -999.0000 
1851.3552   12.2500   19.7344   17.3254  -16.5344    1.9209    0.8349  124.3351    1.9551 -999.0000 -999.0000   22.0000 -999.0000 
1851.5076   12.2500   19.7500   18.1350  -17.3000    1.9251    0.8702  124.3602    1.9688 -999.0000 -999.0000   22.0000 -999.0000 
1851.6600   12.2500   19.7500   17.4718  -16.6907    1.8917    0.9215  125.2525    1.9521 -999.0000 -999.0000   22.0000 -999.0000 
1851.8124   12.2500   19.7500   19.2357  -18.0344    1.8658    1.0255  126.2672    1.9482 -999.0000 -999.0000   22.0000 -999.0000 
