~VERSION INFORMATION
 VERS.                 2.0:   CWLS LOG ASCII STANDARD - VERSION 2.0
 WRAP.                  NO:   SINGLE LINE PER DEPTH STEP
 CREA.                 19/12/2017 10:26:08
#CREATED USING DSPetro VERSION 5000.10.1.3 BY H191660 ON 19/12/2017 10:26:08
~WELL INFORMATION
#MNEM.UNIT       DATA                          DESCRIPTION MNEMONIC
#---------      ---------------------------   --------------------------
 STRT    .M         0.0000                    : START DEPTH
 STOP    .M         3393.9480                 : STOP DEPTH
 STEP    .M         0.1524                    : STEP VALUE
 NULL    .      -999.0000                     : NULL VALUE
 DATE    .      19/12/2017                    : LAS file Creation Date
 WELL  .      1549_eendracht_1            : Well Name
 COMP  .      Neftex Exploration Insights : Company
 FLD   .      EENDRACHT                   : Field
 UWI   .      ZAUWL_005203                : Unique Well Identifier (UWI)
 LOC   .      Location                    : Location
 PDAT  .      Mean Sea Level              : Permanent Datum
 EPDAT .      0                           : Reference Elevation
 LGMEA .      Kelly Bushing               : Log Measured from
 DRMEA .      Kelly Bushing               : Drill Measured From
 APDAT .      9.8                         : Elevation Above Permanent Datum
 KB    .      9.8                         : KB Elevation
 DF    .      9.8                         : DF Elevation
 GL    .      0                           : GL Elevation
 RWS   .      0                           : Def_Rw
 WST   .      0                           : Def_Rwt
 MDEC  .      0                           : Magnetic Declination
 SRVC  .      SCH                         : Contractor
~CURVE INFORMATION
#MNEM               UNIT       API CODE   Curve Type Comments
#----------   --------------- ----------  ---------- -----------
 DEPTH       .M                         : Depth       
 Bitsize     .in                        : bitSize     caliper     Caliper Log - A representation of the measured diameter of a borehole along its depth
 CAL_INCH    .inch                      : caliper     Caliper Log - A representation of the measured diameter of a borehole along its depth
 GR_API_ds   .API                       : gammaRay    
 SP_MV1      .mv                        : SP          Spontaneous Potential - Records the electrical potential produced by the interaction of formation water, conductive drilling mud, and certain ion-sele
 ILD_OHMMds  .ohmm                      : deepRes     
 MSFL_OHMMds .ohmm                      : shalRes     
 DT_US_FTds  .us/ft                     : sonic       
 RHOB_G_CC   .g/cc                      : density     Bulk Density - Measures the density of bulk material, including any void space or other materials contained in the subject volume
 NPHI_v/vds  .v/v                       :             
 PEF_B_Eds   .b/e-                      : PEF         
 LITH        .                          : LITH        Lithology Curve
 LITH_v2     .                          : LITH        Lithology Curve
~A  DEPTH  Bitsize   CAL_INCH GR_API     SP_MV1  ILD_OHMM  MSFL_OHM  DT_US_FT  RHOB_G_C  NPHI_v/v  PEF_B_       LITH    LITH_v2  
# ...
1946.4528   12.2500   12.7266   18.9193  -14.9485    1.6238    1.8996  123.1594    2.0762 -999.0000 -999.0000   18.0000 -999.0000 
1946.6052   12.2500   12.5938   18.9893  -14.6360    1.6123    1.9662  123.8430    2.0723 -999.0000 -999.0000   18.0000 -999.0000 
1946.7576   12.2500   12.7734   20.4402  -15.0657    1.6131    2.2378  124.0945    2.0508 -999.0000 -999.0000   18.0000 -999.0000 
1946.9100   12.2500   12.8281   19.3076  -15.0735    1.6165    2.1461  123.8430    2.0391 -999.0000 -999.0000   18.0000 -999.0000 
1947.0624   12.2500   12.6172   17.6760  -14.2532    1.6247    1.8870  124.0546    2.0156 -999.0000 -999.0000   18.0000 -999.0000 
1947.2148   12.2500   12.5625   17.4954  -14.6047    1.6431    1.9931  123.6024    2.0391 -999.0000 -999.0000   18.0000 -999.0000 
1947.3672   12.2500   12.5938   19.5272  -14.9407    1.6669    2.1154  123.7101    2.0703 -999.0000 -999.0000   18.0000 -999.0000 
1947.5196   12.2500   12.4688   20.0235  -14.2766    1.6942    2.1229  123.7352    2.1016 -999.0000 -999.0000   18.0000 -999.0000 
1947.6720   12.2500   12.4766   20.4302  -14.6829    1.7013    1.9651  124.3351    2.1074 -999.0000 -999.0000   18.0000 -999.0000 
1947.8244   12.2500   12.5234   20.3732  -14.7844    1.6964    2.0903  124.3602    2.1094 -999.0000 -999.0000   18.0000 -999.0000 
1947.9768   12.2500   12.3828   20.4835  -13.9485    1.6839    2.1051  125.0399    2.1250 -999.0000 -999.0000   18.0000 -999.0000 
1948.1292   12.2500   12.3125   21.0496  -14.4954    1.6658    1.9819  125.4001    2.0996 -999.0000 -999.0000   18.0000 -999.0000 
1948.2816   12.2500   12.3516   18.4096  -15.2063    1.6475    1.9225  126.0945    2.0918 -999.0000 -999.0000   18.0000 -999.0000 
1948.4340   12.2500   12.2188   19.5227  -14.9329    1.6313    1.9856  125.7101    2.0801 -999.0000 -999.0000   18.0000 -999.0000 
1948.5864   12.2500   12.1016   18.0916  -15.8469    1.6095    2.0478  125.5625    2.0938 -999.0000 -999.0000   18.0000 -999.0000 
1948.7388   12.2500   12.0547   19.1980  -16.3938    1.5862    1.9864  125.4828    2.0840 -999.0000 -999.0000   18.0000 -999.0000 
1948.8912   12.2500   12.1094   18.2919  -15.4875    1.5673    2.0177  125.0546    2.0879 -999.0000 -999.0000   18.0000 -999.0000 
1949.0436   12.2500   12.1406   21.5954  -16.1438    1.5511    2.0993  124.5625    2.0898 -999.0000 -999.0000   18.0000 -999.0000 
1949.1960   12.2500   12.1328   21.9825  -16.4719    1.5579    2.1334  124.6024    2.0742 -999.0000 -999.0000   18.0000 -999.0000 
1949.3484   12.2500   12.2109   22.6845  -16.0344    1.5813    2.1403  124.8031    2.0566 -999.0000 -999.0000   18.0000 -999.0000 
1949.5008   12.2500   12.2656   19.9804  -16.2219    1.5999    2.0913  124.7874    2.0371 -999.0000 -999.0000   18.0000 -999.0000 
1949.6532   12.2500   12.4063   19.2262  -16.4875    1.6061    2.0599  124.2923    2.0547 -999.0000 -999.0000   18.0000 -999.0000 
1949.8056   12.2500   12.5234   18.0217  -15.4250    1.6130    2.2032  125.2953    2.0664 -999.0000 -999.0000   18.0000 -999.0000 
1949.9580   12.2500   12.4688   16.5003  -14.1672    1.6097    2.3613  124.7343    2.0938 -999.0000 -999.0000   18.0000 -999.0000 
1950.1104   12.2500   12.3594   16.5503  -14.9797    1.5989    2.3526  123.7101    2.0938 -999.0000 -999.0000   18.0000 -999.0000 
1950.2628   12.2500   12.2422   18.8163  -14.6360    1.5920    2.2496  123.2702    2.0859 -999.0000 -999.0000   18.0000 -999.0000 
1950.4152   12.2500   12.2109   19.5533  -14.6438    1.6052    2.2677  122.4001    2.0645 -999.0000 -999.0000   18.0000 -999.0000 
1950.5676   12.2500   12.1953   18.4245  -15.3469    1.6231    2.2884  123.6924    2.0469 -999.0000 -999.0000   18.0000 -999.0000 
1950.7200   12.2500   12.1484   16.6117  -14.6438    1.6385    2.1161  125.6024    2.0410 -999.0000 -999.0000   18.0000 -999.0000 
1950.8724   12.2500   12.4375   16.2110  -14.8391    1.6444    2.0781  125.6703    2.0410 -999.0000 -999.0000   18.0000 -999.0000 
1951.0248   12.2500   12.0703   16.5666  -14.4954    1.6485    2.4175  125.3351    2.0625 -999.0000 -999.0000   18.0000 -999.0000 
1951.1772   12.2500   12.1094   16.4827  -13.0657    1.6671    2.6192  124.5896    2.0898 -999.0000 -999.0000   18.0000 -999.0000 
1951.3296   12.2500   12.1328   19.4266  -13.2454    1.7187    2.8022  122.2953    2.1367 -999.0000 -999.0000   18.0000 -999.0000 
1951.4820   12.2500   12.1484   21.3822  -13.0735    1.7758    2.8421  121.9070    2.1563 -999.0000 -999.0000   18.0000 -999.0000 
1951.6344   12.2500   12.1875   22.1441  -12.8625    1.8089    2.6832  121.6555    2.1426 -999.0000 -999.0000   18.0000 -999.0000 
1951.7868   12.2500   12.2344   19.3929  -14.7766    1.7709    2.5975  121.8671    2.0996 -999.0000 -999.0000   18.0000 -999.0000 
1951.9392   12.2500   12.2266   19.1072  -14.2532    1.6601    2.5897  121.7603    2.0996 -999.0000 -999.0000   18.0000 -999.0000 
1952.0916   12.2500   12.2344   20.5366  -15.5344    1.5465    2.3764  123.1476    2.1074 -999.0000 -999.0000   18.0000 -999.0000 
1952.2440   12.2500   12.2422   21.4964  -15.7844    1.4670    2.2677  123.2126    2.0938 -999.0000 -999.0000   18.0000 -999.0000 
1952.3964   12.2500   12.2266   20.0833  -16.8625    1.4133    2.0102  123.8273    2.0508 -999.0000 -999.0000   18.0000 -999.0000 
1952.5488   12.2500   12.2344   17.5238  -17.9250    1.3830    1.9269  123.8253    2.0156 -999.0000 -999.0000   18.0000 -999.0000 
1952.7012   12.2500   12.1875   16.4408  -17.1594    1.3850    1.7471  126.5197    1.9941 -999.0000 -999.0000   18.0000 -999.0000 
1952.8536   12.2500   12.1563   14.9963  -17.8313    1.4037    1.8403  127.6304    1.9678 -999.0000 -999.0000   18.0000 -999.0000 
1953.0060   12.2500   12.1484   15.6478  -15.9719    1.4307    2.5615  127.1476    1.9805 -999.0000 -999.0000   18.0000 -999.0000 
1953.1584   12.2500   12.3438   17.0266  -14.2063    1.4599    2.8575  126.4818    2.0254 -999.0000 -999.0000   18.0000 -999.0000 
1953.3108   12.2500   12.6016   19.2610  -13.0813    1.5078    2.9588  124.2303    2.0938 -999.0000 -999.0000   18.0000 -999.0000 
1953.4632   12.2500   12.6719   21.2307  -12.1672    1.5946    3.1067  123.5049    2.1426 -999.0000 -999.0000   18.0000 -999.0000 
1953.6156   12.2500   12.6406   21.4367  -12.4016    1.7029    2.6194  125.5876    2.1777 -999.0000 -999.0000   18.0000 -999.0000 
1953.7680   12.2500   12.6172   23.3491  -12.6672    1.7861    2.3364  126.2023    2.1738 -999.0000 -999.0000   18.0000 -999.0000 
1953.9204   12.2500   12.4688   24.5955  -12.5266    1.8086    2.5337  126.0807    2.1387 -999.0000 -999.0000   18.0000 -999.0000 
1954.0728   12.2500   12.4219   25.5514  -13.7688    1.7782    2.6662  127.6944    2.1133 -999.0000 -999.0000   18.0000 -999.0000 
1954.2252   12.2500   12.2813   24.3778  -13.8625    1.7096    2.4841  126.3100    2.0918 -999.0000 -999.0000   18.0000 -999.0000 
1954.3776   12.2500   12.2188   21.9873  -13.2688    1.6325    2.3439  125.4149    2.0879 -999.0000 -999.0000   18.0000 -999.0000 
1954.5300   12.2500   12.2422   18.9704  -14.0266    1.5815    2.3208  125.5226    2.0762 -999.0000 -999.0000   18.0000 -999.0000 
1954.6824   12.2500   12.2734   19.1294  -15.0422    1.5617    2.3386  125.3750    2.0762 -999.0000 -999.0000   18.0000 -999.0000 
1954.8348   12.2500   12.3203   18.8327  -14.9094    1.5558    2.3344  125.5079    2.0605 -999.0000 -999.0000   18.0000 -999.0000 
1954.9872   12.2500   12.3203   21.4987  -15.1985    1.5534    2.2664  126.0797    2.0293 -999.0000 -999.0000   18.0000 -999.0000 
1955.1396   12.2500   12.2734   20.0699  -14.7297    1.5535    2.5310  126.8799    2.0547 -999.0000 -999.0000   18.0000 -999.0000 
1955.2920   12.2500   12.3828   20.9476  -14.3000    1.5577    2.3778  128.6969    2.0684 -999.0000 -999.0000   18.0000 -999.0000 
1955.4444   12.2500   12.2656   20.9629  -15.3079    1.5694    2.5160  128.8189    2.1016 -999.0000 -999.0000   18.0000 -999.0000 
1955.5968   12.2500   12.2344   21.4983  -15.8157    1.5895    2.5221  129.8671    2.0820 -999.0000 -999.0000   18.0000 -999.0000 
1955.7492   12.2500   12.2422   22.0534  -15.2844    1.6009    2.4424  129.0827    2.0742 -999.0000 -999.0000   18.0000 -999.0000 
