~VERSION INFORMATION
 VERS.                 2.0:   CWLS LOG ASCII STANDARD - VERSION 2.0
 WRAP.                  NO:   SINGLE LINE PER DEPTH STEP
 CREA.                 19/12/2017 10:26:08
#CREATED USING DSPetro VERSION 5000.10.1.3 BY H191660 ON 19/12/2017 10:26:08
~WELL INFORMATION
#MNEM.UNIT       DATA                          DESCRIPTION MNEMONIC
#---------      ---------------------------   --------------------------
 STRT    .M         0.0000                    : START DEPTH
 STOP    .M         3393.9480                 : STOP DEPTH
 STEP    .M         0.1524                    : STEP VALUE
 NULL    .      -999.0000                     : NULL VALUE
 DATE    .      19/12/2017                    : LAS file Creation Date
 WELL  .      1549_eendracht_1            : Well Name
 COMP  .      Neftex Exploration Insights : Company
 FLD   .      EENDRACHT                   : Field
 UWI   .      ZAUWL_005203                : Unique Well Identifier (UWI)
 LOC   .      Location                    : Location
 PDAT  .      Mean Sea Level              : Permanent Datum
 EPDAT .      0                           : Reference Elevation
 LGMEA .      Kelly Bushing               : Log Measured from
 DRMEA .      Kelly Bushing               : Drill Measured From
 APDAT .      9.8                         : Elevation Above Permanent Datum
 KB    .      9.8                         : KB Elevation
 DF    .      9.8                         : DF Elevation
 GL    .      0                           : GL Elevation
 RWS   .      0                           : Def_Rw
 WST   .      0                           : Def_Rwt
 MDEC  .      0                           : Magnetic Declination
 SRVC  .      SCH                         : Contractor
~CURVE INFORMATION
#MNEM               UNIT       API CODE   Curve Type Comments
#----------   --------------- ----------  ---------- -----------
 DEPTH       .M                         : Depth       
 Bitsize     .in                        : bitSize     caliper     Caliper Log - A representation of the measured diameter of a borehole along its depth
 CAL_INCH    .inch                      : caliper     Caliper Log - A representation of the measured diameter of a borehole along its depth
 GR_API_ds   .API                       : gammaRay    
 SP_MV1      .mv                        : SP          Spontaneous Potential - Records the electrical potential produced by the interaction of formation water, conductive drilling mud, and certain ion-sele
 ILD_OHMMds  .ohmm                      : deepRes     
 MSFL_OHMMds .ohmm                      : shalRes     
 DT_US_FTds  .us/ft                     : sonic       
 RHOB_G_CC   .g/cc                      : density     Bulk Density - Measures the density of bulk material, including any void space or other materials contained in the subject volume
 NPHI_v/vds  .v/v                       :             
 PEF_B_Eds   .b/e-                      : PEF         
 LITH        .                          : LITH        Lithology Curve
 LITH_v2     .                          : LITH        Lithology Curve
~A  DEPTH  Bitsize   CAL_INCH GR_API     SP_MV1  ILD_OHMM  MSFL_OHM  DT_US_FT  RHOB_G_C  NPHI_v/v  PEF_B_       LITH    LITH_v2  
# ...
2371.6488   12.2500   13.6016  117.8889   -4.0423    1.4802    2.5068   92.6442    2.1973    0.3229    4.2214   18.0000   22.0000 
2371.8012   12.2500   13.3828  143.0120   -3.9869    1.5856    6.3151   81.4947    2.2539    0.2575    4.6508   37.0000   18.0000 
2371.9536   12.2500   13.0703  152.0546   -3.8054    1.7542   12.6736   70.6521    2.2754    0.2270    5.3641   18.0000   18.0000 
2372.1060   12.2500   13.2422  136.6064   -2.9362    2.0989   20.5370   77.2813    2.3633    0.2528    6.0596   18.0000   18.0000 
2372.2584   12.2500   13.2109   99.7001   -2.5670    2.4395   52.7917   85.1059    2.3887    0.3108    6.0560   18.0000   18.0000 
2372.4108   12.2500   13.2266   77.2918   -1.8853    2.8945    5.7585   86.1791    2.4219    0.3286    5.5744   22.0000   18.0000 
2372.5632   12.2500   13.3125   64.0283   -1.2661    3.5449    2.5098   89.4132    2.3516    0.2827    4.7790   18.0000   18.0000 
2372.7156   12.2500   13.5234   60.8077   -1.4593    3.8887    8.6172   86.2634    2.3301    0.2612    4.5963   22.0000   18.0000 
2372.8680   12.2500   13.6563   55.9856   -0.9651    3.9004   19.4844   81.8075    2.2969    0.2863    4.9668   18.0000   18.0000 
2373.0204   12.2500   13.6563   53.7573   -0.9084    3.5801   10.2240   85.1197    2.3223    0.3323    5.6318   18.0000   18.0000 
2373.1728   12.2500   13.6563   54.5534   -1.1642    3.1250    3.7402   99.8209    2.3633    0.3580    5.3057   18.0000   18.0000 
2373.3252   12.2500   13.6016   60.3461   -1.5450    2.7809    8.9254  104.7067    2.4336    0.3845    5.0002   22.0000   22.0000 
2373.4776   12.2500   13.7891   61.7411   -2.0507    2.5149    2.8474  109.5382    2.4121    0.4044    4.4934   22.0000   22.0000 
2373.6300   12.2500   14.1094   61.4667   -2.9940    2.2573    3.0015  119.2090    2.3828    0.4071    4.2920   22.0000   22.0000 
2373.7824   12.2500   14.7422   61.8773   -3.6248    2.0607    3.0213  121.3290    2.3281    0.4243    4.1344   22.0000   22.0000 
2373.9348   12.2500   14.9609   63.6556   -4.1931    1.9357    3.0996  120.4001    2.3008    0.4442    4.1996   22.0000   22.0000 
2374.0872   12.2500   14.7969   65.9617   -5.0738    1.8294    3.2798  121.9775    2.2480    0.4567    4.1011   22.0000   22.0000 
2374.2396   12.2500   14.8750   63.7813   -5.2046    1.7400    2.9946  122.2741    2.2344    0.4414    3.9399   22.0000   22.0000 
2374.3920   12.2500   14.8828   63.3433   -5.4604    1.6806    2.8417  126.4036    2.2266    0.4334    3.9092   22.0000   22.0000 
2374.5444   12.2500   14.8828   60.1444   -5.2162    1.6369    3.0884  129.0120    2.2188    0.4374    3.8624   22.0000   22.0000 
2374.6968   12.2500   14.6875   61.2190   -5.0970    1.6072    3.0441  131.1071    2.2051    0.4348    3.7846   22.0000   22.0000 
2374.8492   12.2500   14.9297   63.2546   -4.7902    1.6005    2.5778  131.1886    2.2090    0.4428    3.6267   22.0000   22.0000 
2375.0016   12.2500   14.9141   66.1469   -4.6085    1.6337    2.7818  128.4819    2.2246    0.4435    3.5833   22.0000   22.0000 
2375.1540   12.2500   14.8359   66.1446   -4.1768    1.6974    2.7465  117.8276    2.2227    0.4181    3.6823   22.0000   22.0000 
2375.3064   12.2500   14.4375   64.4115   -3.7451    1.7917    3.0099  101.6156    2.2051    0.3531    3.8402   22.0000   22.0000 
2375.4588   12.2500   14.5547   60.4245   -3.6259    1.8904    3.4860  101.5134    2.1992    0.2974    4.1563   22.0000   18.0000 
2375.6112   12.2500   14.5156   56.0732   -3.5066    1.9353   11.8940   99.5954    2.2617    0.3103    4.6786   22.0000   18.0000 
2375.7636   12.2500   13.8828   50.9414   -3.8249    1.9297    8.6722  111.3683    2.3105    0.3696    5.0786   18.0000   18.0000 
2375.9160   12.2500   13.9141   52.8805   -3.5182    1.9305    2.7089  121.9300    2.3848    0.4224    4.6230   22.0000   22.0000 
2376.0684   12.2500   14.2188   55.5096   -3.2740    1.9270    3.0552  128.6991    2.3535    0.4364    4.2748   22.0000   22.0000 
2376.2208   12.2500   14.4922   61.2229   -3.7798    1.9313    2.8458  129.0000    2.3027    0.4187    3.9519   22.0000   22.0000 
2376.3732   12.2500   14.3516   65.1611   -4.0355    1.9208    2.8226  130.1070    2.2500    0.4227    3.9822   22.0000   22.0000 
2376.5256   12.2500   14.4297   69.9065   -4.5413    1.8354    2.8486  130.1250    2.1973    0.4471    3.9018   22.0000   22.0000 
2376.6780   12.2500   14.6563   71.3873   -4.3596    1.6739    2.7704  128.7326    2.1895    0.4746    3.8482   22.0000   22.0000 
2376.8304   12.2500   14.4453   69.8800   -4.5529    1.5498    2.7565  131.8800    2.1816    0.4888    3.7262   22.0000   22.0000 
2376.9828   12.2500   14.3359   68.3102   -4.7462    1.4816    2.6305  132.6317    2.2227    0.4700    3.6179   22.0000   22.0000 
2377.1352   12.2500   14.4766   66.8239   -5.1894    1.4526    2.5687  134.1099    2.2324    0.4645    3.5327   22.0000   22.0000 
2377.2876   12.2500   15.0703   66.2988   -5.3827    1.4458    2.8377  133.5349    2.2266    0.4624    3.6297   22.0000   22.0000 
2377.4400   12.2500   14.1563   66.0238   -5.7635    1.4554    2.6633  130.1390    2.1953    0.4458    3.7358   22.0000   22.0000 
2377.5924   12.2500   14.1328   72.2619   -5.9568    1.4927    2.7422  127.8535    2.1914    0.4296    3.6864   22.0000   22.0000 
2377.7448   12.2500   14.1250   75.4722   -5.5251    1.5606    2.6968  124.1025    2.1719    0.4121    3.6222   22.0000   22.0000 
2377.8972   12.2500   14.3125   76.8877   -5.5933    1.6503    2.8301  113.3852    2.1797    0.4129    3.6035   22.0000   22.0000 
2378.0496   12.2500   14.5625   70.2613   -5.0991    1.7690    2.8476  104.8074    2.1973    0.3758    3.7943   22.0000   22.0000 
2378.2020   12.2500   13.9453   60.9693   -5.1674    1.8118    4.2368  102.5372    2.2305    0.3443    3.9776   22.0000   22.0000 
2378.3544   12.2500   13.7734   50.2869   -4.9857    1.8060   11.4917  107.7345    2.2676    0.3498    4.3402   18.0000   18.0000 
2378.5068   12.2500   13.8906   46.8271   -4.9290    1.8541    5.2848  116.9127    2.3008    0.3954    4.2811   22.0000   18.0000 
2378.6592   12.2500   14.1250   51.4451   -4.6222    1.9654    2.6682  125.3758    2.3262    0.4449    4.2017   22.0000   22.0000 
2378.8116   12.2500   14.2344   57.2113   -4.7530    2.1074    2.6961  122.5914    2.2949    0.4428    3.8316   22.0000   22.0000 
2378.9640   12.2500   14.3672   58.9272   -5.1338    2.1244    2.8049  110.1107    2.2520    0.3946    3.8632   22.0000   22.0000 
2379.1164   12.2500   14.2031   55.9179   -4.8896    2.0721    3.2381   99.8664    2.2188    0.3190    3.7712   22.0000   22.0000 
2379.2688   12.2500   14.0547   52.9282   -5.1454    2.0231    8.9029   90.0258    2.2305    0.2746    3.8665   22.0000   18.0000 
2379.4212   12.2500   13.8828   48.5022   -5.5261    1.9523   10.0049   85.3434    2.2656    0.2894    4.3434   22.0000   18.0000 
2379.5736   12.2500   13.6328   42.2546   -5.9694    1.8838   10.9054   93.3343    2.3066    0.3443    4.8536   18.0000   18.0000 
2379.7260   12.2500   13.8750   41.8329   -6.5377    1.8619    6.2528  108.3008    2.3555    0.3992    4.9323   22.0000   18.0000 
2379.8784   12.2500   13.9609   46.7029   -6.6060    1.8189    2.6860  121.8488    2.3438    0.4317    4.0631   22.0000   22.0000 
2380.0308   12.2500   14.2266   56.4713   -5.9243    1.7036    2.5675  131.2368    2.3223    0.4196    3.8176   22.0000   22.0000 
2380.1832   12.2500   14.5078   63.8438   -5.9300    1.5932    2.6465  133.1250    2.2676    0.4157    3.6543   22.0000   22.0000 
2380.3356   12.2500   14.5859   67.6761   -5.3733    1.5127    2.4899  133.4638    2.2383    0.4198    3.7372   22.0000   22.0000 
2380.4880   12.2500   14.5156   67.3033   -5.5041    1.4576    2.6724  133.1568    2.1992    0.4577    3.7321   22.0000   22.0000 
2380.6404   12.2500   14.8438   61.3727   -4.8224    1.4202    2.5995  128.7424    2.1895    0.4879    3.8185   22.0000   22.0000 
2380.7928   12.2500   14.7188   60.1492   -4.6407    1.4179    2.9191  126.5118    2.1875    0.5030    3.7988   22.0000   22.0000 
2380.9452   12.2500   14.7109   61.8851   -4.0214    1.4573    2.9259  127.4588    2.1914    0.4715    3.8276   22.0000   22.0000 
