~VERSION INFORMATION
 VERS.                 2.0:   CWLS LOG ASCII STANDARD - VERSION 2.0
 WRAP.                  NO:   SINGLE LINE PER DEPTH STEP
 CREA.                 19/12/2017 10:26:08
#CREATED USING DSPetro VERSION 5000.10.1.3 BY H191660 ON 19/12/2017 10:26:08
~WELL INFORMATION
#MNEM.UNIT       DATA                          DESCRIPTION MNEMONIC
#---------      ---------------------------   --------------------------
 STRT    .M         0.0000                    : START DEPTH
 STOP    .M         3393.9480                 : STOP DEPTH
 STEP    .M         0.1524                    : STEP VALUE
 NULL    .      -999.0000                     : NULL VALUE
 DATE    .      19/12/2017                    : LAS file Creation Date
 WELL  .      1549_eendracht_1            : Well Name
 COMP  .      Neftex Exploration Insights : Company
 FLD   .      EENDRACHT                   : Field
 UWI   .      ZAUWL_005203                : Unique Well Identifier (UWI)
 LOC   .      Location                    : Location
 PDAT  .      Mean Sea Level              : Permanent Datum
 EPDAT .      0                           : Reference Elevation
 LGMEA .      Kelly Bushing               : Log Measured from
 DRMEA .      Kelly Bushing               : Drill Measured From
 APDAT .      9.8                         : Elevation Above Permanent Datum
 KB    .      9.8                         : KB Elevation
 DF    .      9.8                         : DF Elevation
 GL    .      0                           : GL Elevation
 RWS   .      0                           : Def_Rw
 WST   .      0                           : Def_Rwt
 MDEC  .      0                           : Magnetic Declination
 SRVC  .      SCH                         : Contractor
~CURVE INFORMATION
#MNEM               UNIT       API CODE   Curve Type Comments
#----------   --------------- ----------  ---------- -----------
 DEPTH       .M                         : Depth       
 Bitsize     .in                        : bitSize     caliper     Caliper Log - A representation of the measured diameter of a borehole along its depth
 CAL_INCH    .inch                      : caliper     Caliper Log - A representation of the measured diameter of a borehole along its depth
 GR_API_ds   .API                       : gammaRay    
 SP_MV1      .mv                        : SP          Spontaneous Potential - Records the electrical potential produced by the interaction of formation water, conductive drilling mud, and certain ion-sele
 ILD_OHMMds  .ohmm                      : deepRes     
 MSFL_OHMMds .ohmm                      : shalRes     
 DT_US_FTds  .us/ft                     : sonic       
 RHOB_G_CC   .g/cc                      : density     Bulk Density - Measures the density of bulk material, including any void space or other materials contained in the subject volume
 NPHI_v/vds  .v/v                       :             
 PEF_B_Eds   .b/e-                      : PEF         
 LITH        .                          : LITH        Lithology Curve
 LITH_v2     .                          : LITH        Lithology Curve
~A  DEPTH  Bitsize   CAL_INCH GR_API     SP_MV1  ILD_OHMM  MSFL_OHM  DT_US_FT  RHOB_G_C  NPHI_v/v  PEF_B_       LITH    LITH_v2  
# ...
2466.1368   12.2500   12.8438   81.9803   -4.2850    1.9690   39.4457  102.9471    2.3867    0.2919    4.7537   18.0000   37.0000 
2466.2892   12.2500   12.7969   74.1369   -4.9710    2.4369   40.5827   96.0669    2.5703    0.2881    6.8415   18.0000   23.0000 
2466.4416   12.2500   12.7891   74.4104   -5.7819    2.9289   14.3585   92.3750    2.5000    0.2811    6.7247   18.0000   23.0000 
2466.5940   12.2500   12.8047   76.4758   -6.2804    3.4809    5.8442   92.5580    2.3867    0.2927    5.7867   18.0000   37.0000 
2466.7464   12.2500   12.8203   81.9754   -6.2163    3.9090   11.6465  108.6763    2.3301    0.3322    5.6275   18.0000   37.0000 
2466.8988   12.2500   12.7891   93.1831   -6.9023    4.0302    9.8133  114.5647    2.3066    0.3672    5.8523   18.0000   37.0000 
2467.0512   12.2500   12.7422  102.9514   -6.5258    3.9692    5.3712  115.3345    2.2949    0.3643    5.2182   37.0000   37.0000 
2467.2036   12.2500   12.7344  108.9578   -7.0867    3.8003    4.0706  120.2356    2.2539    0.3485    4.2809   37.0000   37.0000 
2467.3560   12.2500   12.7656  109.1382   -7.2102    3.5116    3.9555  123.6654    2.2422    0.3495    3.7563   37.0000   37.0000 
2467.5084   12.2500   12.7422  105.4003   -7.2086    3.1768    3.9565  124.1875    2.2305    0.3598    3.4417   37.0000   37.0000 
2467.6608   12.2500   12.7500   99.8341   -7.8321    2.9129    4.0399  125.4068    2.2363    0.3666    3.1889   37.0000   37.0000 
2467.8132   12.2500   12.7500   93.2283   -7.8306    2.7439    4.2745  123.2105    2.2285    0.3656    2.9526   37.0000   37.0000 
2467.9656   12.2500   12.7422   92.4326   -7.9540    2.5983    4.4004  122.9637    2.2246    0.3639    2.8540   37.0000   37.0000 
2468.1180   12.2500   12.7656   92.2415   -7.7025    2.4372    4.3359  122.1861    2.2207    0.3803    2.8635   37.0000   37.0000 
2468.2704   12.2500   12.8047   96.3750   -7.9510    2.2672    4.2467  125.3860    2.2207    0.4129    2.8058   37.0000   37.0000 
2468.4228   12.2500   13.1641  101.5000   -7.3869    2.1081    4.3004  130.3513    2.2090    0.4575    2.7497   37.0000   37.0000 
2468.5752   12.2500   13.3984  106.0273   -6.8854    1.9722    4.2764  135.1893    2.2188    0.4746    2.7343   37.0000   37.0000 
2468.7276   12.2500   13.5703  106.1241   -5.6338    1.8496    3.0339  137.7099    2.1934    0.4911    2.8128   37.0000   37.0000 
2468.8800   12.2500   13.6172  104.1679   -4.5073    1.7244    2.5786  135.8273    2.2051    0.5035    2.8832   37.0000   37.0000 
2469.0324   12.2500   13.7109  102.9712   -3.8183    1.6115    2.7556  135.3227    2.1836    0.5057    2.8721   37.0000   37.0000 
2469.1848   12.2500   13.7109  101.1285   -4.1292    1.5061    3.0524  137.0012    2.1992    0.4713    2.7646   37.0000   37.0000 
2469.3372   12.2500   13.7188   99.6855   -4.0027    1.4176    2.8945  136.9676    2.1875    0.4387    2.7780   37.0000   37.0000 
2469.4896   12.2500   13.6953   98.4956   -4.0011    1.3658    2.8164  136.2637    2.1855    0.4470    2.9292   37.0000   37.0000 
2469.6420   12.2500   13.7344  103.6304   -3.3121    1.3407    2.6857  135.3945    2.1758    0.4835    3.0819   37.0000   37.0000 
2469.7944   12.2500   13.7891  103.4103   -2.9981    1.3261    2.5344  133.5960    2.1816    0.5131    3.1257   37.0000   37.0000 
2469.9468   12.2500   13.8359  106.5152   -2.9340    1.3239    2.6820  133.3694    2.1914    0.5026    3.1382   37.0000   37.0000 
2470.0992   12.2500   13.8047  107.1541   -3.1200    1.3296    2.8481  135.5838    2.1934    0.4790    3.2157   37.0000   37.0000 
2470.2516   12.2500   13.9141  106.9010   -2.9934    1.3409    2.7948  136.1942    2.1875    0.4422    3.2052   37.0000   37.0000 
2470.4040   12.2500   13.9844  105.5103   -3.1169    1.3599    2.6905  135.4653    2.1816    0.4247    3.0690   37.0000   37.0000 
2470.5564   12.2500   14.0859  100.9732   -3.8029    1.3862    2.6484  135.2813    2.1836    0.4181    2.9346   37.0000   37.0000 
2470.7088   12.2500   14.0625  102.5721   -3.8013    1.4167    2.7425  134.1120    2.1836    0.4363    2.8806   37.0000   37.0000 
2470.8612   12.2500   14.0078  100.3672   -3.8623    1.4503    2.8607  131.2183    2.2051    0.4557    2.8875   37.0000   37.0000 
2471.0136   12.2500   13.9844   99.1250   -3.9232    1.4883    2.9224  131.8550    2.2070    0.4790    2.8998   37.0000   37.0000 
2471.1660   12.2500   13.9453   98.1246   -4.1092    1.5278    3.0951  130.3099    2.2109    0.4874    2.8852   37.0000   37.0000 
2471.3184   12.2500   14.0547  100.2800   -4.4827    1.5622    3.2240  129.2353    2.1914    0.4835    2.8480   37.0000   37.0000 
2471.4708   12.2500   14.2344  106.2799   -4.4186    1.5893    3.1020  129.8984    2.1973    0.4778    2.8353   37.0000   37.0000 
2471.6232   12.2500   14.0234  106.4395   -4.9171    1.6101    3.2733  127.4840    2.1953    0.4759    2.8399   37.0000   37.0000 
2471.7756   12.2500   14.2500  104.6696   -4.9156    1.6209    3.5775  129.5776    2.1855    0.4824    2.8273   37.0000   37.0000 
2471.9280   12.2500   14.3594  104.0070   -5.1640    1.6203    3.3286  137.0000    2.1855    0.5007    2.8216   37.0000   37.0000 
2472.0804   12.2500   13.9297  107.5871   -4.7250    1.6217    3.1780  136.5146    2.1992    0.5053    2.8197   37.0000   37.0000 
2472.2328   12.2500   13.9063  111.4667   -4.7859    1.6266    2.9647  136.5000    2.2109    0.5021    3.0977   37.0000   37.0000 
2472.3852   12.2500   13.9609  111.4584   -4.4094    1.6338    3.1334  136.7287    2.2168    0.4831    3.2285   37.0000   37.0000 
2472.5376   12.2500   13.9141  110.8549   -3.9704    1.6348    2.6600  133.8673    2.2109    0.4934    3.2977   37.0000   37.0000 
2472.6900   12.2500   13.9063  115.5399   -3.4688    1.6393    2.6217  130.0638    2.2090    0.5015    3.0870   37.0000   37.0000 
2472.8424   12.2500   13.9141  111.9385   -2.8423    1.6370    3.0598  128.5650    2.1953    0.4879    2.9411   37.0000   37.0000 
2472.9948   12.2500   13.9219  109.9570   -3.2157    1.6367    3.3421  129.2786    2.1895    0.4551    2.8698   37.0000   37.0000 
2473.1472   12.2500   13.8125  106.5565   -3.0267    1.6399    3.2944  129.5000    2.2090    0.4438    2.8154   37.0000   37.0000 
2473.2996   12.2500   14.0156  109.5349   -3.1502    1.6503    3.2581  128.9395    2.2031    0.4551    2.7974   37.0000   37.0000 
2473.4520   12.2500   14.0078  109.0803   -3.1486    1.6667    3.2208  127.7607    2.1914    0.4674    2.8028   37.0000   37.0000 
2473.6044   12.2500   14.0000  104.7976   -3.7096    1.6885    2.9301  123.9172    2.1836    0.4731    2.8435   37.0000   37.0000 
2473.7568   12.2500   14.0703  101.1121   -3.7080    1.7068    3.0459  121.8358    2.2383    0.4700    3.0853   37.0000   37.0000 
2473.9092   12.2500   14.0313   99.8427   -3.9565    1.7089    3.1093  120.6884    2.2930    0.4595    3.2566   37.0000   37.0000 
2474.0616   12.2500   13.9844   99.5944   -3.8300    1.6975    3.0913  123.4544    2.2852    0.4497    3.2225   37.0000   37.0000 
2474.2140   12.2500   13.8281  102.6528   -4.3909    1.6787    2.9282  128.2082    2.2578    0.4496    3.0452   37.0000   37.0000 
2474.3664   12.2500   13.8281  104.3440   -4.2019    1.6527    2.8516  131.5739    2.2285    0.4556    3.2315   37.0000   37.0000 
2474.5188   12.2500   13.9609  108.9532   -4.7003    1.6172    2.7401  133.0775    2.2324    0.4644    3.3001   37.0000   37.0000 
2474.6712   12.2500   14.0000  107.6659   -4.4488    1.5739    2.3820  134.8634    2.2031    0.4608    3.1601   37.0000   37.0000 
2474.8236   12.2500   13.8906  106.6332   -4.5098    1.5256    2.3494  135.6142    2.1738    0.4577    2.8196   37.0000   37.0000 
2474.9760   12.2500   13.7422  102.6857   -3.7582    1.4676    2.2725  133.7594    2.1621    0.4644    2.6856   37.0000   37.0000 
2475.1284   12.2500   13.7344  101.5661   -3.6942    1.4088    2.2289  132.4485    2.1621    0.4798    2.6901   37.0000   37.0000 
2475.2808   12.2500   13.7422  102.8904   -2.7551    1.3552    2.1973  131.9906    2.1777    0.5095    2.7402   37.0000   37.0000 
2475.4332   12.2500   13.7422  105.7228   -2.1286    1.2999    2.0709  131.8652    2.1797    0.5217    2.8519   37.0000   37.0000 
