~VERSION INFORMATION
 VERS.                 2.0:   CWLS LOG ASCII STANDARD - VERSION 2.0
 WRAP.                  NO:   SINGLE LINE PER DEPTH STEP
 CREA.                 19/12/2017 10:26:08
#CREATED USING DSPetro VERSION 5000.10.1.3 BY H191660 ON 19/12/2017 10:26:08
~WELL INFORMATION
#MNEM.UNIT       DATA                          DESCRIPTION MNEMONIC
#---------      ---------------------------   --------------------------
 STRT    .M         0.0000                    : START DEPTH
 STOP    .M         3393.9480                 : STOP DEPTH
 STEP    .M         0.1524                    : STEP VALUE
 NULL    .      -999.0000                     : NULL VALUE
 DATE    .      19/12/2017                    : LAS file Creation Date
 WELL  .      1549_eendracht_1            : Well Name
 COMP  .      Neftex Exploration Insights : Company
 FLD   .      EENDRACHT                   : Field
 UWI   .      ZAUWL_005203                : Unique Well Identifier (UWI)
 LOC   .      Location                    : Location
 PDAT  .      Mean Sea Level              : Permanent Datum
 EPDAT .      0                           : Reference Elevation
 LGMEA .      Kelly Bushing               : Log Measured from
 DRMEA .      Kelly Bushing               : Drill Measured From
 APDAT .      9.8                         : Elevation Above Permanent Datum
 KB    .      9.8                         : KB Elevation
 DF    .      9.8                         : DF Elevation
 GL    .      0                           : GL Elevation
 RWS   .      0                           : Def_Rw
 WST   .      0                           : Def_Rwt
 MDEC  .      0                           : Magnetic Declination
 SRVC  .      SCH                         : Contractor
~CURVE INFORMATION
#MNEM               UNIT       API CODE   Curve Type Comments
#----------   --------------- ----------  ---------- -----------
 DEPTH       .M                         : Depth       
 Bitsize     .in                        : bitSize     caliper     Caliper Log - A representation of the measured diameter of a borehole along its depth
 CAL_INCH    .inch                      : caliper     Caliper Log - A representation of the measured diameter of a borehole along its depth
 GR_API_ds   .API                       : gammaRay    
 SP_MV1      .mv                        : SP          Spontaneous Potential - Records the electrical potential produced by the interaction of formation water, conductive drilling mud, and certain ion-sele
 ILD_OHMMds  .ohmm                      : deepRes     
 MSFL_OHMMds .ohmm                      : shalRes     
 DT_US_FTds  .us/ft                     : sonic       
 RHOB_G_CC   .g/cc                      : density     Bulk Density - Measures the density of bulk material, including any void space or other materials contained in the subject volume
 NPHI_v/vds  .v/v                       :             
 PEF_B_Eds   .b/e-                      : PEF         
 LITH        .                          : LITH        Lithology Curve
 LITH_v2     .                          : LITH        Lithology Curve
~A  DEPTH  Bitsize   CAL_INCH GR_API     SP_MV1  ILD_OHMM  MSFL_OHM  DT_US_FT  RHOB_G_C  NPHI_v/v  PEF_B_       LITH    LITH_v2  
# ...
2040.9408   12.2500   12.1172   13.6372   -8.9563    1.2197    2.1841  123.1875    2.0391 -999.0000 -999.0000   18.0000 -999.0000 
2041.0932   12.2500   12.1875   14.6442   -8.5813    1.2698    2.1264  123.0546    2.0430 -999.0000 -999.0000   18.0000 -999.0000 
2041.2456   12.2500   12.1875   17.0938   -9.1360    1.3152    2.1666  122.4429    2.0293 -999.0000 -999.0000   18.0000 -999.0000 
2041.3980   12.2500   12.1875   17.1777   -9.4563    1.3562    2.2602  121.8671    2.0391 -999.0000 -999.0000   18.0000 -999.0000 
2041.5504   12.2500   12.1875   17.6337   -9.5266    1.3889    2.4641  121.2953    2.0508 -999.0000 -999.0000   18.0000 -999.0000 
2041.7028   12.2500   12.1484   16.2503   -9.0969    1.4213    2.6535  120.9469    2.0801 -999.0000 -999.0000   18.0000 -999.0000 
2041.8552   12.2500   12.1875   15.9280   -8.7532    1.4450    2.5797  120.8031    2.1035 -999.0000 -999.0000   18.0000 -999.0000 
2042.0076   12.2500   12.2344   15.2948   -8.8860    1.4561    2.4133  121.0797    2.1074 -999.0000 -999.0000   18.0000 -999.0000 
2042.1600   12.2500   12.2188   15.6032   -9.2766    1.4526    2.4739  121.5876    2.1035 -999.0000 -999.0000   18.0000 -999.0000 
2042.3124   12.2500   12.2656   16.3550   -9.2375    1.4184    2.5631  122.4149    2.1035 -999.0000 -999.0000   18.0000 -999.0000 
2042.4648   12.2500   12.2734   17.3853   -9.1282    1.3525    2.4644  122.4828    2.1113 -999.0000 -999.0000   18.0000 -999.0000 
2042.6172   12.2500   12.1563   20.1246   -8.8469    1.2813    2.2527  122.4001    2.1133 -999.0000 -999.0000   18.0000 -999.0000 
2042.7696   12.2500   12.1797   20.6832   -9.6438    1.2350    2.0359  123.0546    2.0742 -999.0000 -999.0000   18.0000 -999.0000 
2042.9220   12.2500   12.1172   21.0090   -9.5500    1.2078    1.8320  122.6024    2.0293 -999.0000 -999.0000   18.0000 -999.0000 
2043.0744   12.2500   12.1094   18.2097   -8.9485    1.1948    1.8616  122.9227    2.0117 -999.0000 -999.0000   18.0000 -999.0000 
2043.2268   12.2500   12.1094   16.7542   -8.7454    1.1930    2.0456  123.5226    2.0137 -999.0000 -999.0000   18.0000 -999.0000 
2043.3792   12.2500   12.1484   14.2755   -7.9719    1.2071    2.0509  123.3351    2.0313 -999.0000 -999.0000   18.0000 -999.0000 
2043.5316   12.2500   12.1563   14.0565   -7.5813    1.2363    2.2666  122.9749    2.0527 -999.0000 -999.0000   18.0000 -999.0000 
2043.6840   12.2500   12.1484   14.2163   -8.4875    1.2757    2.2873  121.8022    2.0723 -999.0000 -999.0000   18.0000 -999.0000 
2043.8364   12.2500   12.1172   15.3778   -8.1360    1.3227    2.2791  120.2023    2.0742 -999.0000 -999.0000   18.0000 -999.0000 
2043.9888   12.2500   12.1328   16.0498   -8.0188    1.3722    2.4630  119.5226    2.0781 -999.0000 -999.0000   18.0000 -999.0000 
2044.1412   12.2500   12.2266   18.0555   -8.1907    1.4167    2.4697  119.5876    2.0898 -999.0000 -999.0000   18.0000 -999.0000 
2044.2936   12.2500   12.2578   19.7749   -8.0500    1.4445    2.3191  120.7205    2.1074 -999.0000 -999.0000   18.0000 -999.0000 
2044.4460   12.2500   12.2266   20.4675   -8.1829    1.4540    2.2953  122.2525    2.1230 -999.0000 -999.0000   18.0000 -999.0000 
2044.5984   12.2500   12.2266   18.6773   -8.0969    1.4426    2.4438  122.8022    2.1211 -999.0000 -999.0000   18.0000 -999.0000 
2044.7508   12.2500   12.2266   16.7369   -8.2297    1.4214    2.4731  121.2421    2.1328 -999.0000 -999.0000   18.0000 -999.0000 
2044.9032   12.2500   12.2188   15.9556   -8.5422    1.4030    2.3905  120.5374    2.1094 -999.0000 -999.0000   18.0000 -999.0000 
2045.0556   12.2500   12.2422   15.2382   -9.0735    1.3856    2.2628  119.9626    2.1074 -999.0000 -999.0000   18.0000 -999.0000 
2045.2080   12.2500   12.2578   14.8552   -9.2844    1.3500    2.2556  120.8829    2.0781 -999.0000 -999.0000   18.0000 -999.0000 
2045.3604   12.2500   12.2422   13.5800   -9.4797    1.2989    2.2662  121.2023    2.0703 -999.0000 -999.0000   18.0000 -999.0000 
2045.5128   12.2500   12.1484   14.0096   -9.6516    1.2522    2.1965  120.6024    2.0508 -999.0000 -999.0000   18.0000 -999.0000 
2045.6652   12.2500   12.1719   14.0572  -10.0579    1.2213    2.0628  120.8031    2.0410 -999.0000 -999.0000   18.0000 -999.0000 
2045.8176   12.2500   12.1875   14.3481  -10.0188    1.1920    2.0432  121.1594    2.0371 -999.0000 -999.0000   18.0000 -999.0000 
2045.9700   12.2500   12.2109   14.5898  -10.6204    1.1522    1.9411  121.9227    2.0332 -999.0000 -999.0000   18.0000 -999.0000 
2046.1224   12.2500   12.1875   14.3810  -10.0344    1.0982    1.9466  122.9080    2.0371 -999.0000 -999.0000   18.0000 -999.0000 
2046.2748   12.2500   12.1563   14.1865  -10.6750    1.0442    1.9905  124.1476    2.0156 -999.0000 -999.0000   18.0000 -999.0000 
2046.4272   12.2500   12.1016   12.8760   -9.7922    1.0044    1.9538  124.1196    2.0195 -999.0000 -999.0000   18.0000 -999.0000 
2046.5796   12.2500   12.1328   13.3261  -10.3391    0.9810    1.8030  124.7352    2.0039 -999.0000 -999.0000   18.0000 -999.0000 
2046.7320   12.2500   12.1094   13.5478  -10.5891    0.9699    1.5982  125.4547    1.9824 -999.0000 -999.0000   18.0000 -999.0000 
2046.8844   12.2500   12.1094   13.4671  -10.6438    0.9600    1.5771  125.7500    1.9697 -999.0000 -999.0000   18.0000 -999.0000 
2047.0368   12.2500   12.1016   12.7153  -10.3625    0.9541    1.6461  125.6304    1.9551 -999.0000 -999.0000   18.0000 -999.0000 
2047.1892   12.2500   12.0859   12.1285  -10.3000    0.9559    1.7587  125.0945    1.9668 -999.0000 -999.0000   18.0000 -999.0000 
2047.3416   12.2500   12.0859   12.8074   -9.8391    0.9704    1.8364  124.5374    1.9805 -999.0000 -999.0000   18.0000 -999.0000 
2047.4940   12.2500   12.0859   12.8318   -9.5579    0.9914    1.8476  123.8031    1.9971 -999.0000 -999.0000   18.0000 -999.0000 
2047.6464   12.2500   12.0469   13.0665   -9.6282    1.0165    1.9227  123.8273    2.0117 -999.0000 -999.0000   18.0000 -999.0000 
2047.7988   12.2500   12.0625   14.8053  -10.0657    1.0429    1.9734  123.2672    2.0234 -999.0000 -999.0000   18.0000 -999.0000 
2047.9512   12.2500   12.0859   16.1368   -9.8157    1.0719    1.9447  123.5625    2.0313 -999.0000 -999.0000   18.0000 -999.0000 
2048.1036   12.2500   12.0547   16.1065   -9.9094    1.0992    1.9044  123.5226    2.0254 -999.0000 -999.0000   18.0000 -999.0000 
2048.2560   12.2500   12.0547   14.0196  -10.3313    1.1192    1.8340  123.2953    2.0059 -999.0000 -999.0000   18.0000 -999.0000 
2048.4084   12.2500   12.0078   11.9233  -10.9094    1.1258    1.8986  123.0399    2.0137 -999.0000 -999.0000   18.0000 -999.0000 
2048.5608   12.2500   11.9844   12.7610  -10.5657    1.1282    1.9199  123.0945    2.0234 -999.0000 -999.0000   18.0000 -999.0000 
2048.7132   12.2500   12.0156   12.4302  -10.0032    1.1297    1.9692  122.5906    2.0293 -999.0000 -999.0000   18.0000 -999.0000 
2048.8656   12.2500   11.9688   13.2053  -10.2922    1.1318    1.9405  122.0399    2.0098 -999.0000 -999.0000   18.0000 -999.0000 
2049.0180   12.2500   11.9766   12.4262  -10.6672    1.1293    1.9134  122.0945    2.0020 -999.0000 -999.0000   18.0000 -999.0000 
2049.1704   12.2500   11.9453   13.0820  -10.3391    1.1154    1.9248  121.8031    2.0117 -999.0000 -999.0000   18.0000 -999.0000 
2049.3228   12.2500   11.9453   12.8732  -10.6360    1.0893    1.9553  122.1594    2.0254 -999.0000 -999.0000   18.0000 -999.0000 
2049.4752   12.2500   11.9609   12.8001  -10.8938    1.0620    2.0016  122.8031    2.0410 -999.0000 -999.0000   18.0000 -999.0000 
2049.6276   12.2500   11.9609   12.4958  -11.0188    1.0367    1.9259  123.0399    2.0234 -999.0000 -999.0000   18.0000 -999.0000 
2049.7800   12.2500   11.8828   13.4080  -11.1438    1.0084    1.7876  123.1875    2.0020 -999.0000 -999.0000   18.0000 -999.0000 
2049.9324   12.2500   12.0469   12.0917  -11.1672    0.9767    1.7058  123.2274    1.9727 -999.0000 -999.0000   18.0000 -999.0000 
2050.0848   12.2500   12.0859   12.1665  -11.9016    0.9438    1.6755  123.2953    1.9668 -999.0000 -999.0000   18.0000 -999.0000 
2050.2372   12.2500   12.1094   11.0926  -10.9407    0.9143    1.6221  123.0000    1.9619 -999.0000 -999.0000   18.0000 -999.0000 
