~VERSION INFORMATION
 VERS.                 2.0:   CWLS LOG ASCII STANDARD - VERSION 2.0
 WRAP.                  NO:   SINGLE LINE PER DEPTH STEP
 CREA.                 19/12/2017 10:26:08
#CREATED USING DSPetro VERSION 5000.10.1.3 BY H191660 ON 19/12/2017 10:26:08
~WELL INFORMATION
#MNEM.UNIT       DATA                          DESCRIPTION MNEMONIC
#---------      ---------------------------   --------------------------
 STRT    .M         0.0000                    : START DEPTH
 STOP    .M         3393.9480                 : STOP DEPTH
 STEP    .M         0.1524                    : STEP VALUE
 NULL    .      -999.0000                     : NULL VALUE
 DATE    .      19/12/2017                    : LAS file Creation Date
 WELL  .      1549_eendracht_1            : Well Name
 COMP  .      Neftex Exploration Insights : Company
 FLD   .      EENDRACHT                   : Field
 UWI   .      ZAUWL_005203                : Unique Well Identifier (UWI)
 LOC   .      Location                    : Location
 PDAT  .      Mean Sea Level              : Permanent Datum
 EPDAT .      0                           : Reference Elevation
 LGMEA .      Kelly Bushing               : Log Measured from
 DRMEA .      Kelly Bushing               : Drill Measured From
 APDAT .      9.8                         : Elevation Above Permanent Datum
 KB    .      9.8                         : KB Elevation
 DF    .      9.8                         : DF Elevation
 GL    .      0                           : GL Elevation
 RWS   .      0                           : Def_Rw
 WST   .      0                           : Def_Rwt
 MDEC  .      0                           : Magnetic Declination
 SRVC  .      SCH                         : Contractor
~CURVE INFORMATION
#MNEM               UNIT       API CODE   Curve Type Comments
#----------   --------------- ----------  ---------- -----------
 DEPTH       .M                         : Depth       
 Bitsize     .in                        : bitSize     caliper     Caliper Log - A representation of the measured diameter of a borehole along its depth
 CAL_INCH    .inch                      : caliper     Caliper Log - A representation of the measured diameter of a borehole along its depth
 GR_API_ds   .API                       : gammaRay    
 SP_MV1      .mv                        : SP          Spontaneous Potential - Records the electrical potential produced by the interaction of formation water, conductive drilling mud, and certain ion-sele
 ILD_OHMMds  .ohmm                      : deepRes     
 MSFL_OHMMds .ohmm                      : shalRes     
 DT_US_FTds  .us/ft                     : sonic       
 RHOB_G_CC   .g/cc                      : density     Bulk Density - Measures the density of bulk material, including any void space or other materials contained in the subject volume
 NPHI_v/vds  .v/v                       :             
 PEF_B_Eds   .b/e-                      : PEF         
 LITH        .                          : LITH        Lithology Curve
 LITH_v2     .                          : LITH        Lithology Curve
~A  DEPTH  Bitsize   CAL_INCH GR_API     SP_MV1  ILD_OHMM  MSFL_OHM  DT_US_FT  RHOB_G_C  NPHI_v/v  PEF_B_       LITH    LITH_v2  
# ...
3278.7336   12.2500   12.8438   91.8835   -2.5734    3.1098    6.7725   89.7533    2.3809    0.3622    4.4063   37.0000   37.0000 
3278.8860   12.2500   12.8125   94.8270   -2.2107    2.9734    6.0888   89.8899    2.3867    0.3738    4.4570   37.0000   37.0000 
3279.0384   12.2500   12.8984   98.1024   -3.6315    2.8340    5.0984   93.4103    2.4141    0.3660    4.4688   37.0000   37.0000 
3279.1908   12.2500   12.8594  102.0419   -4.0581    2.7065    4.6249   96.1321    2.3887    0.3577    3.8926   37.0000   37.0000 
3279.3432   12.2500   12.8594   99.0363   -3.5850    2.6283    4.4117   97.8084    2.3809    0.3556    3.7129   37.0000   37.0000 
3279.4956   12.2500   13.1094   96.1448   -2.5595    2.5742    3.5857   97.3973    2.3672    0.3640    3.5625   37.0000   37.0000 
3279.6480   12.2500   12.9688   94.3349   -1.8498    2.5234    3.8086   96.9446    2.3633    0.3866    3.5469   37.0000   37.0000 
3279.8004   12.2500   13.0703   94.1750   -1.7712    2.4936    3.8412   97.7310    2.3809    0.3902    3.5371   37.0000   37.0000 
3279.9528   12.2500   13.2188   91.7942   -3.0501    2.5019    4.4738   96.9677    2.3809    0.3993    3.6367   37.0000   37.0000 
3280.1052   12.2500   13.2031   89.3568   -2.6874    2.5316    4.3753   95.2620    2.3809    0.3792    3.6777   37.0000   37.0000 
3280.2576   12.2500   13.1406   86.4789   -3.1139    2.5588    4.3581   93.7794    2.4004    0.3591    3.8223   37.0000   37.0000 
3280.4100   12.2500   13.0469   83.8781   -2.6725    2.5918    5.7050   93.4011    2.3828    0.3577    3.7637   37.0000   37.0000 
3280.5624   12.2500   12.9844   82.5582   -2.0573    2.6621    6.6742   93.6693    2.3730    0.3545    3.8281   37.0000   37.0000 
3280.7148   12.2500   13.0547   83.1376   -1.6159    2.7407    5.5165   93.7500    2.3496    0.3566    3.7441   37.0000   37.0000 
3280.8672   12.2500   13.0078   84.9866   -1.3164    2.8220    4.4690   94.8891    2.3516    0.3522    3.6777   37.0000   37.0000 
3281.0196   12.2500   12.9297   87.3286   -1.9165    2.9149    4.6286   94.6109    2.3594    0.3226    3.5410   37.0000   37.0000 
3281.1720   12.2500   12.8672   85.1645   -1.0489    2.9816    4.5326   92.8601    2.3438    0.3210    3.7988   37.0000   37.0000 
3281.3244   12.2500   12.7969   83.2126   -1.4754    2.9787    4.7614   91.1552    2.4004    0.3029    3.5938   37.0000   37.0000 
3281.4768   12.2500   12.9141   83.6751   -0.5446    2.9175    5.9459   90.4818    2.4277    0.3122    3.6250   37.0000   37.0000 
3281.6292   12.2500   13.1797   88.8150   -0.3714    2.8050    6.2710   90.8117    2.4336    0.3117    3.3320   37.0000   37.0000 
3281.7816   12.2500   13.3125   93.9731   -0.3876    2.6772    5.5432   92.8155    2.3809    0.3249    3.5664   37.0000   37.0000 
3281.9340   12.2500   14.0391   95.6615    0.0223    2.5559    4.3642   96.7861    2.3809    0.3522    3.6777   37.0000   37.0000 
3282.0864   12.2500   13.2656   96.3759   -0.3410    2.4350    3.9196  100.1383    2.3848    0.3802    3.7148   37.0000   37.0000 
3282.2388   12.2500   13.6094   96.9695   -0.3257    2.3635    4.2488  101.6503    2.3945    0.3977    3.6855   37.0000   37.0000 
3282.3912   12.2500   13.7734   97.0394   -0.0420    2.3359    4.9782  101.1813    2.3867    0.4094    3.6113   37.0000   37.0000 
3282.5436   12.2500   13.4141   97.1275    0.0997    2.3148    3.8504   98.6403    2.3613    0.4097    3.6250   37.0000   37.0000 
3282.6960   12.2500   14.0469   97.7365   -0.6899    2.3387    4.2885   96.8315    2.4004    0.4092    3.6367   37.0000   37.0000 
3282.8484   12.2500   13.1719   98.7552   -1.2968    2.3802    5.4721   97.8084    2.3711    0.3897    3.7676   37.0000   37.0000 
3283.0008   12.2500   13.3203   96.2910   -2.0743    2.3824    3.6195   97.1837    2.3809    0.3910    3.7598   37.0000   37.0000 
3283.1532   12.2500   13.1094   93.3432   -1.7156    2.3778    3.0283   97.2459    2.3438    0.3906    3.8027   37.0000   37.0000 
3283.3056   12.2500   13.1094   95.1120   -1.7356    2.3738    4.4143   97.7247    2.3594    0.3906    3.6113   37.0000   37.0000 
3283.4580   12.2500   13.6094   97.6220   -1.1560    2.3588    4.4051   98.5141    2.3555    0.3594    3.6289   37.0000   37.0000 
3283.6104   12.2500   13.1172   98.9396   -1.4285    2.3143    3.2097   97.7731    2.3184    0.3413    3.4531   37.0000   37.0000 
3283.7628   12.2500   13.1406   95.8074   -1.4642    2.2619    3.7803   97.4880    2.3359    0.3485    3.3828   37.0000   37.0000 
3283.9152   12.2500   13.2266   96.0356   -1.5474    2.2472    2.6187   98.4011    2.3027    0.3419    3.1699   37.0000   11.0000 
3284.0676   12.2500   13.1875   98.1639   -1.5201    2.2445    2.0932   99.3812    2.3398    0.3824    3.0801   37.0000   11.0000 
3284.2200   12.2500   13.1953   97.6616   -2.1399    2.2186    3.2173   98.9677    2.2949    0.3945    3.0957   37.0000   11.0000 
3284.3724   12.2500   13.7891   90.0495   -2.4913    2.1873    2.7294   96.7992    2.3418    0.4067    3.2578   36.0000   36.0000 
3284.5248   12.2500   12.7891   77.7835   -3.2373    2.1400    3.4833   94.8601    2.3203    0.3643    3.3047   36.0000   36.0000 
3284.6772   12.2500   12.4922   66.5021   -3.5415    2.0217    3.4420   94.6503    2.3301    0.3303    3.1719   36.0000   36.0000 
3284.8296   12.2500   12.4531   59.9549   -4.2086    1.9080    3.0912   92.9354    2.2988    0.3099    3.3340   36.0000   22.0000 
3284.9820   12.2500   12.3750   57.4940   -5.3019    1.8017    2.7464   91.3750    2.2949    0.3020    3.0488   36.0000   22.0000 
3285.1344   12.2500   12.2656   58.4805   -6.8370    1.7170    2.8375   91.9446    2.2754    0.2917    3.0215   36.0000   36.0000 
3285.2868   12.2500   12.2656   59.6751   -7.1095    1.6239    2.7651   91.5919    2.2598    0.2994    2.6836   36.0000   36.0000 
3285.4392   12.2500   12.3359   60.8179   -7.0980    1.5232    2.8699   91.8899    2.2324    0.3029    2.6367   36.0000   36.0000 
3285.5916   12.2500   12.4453   61.2598   -7.6388    1.4864    2.7086   92.0997    2.2402    0.3080    2.4609   36.0000   36.0000 
3285.7440   12.2500   12.4609   62.9462   -7.4063    1.4776    2.7291   92.2128    2.2480    0.3061    2.4902   36.0000   36.0000 
3285.8964   12.2500   12.4375   63.7950   -7.2054    1.4790    2.8506   92.3489    2.2500    0.3058    2.4805   36.0000   36.0000 
3286.0488   12.2500   12.4453   62.9811   -7.4937    1.4884    3.0710   92.1875    2.2441    0.3077    2.4824   36.0000   36.0000 
3286.2012   12.2500   12.4766   62.2845   -7.6085    1.4976    2.8461   92.2943    2.2344    0.3009    2.5840   36.0000   36.0000 
3286.3536   12.2500   12.5000   63.7209   -8.2598    1.5039    2.7889   92.1614    2.2402    0.3045    2.5273   36.0000   36.0000 
3286.5060   12.2500   12.5078   66.6588   -8.0274    1.5131    2.9858   92.3204    2.2305    0.3232    2.5820   36.0000   36.0000 
3286.6584   12.2500   12.5313   67.7624   -7.7790    1.5253    3.2005   92.5625    2.2383    0.3287    2.5156   36.0000   36.0000 
3286.8108   12.2500   12.5391   66.2702   -8.3988    1.5447    3.1315   92.6693    2.2305    0.3270    2.5879   36.0000   36.0000 
3286.9632   12.2500   12.5625   64.5672   -8.6083    1.5734    2.8540   92.5364    2.2266    0.3030    2.6578   36.0000   36.0000 
3287.1156   12.2500   12.5000   63.5498   -9.3385    1.5947    2.7703   92.7310    2.2324    0.2965    2.5811   36.0000   36.0000 
3287.2680   12.2500   12.4609   63.3962   -8.9007    1.6275    2.7261   92.7508    2.2559    0.3067    2.5559   36.0000   36.0000 
3287.4204   12.2500   12.4453   62.7339   -9.0944    1.6569    2.8035   92.3801    2.2773    0.3093    2.5309   36.0000   36.0000 
3287.5728   12.2500   12.4609   61.3351   -8.3884    1.6853    2.7175   90.8721    2.2676    0.3221    2.5314   36.0000   36.0000 
3287.7252   12.2500   12.4453   59.3261   -8.2191    1.7119    3.2025   92.2453    2.2363    0.3094    2.6081   36.0000   36.0000 
3287.8776   12.2500   12.3594   57.6213   -8.2075    1.7517    2.8568   92.9172    2.2363    0.3171    2.7822   36.0000   36.0000 
3288.0300   12.2500   12.3906   58.6483   -7.6278    1.8539    2.5898   91.6028    2.2520    0.3246    3.0023   36.0000   22.0000 
