~VERSION INFORMATION
 VERS.                 2.0:   CWLS LOG ASCII STANDARD - VERSION 2.0
 WRAP.                  NO:   SINGLE LINE PER DEPTH STEP
 CREA.                 19/12/2017 10:26:08
#CREATED USING DSPetro VERSION 5000.10.1.3 BY H191660 ON 19/12/2017 10:26:08
~WELL INFORMATION
#MNEM.UNIT       DATA                          DESCRIPTION MNEMONIC
#---------      ---------------------------   --------------------------
 STRT    .M         0.0000                    : START DEPTH
 STOP    .M         3393.9480                 : STOP DEPTH
 STEP    .M         0.1524                    : STEP VALUE
 NULL    .      -999.0000                     : NULL VALUE
 DATE    .      19/12/2017                    : LAS file Creation Date
 WELL  .      1549_eendracht_1            : Well Name
 COMP  .      Neftex Exploration Insights : Company
 FLD   .      EENDRACHT                   : Field
 UWI   .      ZAUWL_005203                : Unique Well Identifier (UWI)
 LOC   .      Location                    : Location
 PDAT  .      Mean Sea Level              : Permanent Datum
 EPDAT .      0                           : Reference Elevation
 LGMEA .      Kelly Bushing               : Log Measured from
 DRMEA .      Kelly Bushing               : Drill Measured From
 APDAT .      9.8                         : Elevation Above Permanent Datum
 KB    .      9.8                         : KB Elevation
 DF    .      9.8                         : DF Elevation
 GL    .      0                           : GL Elevation
 RWS   .      0                           : Def_Rw
 WST   .      0                           : Def_Rwt
 MDEC  .      0                           : Magnetic Declination
 SRVC  .      SCH                         : Contractor
~CURVE INFORMATION
#MNEM               UNIT       API CODE   Curve Type Comments
#----------   --------------- ----------  ---------- -----------
 DEPTH       .M                         : Depth       
 Bitsize     .in                        : bitSize     caliper     Caliper Log - A representation of the measured diameter of a borehole along its depth
 CAL_INCH    .inch                      : caliper     Caliper Log - A representation of the measured diameter of a borehole along its depth
 GR_API_ds   .API                       : gammaRay    
 SP_MV1      .mv                        : SP          Spontaneous Potential - Records the electrical potential produced by the interaction of formation water, conductive drilling mud, and certain ion-sele
 ILD_OHMMds  .ohmm                      : deepRes     
 MSFL_OHMMds .ohmm                      : shalRes     
 DT_US_FTds  .us/ft                     : sonic       
 RHOB_G_CC   .g/cc                      : density     Bulk Density - Measures the density of bulk material, including any void space or other materials contained in the subject volume
 NPHI_v/vds  .v/v                       :             
 PEF_B_Eds   .b/e-                      : PEF         
 LITH        .                          : LITH        Lithology Curve
 LITH_v2     .                          : LITH        Lithology Curve
~A  DEPTH  Bitsize   CAL_INCH GR_API     SP_MV1  ILD_OHMM  MSFL_OHM  DT_US_FT  RHOB_G_C  NPHI_v/v  PEF_B_       LITH    LITH_v2  
# ...
2570.0736   12.2500   14.0156  111.9334   -5.7042    1.1409    2.0452  127.1930    2.2324    0.4054    2.8062   37.0000   37.0000 
2570.2260   12.2500   13.4609  115.0669   -5.3258    1.1790    2.2500  123.4810    2.2188    0.3969    2.7817   37.0000   37.0000 
2570.3784   12.2500   13.4766  115.9795   -5.8849    1.2206    2.3852  121.8984    2.2090    0.4073    2.8235   37.0000   37.0000 
2570.5308   12.2500   13.5234  117.7662   -5.8815    1.2514    2.4020  120.9316    2.2188    0.4196    2.7560   37.0000   37.0000 
2570.6832   12.2500   13.4609  120.7957   -6.0031    1.2782    2.3190  121.7743    2.2344    0.4240    2.7668   37.0000   37.0000 
2570.8356   12.2500   13.4375  117.8118   -5.9997    1.3002    2.5835  122.3077    2.2363    0.4164    2.8028   37.0000   37.0000 
2570.9880   12.2500   13.4063  115.3584   -5.5588    1.3173    2.5917  120.2186    2.2207    0.3925    3.0167   37.0000   37.0000 
2571.1404   12.2500   13.4453  110.7215   -5.5554    1.3271    2.6316  121.9091    2.2188    0.3910    3.0721   37.0000   37.0000 
2571.2928   12.2500   13.5703  106.0827   -4.6145    1.3299    2.5707  122.5294    2.2188    0.3790    3.0293   37.0000   37.0000 
2571.4452   12.2500   13.8281  102.5456   -4.4236    1.3249    2.5050  121.7379    2.2188    0.4010    2.8532   37.0000   37.0000 
2571.5976   12.2500   13.3828  105.1789   -4.3577    1.3208    2.5996  122.0785    2.2148    0.4046    2.7350   37.0000   37.0000 
2571.7500   12.2500   13.4063  110.7156   -4.7293    1.3152    2.7046  121.6708    2.2168    0.4193    2.7305   37.0000   37.0000 
2571.9024   12.2500   13.5625  115.1784   -4.9759    1.3084    2.6209  121.0969    2.2070    0.4269    2.7399   37.0000   37.0000 
2572.0548   12.2500   13.8047  110.4725   -4.8475    1.3033    2.6672  121.3108    2.1953    0.4295    2.7818   37.0000   37.0000 
2572.2072   12.2500   13.7109  105.7753   -4.5941    1.2976    2.6499  122.7234    2.1953    0.4360    2.8514   37.0000   37.0000 
2572.3596   12.2500   13.7109  101.7422   -4.7782    1.2935    2.6350  123.0000    2.2070    0.4534    2.8687   37.0000   37.0000 
2572.5120   12.2500   13.6641  103.2295   -5.6498    1.2921    2.5938  123.6239    2.2129    0.4664    2.9110   37.0000   37.0000 
2572.6644   12.2500   13.6406  106.8884   -5.9590    1.2929    2.6758  123.1254    2.2129    0.4512    2.8301   37.0000   37.0000 
2572.8168   12.2500   13.7031  108.8271   -5.8306    1.2921    2.7088  124.4593    2.2109    0.4359    2.7918   37.0000   37.0000 
2572.9692   12.2500   13.6563  106.7003   -5.5147    1.2972    2.6105  124.5935    2.2227    0.4438    2.7450   37.0000   37.0000 
2573.1216   12.2500   13.6250  103.3519   -5.9488    1.3039    2.4959  124.2490    2.2188    0.4653    2.7076   37.0000   37.0000 
2573.2740   12.2500   13.6563  102.8466   -5.9454    1.3125    2.5691  124.0306    2.2148    0.4502    2.6820   37.0000   37.0000 
2573.4264   12.2500   13.6406  103.4884   -6.0670    1.3221    2.4711  122.9525    2.1992    0.4499    2.7279   37.0000   37.0000 
2573.5788   12.2500   13.9141  102.4610   -5.4386    1.3310    2.7050  121.4389    2.2090    0.4471    2.7923   37.0000   37.0000 
2573.7312   12.2500   13.5703  101.1511   -5.4977    1.3389    2.5775  123.0252    2.2109    0.4579    2.8841   37.0000   37.0000 
2573.8836   12.2500   13.6953  104.0210   -4.7443    1.3484    2.7403  122.5339    2.2246    0.4432    2.7520   37.0000   37.0000 
2574.0360   12.2500   13.6094  105.6983   -4.4284    1.3599    2.7294  121.5328    2.2129    0.4608    2.7109   37.0000   37.0000 
2574.1884   12.2500   13.8047  105.3982   -3.6750    1.3734    2.7838  122.5344    2.2090    0.4597    2.7207   37.0000   37.0000 
2574.3408   12.2500   13.5625  104.9498   -3.8591    1.3896    2.7124  122.5917    2.2031    0.4673    2.7148   37.0000   37.0000 
2574.4932   12.2500   13.4219  105.0958   -3.7307    1.3976    2.5939  123.2493    2.2109    0.4468    2.7441   37.0000   37.0000 
2574.6456   12.2500   13.3906  105.7702   -3.8523    1.3976    2.5151  124.5387    2.2129    0.4325    2.6465   37.0000   37.0000 
2574.7980   12.2500   13.3750  102.1632   -4.0989    1.3923    2.5628  121.8902    2.1973    0.4127    2.7831   37.0000   37.0000 
2574.9504   12.2500   13.4375   99.5814   -4.9705    1.3804    2.6151  122.5415    2.2012    0.4140    2.7705   37.0000   37.0000 
2575.1028   12.2500   13.4453   99.1134   -5.2171    1.3591    2.5154  120.8919    2.1816    0.4222    2.8719   37.0000   37.0000 
2575.2552   12.2500   13.6484   99.7929   -5.4012    1.3341    2.5949  121.4130    2.2051    0.4524    2.7815   37.0000   37.0000 
2575.4076   12.2500   13.7734  103.6013   -5.9603    1.3095    2.3927  121.7222    2.1875    0.4741    2.7975   37.0000   37.0000 
2575.5600   12.2500   13.9922  106.5371   -5.3944    1.2825    2.2721  125.8528    2.1973    0.4936    2.7171   37.0000   37.0000 
2575.7124   12.2500   13.8438  108.3269   -5.2035    1.2560    2.1535  127.4161    2.1934    0.5206    2.7291   37.0000   37.0000 
2575.8648   12.2500   13.5703  106.3765   -4.3251    1.2314    2.1255  129.1115    2.1875    0.5033    2.6612   37.0000   37.0000 
2576.0172   12.2500   13.6641  106.6351   -4.0092    1.2035    2.0674  130.3376    2.1953    0.4877    2.6214   37.0000   37.0000 
2576.1696   12.2500   13.9063  106.0253   -3.7558    1.1752    2.0208  128.3583    2.1973    0.4533    2.6348   37.0000   37.0000 
2576.3220   12.2500   13.9219  104.6842   -3.3149    1.1443    2.1384  126.7671    2.2148    0.4459    2.7074   37.0000   37.0000 
2576.4744   12.2500   13.7969  106.7492   -4.2490    1.1165    2.1239  125.7038    2.2207    0.4631    2.7815   37.0000   37.0000 
2576.6268   12.2500   13.9063  106.3528   -3.4956    1.1003    2.1301  127.9806    2.2188    0.4581    2.7844   37.0000   37.0000 
2576.7792   12.2500   13.7813  108.8622   -2.6797    1.1012    2.0276  129.7738    2.1992    0.4383    2.7028   37.0000   37.0000 
2576.9316   12.2500   14.5000  105.2139   -2.9888    1.1119    1.9531  131.2928    2.1816    0.4352    2.5910   37.0000   37.0000 
2577.0840   12.2500   14.7188  108.0770   -1.4229    1.1323    1.9306  133.4415    2.1777    0.4268    2.5693   37.0000   37.0000 
2577.2364   12.2500   14.0078  105.2231   -3.6695    1.1614    1.8113  131.8062    2.1895    0.4280    2.5482   37.0000   37.0000 
2577.3888   12.2500   13.9063  104.5354   -3.0411    1.1857    1.7359  128.7970    2.2207    0.4311    2.6255   37.0000   37.0000 
2577.5412   12.2500   13.9844  101.5876   -2.9128    1.2109    2.3347  126.8054    2.2188    0.4361    2.7414   37.0000   37.0000 
2577.6936   12.2500   14.3828  103.0266   -2.4094    1.2526    2.6388  123.4737    2.2285    0.4422    3.1930   37.0000   37.0000 
2577.8460   12.2500   14.0391  101.5164   -2.6560    1.2992    2.6256  122.1319    2.2090    0.4022    3.1433   37.0000   37.0000 
2577.9984   12.2500   14.0000  103.7598   -3.0276    1.3426    2.4515  121.6198    2.2305    0.4004    3.0347   37.0000   37.0000 
2578.1508   12.2500   13.9141  103.9832   -3.0242    1.3718    2.7420  121.9432    2.2344    0.3993    2.7591   37.0000   37.0000 
2578.3032   12.2500   14.0156  101.6884   -3.3333    1.3828    2.8672  121.1288    2.2402    0.4281    2.8464   37.0000   37.0000 
2578.4556   12.2500   14.0859   98.8016   -3.2049    1.3820    2.8226  122.0357    2.2285    0.4140    2.8585   37.0000   37.0000 
2578.6080   12.2500   14.3281  101.2909   -3.7640    1.3818    2.7227  122.5150    2.2344    0.4164    2.8740   37.0000   37.0000 
2578.7604   12.2500   14.0313  106.5712   -3.6981    1.3810    2.6724  123.4368    2.2324    0.4036    2.8539   37.0000   37.0000 
2578.9128   12.2500   14.2031  104.3835   -4.6947    1.3731    2.4997  124.8207    2.2480    0.4126    2.7801   37.0000   37.0000 
2579.0652   12.2500   14.0156  101.6619   -4.8163    1.3591    2.3745  120.2349    2.2734    0.4299    2.8621   37.0000   37.0000 
2579.2176   12.2500   14.0000   99.8781   -5.0004    1.3583    3.1065  121.8656    2.2852    0.4309    3.0942   37.0000   37.0000 
2579.3700   12.2500   13.8281  104.2510   -5.4345    1.3653    2.5324  120.5954    2.2793    0.4215    3.2464   37.0000   37.0000 
