~VERSION INFORMATION
 VERS.                 2.0:   CWLS LOG ASCII STANDARD - VERSION 2.0
 WRAP.                  NO:   SINGLE LINE PER DEPTH STEP
 CREA.                 19/12/2017 10:26:08
#CREATED USING DSPetro VERSION 5000.10.1.3 BY H191660 ON 19/12/2017 10:26:08
~WELL INFORMATION
#MNEM.UNIT       DATA                          DESCRIPTION MNEMONIC
#---------      ---------------------------   --------------------------
 STRT    .M         0.0000                    : START DEPTH
 STOP    .M         3393.9480                 : STOP DEPTH
 STEP    .M         0.1524                    : STEP VALUE
 NULL    .      -999.0000                     : NULL VALUE
 DATE    .      19/12/2017                    : LAS file Creation Date
 WELL  .      1549_eendracht_1            : Well Name
 COMP  .      Neftex Exploration Insights : Company
 FLD   .      EENDRACHT                   : Field
 UWI   .      ZAUWL_005203                : Unique Well Identifier (UWI)
 LOC   .      Location                    : Location
 PDAT  .      Mean Sea Level              : Permanent Datum
 EPDAT .      0                           : Reference Elevation
 LGMEA .      Kelly Bushing               : Log Measured from
 DRMEA .      Kelly Bushing               : Drill Measured From
 APDAT .      9.8                         : Elevation Above Permanent Datum
 KB    .      9.8                         : KB Elevation
 DF    .      9.8                         : DF Elevation
 GL    .      0                           : GL Elevation
 RWS   .      0                           : Def_Rw
 WST   .      0                           : Def_Rwt
 MDEC  .      0                           : Magnetic Declination
 SRVC  .      SCH                         : Contractor
~CURVE INFORMATION
#MNEM               UNIT       API CODE   Curve Type Comments
#----------   --------------- ----------  ---------- -----------
 DEPTH       .M                         : Depth       
 Bitsize     .in                        : bitSize     caliper     Caliper Log - A representation of the measured diameter of a borehole along its depth
 CAL_INCH    .inch                      : caliper     Caliper Log - A representation of the measured diameter of a borehole along its depth
 GR_API_ds   .API                       : gammaRay    
 SP_MV1      .mv                        : SP          Spontaneous Potential - Records the electrical potential produced by the interaction of formation water, conductive drilling mud, and certain ion-sele
 ILD_OHMMds  .ohmm                      : deepRes     
 MSFL_OHMMds .ohmm                      : shalRes     
 DT_US_FTds  .us/ft                     : sonic       
 RHOB_G_CC   .g/cc                      : density     Bulk Density - Measures the density of bulk material, including any void space or other materials contained in the subject volume
 NPHI_v/vds  .v/v                       :             
 PEF_B_Eds   .b/e-                      : PEF         
 LITH        .                          : LITH        Lithology Curve
 LITH_v2     .                          : LITH        Lithology Curve
~A  DEPTH  Bitsize   CAL_INCH GR_API     SP_MV1  ILD_OHMM  MSFL_OHM  DT_US_FT  RHOB_G_C  NPHI_v/v  PEF_B_       LITH    LITH_v2  
# ...
3080.3088   12.2500   12.9141   92.0766   -3.3890    2.0442    4.2367  106.5527    2.3047    0.3652    3.0564   37.0000   37.0000 
3080.4612   12.2500   12.7969   92.1706   -3.0022    2.0870    4.4357  105.7938    2.3203    0.3888    3.0904   37.0000   37.0000 
3080.6136   12.2500   12.7188   91.9268   -3.1519    2.1419    4.0955  107.5194    2.3359    0.4050    3.0650   37.0000   37.0000 
3080.7660   12.2500   12.7969   92.6823   -3.4910    2.1883    4.0933  106.3659    2.2832    0.4135    3.0427   37.0000   37.0000 
3080.9184   12.2500   12.6406   93.9175   -4.5878    2.1998    4.6593  106.2366    2.2637    0.4067    3.0068   37.0000   37.0000 
3081.0708   12.2500   12.6328   95.2284   -3.6800    2.1726    3.9791  106.5326    2.2344    0.4018    3.0777   37.0000   37.0000 
3081.2232   12.2500   12.9219   95.3733   -4.3348    2.1006    3.3252  100.5466    2.2520    0.3886    3.0893   23.0000   37.0000 
3081.3756   12.2500   12.9375   94.2211   -3.6323    2.0099    2.8731  100.4113    2.3203    0.3938    3.4460   23.0000   23.0000 
3081.5280   12.2500   12.6172   94.2761   -3.7821    1.8980    3.8656  100.5117    2.3828    0.4165    4.4441   23.0000   23.0000 
3081.6804   12.2500   12.4375   93.7450   -4.2475    1.8022    2.0550   99.0013    2.4277    0.4291    4.4410   36.0000   23.0000 
3081.8328   12.2500   12.3438   89.7954   -5.0285    1.7286    2.2196  101.8380    2.3164    0.4238    3.5775   36.0000   36.0000 
3081.9852   12.2500   12.3203   79.6368   -4.8942    1.6769    2.2372   99.5353    2.2305    0.4168    2.8042   36.0000   36.0000 
3082.1376   12.2500   12.2813   68.5718   -4.9808    1.6189    2.4897   99.6307    2.1660    0.4116    2.4725   36.0000   36.0000 
3082.2900   12.2500   12.2734   63.2284   -5.6987    1.5439    2.7201  101.0636    2.1738    0.4069    2.4996   36.0000   36.0000 
3082.4424   12.2500   12.2734   64.5818   -5.8800    1.4667    3.0451  101.2274    2.1992    0.3753    2.6118   36.0000   36.0000 
3082.5948   12.2500   12.2500   67.6592   -6.6453    1.3709    2.6929  100.8773    2.2207    0.3449    2.7938   36.0000   36.0000 
3082.7472   12.2500   12.2656   70.3497   -6.9687    1.2942    2.0446  102.0203    2.2344    0.3249    2.8500   36.0000   36.0000 
3082.8996   12.2500   12.2734   71.4711   -7.6708    1.2521    1.9548  101.2388    2.2051    0.3197    2.7384   36.0000   36.0000 
3083.0520   12.2500   12.2891   70.7487   -7.2681    1.2555    2.1182  100.2036    2.1699    0.3253    2.5109   37.0000   36.0000 
3083.2044   12.2500   12.3438   66.7297   -7.2127    1.2969    2.4718   97.9815    2.1484    0.3333    2.3248   27.0000   36.0000 
3083.3568   12.2500   12.2656   59.2209   -7.1573    1.3399    2.6770   96.4480    2.1621    0.3457    2.4239   27.0000   36.0000 
3083.5092   12.2500   12.2969   51.2696   -7.4806    1.3571    3.1291   96.1452    2.1973    0.3502    2.6801   27.0000   36.0000 
3083.6616   12.2500   12.3203   45.5911   -8.2459    1.3786    3.3071   97.5411    2.2207    0.3467    2.7731   36.0000   36.0000 
3083.8140   12.2500   12.3594   44.2100   -8.4746    1.4135    2.8675   97.0545    2.2422    0.3336    2.6660   36.0000   36.0000 
3083.9664   12.2500   12.3594   47.4826   -7.9457    1.4718    2.8201   97.3010    2.2598    0.3256    2.6077   36.0000   36.0000 
3084.1188   12.2500   12.2813   56.3366   -7.3220    1.5471    2.8032   97.3067    2.2539    0.3270    2.6899   36.0000   36.0000 
3084.2712   12.2500   12.2891   64.2051   -7.3929    1.6128    2.6313   96.5661    2.2344    0.3295    2.7171   36.0000   36.0000 
3084.4236   12.2500   12.2891   66.7488   -8.2844    1.6640    2.6733   96.4630    2.2129    0.3425    2.6612   36.0000   36.0000 
3084.5760   12.2500   12.2969   64.8514   -8.1974    1.6984    2.9648   96.7147    2.2109    0.3603    2.7516   36.0000   36.0000 
3084.7284   12.2500   12.3203   64.9734   -7.9210    1.7156    3.6626   96.3237    2.2383    0.3670    2.8138   36.0000   36.0000 
3084.8808   12.2500   12.3516   68.9049   -9.0966    1.7352    4.0364   96.6329    2.2617    0.3491    3.0001   36.0000   36.0000 
3085.0332   12.2500   12.3438   71.4242   -8.4730    1.7535    4.3089   97.0648    2.3125    0.3227    3.0534   37.0000   37.0000 
3085.1856   12.2500   12.3125   77.3605   -8.1967    1.7676    4.1308   97.3377    2.3281    0.3115    3.0890   37.0000   37.0000 
3085.3380   12.2500   12.2891   85.0534   -6.8786    1.7741    3.4802   97.0000    2.3340    0.3137    3.0648   37.0000   37.0000 
3085.4904   12.2500   12.2422   91.6860   -6.9493    1.7895    2.5677   96.8940    2.2930    0.3187    2.8303   37.0000   37.0000 
3085.6428   12.2500   12.2422   89.5045   -5.2368    1.7858    2.8503   96.7500    2.2461    0.3359    2.7908   37.0000   37.0000 
3085.7952   12.2500   12.2422   77.9271   -5.6706    1.7106    3.1312   96.4139    2.2324    0.3484    2.6919   36.0000   36.0000 
3085.9476   12.2500   12.2422   68.8456   -5.8046    1.5739    3.1647   95.7987    2.2402    0.3454    2.8312   36.0000   36.0000 
3086.1000   12.2500   12.2422   65.1939   -6.6961    1.4466    3.5806   95.9462    2.2637    0.3347    2.9050   36.0000   36.0000 
3086.2524   12.2500   12.2422   68.6776   -6.5776    1.3737    3.1153   96.5566    2.2520    0.3362    3.0757   36.0000   36.0000 
3086.4048   12.2500   12.2578   71.7427   -7.0272    1.3274    2.4081   97.6499    2.2520    0.3547    3.1168   36.0000   36.0000 
3086.5572   12.2500   12.2422   72.5129   -7.0349    1.2933    2.3067   98.0539    2.2500    0.3515    2.9230   36.0000   36.0000 
3086.7096   12.2500   12.2266   72.0960   -7.3898    1.2522    2.2059   96.3257    2.2324    0.3394    2.5589   36.0000   36.0000 
3086.8620   12.2500   12.2344   69.5594   -8.1865    1.2092    2.1704   94.2217    2.2070    0.3288    2.4069   36.0000   36.0000 
3087.0144   12.2500   12.2188   63.4744   -8.1311    1.1857    2.2327   93.1706    2.1895    0.3325    2.4415   36.0000   36.0000 
3087.1668   12.2500   12.3203   56.6051   -8.2337    1.1891    2.3871   93.2089    2.1992    0.3458    2.7891   36.0000   36.0000 
3087.3192   12.2500   12.2734   52.5624   -7.5469    1.2137    2.6258   94.0509    2.2207    0.3552    3.1009   36.0000   36.0000 
3087.4716   12.2500   12.2344   52.4351   -8.7541    1.2544    2.4915   96.4154    2.2559    0.3620    2.9180   36.0000   36.0000 
3087.6240   12.2500   12.2344   55.9647   -8.7933    1.2861    2.5443   97.0453    2.2598    0.3509    2.7114   36.0000   36.0000 
3087.7764   12.2500   12.2188   60.8791   -9.9057    1.2865    2.6692   92.0968    2.2461    0.3306    2.6107   36.0000   36.0000 
3087.9288   12.2500   12.2188   63.9054   -9.7557    1.2750    2.4502   90.3070    2.2168    0.3100    2.7601   36.0000   36.0000 
3088.0812   12.2500   12.2578   62.3299   -8.9110    1.2584    4.1663   90.6064    2.2246    0.3021    2.8850   36.0000   36.0000 
3088.2336   12.2500   12.2969   56.2052   -9.9920    1.2454    5.9189   93.8250    2.2930    0.3106    3.1015   36.0000   22.0000 
3088.3860   12.2500   12.2891   51.3633   -9.0842    1.2387    3.3537   98.7746    2.3652    0.3153    4.1650   36.0000   22.0000 
3088.5384   12.2500   12.2422   49.3704   -9.4076    1.2514    2.1412   99.8338    2.3965    0.3033    3.6455   36.0000   22.0000 
3088.6908   12.2500   12.2422   50.4184   -8.9734    1.2837    2.1469   99.4353    2.2773    0.2958    3.0429   36.0000   22.0000 
3088.8432   12.2500   12.2422   53.0997   -8.9495    1.3142    2.3371   99.6339    2.2090    0.3049    2.4146   36.0000   36.0000 
3088.9956   12.2500   12.2578   56.8414   -8.1681    1.3516    2.7650   99.3549    2.1621    0.3188    2.3257   36.0000   36.0000 
3089.1480   12.2500   12.2891   63.2089   -8.4283    1.4259    3.2580   97.8924    2.1914    0.3446    2.4663   36.0000   36.0000 
3089.3004   12.2500   12.3203   67.0619   -8.0572    1.5389    3.5650   95.0588    2.2363    0.3563    2.6891   36.0000   36.0000 
3089.4528   12.2500   12.2813   64.3643   -8.2859    1.6535    4.4110   92.1098    2.2969    0.3552    2.9195   36.0000   36.0000 
3089.6052   12.2500   12.2500   55.3127   -7.5991    1.7239    4.7770   93.6276    2.3320    0.3479    2.9609   36.0000   22.0000 
