~VERSION INFORMATION
 VERS.                 2.0:   CWLS LOG ASCII STANDARD - VERSION 2.0
 WRAP.                  NO:   SINGLE LINE PER DEPTH STEP
 CREA.                 19/12/2017 10:26:08
#CREATED USING DSPetro VERSION 5000.10.1.3 BY H191660 ON 19/12/2017 10:26:08
~WELL INFORMATION
#MNEM.UNIT       DATA                          DESCRIPTION MNEMONIC
#---------      ---------------------------   --------------------------
 STRT    .M         0.0000                    : START DEPTH
 STOP    .M         3393.9480                 : STOP DEPTH
 STEP    .M         0.1524                    : STEP VALUE
 NULL    .      -999.0000                     : NULL VALUE
 DATE    .      19/12/2017                    : LAS file Creation Date
 WELL  .      1549_eendracht_1            : Well Name
 COMP  .      Neftex Exploration Insights : Company
 FLD   .      EENDRACHT                   : Field
 UWI   .      ZAUWL_005203                : Unique Well Identifier (UWI)
 LOC   .      Location                    : Location
 PDAT  .      Mean Sea Level              : Permanent Datum
 EPDAT .      0                           : Reference Elevation
 LGMEA .      Kelly Bushing               : Log Measured from
 DRMEA .      Kelly Bushing               : Drill Measured From
 APDAT .      9.8                         : Elevation Above Permanent Datum
 KB    .      9.8                         : KB Elevation
 DF    .      9.8                         : DF Elevation
 GL    .      0                           : GL Elevation
 RWS   .      0                           : Def_Rw
 WST   .      0                           : Def_Rwt
 MDEC  .      0                           : Magnetic Declination
 SRVC  .      SCH                         : Contractor
~CURVE INFORMATION
#MNEM               UNIT       API CODE   Curve Type Comments
#----------   --------------- ----------  ---------- -----------
 DEPTH       .M                         : Depth       
 Bitsize     .in                        : bitSize     caliper     Caliper Log - A representation of the measured diameter of a borehole along its depth
 CAL_INCH    .inch                      : caliper     Caliper Log - A representation of the measured diameter of a borehole along its depth
 GR_API_ds   .API                       : gammaRay    
 SP_MV1      .mv                        : SP          Spontaneous Potential - Records the electrical potential produced by the interaction of formation water, conductive drilling mud, and certain ion-sele
 ILD_OHMMds  .ohmm                      : deepRes     
 MSFL_OHMMds .ohmm                      : shalRes     
 DT_US_FTds  .us/ft                     : sonic       
 RHOB_G_CC   .g/cc                      : density     Bulk Density - Measures the density of bulk material, including any void space or other materials contained in the subject volume
 NPHI_v/vds  .v/v                       :             
 PEF_B_Eds   .b/e-                      : PEF         
 LITH        .                          : LITH        Lithology Curve
 LITH_v2     .                          : LITH        Lithology Curve
~A  DEPTH  Bitsize   CAL_INCH GR_API     SP_MV1  ILD_OHMM  MSFL_OHM  DT_US_FT  RHOB_G_C  NPHI_v/v  PEF_B_       LITH    LITH_v2  
# ...
3382.6704   12.2500   12.4453   93.8799    0.0664    3.5646    5.4595 -999.0000    2.3711    0.3311    3.0324   37.0000   37.0000 
3382.8228   12.2500   12.4531   98.5460   -0.2808    3.4582    5.3475 -999.0000    2.3438    0.3276    2.8873   37.0000   37.0000 
3382.9752   12.2500   12.5000  104.4724   -0.5175    3.3749    5.5266 -999.0000    2.3418    0.3560    2.8844   37.0000   37.0000 
3383.1276   12.2500   12.4766  110.4685   -1.5119    3.3227    5.6762 -999.0000    2.3594    0.3652    2.8884   37.0000   37.0000 
3383.2800   12.2500   12.4922  113.6139   -1.5750    3.2709    5.6433 -999.0000    2.3945    0.3750    3.0299   37.0000   37.0000 
3383.4324   12.2500   12.5703  115.6988   -2.4746    3.2021    5.6004 -999.0000    2.3965    0.3647    3.0517   37.0000   37.0000 
3383.5848   12.2500   12.5703  116.1444   -2.3010    3.1314    5.5830 -999.0000    2.3867    0.3550    3.1051   37.0000   37.0000 
3383.7372   12.2500   12.5469  113.4028   -2.4430    3.0595    5.5764 -999.0000    2.3848    0.3604    3.0555   37.0000   37.0000 
3383.8896   12.2500   12.3828  107.4966   -2.3325    2.9985    5.5734 -999.0000    2.3770    0.3325    2.9757   37.0000   37.0000 
3384.0420   12.2500   12.3516   96.7429   -5.5049    2.8867    5.5589 -999.0000    2.3379    0.3115    2.8506   37.0000   37.0000 
3384.1944   12.2500   12.3203   88.4008   -4.8894    2.8378    5.5345 -999.0000    2.3242    0.2944    2.8394   37.0000   37.0000 
3384.3468   12.2500   12.3125   85.9843   -5.3471    2.8288    5.5504 -999.0000    2.3164    0.2920    2.9492   37.0000   37.0000 
3384.4992   12.2500   12.2656   89.4715   -5.9784    2.8313    5.5504 -999.0000    2.3184    0.2939    3.0627   37.0000   37.0000 
3384.6516   12.2500   12.2656   93.9208   -6.0257    2.8514    5.5441 -999.0000    2.2988    0.2910    3.0438   37.0000   37.0000 
3384.8040   12.2500   12.3203   94.8984   -6.4677    2.8797    5.5473 -999.0000    2.2871    0.2998    3.0355   37.0000   37.0000 
3384.9564   12.2500   12.3203   93.1265   -5.6312    2.9073    5.5461 -999.0000    2.3027    0.3071    3.1095   37.0000   37.0000 
3385.1088   12.2500   12.3203   89.7035   -4.4475    2.9492    5.5477 -999.0000    2.3340    0.3076    3.3043   37.0000   37.0000 
3385.2612   12.2500   12.3203   91.3890   -4.9052    3.0183    5.5375 -999.0000    2.3555    0.3096    3.4408   37.0000   37.0000 
3385.4136   12.2500   12.2969   92.8920   -5.1103    3.1264    5.5492 -999.0000    2.3613    0.3042    3.4954   37.0000   37.0000 
3385.5660   12.2500   12.2656   93.4149   -5.4102    3.2206    5.5371 -999.0000    2.3496    0.3154    3.5251   37.0000   37.0000 
3385.7184   12.2500   12.2891   90.1053   -3.5321    3.3041    5.5360 -999.0000    2.3516    0.3110    3.5611   37.0000   37.0000 
3385.8708   12.2500   12.3281   88.9058   -3.1059    3.3200    5.5235 -999.0000    2.3418    0.3174    3.5542   37.0000   37.0000 
3386.0232   12.2500   12.3750   88.2891   -2.6640    3.2042    5.5391 -999.0000    2.3438    0.3018    3.5010   37.0000   37.0000 
3386.1756   12.2500   12.4531   87.3964   -1.0068    2.9605    5.5494 -999.0000    2.3281    0.3018    3.4219   37.0000   37.0000 
3386.3280   12.2500   12.7188   88.0394   -1.1015    2.7287    5.5572 -999.0000    2.2969    0.3262    3.3094   37.0000   37.0000 
3386.4804   12.2500   13.1250   91.3342   -0.9910    2.6089    5.5382 -999.0000    2.2871    0.3682    3.1778   37.0000   37.0000 
3386.6328   12.2500   12.8281   94.4181   -0.7700    2.5612    5.5263 -999.0000    2.2852    0.3760    3.0031   37.0000   37.0000 
3386.7852   12.2500   12.7266   96.2416   -1.1015    2.5305    5.5420 -999.0000    2.3105    0.3574    2.9002   37.0000   37.0000 
3386.9376   12.2500   12.6719   95.7564   -2.5377    2.4851    5.5499 -999.0000    2.3301    0.3525    2.8210   37.0000   37.0000 
3387.0900   12.2500   12.6563   94.4021   -2.3957    2.5314    5.5390 -999.0000    2.3477    0.3477    2.8435   37.0000   37.0000 
3387.2424   12.2500   12.6563   93.7340   -1.4535    2.7074    5.5462 -999.0000    2.3809    0.3628    2.9617   37.0000   37.0000 
3387.3948   12.2500   12.6094   93.3920   -1.2751    2.9340    5.5450 -999.0000    2.3789    0.3608    3.0910   37.0000   37.0000 
3387.5472   12.2500   12.5938   94.1629   -0.9437    3.1197    5.5711 -999.0000    2.3984    0.3442    3.2426   37.0000   37.0000 
3387.6996   12.2500   12.5234   92.5275    0.0465    3.2455    5.5607 -999.0000    2.4023    0.3486    3.4546   37.0000   37.0000 
3387.8520   12.2500   12.4609   93.6875   -0.4435    3.3027    5.5433 -999.0000    2.3984    0.3457    3.6890   37.0000   37.0000 
3388.0044   12.2500   12.3047   94.0251   -1.6065    3.3170    5.5436 -999.0000    2.3867    0.3555    3.8089   37.0000   37.0000 
3388.1568   12.2500   12.2656   93.9340   -0.3235    3.3281    5.5550 -999.0000    2.3809    0.3403    3.6758   37.0000   37.0000 
3388.3092   12.2500   12.2891   92.0605   -0.9752    3.3398    5.5605 -999.0000    2.4023    0.3286    3.5344   37.0000   37.0000 
3388.4616   12.2500   12.3359   91.9021   -1.5908    3.4369    5.5633 -999.0000    2.4121    0.3262    3.5060   37.0000   37.0000 
3388.6140   12.2500   12.3438   93.2716   -2.6798    3.3570    5.5810 -999.0000    2.4141    0.3213    3.5397   37.0000   -1.0000 
3388.7664   12.2500   12.1563   91.6447   -2.5062    3.0618    5.5933 -999.0000    2.3984    0.3315    3.5946   37.0000   -1.0000 
3388.9188   12.2500   12.0078   89.4079   -3.1375    2.9894    5.6230 -999.0000    2.3711    0.3403    3.6506   37.0000   -1.0000 
3389.0712   12.2500   11.8594   86.7488   -3.7530    3.0717    5.6310 -999.0000    2.3555    0.3340    3.6760   37.0000   -1.0000 
3389.2236   12.1000   11.9297   84.5524   -3.2795    3.1398    5.6326 -999.0000    2.3535    0.3345    3.7595   37.0000   -1.0000 
3389.3760   12.1000   11.7656   86.0586   -2.1905    3.2003    5.6360 -999.0000    2.3672    0.3511    3.6665   37.0000   -1.0000 
3389.5284   12.1000 -999.0000   87.7741 -999.0000    3.2012    5.6593 -999.0000 -999.0000    0.3813    3.6148   37.0000   -1.0000 
3389.6808   12.1000 -999.0000   92.4879 -999.0000    3.1992    5.6641 -999.0000 -999.0000    0.3662    3.6191   37.0000   -1.0000 
3389.8332   12.1000 -999.0000   93.3172 -999.0000 -999.0000 -999.0000 -999.0000 -999.0000    0.3467 -999.0000   37.0000   -1.0000 
3389.9856   12.1000 -999.0000   92.7210 -999.0000 -999.0000 -999.0000 -999.0000 -999.0000    0.3447 -999.0000   37.0000   -1.0000 
3390.1380   12.1000 -999.0000   92.6467 -999.0000 -999.0000 -999.0000 -999.0000 -999.0000    0.3638 -999.0000   37.0000   -1.0000 
3390.2904   12.1000 -999.0000   95.2379 -999.0000 -999.0000 -999.0000 -999.0000 -999.0000    0.3755 -999.0000   37.0000   -1.0000 
3390.4428   12.1000 -999.0000   96.2463 -999.0000 -999.0000 -999.0000 -999.0000 -999.0000    0.3613 -999.0000   37.0000   -1.0000 
3390.5952   12.1000 -999.0000   95.2768 -999.0000 -999.0000 -999.0000 -999.0000 -999.0000    0.3618 -999.0000   37.0000   -1.0000 
3390.7476   12.1000 -999.0000   91.7872 -999.0000 -999.0000 -999.0000 -999.0000 -999.0000    0.3687 -999.0000   37.0000   -1.0000 
3390.9000   12.1000 -999.0000   89.4597 -999.0000 -999.0000 -999.0000 -999.0000 -999.0000    0.3755 -999.0000   37.0000   -1.0000 
3391.0524   12.1000 -999.0000   87.8425 -999.0000 -999.0000 -999.0000 -999.0000 -999.0000    0.3486 -999.0000   37.0000   -1.0000 
3391.2048   12.1000 -999.0000   87.6395 -999.0000 -999.0000 -999.0000 -999.0000 -999.0000    0.3193 -999.0000   37.0000   -1.0000 
3391.3572   12.1000 -999.0000   91.0377 -999.0000 -999.0000 -999.0000 -999.0000 -999.0000    0.3359 -999.0000   37.0000   -1.0000 
3391.5096   12.1000 -999.0000   93.5679 -999.0000 -999.0000 -999.0000 -999.0000 -999.0000    0.3511 -999.0000   37.0000   -1.0000 
3391.6620   12.1000 -999.0000   90.9597 -999.0000 -999.0000 -999.0000 -999.0000 -999.0000    0.3794 -999.0000   37.0000   -1.0000 
3391.8144   12.1000 -999.0000   87.7303 -999.0000 -999.0000 -999.0000 -999.0000 -999.0000    0.3755 -999.0000   37.0000   -1.0000 
3391.9668   12.1000 -999.0000   85.5817 -999.0000 -999.0000 -999.0000 -999.0000 -999.0000    0.3774 -999.0000   37.0000   -1.0000 
