~VERSION INFORMATION
 VERS.                 2.0:   CWLS LOG ASCII STANDARD - VERSION 2.0
 WRAP.                  NO:   SINGLE LINE PER DEPTH STEP
 CREA.                 19/12/2017 10:26:08
#CREATED USING DSPetro VERSION 5000.10.1.3 BY H191660 ON 19/12/2017 10:26:08
~WELL INFORMATION
#MNEM.UNIT       DATA                          DESCRIPTION MNEMONIC
#---------      ---------------------------   --------------------------
 STRT    .M         0.0000                    : START DEPTH
 STOP    .M         3393.9480                 : STOP DEPTH
 STEP    .M         0.1524                    : STEP VALUE
 NULL    .      -999.0000                     : NULL VALUE
 DATE    .      19/12/2017                    : LAS file Creation Date
 WELL  .      1549_eendracht_1            : Well Name
 COMP  .      Neftex Exploration Insights : Company
 FLD   .      EENDRACHT                   : Field
 UWI   .      ZAUWL_005203                : Unique Well Identifier (UWI)
 LOC   .      Location                    : Location
 PDAT  .      Mean Sea Level              : Permanent Datum
 EPDAT .      0                           : Reference Elevation
 LGMEA .      Kelly Bushing               : Log Measured from
 DRMEA .      Kelly Bushing               : Drill Measured From
 APDAT .      9.8                         : Elevation Above Permanent Datum
 KB    .      9.8                         : KB Elevation
 DF    .      9.8                         : DF Elevation
 GL    .      0                           : GL Elevation
 RWS   .      0                           : Def_Rw
 WST   .      0                           : Def_Rwt
 MDEC  .      0                           : Magnetic Declination
 SRVC  .      SCH                         : Contractor
~CURVE INFORMATION
#MNEM               UNIT       API CODE   Curve Type Comments
#----------   --------------- ----------  ---------- -----------
 DEPTH       .M                         : Depth       
 Bitsize     .in                        : bitSize     caliper     Caliper Log - A representation of the measured diameter of a borehole along its depth
 CAL_INCH    .inch                      : caliper     Caliper Log - A representation of the measured diameter of a borehole along its depth
 GR_API_ds   .API                       : gammaRay    
 SP_MV1      .mv                        : SP          Spontaneous Potential - Records the electrical potential produced by the interaction of formation water, conductive drilling mud, and certain ion-sele
 ILD_OHMMds  .ohmm                      : deepRes     
 MSFL_OHMMds .ohmm                      : shalRes     
 DT_US_FTds  .us/ft                     : sonic       
 RHOB_G_CC   .g/cc                      : density     Bulk Density - Measures the density of bulk material, including any void space or other materials contained in the subject volume
 NPHI_v/vds  .v/v                       :             
 PEF_B_Eds   .b/e-                      : PEF         
 LITH        .                          : LITH        Lithology Curve
 LITH_v2     .                          : LITH        Lithology Curve
~A  DEPTH  Bitsize   CAL_INCH GR_API     SP_MV1  ILD_OHMM  MSFL_OHM  DT_US_FT  RHOB_G_C  NPHI_v/v  PEF_B_       LITH    LITH_v2  
# ...
2674.0104   12.2500   12.3594   66.7027   -3.6266    1.1388    1.9752  114.9863    2.1133    0.4061    2.2880   37.0000   36.0000 
2674.1628   12.2500   12.2891   71.0169   -3.5086    1.1052    1.9733  116.5248    2.1230    0.4058    2.2401   37.0000   36.0000 
2674.3152   12.2500   12.2969   73.1793   -3.7031    1.0847    1.9774  117.3140    2.1250    0.4034    2.1957   37.0000   36.0000 
2674.4676   12.2500   12.3359   73.9226   -3.9600    1.0710    2.1037  117.7101    2.1270    0.3680    2.3587   37.0000   36.0000 
2674.6200   12.2500   12.3750   74.6686   -4.3420    1.0575    2.3087  117.7260    2.1152    0.3778    2.4444   37.0000   36.0000 
2674.7724   12.2500   12.4063   77.1902   -3.9740    1.0475    2.3133  116.6206    2.0996    0.4008    2.4475   37.0000   36.0000 
2674.9248   12.2500   12.4063   81.3612   -4.2935    1.0449    2.1071  115.5387    2.0918    0.4324    2.3439   37.0000   36.0000 
2675.0772   12.2500   12.4063   84.3064   -3.7380    1.0423    1.9008  115.6498    2.0840    0.4024    2.2705   37.0000   36.0000 
2675.2296   12.2500   12.4063   85.3702   -4.1825    1.0301    1.8202  116.4829    2.0859    0.3809    2.2071   37.0000   36.0000 
2675.3820   12.2500   12.3672   84.9991   -4.0020    1.0149    1.8340  117.9822    2.0898    0.3744    2.1903   37.0000   36.0000 
2675.5344   12.2500   12.3281   84.5326   -4.1340    1.0098    1.8657  117.7500    2.0957    0.3803    2.2354   37.0000   36.0000 
2675.6868   12.2500   12.3203   85.2350   -4.5159    1.0169    1.9821  117.4427    2.0938    0.3787    2.2250   37.0000   36.0000 
2675.8392   12.2500   12.3203   88.2997   -4.8979    1.0361    1.9605  115.3718    2.0938    0.3744    2.2282   37.0000   36.0000 
2675.9916   12.2500   12.3359   93.3668   -4.9049    1.0756    1.9256  113.1121    2.1016    0.3779    2.2776   37.0000   36.0000 
2676.1440   12.2500   12.3672   98.6824   -4.7869    1.1707    1.9606  111.6606    2.1387    0.3690    2.4915   37.0000   36.0000 
2676.2964   12.2500   12.3750  106.3378   -4.6064    1.3505    2.1029  109.3541    2.1992    0.3719    2.7558   37.0000   37.0000 
2676.4488   12.2500   12.4375  110.0807   -4.4259    1.6006    2.3734   97.3489    2.2832    0.3571    3.1312   12.0000   37.0000 
2676.6012   12.2500   12.4297  107.8677   -3.8079    1.9808    5.5203   86.7249    2.3613    0.3316    3.6253   12.0000   23.0000 
2676.7536   12.2500   12.2656  101.6863   -3.6273    2.4876   15.7038   80.9516    2.4180    0.3007    4.2623   12.0000   23.0000 
2676.9060   12.2500   12.3203   97.5868   -4.0093    3.0776    7.4568   71.3162    2.5059    0.2913    4.9195   12.0000   23.0000 
2677.0584   12.2500   12.3906  100.9443   -4.2038    3.6538   11.8893   73.6761    2.5645    0.2965    6.0513   12.0000   23.0000 
2677.2108   12.2500   12.3906  105.1689   -4.0233    3.9568   14.2329   77.3869    2.5586    0.2951    7.0691   12.0000   23.0000 
2677.3632   12.2500   12.4609  104.3417   -3.7178    4.1144    5.8461   74.3400    2.4746    0.3012    6.0201   12.0000   23.0000 
2677.5156   12.2500   12.4688  100.7579   -3.5998    4.2282   10.7354   74.0619    2.4551    0.2820    5.0978   12.0000   23.0000 
2677.6680   12.2500   12.5234   99.9426   -4.3568    4.1564   23.1594   69.6442    2.4668    0.2618    4.3805   12.0000   23.0000 
2677.8204   12.2500   12.5156  105.1880   -4.7388    3.8603   17.7834   66.3041    2.4746    0.2380    4.1954   12.0000   23.0000 
2677.9728   12.2500   12.3672  111.9052   -4.6208    3.3500   17.3776   68.2516    2.4609    0.2350    4.0167   12.0000   37.0000 
2678.1252   12.2500   12.4453  114.7104   -4.3152    2.7412   22.2189   74.7822    2.4277    0.2648    4.0040   12.0000   37.0000 
2678.2776   12.2500   12.4688  115.8147   -3.7597    2.2857   22.2504   88.5801    2.3633    0.3002    3.9369   12.0000   37.0000 
2678.4300   12.2500   12.4609  117.4566   -3.6417    1.9654   11.1966  100.7494    2.2773    0.3528    3.4429   12.0000   37.0000 
2678.5824   12.2500   12.4688  122.1282   -3.0237    1.6995    4.2083  111.3745    2.1934    0.3732    3.0274   37.0000   37.0000 
2678.7348   12.2500   12.5078  126.5797   -3.0307    1.5055    1.9661  114.7500    2.1582    0.3914    2.7398   37.0000   37.0000 
2678.8872   12.2500   12.5547  130.5709   -2.7877    1.3513    1.8880  114.3887    2.1367    0.3906    2.6765   37.0000   37.0000 
2679.0396   12.2500   12.5703  130.2200   -2.7947    1.2093    1.9564  112.8577    2.1387    0.4024    2.7327   37.0000   37.0000 
2679.1920   12.2500   12.5938  125.6088   -2.0516    1.1073    2.0347  113.6333    2.1289    0.4100    2.8276   37.0000   37.0000 
2679.3444   12.2500   12.5703  119.8579   -2.4961    1.0575    2.0990  113.9078    2.1309    0.3972    2.8420   37.0000   37.0000 
2679.4968   12.2500   12.5391  116.3302   -2.3156    1.0340    2.1622  114.1823    2.1426    0.3750    2.8306   37.0000   37.0000 
2679.6492   12.2500   12.5000  118.8775   -2.8226    1.0297    2.1656  114.4567    2.1348    0.3952    2.7793   37.0000   37.0000 
2679.8016   12.2500   12.5000  123.0193   -2.7046    1.0298    2.1182  114.7312    2.1328    0.4164    2.8245   37.0000   37.0000 
2679.9540   12.2500   12.4609  128.8423   -2.5241    1.0319    2.0655  115.0056    2.1230    0.4350    2.7806   37.0000   37.0000 
2680.1064   12.2500   12.4609  136.7931   -3.5936    1.0340    2.0603  115.0401    2.1270    0.4139    2.7288   37.0000   37.0000 
2680.2588   12.2500   12.4609  143.1359   -4.0381    1.0349    2.1017  114.7500    2.1328    0.4110    2.6902   37.0000   37.0000 
2680.4112   12.2500   12.4609  142.0401   -3.9200    1.0356    2.0985  114.8337    2.1250    0.4065    2.7661   37.0000   37.0000 
2680.5636   12.2500   12.4609  135.7964   -3.6145    1.0361    2.0546  115.0626    2.1484    0.3989    2.8660   37.0000   37.0000 
2680.7160   12.2500   12.4609  131.2248   -3.8715    1.0361    2.0013  115.2498    2.1465    0.3883    2.8948   37.0000   37.0000 
2680.8684   12.2500   12.4609  132.0009   -3.6285    1.0379    2.0097  115.3750    2.1563    0.4072    2.8541   37.0000   37.0000 
2681.0208   12.2500   12.4609  134.8376   -4.1980    1.0394    2.0454  115.2511    2.1348    0.4161    2.7912   37.0000   37.0000 
2681.1732   12.2500   12.4609  134.8260   -4.2675    1.0409    2.0974  114.8558    2.1328    0.4570    2.7418   37.0000   37.0000 
2681.3256   12.2500   12.4609  136.3138   -4.2120    1.0537    2.1461  114.4391    2.1523    0.4485    2.7351   37.0000   37.0000 
2681.4780   12.2500   12.4844  140.8217   -4.0315    1.0789    2.1924  114.3721    2.1582    0.4546    2.8453   37.0000   37.0000 
2681.6304   12.2500   12.5078  142.5772   -4.1009    1.1022    2.1095  114.3611    2.1699    0.4198    2.9104   37.0000   37.0000 
2681.7828   12.2500   12.5000  139.1284   -4.4204    1.1236    2.0338  113.1745    2.1660    0.4028    2.9309   37.0000   37.0000 
2681.9352   12.2500   12.5078  132.4941   -4.4274    1.1434    2.0787  112.1713    2.1621    0.3787    2.8348   37.0000   37.0000 
2682.0876   12.2500   12.5703  130.9159   -4.3719    1.1673    2.1519  111.6280    2.1563    0.3684    2.8002   37.0000   37.0000 
2682.2400   12.2500   12.5859  129.3149   -4.1289    1.1972    2.2801  111.7603    2.1367    0.3644    2.7943   37.0000   37.0000 
2682.3924   12.2500   13.7188  119.7267   -3.6359    1.2236    2.3159  112.8255    2.1777    0.3824    2.8369   37.0000   37.0000 
2682.5448   12.2500   12.5000  105.7785   -3.6429    1.2617    2.1201  113.1731    2.2070    0.3998    2.8743   37.0000   37.0000 
2682.6972   12.2500   12.5000   94.8712   -2.7749    1.2997    2.0778  113.3340    2.2266    0.4072    2.8493   37.0000   37.0000 
2682.8496   12.2500   12.5469   92.1274   -2.1568    1.3363    2.2266  113.5981    2.1934    0.3829    2.8137   37.0000   37.0000 
2683.0020   12.2500   12.6094   94.9186   -2.2888    1.3669    2.6820  111.4422    2.1719    0.3639    2.8167   37.0000   37.0000 
2683.1544   12.2500   12.6406   95.9362   -2.3583    1.4006    3.3042  111.1875    2.1914    0.3466    2.8716   37.0000   37.0000 
2683.3068   12.2500   12.6172   94.0276   -2.9903    1.4316    3.0454  111.4469    2.2168    0.3733    2.9474   37.0000   37.0000 
