~VERSION INFORMATION
 VERS.                 2.0:   CWLS LOG ASCII STANDARD - VERSION 2.0
 WRAP.                  NO:   SINGLE LINE PER DEPTH STEP
 CREA.                 19/12/2017 10:26:08
#CREATED USING DSPetro VERSION 5000.10.1.3 BY H191660 ON 19/12/2017 10:26:08
~WELL INFORMATION
#MNEM.UNIT       DATA                          DESCRIPTION MNEMONIC
#---------      ---------------------------   --------------------------
 STRT    .M         0.0000                    : START DEPTH
 STOP    .M         3393.9480                 : STOP DEPTH
 STEP    .M         0.1524                    : STEP VALUE
 NULL    .      -999.0000                     : NULL VALUE
 DATE    .      19/12/2017                    : LAS file Creation Date
 WELL  .      1549_eendracht_1            : Well Name
 COMP  .      Neftex Exploration Insights : Company
 FLD   .      EENDRACHT                   : Field
 UWI   .      ZAUWL_005203                : Unique Well Identifier (UWI)
 LOC   .      Location                    : Location
 PDAT  .      Mean Sea Level              : Permanent Datum
 EPDAT .      0                           : Reference Elevation
 LGMEA .      Kelly Bushing               : Log Measured from
 DRMEA .      Kelly Bushing               : Drill Measured From
 APDAT .      9.8                         : Elevation Above Permanent Datum
 KB    .      9.8                         : KB Elevation
 DF    .      9.8                         : DF Elevation
 GL    .      0                           : GL Elevation
 RWS   .      0                           : Def_Rw
 WST   .      0                           : Def_Rwt
 MDEC  .      0                           : Magnetic Declination
 SRVC  .      SCH                         : Contractor
~CURVE INFORMATION
#MNEM               UNIT       API CODE   Curve Type Comments
#----------   --------------- ----------  ---------- -----------
 DEPTH       .M                         : Depth       
 Bitsize     .in                        : bitSize     caliper     Caliper Log - A representation of the measured diameter of a borehole along its depth
 CAL_INCH    .inch                      : caliper     Caliper Log - A representation of the measured diameter of a borehole along its depth
 GR_API_ds   .API                       : gammaRay    
 SP_MV1      .mv                        : SP          Spontaneous Potential - Records the electrical potential produced by the interaction of formation water, conductive drilling mud, and certain ion-sele
 ILD_OHMMds  .ohmm                      : deepRes     
 MSFL_OHMMds .ohmm                      : shalRes     
 DT_US_FTds  .us/ft                     : sonic       
 RHOB_G_CC   .g/cc                      : density     Bulk Density - Measures the density of bulk material, including any void space or other materials contained in the subject volume
 NPHI_v/vds  .v/v                       :             
 PEF_B_Eds   .b/e-                      : PEF         
 LITH        .                          : LITH        Lithology Curve
 LITH_v2     .                          : LITH        Lithology Curve
~A  DEPTH  Bitsize   CAL_INCH GR_API     SP_MV1  ILD_OHMM  MSFL_OHM  DT_US_FT  RHOB_G_C  NPHI_v/v  PEF_B_       LITH    LITH_v2  
# ...
2144.8776   12.2500   12.3047   13.9662   -7.3665    2.0341    3.3099  102.2790    2.2441 -999.0000 -999.0000   18.0000 -999.0000 
2145.0300   12.2500   12.3047   14.3042   -7.9875    1.9525    2.9983  103.7111    2.2324 -999.0000 -999.0000   18.0000 -999.0000 
2145.1824   12.2500   12.3047   14.7196   -8.8000    1.8821    2.7858  104.2096    2.2109 -999.0000 -999.0000   18.0000 -999.0000 
2145.3348   12.2500   12.3438   14.3089   -7.9563    1.8328    2.8302  103.8898    2.2324 -999.0000 -999.0000   18.0000 -999.0000 
2145.4872   12.2500   12.3516   14.2484   -7.6086    1.7950    2.9031  104.3012    2.2383 -999.0000 -999.0000   18.0000 -999.0000 
2145.6396   12.2500   12.3516   14.2035   -7.7610    1.7535    2.9087  105.1654    2.2598 -999.0000 -999.0000   18.0000 -999.0000 
2145.7920   12.2500   12.3438   15.7395   -7.3860    1.7189    2.9068  106.1742    2.2539 -999.0000 -999.0000   18.0000 -999.0000 
2145.9444   12.2500   12.3359   15.6294   -6.6321    1.7020    2.8814  107.1875    2.2500 -999.0000 -999.0000   18.0000 -999.0000 
2146.0968   12.2500   12.3672   14.6876   -4.9133    1.6977    2.9028  107.1875    2.2383 -999.0000 -999.0000   18.0000 -999.0000 
2146.2492   12.2500   12.3359   12.6797   -5.2532    1.7026    2.7835  106.7466    2.2344 -999.0000 -999.0000   18.0000 -999.0000 
2146.4016   12.2500   12.3516   12.7116   -5.8118    1.7194    2.8468  106.4355    2.2285 -999.0000 -999.0000   18.0000 -999.0000 
2146.5540   12.2500   12.3438   13.3911   -5.1204    1.7404    2.8962  106.9429    2.2305 -999.0000 -999.0000   18.0000 -999.0000 
2146.7064   12.2500   12.3672   16.8254   -4.1790    1.7611    2.8580  106.9946    2.2695 -999.0000 -999.0000   18.0000 -999.0000 
2146.8588   12.2500   12.3984   18.0676   -3.8938    1.7885    2.8304  107.5492    2.2949 -999.0000 -999.0000   18.0000 -999.0000 
2147.0112   12.2500   12.3984   20.2388   -3.6067    1.8102    2.9713  108.9208    2.3105 -999.0000 -999.0000   18.0000 -999.0000 
2147.1636   12.2500   12.3594   18.4690   -5.0383    1.8312    3.0937  107.5285    2.2832 -999.0000 -999.0000   18.0000 -999.0000 
2147.3160   12.2500   12.3828   17.8867   -5.9368    1.8649    3.5418  104.9119    2.2520 -999.0000 -999.0000   18.0000 -999.0000 
2147.4684   12.2500   12.3984   15.3144   -7.1477    1.9059    3.2380  103.3223    2.2637 -999.0000 -999.0000   18.0000 -999.0000 
2147.6208   12.2500   12.4375   15.6811   -7.4563    1.9364    3.0929  101.1437    2.2715 -999.0000 -999.0000   18.0000 -999.0000 
2147.7732   12.2500   12.3984   15.4214   -7.6360    1.9469    3.2951  102.1388    2.2969 -999.0000 -999.0000   18.0000 -999.0000 
2147.9256   12.2500   12.3438   16.8655   -8.8860    1.9368    3.1381  104.6506    2.2656 -999.0000 -999.0000   18.0000 -999.0000 
2148.0780   12.2500   12.1953   16.1502   -8.8860    1.9275    3.3282  105.2480    2.2520 -999.0000 -999.0000   18.0000 -999.0000 
2148.2304   12.2500   12.1797   15.7272   -9.2297    1.9327    3.1651  105.3971    2.2520 -999.0000 -999.0000   18.0000 -999.0000 
2148.3828   12.2500   12.2266   15.6140   -8.1594    1.9529    3.0876  105.5458    2.2480 -999.0000 -999.0000   18.0000 -999.0000 
2148.5352   12.2500   12.2734   16.1483   -6.8118    1.9847    3.2795  105.8071    2.2402 -999.0000 -999.0000   18.0000 -999.0000 
2148.6876   12.2500   12.3203   16.7385   -5.9290    2.0182    3.1690  105.2042    2.2578 -999.0000 -999.0000   18.0000 -999.0000 
2148.8400   12.2500   12.4219   16.4721   -6.1125    2.0468    3.2447  105.1083    2.3105 -999.0000 -999.0000   18.0000 -999.0000 
2148.9924   12.2500   12.4063   17.9976   -6.1086    2.0726    3.4085  106.0034    2.3633 -999.0000 -999.0000   18.0000 -999.0000 
2149.1448   12.2500   12.3594   19.5667   -5.5774    2.0965    3.4742  106.5625    2.3652 -999.0000 -999.0000   18.0000 -999.0000 
2149.2972   12.2500   12.3672   19.8308   -5.6047    2.1183    3.5491  106.6452    2.3262 -999.0000 -999.0000   18.0000 -999.0000 
2149.4496   12.2500   12.3672   18.7019   -5.7610    2.1337    3.7658  105.7028    2.3047 -999.0000 -999.0000   18.0000 -999.0000 
2149.6020   12.2500   12.3438   17.0705   -5.5071    2.1199    3.3963  104.7333    2.2598 -999.0000 -999.0000   18.0000 -999.0000 
2149.7544   12.2500   12.3125   16.2166   -5.3821    2.0770    3.5575  105.4355    2.2461 -999.0000 -999.0000   18.0000 -999.0000 
2149.9068   12.2500   12.3125   14.6960   -7.5344    2.0374    3.5336  106.0256    2.2461 -999.0000 -999.0000   18.0000 -999.0000 
2150.0592   12.2500   12.2813   14.7650   -8.5969    2.0018    3.0846  106.7333    2.2422 -999.0000 -999.0000   18.0000 -999.0000 
2150.2116   12.2500   12.3047   13.5220   -6.6516    1.9674    2.7281  107.1048    2.2461 -999.0000 -999.0000   18.0000 -999.0000 
2150.3640   12.2500   12.3125   14.0127   -7.1477    1.9317    2.8453  107.1654    2.2422 -999.0000 -999.0000   18.0000 -999.0000 
2150.5164   12.2500   12.3594   14.2531   -7.1711    1.8978    3.0518  107.5404    2.2715 -999.0000 -999.0000   18.0000 -999.0000 
2150.6688   12.2500   12.3516   14.6520   -6.8547    1.8670    3.0075  107.5846    2.2891 -999.0000 -999.0000   18.0000 -999.0000 
2150.8212   12.2500   12.4375   16.2384   -6.5344    1.8505    2.9042  108.8632    2.3027 -999.0000 -999.0000   18.0000 -999.0000 
2150.9736   12.2500   12.3359   17.0930   -6.6204    1.8500    2.9993  111.1083    2.2676 -999.0000 -999.0000   18.0000 -999.0000 
2151.1260   12.2500   12.3125   18.6294   -7.8313    1.8590    2.8455  111.9208    2.2246 -999.0000 -999.0000   18.0000 -999.0000 
2151.2784   12.2500   12.3125   16.6634   -7.9172    1.8720    2.8175  112.0167    2.2129 -999.0000 -999.0000   18.0000 -999.0000 
2151.4308   12.2500   12.3203   14.9508   -7.7493    1.8803    2.8991  110.7633    2.2422 -999.0000 -999.0000   18.0000 -999.0000 
2151.5832   12.2500   12.3516   15.1409   -7.8313    1.8719    3.0228  108.9783    2.2773 -999.0000 -999.0000   18.0000 -999.0000 
2151.7356   12.2500   12.3516   16.5886   -7.8782    1.8409    2.9720  108.5236    2.3008 -999.0000 -999.0000   18.0000 -999.0000 
2151.8880   12.2500   12.3125   18.8561   -7.9875    1.7948    3.1485  109.7938    2.2676 -999.0000 -999.0000   18.0000 -999.0000 
2152.0404   12.2500   12.3047   17.3561   -7.9797    1.7536    3.0673  110.6452    2.2266 -999.0000 -999.0000   18.0000 -999.0000 
2152.1928   12.2500   12.2656   15.6481   -7.7532    1.7222    2.8979  111.1909    2.1777 -999.0000 -999.0000   18.0000 -999.0000 
2152.3452   12.2500   12.2656   12.8905   -8.4016    1.6990    2.6235  111.6673    2.1719 -999.0000 -999.0000   18.0000 -999.0000 
2152.4976   12.2500   12.2734   14.0973   -7.6477    1.6776    2.4855  111.8381    2.1836 -999.0000 -999.0000   18.0000 -999.0000 
2152.6500   12.2500   12.3047   15.3043   -7.1125    1.6454    2.5795  111.8292    2.2305 -999.0000 -999.0000   18.0000 -999.0000 
2152.8024   12.2500   12.3125   16.0716   -6.9485    1.6079    2.5818  111.2923    2.2363 -999.0000 -999.0000   18.0000 -999.0000 
2152.9548   12.2500   12.3125   15.1396   -6.1633    1.5790    2.5486  111.4355    2.2402 -999.0000 -999.0000   18.0000 -999.0000 
2153.1072   12.2500   12.3125   14.8703   -6.6555    1.5717    2.5850  111.7500    2.2227 -999.0000 -999.0000   18.0000 -999.0000 
2153.2596   12.2500   12.3359   16.1087   -6.8352    1.5827    2.6296  111.4193    2.2188 -999.0000 -999.0000   18.0000 -999.0000 
2153.4120   12.2500   12.3203   16.8143   -6.1985    1.6081    2.7502  111.3307    2.2266 -999.0000 -999.0000   18.0000 -999.0000 
2153.5644   12.2500   12.2656   16.7095   -6.1946    1.6418    2.7481  111.3091    2.2246 -999.0000 -999.0000   18.0000 -999.0000 
2153.7168   12.2500   12.2969   15.7806   -6.7493    1.6754    2.7649  110.2264    2.2383 -999.0000 -999.0000   18.0000 -999.0000 
2153.8692   12.2500   12.3047   15.5354   -6.3352    1.7109    2.9412  109.4798    2.2402 -999.0000 -999.0000   18.0000 -999.0000 
2154.0216   12.2500   12.3516   15.6492   -5.6360    1.7371    2.9084  109.6506    2.2617 -999.0000 -999.0000   18.0000 -999.0000 
2154.1740   12.2500   12.3516   16.7443   -6.8196    1.7536    2.9095  110.4409    2.2656 -999.0000 -999.0000   18.0000 -999.0000 
