~VERSION INFORMATION
 VERS.                 2.0:   CWLS LOG ASCII STANDARD - VERSION 2.0
 WRAP.                  NO:   SINGLE LINE PER DEPTH STEP
 CREA.                 19/12/2017 10:26:08
#CREATED USING DSPetro VERSION 5000.10.1.3 BY H191660 ON 19/12/2017 10:26:08
~WELL INFORMATION
#MNEM.UNIT       DATA                          DESCRIPTION MNEMONIC
#---------      ---------------------------   --------------------------
 STRT    .M         0.0000                    : START DEPTH
 STOP    .M         3393.9480                 : STOP DEPTH
 STEP    .M         0.1524                    : STEP VALUE
 NULL    .      -999.0000                     : NULL VALUE
 DATE    .      19/12/2017                    : LAS file Creation Date
 WELL  .      1549_eendracht_1            : Well Name
 COMP  .      Neftex Exploration Insights : Company
 FLD   .      EENDRACHT                   : Field
 UWI   .      ZAUWL_005203                : Unique Well Identifier (UWI)
 LOC   .      Location                    : Location
 PDAT  .      Mean Sea Level              : Permanent Datum
 EPDAT .      0                           : Reference Elevation
 LGMEA .      Kelly Bushing               : Log Measured from
 DRMEA .      Kelly Bushing               : Drill Measured From
 APDAT .      9.8                         : Elevation Above Permanent Datum
 KB    .      9.8                         : KB Elevation
 DF    .      9.8                         : DF Elevation
 GL    .      0                           : GL Elevation
 RWS   .      0                           : Def_Rw
 WST   .      0                           : Def_Rwt
 MDEC  .      0                           : Magnetic Declination
 SRVC  .      SCH                         : Contractor
~CURVE INFORMATION
#MNEM               UNIT       API CODE   Curve Type Comments
#----------   --------------- ----------  ---------- -----------
 DEPTH       .M                         : Depth       
 Bitsize     .in                        : bitSize     caliper     Caliper Log - A representation of the measured diameter of a borehole along its depth
 CAL_INCH    .inch                      : caliper     Caliper Log - A representation of the measured diameter of a borehole along its depth
 GR_API_ds   .API                       : gammaRay    
 SP_MV1      .mv                        : SP          Spontaneous Potential - Records the electrical potential produced by the interaction of formation water, conductive drilling mud, and certain ion-sele
 ILD_OHMMds  .ohmm                      : deepRes     
 MSFL_OHMMds .ohmm                      : shalRes     
 DT_US_FTds  .us/ft                     : sonic       
 RHOB_G_CC   .g/cc                      : density     Bulk Density - Measures the density of bulk material, including any void space or other materials contained in the subject volume
 NPHI_v/vds  .v/v                       :             
 PEF_B_Eds   .b/e-                      : PEF         
 LITH        .                          : LITH        Lithology Curve
 LITH_v2     .                          : LITH        Lithology Curve
~A  DEPTH  Bitsize   CAL_INCH GR_API     SP_MV1  ILD_OHMM  MSFL_OHM  DT_US_FT  RHOB_G_C  NPHI_v/v  PEF_B_       LITH    LITH_v2  
# ...
3184.2456   12.2500   12.6094   92.0409    1.9979    2.0184    3.8207  104.4060    2.3379    0.3869    3.6041   37.0000   37.0000 
3184.3980   12.2500   12.6172   94.2246    2.3685    2.0282    3.4857  103.9688    2.3477    0.3988    3.6430   37.0000   37.0000 
3184.5504   12.2500   12.6484   94.6725    1.1607    2.0391    2.8411  103.6879    2.3418    0.3970    3.7192   37.0000   37.0000 
3184.7028   12.2500   12.5234   93.2055    0.8684    2.0543    3.0198  103.8416    2.3418    0.3795    3.6872   37.0000   37.0000 
3184.8552   12.2500   12.3984   91.8093    0.1026    2.0689    3.0503   99.1862    2.4063    0.3582    3.9503   23.0000   23.0000 
3185.0076   12.2500   12.4375   90.4530    0.6625    2.0562    2.2947   97.9525    2.4766    0.3612    5.3640   23.0000   23.0000 
3185.1600   12.2500   12.6094   90.4353   -0.2679    1.9985    2.1830   97.0627    2.5449    0.3863    5.2988   37.0000   37.0000 
3185.3124   12.2500   12.6641   91.4118    0.7712    1.9140    2.1489  101.1926    2.4668    0.4054    4.1159   37.0000   37.0000 
3185.4648   12.2500   12.7031   92.5932    0.4846    1.8303    1.9222  103.5922    2.4277    0.4099    3.2934   37.0000   11.0000 
3185.6172   12.2500   12.7734   94.3292    1.4923    1.8200    1.8321  108.1452    2.4102    0.4076    3.2055   37.0000   11.0000 
3185.7696   12.2500   12.8125   96.0652    1.3320    1.8371    2.0792  106.5570    2.4102    0.4060    3.2581   37.0000   11.0000 
3185.9220   12.2500   13.1250   98.4822    1.7240    1.8671    2.2769  106.5329    2.3633    0.4028    3.2154   37.0000   11.0000 
3186.0744   12.2500   13.4609  100.9234    1.8793    1.9816    2.4346  101.1271    2.3398    0.4007    3.2730   37.0000   11.0000 
3186.2268   12.2500   13.0938  102.2119    2.0821    2.1852    4.8311   89.8386    2.3652    0.4011    3.7689   23.0000   11.0000 
3186.3792   12.2500   12.6250  100.5468    1.6061    2.3906    6.5260   78.6839    2.4453    0.4069    5.5828   23.0000   11.0000 
3186.5316   12.2500   12.7344   98.5887    1.2248    2.6364   25.1886   72.2913    2.5234    0.4209    6.8664   23.0000   23.0000 
3186.6840   12.2500   12.8359   95.4288    1.1119    2.7556   15.8540   72.5976    2.5547    0.4207    5.1047   27.0000   23.0000 
3186.8364   12.2500   12.2500   90.6096    0.2256    2.7610    6.5394   78.1421    2.4414    0.4006    3.2734   27.0000   36.0000 
3186.9888   12.2500   12.3359   79.5882   -1.9550    2.7301    3.1025   83.1909    2.3125    0.3362    2.4580   27.0000   36.0000 
3187.1412   12.2500   12.3359   67.9952   -3.0307    2.7153    2.6426   88.2398    2.2266    0.2930    2.3131   27.0000   36.0000 
3187.2936   12.2500   12.3359   62.1390   -3.7749    2.6978    2.9450   90.8459    2.1895    0.2674    2.3683   27.0000   36.0000 
3187.4460   12.2500   12.2734   57.0314   -4.5350    2.6773   22.8273   90.3351    2.1836    0.2757    2.5429   27.0000   36.0000 
3187.5984   12.2500   12.2422   55.8163   -4.2850    2.6664   94.3527   87.2808    2.2324    0.2836    2.8809   27.0000   22.0000 
3187.7508   12.2500   12.2344   50.4444   -5.2502    2.6575   80.5778   83.5579    2.3008    0.2662    3.3299   27.0000   22.0000 
3187.9032   12.2500   12.0547   48.5518   -4.1479    2.6940   86.7683   77.9062    2.3750    0.2175    3.9628   27.0000   18.0000 
3188.0556   12.2500   12.3359   45.3677   -3.4717    2.8958  387.6624   70.2514    2.4277    0.1494    4.8872   23.0000   18.0000 
3188.2080   12.2500   12.4688   43.5607   -1.7382    3.3947  726.8168   64.5425    2.5059    0.1042    5.5273   23.0000   18.0000 
3188.3604   12.2500   12.5000   39.9745   -1.0777    3.8690  529.7191   62.3816    2.5742    0.0937    5.1290   23.0000   18.0000 
3188.5128   12.2500   12.6484   36.9530   -0.1174    3.8253   75.1320   60.5938    2.5801    0.1047    4.2942   37.0000   18.0000 
3188.6652   12.2500   12.4688   39.6885   -0.3076    3.4994   49.8008   72.7883    2.5195    0.1158    3.5327   37.0000   18.0000 
3188.8176   12.2500   12.2656   44.8677   -0.1853    3.1112    4.6449   83.8791    2.4238    0.1447    3.0890   37.0000   18.0000 
3188.9700   12.2500   12.2734   52.7067   -0.8678    2.7469    2.9682   93.4116    2.3438    0.1961    2.9775   37.0000   36.0000 
3189.1224   12.2500   12.4688   65.1336   -1.2821    2.3891    3.1737   99.4501    2.3164    0.2641    3.1167   37.0000   36.0000 
3189.2748   12.2500   12.2031   74.9311   -2.4539    2.1532    3.9325   99.9027    2.3262    0.3180    3.3496   37.0000   37.0000 
3189.4272   12.2500   12.2578   81.5625   -2.0948    2.0592    4.6313   96.9448    2.3457    0.3435    3.4189   37.0000   37.0000 
3189.5796   12.2500   12.3281   87.1377   -0.9939    2.0017    4.3285   97.1398    2.3496    0.3514    3.2945   37.0000   37.0000 
3189.7320   12.2500   12.3203   91.3334   -0.9031    1.9712    5.3498   96.1246    2.3555    0.3508    3.2135   37.0000   37.0000 
3189.8844   12.2500   12.2969   91.8453   -1.0017    1.9405    4.2008   95.5247    2.3633    0.3529    3.1971   37.0000   37.0000 
3190.0368   12.2500   12.4453   90.0666   -0.7689    1.9043    3.3488   95.6612    2.3711    0.3621    3.1913   37.0000   37.0000 
3190.1892   12.2500   12.4688   90.3517   -1.4673    1.8638    3.2083   96.3986    2.3535    0.3576    3.0706   37.0000   37.0000 
3190.3416   12.2500   12.4766   92.5522   -2.0078    1.8321    2.8988   97.8696    2.3379    0.3469    2.8986   37.0000   37.0000 
3190.4940   12.2500   12.5234   88.6854   -2.2642    1.8281    2.8681   99.4812    2.2754    0.3530    2.8311   37.0000   37.0000 
3190.6464   12.2500   12.5234   86.3601   -1.4158    1.8443    2.9745   98.5447    2.2500    0.3719    2.9043   37.0000   37.0000 
3190.7988   12.2500   12.6953   84.3761   -1.4198    1.8772    3.4280   96.4203    2.2559    0.3993    3.0230   37.0000   37.0000 
3190.9512   12.2500   12.7891   85.7058    0.0284    1.9285    3.6570   98.3431    2.3164    0.3860    3.2281   37.0000   37.0000 
3191.1036   12.2500   12.4375   85.2607   -1.3329    1.9796    4.0742   96.6141    2.3535    0.3814    3.6104   37.0000   37.0000 
3191.2560   12.2500   12.3906   86.7792   -2.1259    2.0185    4.2528   92.0561    2.3594    0.3692    3.9998   37.0000   37.0000 
3191.4084   12.2500   12.4219   84.0436   -2.3192    2.0574    3.9360   99.7288    2.3047    0.3589    4.0147   37.0000   37.0000 
3191.5608   12.2500   12.5391   83.3194   -1.3445    2.0778    3.7441   98.6126    2.2813    0.3581    3.6397   37.0000   37.0000 
3191.7132   12.2500   12.3828   83.7111   -1.3485    2.0614    4.1548  100.1055    2.3086    0.3773    3.4264   37.0000   37.0000 
3191.8656   12.2500   12.2891   84.2192   -0.7841    2.0467    2.5345   97.8339    2.3359    0.4084    3.5034   37.0000   37.0000 
3192.0180   12.2500   12.3125   82.3984   -0.2673    2.0365    3.4909  100.3694    2.3281    0.4036    3.5580   37.0000   37.0000 
3192.1704   12.2500   12.4219   83.3908   -0.6499    2.0233    3.6840  100.0000    2.3125    0.3821    3.4101   37.0000   37.0000 
3192.3228   12.2500   12.5703   87.3628   -0.4487    2.0418    3.3535   99.3077    2.3145    0.3707    3.1414   37.0000   37.0000 
3192.4752   12.2500   12.6328   84.8024   -0.8313    2.0653    3.6111   97.5065    2.3535    0.3651    3.0153   37.0000   37.0000 
3192.6276   12.2500   12.6797   79.4319   -0.7406    2.0905    3.8057   95.8494    2.3418    0.3566    3.0171   37.0000   37.0000 
3192.7800   12.2500   12.3516   71.9183   -2.1807    2.1565    3.6115   95.3750    2.3359    0.3436    3.1307   37.0000   37.0000 
3192.9324   12.2500   12.2969   64.6978   -2.4687    2.2050    3.4159   95.2374    2.3379    0.3438    3.3615   37.0000   37.0000 
3193.0848   12.2500   12.2891   62.1271   -3.6405    2.2330    3.1453   93.8277    2.3418    0.3380    3.5594   37.0000   37.0000 
3193.2372   12.2500   12.2891   69.3421   -4.1810    2.2380    3.1488   88.4245    2.3477    0.3252    3.7793   37.0000   37.0000 
3193.3896   12.2500   12.2188   78.9663   -3.9640    2.2128    3.7613   86.0210    2.3418    0.3225    3.9530   37.0000   37.0000 
3193.5420   12.2500   12.2813   84.0798   -2.8000    2.1734    5.0712   85.1362    2.3281    0.3368    3.9615   37.0000   37.0000 
