~VERSION INFORMATION
 VERS.                 2.0:   CWLS LOG ASCII STANDARD - VERSION 2.0
 WRAP.                  NO:   SINGLE LINE PER DEPTH STEP
 CREA.                 19/12/2017 10:26:08
#CREATED USING DSPetro VERSION 5000.10.1.3 BY H191660 ON 19/12/2017 10:26:08
~WELL INFORMATION
#MNEM.UNIT       DATA                          DESCRIPTION MNEMONIC
#---------      ---------------------------   --------------------------
 STRT    .M         0.0000                    : START DEPTH
 STOP    .M         3393.9480                 : STOP DEPTH
 STEP    .M         0.1524                    : STEP VALUE
 NULL    .      -999.0000                     : NULL VALUE
 DATE    .      19/12/2017                    : LAS file Creation Date
 WELL  .      1549_eendracht_1            : Well Name
 COMP  .      Neftex Exploration Insights : Company
 FLD   .      EENDRACHT                   : Field
 UWI   .      ZAUWL_005203                : Unique Well Identifier (UWI)
 LOC   .      Location                    : Location
 PDAT  .      Mean Sea Level              : Permanent Datum
 EPDAT .      0                           : Reference Elevation
 LGMEA .      Kelly Bushing               : Log Measured from
 DRMEA .      Kelly Bushing               : Drill Measured From
 APDAT .      9.8                         : Elevation Above Permanent Datum
 KB    .      9.8                         : KB Elevation
 DF    .      9.8                         : DF Elevation
 GL    .      0                           : GL Elevation
 RWS   .      0                           : Def_Rw
 WST   .      0                           : Def_Rwt
 MDEC  .      0                           : Magnetic Declination
 SRVC  .      SCH                         : Contractor
~CURVE INFORMATION
#MNEM               UNIT       API CODE   Curve Type Comments
#----------   --------------- ----------  ---------- -----------
 DEPTH       .M                         : Depth       
 Bitsize     .in                        : bitSize     caliper     Caliper Log - A representation of the measured diameter of a borehole along its depth
 CAL_INCH    .inch                      : caliper     Caliper Log - A representation of the measured diameter of a borehole along its depth
 GR_API_ds   .API                       : gammaRay    
 SP_MV1      .mv                        : SP          Spontaneous Potential - Records the electrical potential produced by the interaction of formation water, conductive drilling mud, and certain ion-sele
 ILD_OHMMds  .ohmm                      : deepRes     
 MSFL_OHMMds .ohmm                      : shalRes     
 DT_US_FTds  .us/ft                     : sonic       
 RHOB_G_CC   .g/cc                      : density     Bulk Density - Measures the density of bulk material, including any void space or other materials contained in the subject volume
 NPHI_v/vds  .v/v                       :             
 PEF_B_Eds   .b/e-                      : PEF         
 LITH        .                          : LITH        Lithology Curve
 LITH_v2     .                          : LITH        Lithology Curve
~A  DEPTH  Bitsize   CAL_INCH GR_API     SP_MV1  ILD_OHMM  MSFL_OHM  DT_US_FT  RHOB_G_C  NPHI_v/v  PEF_B_       LITH    LITH_v2  
# ...
2976.3720   12.2500   12.4141   58.7612   -7.6079    1.2922    2.5078  108.2366    2.1172    0.3457    2.2039   36.0000   36.0000 
2976.5244   12.2500   12.4219   59.7465   -8.8705    1.2859    2.5173  108.1875    2.1289    0.3543    2.2295   36.0000   36.0000 
2976.6768   12.2500   12.4375   62.2688   -8.2708    1.2873    2.5030  108.1875    2.1348    0.3626    2.2098   36.0000   36.0000 
2976.8292   12.2500   12.4219   61.5430   -8.5549    1.2962    2.5108  108.0467    2.1367    0.3666    2.1953   36.0000   36.0000 
2976.9816   12.2500   12.3750   59.7595   -7.1344    1.3026    2.5109  107.8112    2.1270    0.3570    2.2231   36.0000   36.0000 
2977.1340   12.2500   12.3203   55.4770   -7.3554    1.3130    2.5491  108.0822    2.1270    0.3516    2.2549   36.0000   36.0000 
2977.2864   12.2500   12.3203   54.1305   -6.9450    1.3328    2.5877  108.0443    2.1309    0.3414    2.3139   36.0000   36.0000 
2977.4388   12.2500   12.3203   55.7653   -6.5662    1.3533    2.6950  107.8080    2.1367    0.3481    2.3617   36.0000   36.0000 
2977.5912   12.2500   12.3203   56.6032   -6.5978    1.3750    2.7782  107.9431    2.1191    0.3590    2.4379   36.0000   36.0000 
2977.7436   12.2500   12.3203   56.4552   -6.5662    1.4007    2.9563  108.0000    2.1270    0.3749    2.4939   36.0000   36.0000 
2977.8960   12.2500   12.3516   58.0868   -7.0081    1.4269    2.9551  108.2928    2.1465    0.3616    2.5601   36.0000   36.0000 
2978.0484   12.2500   12.3828   59.4760   -7.3869    1.4500    2.6336  108.2278    2.1660    0.3442    2.5581   36.0000   36.0000 
2978.2008   12.2500   12.4063   61.0231   -7.6079    1.4598    2.6278  108.3355    2.1660    0.3317    2.4629   36.0000   36.0000 
2978.3532   12.2500   12.4063   61.4325   -7.0713    1.4471    2.6562  108.5238    2.1504    0.3540    2.3379   36.0000   36.0000 
2978.5056   12.2500   12.3438   62.9305   -6.3137    1.4253    2.5963  108.9115    2.1406    0.3746    2.2744   36.0000   36.0000 
2978.6580   12.2500   12.3203   62.7817   -6.0296    1.4106    2.5745  109.1504    2.1270    0.3955    2.2981   36.0000   36.0000 
2978.8104   12.2500   12.3281   59.4244   -5.3983    1.3945    2.5522  109.1875    2.1367    0.3703    2.3171   36.0000   36.0000 
2978.9628   12.2500   12.3203   58.5658   -5.6824    1.3820    2.4852  109.1875    2.1348    0.3674    2.3038   36.0000   36.0000 
2979.1152   12.2500   12.3203   58.7644   -5.3352    1.3666    2.4892  108.8310    2.1387    0.3607    2.2704   36.0000   36.0000 
2979.2676   12.2500   12.3203   61.0622   -5.4930    1.3492    2.4592  108.4428    2.1289    0.3643    2.2697   36.0000   36.0000 
2979.4200   12.2500   12.3203   60.8583   -5.3352    1.3344    2.3952  108.3750    2.1406    0.3551    2.2728   36.0000   36.0000 
2979.5724   12.2500   12.3203   61.7313   -5.6824    1.3256    2.3488  109.0475    2.1465    0.3539    2.2940   36.0000   36.0000 
2979.7248   12.2500   12.3438   63.2163   -5.8402    1.3192    2.3147  109.8634    2.1406    0.3590    2.2598   36.0000   36.0000 
2979.8772   12.2500   12.3438   62.3862   -5.4614    1.3117    2.2761  110.6271    2.1426    0.3551    2.2661   36.0000   36.0000 
2980.0296   12.2500   12.3516   62.9905   -4.7354    1.3053    2.2559  111.4329    2.1367    0.3420    2.2714   36.0000   36.0000 
2980.1820   12.2500   12.3203   61.0773   -4.7670    1.3042    2.2096  112.2488    2.1387    0.3357    2.3138   36.0000   36.0000 
2980.3344   12.2500   12.3203   59.3438   -4.5145    1.3156    2.1968  113.2240    2.1367    0.3469    2.3531   36.0000   36.0000 
2980.4868   12.2500   12.3203   59.9396   -4.5460    1.3358    2.1481  113.0550    2.1309    0.3492    2.3706   36.0000   36.0000 
2980.6392   12.2500   12.3203   61.0656   -5.2405    1.3638    2.1065  112.7856    2.1465    0.3777    2.3724   36.0000   36.0000 
2980.7916   12.2500   12.3281   65.4376   -4.6723    1.4007    2.1112  112.2653    2.1445    0.3829    2.3671   36.0000   36.0000 
2980.9440   12.2500   12.3359   64.8960   -6.7241    1.4337    2.1541  112.0251    2.1406    0.3832    2.3798   36.0000   36.0000 
2981.0964   12.2500   12.3438   63.6511   -7.7973    1.4562    2.2039  111.6192    2.1191    0.3851    2.4132   36.0000   36.0000 
2981.2488   12.2500   12.3438   62.6813   -8.7758    1.4758    2.3630  110.6879    2.1328    0.4019    2.4244   36.0000   36.0000 
2981.4012   12.2500   12.3438   65.6783   -8.6811    1.4982    2.4978  109.5189    2.1563    0.3985    2.4635   36.0000   36.0000 
2981.5536   12.2500   12.3438   67.0626   -8.4917    1.5138    2.1749  109.9269    2.1953    0.3922    2.6953   36.0000   36.0000 
2981.7060   12.2500   12.3516   65.3369   -7.4816    1.5283    2.1904  110.0000    2.1973    0.3719    2.8061   36.0000   36.0000 
2981.8584   12.2500   12.3203   62.0193   -7.0713    1.5527    2.1586  110.3344    2.1758    0.3833    2.7365   36.0000   36.0000 
2982.0108   12.2500   12.3203   61.8150   -6.8188    1.5852    2.1619  111.6069    2.1406    0.3965    2.5069   36.0000   36.0000 
2982.1632   12.2500   12.3203   64.1378   -6.8188    1.6427    2.1920  112.1438    2.1074    0.4105    2.3440   36.0000   36.0000 
2982.3156   12.2500   12.3125   64.3483   -6.6925    1.7375    2.2510  112.0203    2.1035    0.4224    2.2841   36.0000   36.0000 
2982.4680   12.2500   12.2813   61.6536   -7.2607    1.8292    2.3405  111.2837    2.1016    0.3952    2.2266   36.0000   36.0000 
2982.6204   12.2500   12.2422   60.4022   -7.8289    1.8369    2.5864  108.0277    2.1074    0.3739    2.3320   36.0000   36.0000 
2982.7728   12.2500   12.4297   60.4291   -6.8819    1.8221    3.6977  102.9308    2.1777    0.3597    2.7231   36.0000   22.0000 
2982.9252   12.2500   12.3750   62.6959   -7.5763    1.8038    4.8707  101.1760    2.2324    0.3609    3.2047   36.0000   22.0000 
2983.0776   12.2500   12.3828   60.9844   -7.8920    1.7881    3.2432   99.9477    2.2637    0.3469    3.1994   36.0000   36.0000 
2983.2300   12.2500   12.4297   58.9065   -7.2291    1.7638    2.5648  104.4291    2.1797    0.3344    2.7291   36.0000   36.0000 
2983.3824   12.2500   12.4297   58.3393   -7.3869    1.7079    2.4353  108.1489    2.1250    0.3246    2.3930   36.0000   36.0000 
2983.5348   12.2500   12.4297   60.4116   -7.2922    1.6284    2.4243  109.2575    2.1055    0.3289    2.2523   36.0000   36.0000 
2983.6872   12.2500   12.4297   59.3364   -7.1028    1.5667    2.4968  109.2246    2.1113    0.3377    2.2637   36.0000   36.0000 
2983.8396   12.2500   12.4297   59.5392   -7.9551    1.5273    2.5856  109.1875    2.1270    0.3505    2.2693   36.0000   36.0000 
2983.9920   12.2500   12.4453   59.8744   -9.1862    1.5040    2.8322  109.0409    2.1309    0.3513    2.2353   36.0000   36.0000 
2984.1444   12.2500   12.4609   65.5442   -6.8188    1.4922    3.0289  107.7454    2.1426    0.3682    2.2015   36.0000   36.0000 
2984.2968   12.2500   12.4844   66.1395   -6.9450    1.4876    2.7738  107.3750    2.1641    0.3508    2.2377   36.0000   36.0000 
2984.4492   12.2500   12.3516   67.4686   -7.1028    1.4857    2.7273  107.0929    2.1973    0.3362    2.3021   36.0000   36.0000 
2984.6016   12.2500   12.3203   65.9624   -7.9235    1.4837    2.7203  106.6753    2.2109    0.3345    2.3540   36.0000   36.0000 
2984.7540   12.2500   12.3203   68.3112   -8.0498    1.4775    2.6388  107.6151    2.1875    0.3538    2.3348   36.0000   36.0000 
2984.9064   12.2500   12.2891   67.3298   -6.9450    1.4576    2.5435  108.0000    2.1484    0.3671    2.2946   36.0000   36.0000 
2985.0588   12.2500   12.2969   64.4518   -6.0927    1.4232    2.4130  107.5548    2.1270    0.3479    2.3321   36.0000   36.0000 
2985.2112   12.2500   12.2891   63.8860   -6.3453    1.3858    2.4016  107.2433    2.1387    0.3587    2.5048   36.0000   36.0000 
2985.3636   12.2500   12.2656   64.6175   -5.7771    1.3642    2.3980  107.1875    2.1387    0.3762    2.6594   36.0000   36.0000 
2985.5160   12.2500   12.2656   67.0542   -5.3352    1.3611    2.3786  107.0595    2.1289    0.3855    2.6490   36.0000   36.0000 
2985.6684   12.2500   12.2891   66.9773   -5.2089    1.3693    2.4190  107.5044    2.1094    0.3812    2.5034   36.0000   36.0000 
