~VERSION INFORMATION
 VERS.                 2.0:   CWLS LOG ASCII STANDARD - VERSION 2.0
 WRAP.                  NO:   SINGLE LINE PER DEPTH STEP
 CREA.                 08/01/2018 13:34:12
#CREATED USING DSPetro VERSION 5000.10.1.3 BY H191660 ON 08/01/2018 13:34:12
~WELL INFORMATION
#MNEM.UNIT       DATA                          DESCRIPTION MNEMONIC
#---------      ---------------------------   --------------------------
 STRT    .M         0.0000                    : START DEPTH
 STOP    .M         3099.9684                 : STOP DEPTH
 STEP    .M         0.1524                    : STEP VALUE
 NULL    .      -999.0000                     : NULL VALUE
 DATE    .      08/01/2018                    : LAS file Creation Date
 WELL .      1849_Huascaran-1            : Well Name
 COMP .      Neftex Exploration Insights : Company
 FLD  .                                  : Field
 UWI  .      ZAUWL_005236                : Unique Well Identifier (UWI)
 LOC  .                                  : Location
 RWS  .      -999                        : Def_Rw
 WST  .      -999                        : Def_Rwt
 SRVC .                                  : Contractor
~CURVE INFORMATION
#MNEM              UNIT       API CODE   Curve Type Comments
#----------  --------------- ----------  ---------- -----------
 DEPTH      .M                         : Depth       
 GR_API     .API                       : gammaRay    Gamma Ray (API) - Measures the intensity of natural gamma-ray radiation emitted from formations containing radioactive elements, such as K, Th and U
 RHOB_G_CC  .g/cc                      : density     Bulk Density - Measures the density of bulk material, including any void space or other materials contained in the subject volume
 DRHO_G_CC  .g/cc                      : drho        Density Correction - Investigates the correction to the Bulk Density log; used as an indication of hole condition to validate the Bulk Density measure
 NPHI_v/v   .usl                       : neutron     Neutron Porosity - Measured with an neutron logging device calibrated to a given matrix (limestone, sandstone and dolomite) - unscaled
 PEF_B_E    .b/e-                      : PEF         Photoelectric Factor - A log of photoelectric absorption properties. Often expressed in an approximation unit barns/electron (b/e-)
 LITH       .                          : LITH        Lithology Curve
 LITH_v2    .                          : LITH        Lithology Curve
~A  DEPTH   GR_API  RHOB_G_C  DRHO_G_C   NPHI_v/v  PEF_B_E     LITH    LITH_v2  
# ...
2595.0672  103.6200    2.5800   -0.3500    0.4400   17.2700   11.0000    3.0000 
2595.2196  104.2400    2.6000   -0.3500    0.4400   17.4700   11.0000    3.0000 
2595.3720  102.3300    2.6600   -0.3500    0.4600   17.0700   11.0000    3.0000 
2595.5244  100.0600    2.6000   -0.3900    0.4600   17.1800   11.0000    3.0000 
2595.6768  100.0600    2.6000   -0.3900    0.4600   17.1800   11.0000    3.0000 
2595.8292  100.2200    2.5300   -0.3900    0.4600   17.5600   11.0000    3.0000 
2595.9816  101.8000    2.5300   -0.3700    0.4500   17.6700   11.0000    3.0000 
2596.1340  102.8000    2.5300   -0.3600    0.4400   17.9100   11.0000    3.0000 
2596.2864  104.1100    2.5400   -0.3600    0.4200   17.8500   11.0000    3.0000 
2596.4388  103.3200    2.5700   -0.3400    0.4100   17.9400   11.0000    3.0000 
2596.5912  103.5200    2.5600   -0.3500    0.4200   17.6800   11.0000    3.0000 
2596.7436  104.8800    2.5500   -0.3600    0.4200   16.9600   11.0000    3.0000 
2596.8960  105.7400    2.5500   -0.3600    0.3900   17.3000   11.0000    3.0000 
2597.0484  105.6600    2.5800   -0.3500    0.3700   17.6700   11.0000    3.0000 
2597.2008  103.3300    2.6000   -0.3500    0.3700   17.4100   11.0000    3.0000 
2597.3532  102.3800    2.5900   -0.3500    0.3700   17.0000   11.0000    3.0000 
2597.5056  102.4800    2.5700   -0.3500    0.3800   17.1800   11.0000    3.0000 
2597.6580  103.5700    2.5700   -0.3400    0.3900   17.0800   11.0000    3.0000 
2597.8104  105.1400    2.5700   -0.3400    0.4100   16.9600   11.0000    3.0000 
2597.9628  103.6300    2.5500   -0.3400    0.4200   16.7600   11.0000    3.0000 
2598.1152  106.3500    2.5300   -0.3400    0.4200   16.8100   11.0000    3.0000 
2598.2676  106.7500    2.5100   -0.3400    0.4300   16.8900   11.0000    3.0000 
2598.4200  106.3800    2.5100   -0.3400    0.4400   16.8900   11.0000    3.0000 
2598.5724  103.7400    2.5200   -0.3400    0.4400   16.4000   11.0000    3.0000 
2598.7248  101.5100    2.5500   -0.3400    0.4400   16.5400   11.0000    3.0000 
2598.8772  101.5100    2.5500   -0.3400    0.4400   16.5400   11.0000    3.0000 
2599.0296  101.4000    2.5500   -0.3400    0.4900   16.7400   11.0000    3.0000 
2599.1820  100.4500    2.5400   -0.3400    0.5300   17.0600   11.0000    3.0000 
2599.3344  100.4300    2.5400   -0.3400    0.5100   18.0400   11.0000    3.0000 
2599.4868   98.6300    2.5500   -0.3400    0.4200   18.0600   11.0000    3.0000 
2599.6392   99.5100    2.5600   -0.3400    0.3600   18.2400   11.0000    3.0000 
2599.7916   97.6600    2.5800   -0.3300    0.3900   17.7400   11.0000    3.0000 
2599.9440   96.8700    2.5900   -0.3300    0.4100   17.7200   11.0000    3.0000 
2600.0964   96.2000    2.6000   -0.3300    0.4200   17.3400   11.0000    3.0000 
2600.2488   97.7700    2.6100   -0.3300    0.3900   16.7200   11.0000    3.0000 
2600.4012  100.5900    2.6100   -0.3300    0.4100   16.2000   11.0000    3.0000 
2600.5536  101.1800    2.6000   -0.3600    0.4400   15.9800   11.0000    3.0000 
2600.7060  101.4100    2.6500   -0.4100    0.4500   15.7600   11.0000    3.0000 
2600.8584  101.0600    2.7800   -0.4600    0.4600   14.2200   11.0000    3.0000 
2601.0108  101.4500    3.0500   -0.4700    0.4600   12.8000   11.0000    3.0000 
2601.1632  102.9000    3.1900   -0.4300    0.5000   11.3600   11.0000    3.0000 
2601.3156  101.4100    2.9900   -0.4600    0.5100   11.5700   11.0000    3.0000 
2601.4680   99.8200    2.7500   -0.4200    0.5000   13.0300   11.0000    3.0000 
2601.6204   97.1400    2.6100   -0.3800    0.4500   14.6600   11.0000    3.0000 
2601.7728   96.3100    2.5700   -0.3200    0.4100   16.2900   11.0000    3.0000 
2601.9252   97.8500    2.5700   -0.3200    0.4400   17.4400   11.0000    3.0000 
2602.0776  100.0200    2.5600   -0.3200    0.4700   17.5200   11.0000    3.0000 
2602.2300  102.7700    2.5600   -0.3200    0.4700   17.8500   11.0000    3.0000 
2602.3824  101.9700    2.5700   -0.3200    0.4500   17.4800   11.0000    3.0000 
2602.5348   99.8000    2.5700   -0.3200    0.4400   17.4000   11.0000    3.0000 
2602.6872  100.1900    2.5600   -0.3300    0.4600   17.6300   11.0000    3.0000 
2602.8396  102.4000    2.5500   -0.3300    0.4500   18.0000   11.0000    3.0000 
2602.9920  106.0200    2.5400   -0.3300    0.4400   17.6100   11.0000    3.0000 
2603.1444  106.0200    2.5500   -0.3300    0.4200   17.1300   11.0000    3.0000 
2603.2968  104.0100    2.5600   -0.3400    0.4100   16.9300   11.0000    3.0000 
2603.4492  100.8000    2.5800   -0.3300    0.4100   17.6100   11.0000    3.0000 
2603.6016   97.6000    2.5800   -0.3300    0.4300   18.1900   11.0000    3.0000 
2603.7540   97.6700    2.5700   -0.3200    0.4600   18.0300   11.0000    3.0000 
2603.9064   98.5000    2.5800   -0.3300    0.4800   17.5100   11.0000    3.0000 
2604.0588  103.1000    2.6000   -0.3200    0.4700   17.1200   11.0000    3.0000 
2604.2112  106.0500    2.6200   -0.3200    0.4500   17.0100   11.0000    3.0000 
2604.3636  106.9000    2.6300   -0.3200    0.4500   17.9800   11.0000    3.0000 
2604.5160  103.0600    2.6300   -0.3200    0.4900   17.3600   11.0000    3.0000 
2604.6684  101.9000    2.6100   -0.3300    0.5100   19.6100   11.0000    3.0000 
2604.8208   99.7600    2.5800   -0.3400    0.5100   19.1400   11.0000    3.0000 
2604.9732   99.9600    2.5700   -0.3400    0.5100   18.8300   11.0000    3.0000 
2605.1256   98.9500    2.5600   -0.3400    0.5100   18.6700   11.0000    3.0000 
2605.2780  101.6900    2.5700   -0.3500    0.4900   18.4100   11.0000    3.0000 
2605.4304  104.3800    2.5700   -0.3500    0.4700   18.6000   11.0000    3.0000 
2605.5828  104.0600    2.5600   -0.3400    0.4500   18.5400   11.0000    3.0000 
2605.7352  101.9900    2.5500   -0.3400    0.4500   18.6100   11.0000    3.0000 
2605.8876  100.1800    2.5500   -0.3400    0.4500   18.6100   11.0000    3.0000 
2606.0400   99.8500    2.5500   -0.3400    0.4500   18.6100   11.0000    3.0000 
2606.1924  100.3900    2.5500   -0.3400    0.4400   18.6100   11.0000    3.0000 
2606.3448  101.9700    2.5500   -0.3400    0.4300   19.0300   11.0000    3.0000 
2606.4972  101.6400    2.5600   -0.3300    0.4300   19.0500   11.0000    3.0000 
2606.6496  102.1200    2.5700   -0.3300    0.4400   19.2600   11.0000    3.0000 
2606.8020   99.4500    2.5900   -0.3300    0.4400   19.1300   11.0000    3.0000 
2606.9544   99.9100    2.5900   -0.3300    0.4400   19.1300   11.0000    3.0000 
2607.1068  100.1600    2.5900   -0.3300    0.4300   19.1300   11.0000    3.0000 
2607.2592  100.9100    2.5700   -0.3500    0.4300   18.8600   11.0000    3.0000 
2607.4116   98.7800    2.5700   -0.3700    0.4500   18.5300   11.0000    3.0000 
2607.5640   96.1500    2.5900   -0.3900    0.4700   18.0500   11.0000    3.0000 
2607.7164   96.2600    2.6300   -0.3800    0.4800   17.8800   11.0000    3.0000 
2607.8688   98.3600    2.6600   -0.3800    0.4600   17.7800   11.0000    3.0000 
2608.0212   99.9100    2.6400   -0.3600    0.4300   17.8100   11.0000    3.0000 
2608.1736   99.5400    2.6100   -0.3500    0.4100   17.6300   11.0000    3.0000 
2608.3260   99.6000    2.5900   -0.3400    0.4100   18.0900   11.0000    3.0000 
2608.4784   99.3300    2.5900   -0.3500    0.4100   18.2100   11.0000    3.0000 
2608.6308   99.3200    2.5900   -0.3500    0.4200   18.2900   11.0000    3.0000 
2608.7832   97.9500    2.5800   -0.3500    0.4300   18.4300   11.0000    3.0000 
2608.9356   97.4300    2.5800   -0.3600    0.4400   18.6300   11.0000    3.0000 
2609.0880   96.4000    2.5700   -0.3600    0.4400   18.9900   11.0000    3.0000 
2609.2404   97.1200    2.5700   -0.3700    0.4200   19.0200   11.0000    3.0000 
2609.3928   95.7800    2.5800   -0.3700    0.4100   18.7500   11.0000    3.0000 
2609.5452   96.4800    2.5900   -0.3800    0.4200   18.5700   11.0000    3.0000 
2609.6976   96.7700    2.6100   -0.3800    0.4100   18.3600   11.0000    3.0000 
2609.8500   99.4600    2.6100   -0.3600    0.4100   17.1000   11.0000    3.0000 
2610.0024  100.4200    2.6000   -0.3600    0.4000   18.1900   11.0000    3.0000 
