~VERSION INFORMATION
 VERS.                 2.0:   CWLS LOG ASCII STANDARD - VERSION 2.0
 WRAP.                  NO:   SINGLE LINE PER DEPTH STEP
 CREA.                 08/01/2018 13:34:12
#CREATED USING DSPetro VERSION 5000.10.1.3 BY H191660 ON 08/01/2018 13:34:12
~WELL INFORMATION
#MNEM.UNIT       DATA                          DESCRIPTION MNEMONIC
#---------      ---------------------------   --------------------------
 STRT    .M         0.0000                    : START DEPTH
 STOP    .M         3099.9684                 : STOP DEPTH
 STEP    .M         0.1524                    : STEP VALUE
 NULL    .      -999.0000                     : NULL VALUE
 DATE    .      08/01/2018                    : LAS file Creation Date
 WELL .      1849_Huascaran-1            : Well Name
 COMP .      Neftex Exploration Insights : Company
 FLD  .                                  : Field
 UWI  .      ZAUWL_005236                : Unique Well Identifier (UWI)
 LOC  .                                  : Location
 RWS  .      -999                        : Def_Rw
 WST  .      -999                        : Def_Rwt
 SRVC .                                  : Contractor
~CURVE INFORMATION
#MNEM              UNIT       API CODE   Curve Type Comments
#----------  --------------- ----------  ---------- -----------
 DEPTH      .M                         : Depth       
 GR_API     .API                       : gammaRay    Gamma Ray (API) - Measures the intensity of natural gamma-ray radiation emitted from formations containing radioactive elements, such as K, Th and U
 RHOB_G_CC  .g/cc                      : density     Bulk Density - Measures the density of bulk material, including any void space or other materials contained in the subject volume
 DRHO_G_CC  .g/cc                      : drho        Density Correction - Investigates the correction to the Bulk Density log; used as an indication of hole condition to validate the Bulk Density measure
 NPHI_v/v   .usl                       : neutron     Neutron Porosity - Measured with an neutron logging device calibrated to a given matrix (limestone, sandstone and dolomite) - unscaled
 PEF_B_E    .b/e-                      : PEF         Photoelectric Factor - A log of photoelectric absorption properties. Often expressed in an approximation unit barns/electron (b/e-)
 LITH       .                          : LITH        Lithology Curve
 LITH_v2    .                          : LITH        Lithology Curve
~A  DEPTH   GR_API  RHOB_G_C  DRHO_G_C   NPHI_v/v  PEF_B_E     LITH    LITH_v2  
# ...
2761.0308  142.9100    2.5900    0.0300    0.2600    3.5900   37.0000   37.0000 
2761.1832  145.0800    2.5900    0.0400    0.2600    3.6700   37.0000   37.0000 
2761.3356  144.6500    2.5900    0.0400    0.2600    3.6900   37.0000   37.0000 
2761.4880  143.4000    2.5900    0.0400    0.2500    3.6600   37.0000   37.0000 
2761.6404  140.9000    2.6000    0.0400    0.2600    3.5500   37.0000   37.0000 
2761.7928  138.5400    2.5800    0.0200    0.2500    3.7500   37.0000   37.0000 
2761.9452  135.2100    2.5800    0.0200    0.2700    3.7900   37.0000   37.0000 
2762.0976  131.7300    2.5800    0.0300    0.2800    3.8900   37.0000   37.0000 
2762.2500  132.7700    2.6000    0.0400    0.2900    3.5500   37.0000   37.0000 
2762.4024  137.3700    2.6400    0.0500    0.2800    3.4000   37.0000   37.0000 
2762.5548  139.0400    2.6600    0.0600    0.2700    3.5400   37.0000   37.0000 
2762.7072  126.8000    2.6400    0.0400    0.2600    3.7100   37.0000   37.0000 
2762.8596  109.0600    2.5700    0.0200    0.2500    3.8000   37.0000   37.0000 
2763.0120   98.1600    2.4900    0.0200    0.2700    3.5600   37.0000   37.0000 
2763.1644  102.5400    2.4300    0.0000    0.2600    3.8800   37.0000   37.0000 
2763.3168  116.2600    2.4600   -0.0100    0.2600    4.5600   37.0000   37.0000 
2763.4692  132.1400    2.4600   -0.0100    0.2200    4.9200   37.0000   37.0000 
2763.6216  142.5500    2.4200    0.0100    0.2100    4.2700   37.0000   37.0000 
2763.7740  141.3400    2.3700    0.0400    0.2000    3.8300   37.0000   31.0000 
2763.9264  132.7300    2.3300    0.0300    0.2200    3.8700   37.0000   31.0000 
2764.0788  128.5500    2.3000    0.0000    0.2300    4.0800   37.0000   31.0000 
2764.2312  135.7100    2.2500    0.0000    0.2300    3.8800   37.0000   31.0000 
2764.3836  152.4400    2.2200    0.0000    0.2300    3.6300   37.0000   31.0000 
2764.5360  173.5500    2.2400    0.0300    0.2300    3.3900   37.0000   31.0000 
2764.6884  194.5000    2.3000    0.0300    0.2400    3.6300   37.0000   31.0000 
2764.8408  215.3700    2.3500    0.0200    0.2400    3.9900   37.0000   31.0000 
2764.9932  224.7100    2.3900    0.0300    0.2300    4.1600   37.0000   31.0000 
2765.1456  215.3400    2.4300    0.0400    0.2200    4.4300   37.0000   37.0000 
2765.2980  187.2800    2.5500    0.0700    0.2300    4.9400   37.0000   37.0000 
2765.4504  155.7600    2.6800    0.0700    0.2200    5.8800   23.0000   23.0000 
2765.6028  138.0900    2.7700    0.0600    0.1900    5.2900   23.0000   23.0000 
2765.7552  134.3300    2.7100    0.0400    0.1700    4.4600   37.0000   37.0000 
2765.9076  137.0300    2.6300    0.0400    0.1700    3.6800   37.0000   37.0000 
2766.0600  134.8500    2.5700    0.0400    0.2000    3.8500   37.0000   37.0000 
2766.2124  129.8200    2.6000    0.0600    0.2300    4.3700   37.0000   37.0000 
2766.3648  130.3300    2.6400    0.0700    0.2400    4.6400   23.0000   23.0000 
2766.5172  138.8200    2.6600    0.0800    0.2200    4.2800   37.0000   37.0000 
2766.6696  145.9800    2.6100    0.0500    0.2100    3.9200   37.0000   37.0000 
2766.8220  148.3900    2.5900    0.0500    0.2100    3.6600   37.0000   37.0000 
2766.9744  145.8200    2.5800    0.0300    0.2200    3.6000   37.0000   37.0000 
2767.1268  145.0000    2.5800    0.0400    0.2300    3.7300   37.0000   37.0000 
2767.2792  143.3400    2.5700    0.0300    0.2400    3.7100   37.0000   37.0000 
2767.4316  130.6600    2.5700    0.0300    0.2600    3.8200   37.0000   37.0000 
2767.5840  110.7400    2.5900    0.0300    0.2600    3.7800   37.0000   37.0000 
2767.7364   88.7400    2.5800    0.0400    0.2400    3.4900   37.0000   37.0000 
2767.8888   79.7400    2.5400    0.0400    0.2200    3.3200   37.0000   37.0000 
2768.0412   82.6900    2.5500    0.0600    0.2000    3.3300   37.0000   37.0000 
2768.1936   92.2600    2.5900    0.0300    0.1800    4.4800   23.0000   23.0000 
2768.3460  102.1700    2.6900    0.0200    0.1700    4.9700   23.0000   23.0000 
2768.4984  113.4800    2.6300    0.0000    0.1600    4.4900   23.0000   23.0000 
2768.6508  123.9100    2.5200    0.0100    0.1600    3.2000   37.0000   37.0000 
2768.8032  132.5900    2.4600    0.0300    0.1800    2.8900   37.0000   37.0000 
2768.9556  136.2600    2.5000    0.0200    0.1900    3.0800   37.0000   37.0000 
2769.1080  138.5000    2.5600    0.0400    0.2100    3.2900   37.0000   37.0000 
2769.2604  143.5100    2.6000    0.0400    0.2200    3.4700   37.0000   37.0000 
2769.4128  149.9600    2.5900    0.0400    0.2200    3.5000   37.0000   37.0000 
2769.5652  151.7700    2.5800    0.0300    0.2300    3.3900   37.0000   37.0000 
2769.7176  149.0000    2.5800    0.0300    0.2500    3.3200   37.0000   37.0000 
2769.8700  139.8000    2.5600    0.0300    0.2500    3.3300   37.0000   37.0000 
2770.0224  129.7300    2.5500    0.0300    0.2600    3.4500   37.0000   37.0000 
2770.1748  122.0200    2.5700    0.0200    0.2600    3.9200   37.0000   37.0000 
2770.3272  124.5300    2.6700    0.0400    0.2800    4.0500   23.0000   23.0000 
2770.4796  133.1300    2.7500    0.0300    0.3000    4.3600   23.0000   23.0000 
2770.6320  126.8400    2.7600    0.0400    0.3100    3.7900   23.0000   23.0000 
2770.7844  107.8200    2.6700    0.0300    0.2800    3.6800   37.0000   37.0000 
2770.9368   78.2700    2.6400    0.0300    0.2500    3.6100   37.0000   37.0000 
2771.0892   60.6400    2.6000    0.0200    0.2300    3.8900   37.0000   37.0000 
2771.2416   48.2500    2.5200   -0.0100    0.2200    4.0700   37.0000   37.0000 
2771.3940   43.9900    2.4100   -0.0200    0.2000    3.7300   37.0000   37.0000 
2771.5464   41.8200    2.3300   -0.0100    0.2100    3.1000   27.0000   27.0000 
2771.6988   40.0200    2.3000    0.0100    0.1900    2.6600   27.0000   27.0000 
2771.8512   37.1900    2.3100    0.0200    0.1800    2.4800   27.0000   27.0000 
2772.0036   34.9800    2.3300    0.0200    0.1800    2.5800   27.0000   27.0000 
2772.1560   33.2500    2.3300    0.0000    0.1700    2.7300   27.0000   27.0000 
2772.3084   33.1300    2.3200    0.0000    0.1800    2.7700   27.0000   27.0000 
2772.4608   32.4700    2.3100    0.0000    0.1700    2.7000   27.0000   27.0000 
2772.6132   32.6800    2.3300    0.0200    0.1800    2.5200   27.0000   27.0000 
2772.7656   31.9100    2.3200    0.0200    0.1800    2.5900   27.0000   27.0000 
2772.9180   32.1400    2.3200    0.0100    0.1800    2.8200   27.0000   27.0000 
2773.0704   32.3700    2.3200    0.0100    0.1800    2.8700   27.0000   27.0000 
2773.2228   32.6000    2.3100    0.0100    0.1800    2.7900   27.0000   27.0000 
2773.3752   33.2500    2.3100    0.0100    0.1800    2.5800   27.0000   27.0000 
2773.5276   33.4700    2.3100    0.0100    0.1800    2.6400   27.0000   27.0000 
2773.6800   33.5700    2.3300    0.0300    0.1800    2.7400   27.0000   27.0000 
2773.8324   33.0700    2.3400    0.0200    0.1700    2.7500   27.0000   27.0000 
2773.9848   32.1800    2.3400    0.0200    0.1800    2.7200   27.0000   27.0000 
2774.1372   33.3400    2.3400    0.0200    0.1800    2.6300   27.0000   27.0000 
2774.2896   35.1100    2.3300    0.0200    0.1900    2.5900   27.0000   27.0000 
2774.4420   39.5600    2.3000    0.0200    0.1900    2.5800   27.0000   27.0000 
2774.5944   44.6600    2.2900    0.0200    0.1900    2.5700   27.0000   27.0000 
2774.7468   48.0500    2.2900    0.0300    0.1900    2.6200   27.0000   27.0000 
2774.8992   48.7600    2.3300    0.0300    0.2000    2.8900   27.0000   27.0000 
2775.0516   49.5300    2.3800    0.0400    0.2100    2.7900   27.0000   27.0000 
2775.2040   59.7100    2.4000    0.0200    0.2000    2.7500   27.0000   27.0000 
2775.3564   84.8200    2.3900    0.0200    0.1900    2.4300   27.0000   27.0000 
2775.5088  117.3300    2.3800    0.0100    0.2000    2.6000   27.0000   27.0000 
2775.6612  141.7900    2.4000    0.0200    0.2100    2.8200   27.0000   27.0000 
2775.8136  151.7800    2.4400    0.0200    0.2300    3.2700   37.0000   37.0000 
2775.9660  152.5500    2.5000    0.0300    0.2600    3.6300   37.0000   37.0000 
