~VERSION INFORMATION
 VERS.                 2.0:   CWLS LOG ASCII STANDARD - VERSION 2.0
 WRAP.                  NO:   SINGLE LINE PER DEPTH STEP
 CREA.                 08/01/2018 13:34:12
#CREATED USING DSPetro VERSION 5000.10.1.3 BY H191660 ON 08/01/2018 13:34:12
~WELL INFORMATION
#MNEM.UNIT       DATA                          DESCRIPTION MNEMONIC
#---------      ---------------------------   --------------------------
 STRT    .M         0.0000                    : START DEPTH
 STOP    .M         3099.9684                 : STOP DEPTH
 STEP    .M         0.1524                    : STEP VALUE
 NULL    .      -999.0000                     : NULL VALUE
 DATE    .      08/01/2018                    : LAS file Creation Date
 WELL .      1849_Huascaran-1            : Well Name
 COMP .      Neftex Exploration Insights : Company
 FLD  .                                  : Field
 UWI  .      ZAUWL_005236                : Unique Well Identifier (UWI)
 LOC  .                                  : Location
 RWS  .      -999                        : Def_Rw
 WST  .      -999                        : Def_Rwt
 SRVC .                                  : Contractor
~CURVE INFORMATION
#MNEM              UNIT       API CODE   Curve Type Comments
#----------  --------------- ----------  ---------- -----------
 DEPTH      .M                         : Depth       
 GR_API     .API                       : gammaRay    Gamma Ray (API) - Measures the intensity of natural gamma-ray radiation emitted from formations containing radioactive elements, such as K, Th and U
 RHOB_G_CC  .g/cc                      : density     Bulk Density - Measures the density of bulk material, including any void space or other materials contained in the subject volume
 DRHO_G_CC  .g/cc                      : drho        Density Correction - Investigates the correction to the Bulk Density log; used as an indication of hole condition to validate the Bulk Density measure
 NPHI_v/v   .usl                       : neutron     Neutron Porosity - Measured with an neutron logging device calibrated to a given matrix (limestone, sandstone and dolomite) - unscaled
 PEF_B_E    .b/e-                      : PEF         Photoelectric Factor - A log of photoelectric absorption properties. Often expressed in an approximation unit barns/electron (b/e-)
 LITH       .                          : LITH        Lithology Curve
 LITH_v2    .                          : LITH        Lithology Curve
~A  DEPTH   GR_API  RHOB_G_C  DRHO_G_C   NPHI_v/v  PEF_B_E     LITH    LITH_v2  
# ...
2821.3812  101.6600    2.4700    0.0500    0.2100    3.3900   37.0000   37.0000 
2821.5336  117.0300    2.4700    0.0500    0.2200    3.3500   37.0000   37.0000 
2821.6860  132.4100    2.4700    0.0400    0.2200    3.2500   37.0000   37.0000 
2821.8384  147.0400    2.4600    0.0400    0.2300    3.3000   37.0000   37.0000 
2821.9908  151.3200    2.5100    0.0600    0.2300    3.4600   37.0000   37.0000 
2822.1432  153.6200    2.4900    0.0300    0.2300    4.3700   37.0000   37.0000 
2822.2956  148.6400    2.5100    0.0300    0.2200    4.4100   37.0000   37.0000 
2822.4480  147.3700    2.4600    0.0100    0.2200    4.1400   37.0000   37.0000 
2822.6004  149.1700    2.4600    0.0300    0.2100    3.5600   37.0000   37.0000 
2822.7528  160.1300    2.4500    0.0400    0.2200    3.5400   37.0000   37.0000 
2822.9052  163.3600    2.4300    0.0300    0.2200    3.5700   37.0000   37.0000 
2823.0576  161.5400    2.4400    0.0400    0.2200    3.3800   37.0000   37.0000 
2823.2100  154.9900    2.4300    0.0400    0.2200    3.4100   37.0000   37.0000 
2823.3624  146.0000    2.4300    0.0600    0.2200    3.5700   37.0000   37.0000 
2823.5148  139.8200    2.4600    0.0700    0.2200    3.7900   37.0000   37.0000 
2823.6672  136.3400    2.4600    0.0500    0.2200    4.1200   37.0000   37.0000 
2823.8196  137.3500    2.4900    0.0500    0.2300    4.0700   37.0000   37.0000 
2823.9720  143.1400    2.4700    0.0600    0.2200    3.9200   37.0000   37.0000 
2824.1244  143.3200    2.4600    0.0500    0.2400    3.4400   37.0000   37.0000 
2824.2768  143.3200    2.4600    0.0500    0.2400    3.4400   37.0000   37.0000 
2824.4292  139.8400    2.4600    0.0300    0.2400    3.2900   37.0000   37.0000 
2824.5816  147.7600    2.4800    0.0400    0.2500    3.3600   37.0000   37.0000 
2824.7340  159.8600    2.4600    0.0400    0.2300    3.4200   37.0000   37.0000 
2824.8864  164.3900    2.4100    0.0200    0.2200    3.9300   37.0000   37.0000 
2825.0388  160.9700    2.4300    0.0300    0.2100    3.9100   37.0000   37.0000 
2825.1912  147.0400    2.4600    0.0400    0.2100    4.1200   37.0000   37.0000 
2825.3436  136.2400    2.5200    0.0700    0.2100    3.6900   37.0000   37.0000 
2825.4960  129.7900    2.5000    0.0600    0.2100    3.6300   37.0000   37.0000 
2825.6484  137.2400    2.4900    0.0500    0.2300    3.3700   37.0000   37.0000 
2825.8008  149.9600    2.4800    0.0300    0.2400    3.3100   37.0000   37.0000 
2825.9532  160.0000    2.4700    0.0300    0.2300    3.2500   37.0000   37.0000 
2826.1056  163.5300    2.5100    0.0400    0.2300    3.5300   37.0000   37.0000 
2826.2580  156.7800    2.5200    0.0200    0.2200    3.8300   37.0000   37.0000 
2826.4104  148.0400    2.5400    0.0200    0.2200    3.9800   37.0000   37.0000 
2826.5628  146.2400    2.4800    0.0100    0.2100    3.7700   37.0000   37.0000 
2826.7152  151.9600    2.4700    0.0300    0.2200    3.4000   37.0000   37.0000 
2826.8676  160.0700    2.4600    0.0300    0.2300    3.3800   37.0000   37.0000 
2827.0200  164.9200    2.4300    0.0300    0.2300    3.3300   37.0000   37.0000 
2827.1724  168.3400    2.3800    0.0300    0.2300    3.2500   37.0000   37.0000 
2827.3248  161.7600    2.3900    0.0200    0.2300    3.5900   37.0000   37.0000 
2827.4772  161.7600    2.3900    0.0200    0.2300    3.5900   37.0000   37.0000 
2827.6296  148.7200    2.4400    0.0300    0.2200    4.1600   37.0000   37.0000 
2827.7820  135.3700    2.5100    0.0300    0.2100    4.3500   37.0000   37.0000 
2827.9344  122.5600    2.5700    0.0200    0.1900    4.9800   37.0000   37.0000 
2828.0868  116.8500    2.5800   -0.0200    0.1800    5.0500   37.0000   37.0000 
2828.2392  117.0300    2.5200   -0.0200    0.1900    4.9100   37.0000   37.0000 
2828.3916  122.9600    2.4500    0.0000    0.2200    3.8000   37.0000   37.0000 
2828.5440  132.6400    2.4500    0.0400    0.2500    3.3500   37.0000   37.0000 
2828.6964  142.5800    2.4800    0.0300    0.2700    3.2900   37.0000   37.0000 
2828.8488  154.4900    2.5200    0.0300    0.2500    3.9000   37.0000   37.0000 
2829.0012  161.4600    2.5400    0.0100    0.2400    4.7200   37.0000   37.0000 
2829.1536  162.1600    2.5900    0.0300    0.2100    4.6800   37.0000   37.0000 
2829.3060  155.0600    2.5100    0.0200    0.2000    4.2700   37.0000   37.0000 
2829.4584  153.7200    2.4900    0.0500    0.2000    3.5100   37.0000   37.0000 
2829.6108  150.0100    2.4900    0.0400    0.2100    3.7300   37.0000   37.0000 
2829.7632  149.2800    2.5500    0.0500    0.2300    3.8000   37.0000   37.0000 
2829.9156  140.1300    2.5800    0.0500    0.2400    3.5800   37.0000   37.0000 
2830.0680  139.2100    2.5400    0.0400    0.2400    3.3400   37.0000   37.0000 
2830.2204  139.7600    2.5300    0.0300    0.2400    3.4300   37.0000   37.0000 
2830.3728  141.0600    2.5300    0.0400    0.2400    3.5600   37.0000   37.0000 
2830.5252  140.3700    2.5300    0.0500    0.2500    3.6700   37.0000   37.0000 
2830.6776  138.8400    2.5300    0.0600    0.2500    3.5600   37.0000   37.0000 
2830.8300  136.5000    2.5300    0.0500    0.2500    3.4900   37.0000   37.0000 
2830.9824  136.8500    2.5500    0.0400    0.2600    3.5600   37.0000   37.0000 
2831.1348  140.1600    2.6000    0.0500    0.2700    3.5900   37.0000   37.0000 
2831.2872  142.9100    2.6100    0.0500    0.2800    3.6800   37.0000   37.0000 
2831.4396  140.0900    2.5800    0.0300    0.2700    3.6800   37.0000   37.0000 
2831.5920  137.0300    2.5500    0.0200    0.2700    3.6700   37.0000   37.0000 
2831.7444  138.0600    2.5700    0.0200    0.2700    4.0800   37.0000   37.0000 
2831.8968  139.4500    2.5900    0.0000    0.2600    4.7400   23.0000   23.0000 
2832.0492  136.3000    2.6300    0.0000    0.2500    4.8800   23.0000   23.0000 
2832.2016  126.3500    2.6000   -0.0100    0.2400    4.6800   37.0000   37.0000 
2832.3540  121.5500    2.6000    0.0200    0.2400    4.0500   37.0000   37.0000 
2832.5064  124.2000    2.5300    0.0200    0.2500    4.0100   37.0000   37.0000 
2832.6588  133.9300    2.4900    0.0300    0.2500    3.4700   37.0000   37.0000 
2832.8112  139.0300    2.4900    0.0500    0.2400    3.3000   37.0000   37.0000 
2832.9636  140.3500    2.5400    0.0400    0.2300    3.8700   37.0000   37.0000 
2833.1160  127.2000    2.6000    0.0400    0.2200    4.3300   37.0000   37.0000 
2833.2684  120.4500    2.5600    0.0100    0.2200    4.3800   37.0000   37.0000 
2833.4208  114.6100    2.5000    0.0200    0.2200    3.6600   37.0000   37.0000 
2833.5732  124.5800    2.4700    0.0300    0.2200    3.5000   37.0000   37.0000 
2833.7256  133.9900    2.4600    0.0400    0.2100    3.5100   37.0000   37.0000 
2833.8780  141.6200    2.4400    0.0300    0.2200    3.4700   37.0000   37.0000 
2834.0304  144.3200    2.4100    0.0300    0.2100    3.4700   37.0000   37.0000 
2834.1828  136.1700    2.3800    0.0200    0.2100    3.8300   37.0000   37.0000 
2834.3352  118.6300    2.4000    0.0100    0.2100    3.9900   37.0000   37.0000 
2834.4876  100.0600    2.4300    0.0200    0.2000    3.8900   37.0000   37.0000 
2834.6400   88.3900    2.4400    0.0400    0.2000    3.6100   37.0000   37.0000 
2834.7924   94.4400    2.4500    0.0600    0.2100    3.9100   37.0000   37.0000 
2834.9448  105.8200    2.4700    0.0700    0.2100    4.0800   37.0000   37.0000 
2835.0972  115.0500    2.5100    0.0700    0.2200    3.9500   37.0000   37.0000 
2835.2496  116.2200    2.5500    0.0700    0.2300    3.8100   37.0000   37.0000 
2835.4020  114.7700    2.5800    0.0600    0.2500    4.1100   37.0000   37.0000 
2835.5544  118.1200    2.5900    0.0500    0.2700    4.4000   37.0000   37.0000 
2835.7068  128.0800    2.6100    0.0100    0.2900    5.2900   23.0000   23.0000 
2835.8592  139.5900    2.6700   -0.0500    0.3100    6.0300   23.0000   23.0000 
2836.0116  144.3600    2.7400   -0.0500    0.3000    6.0600   23.0000   23.0000 
2836.1640  130.7300    2.6200   -0.0300    0.3000    4.6000   23.0000   23.0000 
2836.3164  123.7300    2.5700    0.0100    0.2800    3.6600   37.0000   37.0000 
