~VERSION INFORMATION
 VERS.                 2.0:   CWLS LOG ASCII STANDARD - VERSION 2.0
 WRAP.                  NO:   SINGLE LINE PER DEPTH STEP
 CREA.                 08/01/2018 13:34:12
#CREATED USING DSPetro VERSION 5000.10.1.3 BY H191660 ON 08/01/2018 13:34:12
~WELL INFORMATION
#MNEM.UNIT       DATA                          DESCRIPTION MNEMONIC
#---------      ---------------------------   --------------------------
 STRT    .M         0.0000                    : START DEPTH
 STOP    .M         3099.9684                 : STOP DEPTH
 STEP    .M         0.1524                    : STEP VALUE
 NULL    .      -999.0000                     : NULL VALUE
 DATE    .      08/01/2018                    : LAS file Creation Date
 WELL .      1849_Huascaran-1            : Well Name
 COMP .      Neftex Exploration Insights : Company
 FLD  .                                  : Field
 UWI  .      ZAUWL_005236                : Unique Well Identifier (UWI)
 LOC  .                                  : Location
 RWS  .      -999                        : Def_Rw
 WST  .      -999                        : Def_Rwt
 SRVC .                                  : Contractor
~CURVE INFORMATION
#MNEM              UNIT       API CODE   Curve Type Comments
#----------  --------------- ----------  ---------- -----------
 DEPTH      .M                         : Depth       
 GR_API     .API                       : gammaRay    Gamma Ray (API) - Measures the intensity of natural gamma-ray radiation emitted from formations containing radioactive elements, such as K, Th and U
 RHOB_G_CC  .g/cc                      : density     Bulk Density - Measures the density of bulk material, including any void space or other materials contained in the subject volume
 DRHO_G_CC  .g/cc                      : drho        Density Correction - Investigates the correction to the Bulk Density log; used as an indication of hole condition to validate the Bulk Density measure
 NPHI_v/v   .usl                       : neutron     Neutron Porosity - Measured with an neutron logging device calibrated to a given matrix (limestone, sandstone and dolomite) - unscaled
 PEF_B_E    .b/e-                      : PEF         Photoelectric Factor - A log of photoelectric absorption properties. Often expressed in an approximation unit barns/electron (b/e-)
 LITH       .                          : LITH        Lithology Curve
 LITH_v2    .                          : LITH        Lithology Curve
~A  DEPTH   GR_API  RHOB_G_C  DRHO_G_C   NPHI_v/v  PEF_B_E     LITH    LITH_v2  
# ...
2685.5928  129.7200    2.5500    0.0300    0.3100    4.1900   37.0000   37.0000 
2685.7452  129.6300    2.5500    0.0300    0.3200    4.2700   37.0000   37.0000 
2685.8976  130.9800    2.5500    0.0300    0.3100    4.1400   37.0000   37.0000 
2686.0500  131.0800    2.5500    0.0300    0.3000    4.0900   37.0000   37.0000 
2686.2024  129.2700    2.5600    0.0300    0.3000    4.1200   37.0000   37.0000 
2686.3548  125.8700    2.5600    0.0400    0.3200    4.2400   37.0000   37.0000 
2686.5072  124.9100    2.5600    0.0400    0.3200    4.3300   37.0000   37.0000 
2686.6596  124.9500    2.5400    0.0400    0.3100    4.2600   37.0000   37.0000 
2686.8120  128.1300    2.5400    0.0400    0.2900    4.2500   37.0000   37.0000 
2686.9644  128.9900    2.5500    0.0400    0.2900    4.1400   37.0000   37.0000 
2687.1168  130.0000    2.5700    0.0400    0.2900    4.1800   37.0000   37.0000 
2687.2692  129.4800    2.5800    0.0400    0.3000    4.3900   37.0000   37.0000 
2687.4216  128.5000    2.5800    0.0300    0.3000    4.4100   37.0000   37.0000 
2687.5740  126.6000    2.5600    0.0300    0.3000    4.2900   37.0000   37.0000 
2687.7264  125.9500    2.5500    0.0200    0.2900    4.0600   37.0000   37.0000 
2687.8788  127.9700    2.5400    0.0100    0.2900    3.9200   37.0000   37.0000 
2688.0312  128.7900    2.5400    0.0000    0.2900    3.8600   37.0000   37.0000 
2688.1836  131.1400    2.5600    0.0200    0.3000    3.8800   37.0000   37.0000 
2688.3360  130.1100    2.5700    0.0400    0.3000    4.0400   37.0000   37.0000 
2688.4884  130.5300    2.5600    0.0500    0.2900    4.2100   37.0000   37.0000 
2688.6408  126.6200    2.5400    0.0400    0.2900    4.1300   37.0000   37.0000 
2688.7932  125.6000    2.5500    0.0400    0.2900    4.3400   37.0000   37.0000 
2688.9456  125.1300    2.5700    0.0400    0.2900    4.2700   37.0000   37.0000 
2689.0980  125.6800    2.5700    0.0400    0.2900    4.1900   37.0000   37.0000 
2689.2504  128.2000    2.5500    0.0400    0.2900    3.8800   37.0000   37.0000 
2689.4028  130.7400    2.5400    0.0300    0.2900    3.8100   37.0000   37.0000 
2689.5552  133.9400    2.5500    0.0300    0.2900    4.0400   37.0000   37.0000 
2689.7076  132.0300    2.5600    0.0300    0.2800    4.2300   37.0000   37.0000 
2689.8600  129.2400    2.5700    0.0400    0.2800    4.3100   37.0000   37.0000 
2690.0124  127.9300    2.5700    0.0300    0.2800    4.0500   37.0000   37.0000 
2690.1648  130.3600    2.5600    0.0300    0.2900    3.8300   37.0000   37.0000 
2690.3172  134.4500    2.5400    0.0200    0.3000    3.7700   37.0000   37.0000 
2690.4696  137.2200    2.5300    0.0200    0.3100    3.8100   37.0000   37.0000 
2690.6220  138.4700    2.5400    0.0300    0.3100    3.9000   37.0000   37.0000 
2690.7744  137.9100    2.5500    0.0300    0.3100    3.9700   37.0000   37.0000 
2690.9268  135.8900    2.5500    0.0400    0.3100    4.0400   37.0000   37.0000 
2691.0792  132.4600    2.5500    0.0400    0.3000    4.1100   37.0000   37.0000 
2691.2316  130.3800    2.5400    0.0400    0.2900    4.0800   37.0000   37.0000 
2691.3840  129.4000    2.5400    0.0400    0.2900    4.1400   37.0000   37.0000 
2691.5364  131.1700    2.5300    0.0400    0.3000    4.0700   37.0000   37.0000 
2691.6888  131.1100    2.5300    0.0400    0.3000    4.1700   37.0000   37.0000 
2691.8412  130.9700    2.5400    0.0300    0.3000    4.0400   37.0000   37.0000 
2691.9936  131.1900    2.5500    0.0300    0.3000    3.9600   37.0000   37.0000 
2692.1460  134.4800    2.5500    0.0300    0.3100    3.8200   37.0000   37.0000 
2692.2984  136.2100    2.5500    0.0300    0.3100    3.8900   37.0000   37.0000 
2692.4508  135.7700    2.5500    0.0300    0.3100    4.1800   37.0000   37.0000 
2692.6032  133.6600    2.5600    0.0300    0.3100    4.3600   37.0000   37.0000 
2692.7556  131.5300    2.5500    0.0300    0.3100    4.3500   37.0000   37.0000 
2692.9080  129.9100    2.5400    0.0200    0.3100    4.0200   37.0000   37.0000 
2693.0604  129.8300    2.5400    0.0200    0.3000    3.7500   37.0000   37.0000 
2693.2128  131.6500    2.5400    0.0300    0.3100    3.7100   37.0000   37.0000 
2693.3652  133.1800    2.5500    0.0400    0.3000    3.8700   37.0000   37.0000 
2693.5176  132.5400    2.5500    0.0400    0.3000    4.1900   37.0000   37.0000 
2693.6700  130.9900    2.5500    0.0400    0.2900    4.3700   37.0000   37.0000 
2693.8224  127.5600    2.5600    0.0400    0.3000    4.4000   37.0000   37.0000 
2693.9748  124.5800    2.5400    0.0400    0.3000    4.2800   37.0000   37.0000 
2694.1272  123.0700    2.5300    0.0300    0.3000    4.2500   37.0000   37.0000 
2694.2796  122.4400    2.5300    0.0200    0.2900    4.3300   37.0000   37.0000 
2694.4320  124.2400    2.5300    0.0200    0.2900    4.2500   37.0000   37.0000 
2694.5844  122.5100    2.5300    0.0100    0.2800    4.1300   37.0000   37.0000 
2694.7368  123.3900    2.5500    0.0200    0.2900    4.0600   37.0000   37.0000 
2694.8892  121.2300    2.5400    0.0200    0.2800    4.2700   37.0000   37.0000 
2695.0416  122.8600    2.5600    0.0400    0.2800    4.5200   37.0000   37.0000 
2695.1940  123.3200    2.5500    0.0400    0.2700    4.6600   37.0000   37.0000 
2695.3464  122.5000    2.5500    0.0400    0.2800    4.5200   37.0000   37.0000 
2695.4988  122.6700    2.5400    0.0400    0.2900    4.3000   37.0000   37.0000 
2695.6512  123.8900    2.5400    0.0400    0.2900    4.0400   37.0000   37.0000 
2695.8036  128.7100    2.5500    0.0400    0.2900    3.9400   37.0000   37.0000 
2695.9560  132.5000    2.5400    0.0400    0.2900    4.0300   37.0000   37.0000 
2696.1084  133.8000    2.5500    0.0400    0.3000    4.1900   37.0000   37.0000 
2696.2608  131.4200    2.5500    0.0500    0.2800    4.3400   37.0000   37.0000 
2696.4132  127.4000    2.5600    0.0400    0.2800    4.5500   37.0000   37.0000 
2696.5656  123.5200    2.5800    0.0500    0.2700    4.5600   37.0000   37.0000 
2696.7180  119.6700    2.6000    0.0500    0.2800    4.7500   37.0000   37.0000 
2696.8704  114.9200    2.6100    0.0500    0.2700    4.6200   37.0000   37.0000 
2697.0228  110.5000    2.5800    0.0500    0.2700    4.4600   37.0000   37.0000 
2697.1752  108.5700    2.5700    0.0500    0.2700    4.1100   37.0000   37.0000 
2697.3276  113.7900    2.5600    0.0500    0.3000    4.1600   37.0000   37.0000 
2697.4800  121.9500    2.5600    0.0500    0.3000    4.3000   37.0000   37.0000 
2697.6324  127.5300    2.5600    0.0500    0.3000    4.3400   37.0000   37.0000 
2697.7848  128.1800    2.5600    0.0500    0.2800    4.1700   37.0000   37.0000 
2697.9372  128.6200    2.5500    0.0500    0.2800    4.0500   37.0000   37.0000 
2698.0896  131.4700    2.5500    0.0500    0.2800    4.1900   37.0000   37.0000 
2698.2420  132.2300    2.5300    0.0400    0.2800    4.1400   37.0000   37.0000 
2698.3944  129.6400    2.5400    0.0500    0.2900    4.1600   37.0000   37.0000 
2698.5468  127.7300    2.5400    0.0600    0.2900    4.1500   37.0000   37.0000 
2698.6992  127.1400    2.5400    0.0600    0.2800    4.1000   37.0000   37.0000 
2698.8516  129.8800    2.5400    0.0500    0.2800    4.2500   37.0000   37.0000 
2699.0040  130.3700    2.5400    0.0500    0.2700    4.3800   37.0000   37.0000 
2699.1564  130.4500    2.5500    0.0500    0.2800    4.4900   37.0000   37.0000 
2699.3088  128.0200    2.5500    0.0500    0.2800    4.4600   37.0000   37.0000 
2699.4612  125.6900    2.5400    0.0400    0.2800    4.3200   37.0000   37.0000 
2699.6136  123.7800    2.5400    0.0400    0.2800    4.2400   37.0000   37.0000 
2699.7660  122.6800    2.5400    0.0400    0.2700    4.1100   37.0000   37.0000 
2699.9184  124.6200    2.5500    0.0400    0.2700    4.0600   37.0000   37.0000 
2700.0708  128.7500    2.5600    0.0400    0.2800    4.0700   37.0000   37.0000 
2700.2232  132.3100    2.5500    0.0400    0.3000    4.0000   37.0000   37.0000 
2700.3756  132.1200    2.5500    0.0300    0.3000    3.9000   37.0000   37.0000 
2700.5280  130.0400    2.5400    0.0300    0.3000    3.9100   37.0000   37.0000 
