~VERSION INFORMATION
 VERS.                 2.0:   CWLS LOG ASCII STANDARD - VERSION 2.0
 WRAP.                  NO:   SINGLE LINE PER DEPTH STEP
 CREA.                 08/01/2018 13:34:12
#CREATED USING DSPetro VERSION 5000.10.1.3 BY H191660 ON 08/01/2018 13:34:12
~WELL INFORMATION
#MNEM.UNIT       DATA                          DESCRIPTION MNEMONIC
#---------      ---------------------------   --------------------------
 STRT    .M         0.0000                    : START DEPTH
 STOP    .M         3099.9684                 : STOP DEPTH
 STEP    .M         0.1524                    : STEP VALUE
 NULL    .      -999.0000                     : NULL VALUE
 DATE    .      08/01/2018                    : LAS file Creation Date
 WELL .      1849_Huascaran-1            : Well Name
 COMP .      Neftex Exploration Insights : Company
 FLD  .                                  : Field
 UWI  .      ZAUWL_005236                : Unique Well Identifier (UWI)
 LOC  .                                  : Location
 RWS  .      -999                        : Def_Rw
 WST  .      -999                        : Def_Rwt
 SRVC .                                  : Contractor
~CURVE INFORMATION
#MNEM              UNIT       API CODE   Curve Type Comments
#----------  --------------- ----------  ---------- -----------
 DEPTH      .M                         : Depth       
 GR_API     .API                       : gammaRay    Gamma Ray (API) - Measures the intensity of natural gamma-ray radiation emitted from formations containing radioactive elements, such as K, Th and U
 RHOB_G_CC  .g/cc                      : density     Bulk Density - Measures the density of bulk material, including any void space or other materials contained in the subject volume
 DRHO_G_CC  .g/cc                      : drho        Density Correction - Investigates the correction to the Bulk Density log; used as an indication of hole condition to validate the Bulk Density measure
 NPHI_v/v   .usl                       : neutron     Neutron Porosity - Measured with an neutron logging device calibrated to a given matrix (limestone, sandstone and dolomite) - unscaled
 PEF_B_E    .b/e-                      : PEF         Photoelectric Factor - A log of photoelectric absorption properties. Often expressed in an approximation unit barns/electron (b/e-)
 LITH       .                          : LITH        Lithology Curve
 LITH_v2    .                          : LITH        Lithology Curve
~A  DEPTH   GR_API  RHOB_G_C  DRHO_G_C   NPHI_v/v  PEF_B_E     LITH    LITH_v2  
# ...
2926.9944   64.2500    2.3400    0.0200    0.2700    2.7400   37.0000   37.0000 
2927.1468   71.7300    2.3500    0.0200    0.2200    2.7800   37.0000   37.0000 
2927.2992   81.8800    2.3200    0.0300    0.2700    3.0200   37.0000   37.0000 
2927.4516   90.0400    2.2700    0.0100    0.2800    3.5300   37.0000   37.0000 
2927.6040   98.5700    2.3000    0.0100    0.3100    3.7000   37.0000   37.0000 
2927.7564  101.7300    2.3200    0.0100    0.3300    3.5200   10.0000   10.0000 
2927.9088  111.7300    2.4000    0.0200    0.2900    2.8800   37.0000   37.0000 
2928.0612  123.2900    2.3700    0.0200    0.2500    2.8300   37.0000   37.0000 
2928.2136  131.9900    2.3800    0.0300    0.2000    2.8600   37.0000   37.0000 
2928.3660  121.8300    2.3700    0.0200    0.1800    2.8500   27.0000   36.0000 
2928.5184  102.4000    2.3900    0.0200    0.1700    2.5300   27.0000   36.0000 
2928.6708   79.0300    2.3900    0.0200    0.1600    2.5700   27.0000   36.0000 
2928.8232   62.3300    2.3900    0.0200    0.1600    2.7600   27.0000   36.0000 
2928.9756   47.4700    2.3900    0.0200    0.1500    2.8700   27.0000   27.0000 
2929.1280   37.4200    2.3900    0.0300    0.1500    2.6800   27.0000   27.0000 
2929.2804   31.8500    2.3900    0.0300    0.1400    2.4700   27.0000   27.0000 
2929.4328   27.1700    2.3800    0.0200    0.1400    2.4100   27.0000   27.0000 
2929.5852   25.0600    2.3800    0.0200    0.1400    2.5300   27.0000   27.0000 
2929.7376   24.3400    2.3700    0.0200    0.1400    2.6000   27.0000   27.0000 
2929.8900   26.3400    2.3800    0.0200    0.1400    2.4900   27.0000   27.0000 
2930.0424   28.8600    2.3600    0.0100    0.1400    2.4700   27.0000   27.0000 
2930.1948   29.6200    2.3700    0.0200    0.1500    2.4700   27.0000   27.0000 
2930.3472   28.6300    2.3600    0.0200    0.1500    2.6300   27.0000   27.0000 
2930.4996   26.9200    2.3700    0.0200    0.1500    2.8400   27.0000   27.0000 
2930.6520   28.7400    2.3700    0.0200    0.1600    2.9300   27.0000   27.0000 
2930.8044   31.0200    2.3900    0.0200    0.1500    3.0000   27.0000   27.0000 
2930.9568   32.6900    2.3900    0.0200    0.1500    3.0900   27.0000   27.0000 
2931.1092   30.6000    2.3800    0.0200    0.1400    3.1000   27.0000   27.0000 
2931.2616   28.6300    2.3800    0.0100    0.1400    2.9800   27.0000   27.0000 
2931.4140   27.9800    2.3800    0.0200    0.1400    2.8900   27.0000   27.0000 
2931.5664   30.7000    2.3900    0.0200    0.1500    3.0500   27.0000   27.0000 
2931.7188   40.1600    2.4000    0.0300    0.1700    3.0800   27.0000   36.0000 
2931.8712   64.7900    2.3800    0.0200    0.1800    3.3000   27.0000   36.0000 
2932.0236   88.1700    2.3700    0.0200    0.1900    3.3700   27.0000   36.0000 
2932.1760   94.1900    2.3700    0.0200    0.1800    3.3100   27.0000   36.0000 
2932.3284   77.7100    2.3800    0.0200    0.2000    2.9800   37.0000   37.0000 
2932.4808   58.1400    2.3900    0.0300    0.2100    2.5900   37.0000   37.0000 
2932.6332   47.6000    2.3900    0.0300    0.1900    2.5200   37.0000   37.0000 
2932.7856   43.0700    2.4000    0.0300    0.1600    2.4900   27.0000   36.0000 
2932.9380   39.8000    2.3900    0.0300    0.1400    2.5400   27.0000   27.0000 
2933.0904   39.8400    2.3800    0.0200    0.1300    2.5600   27.0000   27.0000 
2933.2428   42.5400    2.4100    0.0300    0.1300    2.5100   27.0000   27.0000 
2933.3952   49.6500    2.4100    0.0200    0.1400    2.3800   27.0000   27.0000 
2933.5476   68.2100    2.4200    0.0300    0.1500    2.3500   27.0000   36.0000 
2933.7000   92.4300    2.4100    0.0200    0.1700    2.4900   37.0000   36.0000 
2933.8524  108.7900    2.4300    0.0400    0.1900    2.5900   37.0000   37.0000 
2934.0048  103.3600    2.4100    0.0300    0.1900    2.7200   37.0000   37.0000 
2934.1572   88.6600    2.3800    0.0300    0.1800    2.6400   27.0000   36.0000 
2934.3096   78.6100    2.3500    0.0200    0.1800    2.7700   27.0000   27.0000 
2934.4620   82.2000    2.3600    0.0200    0.1800    2.7100   27.0000   36.0000 
2934.6144   95.0700    2.4100    0.0300    0.2000    2.7100   37.0000   37.0000 
2934.7668  113.4800    2.4500    0.0300    0.2100    2.6900   37.0000   37.0000 
2934.9192  124.5200    2.4900    0.0300    0.2100    2.7100   37.0000   37.0000 
2935.0716  127.8700    2.4900    0.0100    0.1900    2.7100   37.0000   37.0000 
2935.2240  112.4500    2.5200    0.0300    0.1800    2.6900   37.0000   37.0000 
2935.3764  112.4500    2.5200    0.0300    0.1800    2.6900   37.0000   37.0000 
2935.5288  101.9100    2.5000    0.0300    0.1700    2.6900   37.0000   37.0000 
2935.6812   95.0200    2.4800    0.0300    0.1700    2.6300   37.0000   37.0000 
2935.8336   89.5600    2.4600    0.0200    0.1800    2.6300   37.0000   37.0000 
2935.9860   84.1800    2.4400    0.0200    0.1900    2.5400   37.0000   37.0000 
2936.1384   76.3600    2.3900    0.0300    0.2100    2.5300   37.0000   37.0000 
2936.2908   65.8800    2.3500    0.0200    0.2100    2.5700   37.0000   37.0000 
2936.4432   56.0600    2.3400    0.0100    0.2300    2.6200   37.0000   37.0000 
2936.5956   51.4000    2.3500    0.0100    0.2000    2.6300   27.0000   36.0000 
2936.7480   44.7900    2.3800    0.0100    0.1900    2.4400   37.0000   36.0000 
2936.9004   37.7500    2.3700    0.0100    0.1600    2.3700   27.0000   27.0000 
2937.0528   31.0900    2.3700    0.0200    0.1600    2.3800   27.0000   27.0000 
2937.2052   31.2900    2.3800    0.0200    0.1500    2.3000   27.0000   27.0000 
2937.3576   32.9400    2.3900    0.0200    0.1400    2.3300   27.0000   27.0000 
2937.5100   33.9700    2.3800    0.0200    0.1400    2.2500   27.0000   27.0000 
2937.6624   35.7000    2.3700    0.0200    0.1400    2.4500   27.0000   27.0000 
2937.8148   36.9400    2.3400    0.0100    0.1500    2.2700   27.0000   27.0000 
2937.9672   38.5200    2.3300    0.0100 -999.0000    2.3700   37.0000   37.0000 
2938.1196   39.1600    2.3200    0.0100 -999.0000    2.4400   37.0000   37.0000 
2938.2720   39.4600    2.3500    0.0200 -999.0000    2.4200   37.0000   37.0000 
2938.4244   44.0300    2.4000    0.0300 -999.0000    2.3700   37.0000   37.0000 
2938.5768   44.0300 -999.0000 -999.0000 -999.0000 -999.0000   37.0000   37.0000 
2938.7292   55.0500 -999.0000 -999.0000 -999.0000 -999.0000   37.0000   37.0000 
2938.8816   63.5000 -999.0000 -999.0000 -999.0000 -999.0000   37.0000   37.0000 
2939.0340   67.5700 -999.0000 -999.0000 -999.0000 -999.0000 -999.0000 -999.0000 
2939.1864   60.9300 -999.0000 -999.0000 -999.0000 -999.0000 -999.0000 -999.0000 
2939.3388   51.8100 -999.0000 -999.0000 -999.0000 -999.0000 -999.0000 -999.0000 
2939.4912   43.3100 -999.0000 -999.0000 -999.0000 -999.0000 -999.0000 -999.0000 
2939.6436   38.2200 -999.0000 -999.0000 -999.0000 -999.0000 -999.0000 -999.0000 
2939.7960   34.9700 -999.0000 -999.0000 -999.0000 -999.0000 -999.0000 -999.0000 
2939.9484   31.8500 -999.0000 -999.0000 -999.0000 -999.0000 -999.0000 -999.0000 
2940.1008   30.2600 -999.0000 -999.0000 -999.0000 -999.0000 -999.0000 -999.0000 
2940.2532   30.7300 -999.0000 -999.0000 -999.0000 -999.0000 -999.0000 -999.0000 
2940.4056   32.3000 -999.0000 -999.0000 -999.0000 -999.0000 -999.0000 -999.0000 
2940.5580   31.8300 -999.0000 -999.0000 -999.0000 -999.0000 -999.0000 -999.0000 
2940.7104   30.8200 -999.0000 -999.0000 -999.0000 -999.0000 -999.0000 -999.0000 
2940.8628   29.1200 -999.0000 -999.0000 -999.0000 -999.0000 -999.0000 -999.0000 
2941.0152   32.3600 -999.0000 -999.0000 -999.0000 -999.0000 -999.0000 -999.0000 
2941.1676   41.7200 -999.0000 -999.0000 -999.0000 -999.0000 -999.0000 -999.0000 
2941.3200   60.6900 -999.0000 -999.0000 -999.0000 -999.0000 -999.0000 -999.0000 
2941.4724   86.8200 -999.0000 -999.0000 -999.0000 -999.0000 -999.0000 -999.0000 
2941.6248  127.1100 -999.0000 -999.0000 -999.0000 -999.0000 -999.0000 -999.0000 
2941.7772  127.1100 -999.0000 -999.0000 -999.0000 -999.0000 -999.0000 -999.0000 
2941.9296  129.4500 -999.0000 -999.0000 -999.0000 -999.0000 -999.0000 -999.0000 
