~VERSION INFORMATION
 VERS.                 2.0:   CWLS LOG ASCII STANDARD - VERSION 2.0
 WRAP.                  NO:   SINGLE LINE PER DEPTH STEP
 CREA.                 08/01/2018 13:34:12
#CREATED USING DSPetro VERSION 5000.10.1.3 BY H191660 ON 08/01/2018 13:34:12
~WELL INFORMATION
#MNEM.UNIT       DATA                          DESCRIPTION MNEMONIC
#---------      ---------------------------   --------------------------
 STRT    .M         0.0000                    : START DEPTH
 STOP    .M         3099.9684                 : STOP DEPTH
 STEP    .M         0.1524                    : STEP VALUE
 NULL    .      -999.0000                     : NULL VALUE
 DATE    .      08/01/2018                    : LAS file Creation Date
 WELL .      1849_Huascaran-1            : Well Name
 COMP .      Neftex Exploration Insights : Company
 FLD  .                                  : Field
 UWI  .      ZAUWL_005236                : Unique Well Identifier (UWI)
 LOC  .                                  : Location
 RWS  .      -999                        : Def_Rw
 WST  .      -999                        : Def_Rwt
 SRVC .                                  : Contractor
~CURVE INFORMATION
#MNEM              UNIT       API CODE   Curve Type Comments
#----------  --------------- ----------  ---------- -----------
 DEPTH      .M                         : Depth       
 GR_API     .API                       : gammaRay    Gamma Ray (API) - Measures the intensity of natural gamma-ray radiation emitted from formations containing radioactive elements, such as K, Th and U
 RHOB_G_CC  .g/cc                      : density     Bulk Density - Measures the density of bulk material, including any void space or other materials contained in the subject volume
 DRHO_G_CC  .g/cc                      : drho        Density Correction - Investigates the correction to the Bulk Density log; used as an indication of hole condition to validate the Bulk Density measure
 NPHI_v/v   .usl                       : neutron     Neutron Porosity - Measured with an neutron logging device calibrated to a given matrix (limestone, sandstone and dolomite) - unscaled
 PEF_B_E    .b/e-                      : PEF         Photoelectric Factor - A log of photoelectric absorption properties. Often expressed in an approximation unit barns/electron (b/e-)
 LITH       .                          : LITH        Lithology Curve
 LITH_v2    .                          : LITH        Lithology Curve
~A  DEPTH   GR_API  RHOB_G_C  DRHO_G_C   NPHI_v/v  PEF_B_E     LITH    LITH_v2  
# ...
2655.4176  128.9000    2.5400    0.0400    0.3000    4.1500   37.0000   37.0000 
2655.5700  126.6800    2.5500    0.0400    0.3200    4.1700   37.0000   37.0000 
2655.7224  122.7200    2.5600    0.0500    0.3100    4.1400   37.0000   37.0000 
2655.8748  119.3200    2.5600    0.0500    0.3100    4.3700   37.0000   37.0000 
2656.0272  120.1800    2.5500    0.0400    0.2900    4.4200   37.0000   37.0000 
2656.1796  121.9500    2.5400    0.0400    0.3000    4.4200   37.0000   37.0000 
2656.3320  122.6800    2.5500    0.0500    0.3000    4.1700   37.0000   37.0000 
2656.4844  121.6700    2.5500    0.0600    0.3000    4.2400   37.0000   37.0000 
2656.6368  119.5400    2.5700    0.0600    0.2800    4.4000   37.0000   37.0000 
2656.7892  119.8800    2.5800    0.0700    0.2900    4.5800   37.0000   37.0000 
2656.9416  121.6500    2.5800    0.0700    0.2800    4.6200   37.0000   37.0000 
2657.0940  123.8100    2.5600    0.0700    0.2900    4.6000   37.0000   37.0000 
2657.2464  124.0400    2.5400    0.0700    0.2800    4.4800   37.0000   37.0000 
2657.3988  123.1200    2.5200    0.0600    0.2900    4.3100   37.0000   37.0000 
2657.5512  121.5600    2.5200    0.0600    0.2900    4.3000   37.0000   37.0000 
2657.7036  120.5300    2.5300    0.0600    0.2700    4.3400   37.0000   37.0000 
2657.8560  121.6400    2.5400    0.0600    0.2800    4.3900   37.0000   37.0000 
2658.0084  124.2200    2.5500    0.0700    0.2800    4.3800   37.0000   37.0000 
2658.1608  125.9700    2.5500    0.0600    0.3000    4.3900   37.0000   37.0000 
2658.3132  127.6100    2.5500    0.0600    0.2900    4.4100   37.0000   37.0000 
2658.4656  126.9200    2.5500    0.0500    0.2900    4.4200   37.0000   37.0000 
2658.6180  126.1700    2.5600    0.0600    0.2800    4.5000   37.0000   37.0000 
2658.7704  125.1000    2.5800    0.0700    0.2800    4.5700   37.0000   37.0000 
2658.9228  126.0300    2.5600    0.0700    0.2800    4.5800   37.0000   37.0000 
2659.0752  127.5600    2.5400    0.0700    0.2700    4.4800   37.0000   37.0000 
2659.2276  127.7500    2.5300    0.0600    0.2800    4.4200   37.0000   37.0000 
2659.3800  127.2200    2.5300    0.0600    0.2800    4.3100   37.0000   37.0000 
2659.5324  128.6300    2.5500    0.0600    0.2900    4.2700   37.0000   37.0000 
2659.6848  129.7900    2.5500    0.0600    0.2900    4.3200   37.0000   37.0000 
2659.8372  130.3400    2.5600    0.0600    0.3000    4.4200   37.0000   37.0000 
2659.9896  128.5300    2.5600    0.0600    0.3000    4.3700   37.0000   37.0000 
2660.1420  128.4600    2.5600    0.0700    0.2900    4.4300   37.0000   37.0000 
2660.2944  130.3800    2.5500    0.0700    0.2800    4.5000   37.0000   37.0000 
2660.4468  132.8400    2.5400    0.0700    0.2800    4.5100   37.0000   37.0000 
2660.5992  133.7100    2.5300    0.0600    0.2800    4.3900   37.0000   37.0000 
2660.7516  133.5500    2.5200    0.0600    0.2700    4.3700   37.0000   37.0000 
2660.9040  134.3200    2.5200    0.0600    0.2800    4.4600   37.0000   37.0000 
2661.0564  136.8000    2.5200    0.0600    0.2800    4.5100   37.0000   37.0000 
2661.2088  139.2300    2.5400    0.0600    0.2900    4.4300   37.0000   37.0000 
2661.3612  139.5000    2.5500    0.0700    0.2700    4.3000   37.0000   37.0000 
2661.5136  136.4800    2.5400    0.0800    0.2800    4.2300   37.0000   37.0000 
2661.6660  133.5100    2.5400    0.0700    0.2900    4.4200   37.0000   37.0000 
2661.8184  132.1800    2.5400    0.0700    0.3100    4.6400   37.0000   37.0000 
2661.9708  131.9200    2.5400    0.0700    0.3100    4.6300   37.0000   37.0000 
2662.1232  132.4400    2.5200    0.0600    0.3200    4.3700   37.0000   37.0000 
2662.2756  131.8600    2.5100    0.0600    0.3200    4.2000   37.0000   37.0000 
2662.4280  131.4500    2.5200    0.0600    0.3100    4.1700   37.0000   37.0000 
2662.5804  129.5000    2.5200    0.0600    0.3000    4.0900   37.0000   37.0000 
2662.7328  128.1900    2.5200    0.0600    0.3000    3.9500   37.0000   37.0000 
2662.8852  128.8600    2.5200    0.0700    0.3100    3.8800   37.0000   37.0000 
2663.0376  130.4200    2.5200    0.0600    0.3200    3.9400   37.0000   37.0000 
2663.1900  132.0100    2.5400    0.0600    0.3300    4.1100   37.0000   37.0000 
2663.3424  130.9800    2.5300    0.0500    0.3100    4.1900   37.0000   37.0000 
2663.4948  130.4300    2.5300    0.0500    0.3000    4.0800   37.0000   37.0000 
2663.6472  132.0500    2.5300    0.0500    0.2900    4.0100   37.0000   37.0000 
2663.7996  132.3600    2.5300    0.0500    0.2900    3.9700   37.0000   37.0000 
2663.9520  132.2700    2.5400    0.0500    0.2900    3.9900   37.0000   37.0000 
2664.1044  131.9100    2.5200    0.0400    0.2900    3.9100   37.0000   37.0000 
2664.2568  132.5200    2.5400    0.0500    0.2900    4.0400   37.0000   37.0000 
2664.4092  133.0500    2.5500    0.0600    0.2800    4.1900   37.0000   37.0000 
2664.5616  131.8100    2.5600    0.0700    0.2800    4.3600   37.0000   37.0000 
2664.7140  130.3500    2.5400    0.0700    0.2800    4.3600   37.0000   37.0000 
2664.8664  130.0200    2.5400    0.0700    0.2900    4.3900   37.0000   37.0000 
2665.0188  128.4200    2.5500    0.0700    0.2800    4.3600   37.0000   37.0000 
2665.1712  129.5900    2.5600    0.0800    0.2900    4.3400   37.0000   37.0000 
2665.3236  128.7500    2.5500    0.0700    0.2900    4.2900   37.0000   37.0000 
2665.4760  129.6100    2.5400    0.0600    0.2900    4.3100   37.0000   37.0000 
2665.6284  128.7300    2.5300    0.0600    0.2800    4.3000   37.0000   37.0000 
2665.7808  128.9900    2.5200    0.0500    0.2900    4.2200   37.0000   37.0000 
2665.9332  128.3600    2.5300    0.0500    0.2800    4.2200   37.0000   37.0000 
2666.0856  128.8300    2.5300    0.0500    0.2800    4.3000   37.0000   37.0000 
2666.2380  129.1500    2.5300    0.0500    0.2800    4.4200   37.0000   37.0000 
2666.3904  129.6100    2.5200    0.0400    0.2800    4.4100   37.0000   37.0000 
2666.5428  129.2000    2.5100    0.0500    0.2900    4.2800   37.0000   37.0000 
2666.6952  127.2900    2.5100    0.0500    0.2900    4.2000   37.0000   37.0000 
2666.8476  124.5200    2.5300    0.0600    0.2900    4.1800   37.0000   37.0000 
2667.0000  124.8100    2.5400    0.0500    0.2900    4.2300   37.0000   37.0000 
2667.1524  125.0100    2.5400    0.0500    0.2900    4.2000   37.0000   37.0000 
2667.3048  125.6800    2.5300    0.0300    0.2900    4.0900   37.0000   37.0000 
2667.4572  124.6700    2.5300    0.0300    0.2900    3.9400   37.0000   37.0000 
2667.6096  123.9200    2.5300    0.0200    0.2900    3.8400   37.0000   37.0000 
2667.7620  125.4700    2.5500    0.0300    0.2800    3.8300   37.0000   37.0000 
2667.9144  126.1600    2.5600    0.0300    0.2900    3.9700   37.0000   37.0000 
2668.0668  126.3300    2.5800    0.0300    0.3000    4.3400   37.0000   37.0000 
2668.2192  126.2700    2.5800    0.0300    0.2900    4.3400   37.0000   37.0000 
2668.3716  126.1300    2.5500    0.0300    0.2800    4.3100   37.0000   37.0000 
2668.5240  126.2700    2.5300    0.0400    0.2800    4.1000   37.0000   37.0000 
2668.6764  126.2700    2.5300    0.0400    0.2800    4.1000   37.0000   37.0000 
2668.8288  125.1300    2.5400    0.0400    0.2800    4.0500   37.0000   37.0000 
2668.9812  124.6500    2.5500    0.0400    0.2800    3.8900   37.0000   37.0000 
2669.1336  124.8900    2.5600    0.0400    0.2800    3.8300   37.0000   37.0000 
2669.2860  126.3800    2.5500    0.0400    0.2700    3.8200   37.0000   37.0000 
2669.4384  127.5500    2.5500    0.0400    0.2700    3.9400   37.0000   37.0000 
2669.5908  129.1100    2.5400    0.0400    0.2600    3.9400   37.0000   37.0000 
2669.7432  128.7500    2.5400    0.0400    0.2700    3.9200   37.0000   37.0000 
2669.8956  129.3800    2.5300    0.0400    0.2800    4.0200   37.0000   37.0000 
2670.0480  129.2800    2.5300    0.0400    0.2800    4.1500   37.0000   37.0000 
2670.2004  131.2100    2.5400    0.0500    0.2800    4.3400   37.0000   37.0000 
2670.3528  132.1900    2.5400    0.0500    0.2800    4.2500   37.0000   37.0000 
