~VERSION INFORMATION
 VERS.                 2.0:   CWLS LOG ASCII STANDARD - VERSION 2.0
 WRAP.                  NO:   SINGLE LINE PER DEPTH STEP
 CREA.                 08/01/2018 13:34:12
#CREATED USING DSPetro VERSION 5000.10.1.3 BY H191660 ON 08/01/2018 13:34:12
~WELL INFORMATION
#MNEM.UNIT       DATA                          DESCRIPTION MNEMONIC
#---------      ---------------------------   --------------------------
 STRT    .M         0.0000                    : START DEPTH
 STOP    .M         3099.9684                 : STOP DEPTH
 STEP    .M         0.1524                    : STEP VALUE
 NULL    .      -999.0000                     : NULL VALUE
 DATE    .      08/01/2018                    : LAS file Creation Date
 WELL .      1849_Huascaran-1            : Well Name
 COMP .      Neftex Exploration Insights : Company
 FLD  .                                  : Field
 UWI  .      ZAUWL_005236                : Unique Well Identifier (UWI)
 LOC  .                                  : Location
 RWS  .      -999                        : Def_Rw
 WST  .      -999                        : Def_Rwt
 SRVC .                                  : Contractor
~CURVE INFORMATION
#MNEM              UNIT       API CODE   Curve Type Comments
#----------  --------------- ----------  ---------- -----------
 DEPTH      .M                         : Depth       
 GR_API     .API                       : gammaRay    Gamma Ray (API) - Measures the intensity of natural gamma-ray radiation emitted from formations containing radioactive elements, such as K, Th and U
 RHOB_G_CC  .g/cc                      : density     Bulk Density - Measures the density of bulk material, including any void space or other materials contained in the subject volume
 DRHO_G_CC  .g/cc                      : drho        Density Correction - Investigates the correction to the Bulk Density log; used as an indication of hole condition to validate the Bulk Density measure
 NPHI_v/v   .usl                       : neutron     Neutron Porosity - Measured with an neutron logging device calibrated to a given matrix (limestone, sandstone and dolomite) - unscaled
 PEF_B_E    .b/e-                      : PEF         Photoelectric Factor - A log of photoelectric absorption properties. Often expressed in an approximation unit barns/electron (b/e-)
 LITH       .                          : LITH        Lithology Curve
 LITH_v2    .                          : LITH        Lithology Curve
~A  DEPTH   GR_API  RHOB_G_C  DRHO_G_C   NPHI_v/v  PEF_B_E     LITH    LITH_v2  
# ...
2549.8044  108.9900    2.6600   -0.3800    0.4800   15.0800   11.0000    3.0000 
2549.9568  107.5900    2.6600   -0.3800    0.4700   15.0800   11.0000    3.0000 
2550.1092  105.9000    2.7000   -0.3300    0.4500   15.2100   11.0000    3.0000 
2550.2616  106.5500    2.6400   -0.3200    0.4400   15.7900   11.0000    3.0000 
2550.4140  108.1700    2.5900   -0.3000    0.4300   16.6600   11.0000    3.0000 
2550.5664  108.6700    2.5100   -0.3200    0.4300   17.1500   11.0000    3.0000 
2550.7188  108.1500    2.5100   -0.3200    0.4300   17.1500   11.0000    3.0000 
2550.8712  107.5400    2.5100   -0.3200    0.4300   17.1500   11.0000    3.0000 
2551.0236  107.6000    2.5000   -0.3200    0.4300   17.2800   11.0000    3.0000 
2551.1760  106.1200    2.4900   -0.3200    0.4200   17.3700   11.0000    3.0000 
2551.3284  105.0000    2.4900   -0.3300    0.4200   17.4100   11.0000    3.0000 
2551.4808  103.2200    2.4900   -0.3300    0.4200   17.4100   11.0000    3.0000 
2551.6332  103.5200    2.4900   -0.3300    0.4200   17.4100   11.0000    3.0000 
2551.7856  107.1600    2.4900   -0.3300    0.4300   17.7600   11.0000    3.0000 
2551.9380  111.0300    2.5000   -0.3300    0.4300   17.8200   11.0000    3.0000 
2552.0904  114.4800    2.5200   -0.3200    0.4300   17.9800   11.0000    3.0000 
2552.2428  111.6000    2.5500   -0.3200    0.4300   17.8600   11.0000    3.0000 
2552.3952  110.4000    2.5500   -0.3200    0.4300   17.8600   11.0000    3.0000 
2552.5476  108.2800    2.5500   -0.3200    0.4300   17.8600   11.0000    3.0000 
2552.7000  108.1400    2.5500   -0.3200    0.4300   17.6300   11.0000    3.0000 
2552.8524  109.4200    2.5500   -0.3100    0.4300   17.4800   11.0000    3.0000 
2553.0048  111.5800    2.5600   -0.3100    0.4300   17.3100   11.0000    3.0000 
2553.1572  111.0300    2.5700   -0.3100    0.4300   17.2000   11.0000    3.0000 
2553.3096  108.1600    2.5700   -0.3100    0.4300   17.2000   11.0000    3.0000 
2553.4620  106.0400    2.5700   -0.3100    0.4500   17.2000   11.0000    3.0000 
2553.6144  107.3000    2.5700   -0.3100    0.4800   16.9500   11.0000    3.0000 
2553.7668  107.3000    2.5500   -0.3200    0.5100   17.0400   11.0000    3.0000 
2553.9192  106.2900    2.5400   -0.3200    0.5100   17.2100   11.0000    3.0000 
2554.0716  104.8800    2.5300   -0.3200    0.5100   17.2500   11.0000    3.0000 
2554.2240  108.1300    2.5300   -0.3200    0.4900   17.2500   11.0000    3.0000 
2554.3764  108.1300    2.5300   -0.3200    0.4900   17.2500   11.0000    3.0000 
2554.5288  109.0500    2.5500   -0.3100    0.5100   17.2600   11.0000    3.0000 
2554.6812  109.7100    2.5700   -0.3100    0.4900   17.4900   11.0000    3.0000 
2554.8336  108.5900    2.6000   -0.3000    0.4900   18.0100   11.0000    3.0000 
2554.9860  108.0700    2.6000   -0.3000    0.4500   18.0100   11.0000    3.0000 
2555.1384  106.4700    2.6000   -0.3000    0.4700   18.0100   11.0000    3.0000 
2555.2908  106.7300    2.5900   -0.3100    0.4700   17.5500   11.0000    3.0000 
2555.4432  106.9200    2.5700   -0.3200    0.4700   17.7800   11.0000    3.0000 
2555.5956  108.6900    2.5600   -0.3300    0.4800   18.3700   11.0000    3.0000 
2555.7480  107.3800    2.5600   -0.3400    0.4800   18.6700   11.0000    3.0000 
2555.9004  108.2400    2.5700   -0.3400    0.4800   17.8400   11.0000    3.0000 
2556.0528  105.3700    2.5700   -0.3400    0.4400   17.3400   11.0000    3.0000 
2556.2052  105.0500    2.5800   -0.3400    0.4600   17.0900   11.0000    3.0000 
2556.3576  103.5700    2.5800   -0.3300    0.4300   17.3100   11.0000    3.0000 
2556.5100  104.6600    2.5800   -0.3300    0.4400   17.3100   11.0000    3.0000 
2556.6624  104.5700    2.5700   -0.3300    0.4000   17.4400   11.0000    3.0000 
2556.8148  104.7800    2.5700   -0.3300    0.4500   17.7400   11.0000    3.0000 
2556.9672  106.2800    2.5600   -0.3300    0.4600   17.0500   11.0000    3.0000 
2557.1196  106.6200    2.5600   -0.3300    0.4700   17.3000   11.0000    3.0000 
2557.2720  105.6700    2.5700   -0.3300    0.4800   16.9400   11.0000    3.0000 
2557.4244  107.4400    2.5800   -0.3500    0.4500   18.8400   11.0000    3.0000 
2557.5768  107.4400    2.5800   -0.3500    0.4500   18.8400   11.0000    3.0000 
2557.7292  107.9900    2.5800   -0.3600    0.4200   19.1500   11.0000    3.0000 
2557.8816  104.4200    2.5700   -0.3600    0.4300   19.5600   11.0000    3.0000 
2558.0340  102.4500    2.5700   -0.3500    0.4700   19.8900   11.0000    3.0000 
2558.1864  102.7300    2.5600   -0.3500    0.5000   19.9300   11.0000    3.0000 
2558.3388  105.9400    2.5800   -0.3600    0.5300   19.6300   11.0000    3.0000 
2558.4912  108.3400    2.6000   -0.3500    0.5200   18.5400   11.0000    3.0000 
2558.6436  107.9100    2.6600   -0.3300    0.5300   18.6900   11.0000    3.0000 
2558.7960  110.0000    2.6800   -0.3400    0.4600   18.4200   11.0000    3.0000 
2558.9484  109.7000    2.7500   -0.3300    0.4200   17.7900   11.0000    3.0000 
2559.1008  111.3100    2.7400   -0.3500    0.3900   17.8600   11.0000    3.0000 
2559.2532  109.5300    2.7800   -0.3400    0.4000   16.9000   11.0000    3.0000 
2559.4056  109.1000    2.6800   -0.3500    0.4300   17.1100   11.0000    3.0000 
2559.5580  109.3600    2.6400   -0.3400    0.4700   16.9800   11.0000    3.0000 
2559.7104  107.3200    2.5800   -0.3300    0.4900   17.1600   11.0000    3.0000 
2559.8628  107.0900    2.5700   -0.3200    0.4800   16.9800   11.0000    3.0000 
2560.0152  107.0800    2.5500   -0.3200    0.4300   17.1700   11.0000    3.0000 
2560.1676  108.8400    2.5500   -0.3200    0.4600   17.2500   11.0000    3.0000 
2560.3200  111.5100    2.5400   -0.3200    0.4800   17.2200   11.0000    3.0000 
2560.4724  110.9200    2.5300   -0.3300    0.5200   17.1900   11.0000    3.0000 
2560.6248  107.2100    2.5600   -0.3300    0.4700   16.9600   11.0000    3.0000 
2560.7772  107.2100    2.5600   -0.3300    0.4700   16.9600   11.0000    3.0000 
2560.9296  107.6400    2.5600   -0.3300    0.4400   16.8100   11.0000    3.0000 
2561.0820  107.3100    2.5700   -0.3300    0.4600   17.2700   11.0000    3.0000 
2561.2344  105.3500    2.5800   -0.3300    0.4600   16.9600   11.0000    3.0000 
2561.3868  102.2900    2.5900   -0.3300    0.4800   17.0500   11.0000    3.0000 
2561.5392  101.9700    2.5600   -0.3400    0.4300   17.1000   11.0000    3.0000 
2561.6916  102.7600    2.5400   -0.3400    0.3900   17.8800   11.0000    3.0000 
2561.8440  102.4900    2.5400   -0.3500    0.3800   17.6700   11.0000    3.0000 
2561.9964  104.0300    2.5600   -0.3300    0.4500   17.0400   11.0000    3.0000 
2562.1488  104.7100    2.5700   -0.3300    0.5000   16.2200   11.0000    3.0000 
2562.3012  108.8500    2.5900   -0.3100    0.5100   16.5800   11.0000    3.0000 
2562.4536  108.7800    2.5800   -0.3100    0.4800   17.1600   11.0000    3.0000 
2562.6060  108.5800    2.5600   -0.3100    0.4600   17.1100   11.0000    3.0000 
2562.7584  106.3800    2.5400   -0.3200    0.4300   16.7300   11.0000    3.0000 
2562.9108  105.8600    2.5500   -0.3200    0.4100   16.5000   11.0000    3.0000 
2563.0632  107.7600    2.5400   -0.3300    0.4300   17.0000   11.0000    3.0000 
2563.2156  110.0800    2.5400   -0.3300    0.4500   17.1700   11.0000    3.0000 
2563.3680  110.5900    2.5200   -0.3300    0.4900   16.8500   11.0000    3.0000 
2563.5204  109.9800    2.5400   -0.3200    0.4900   16.6400   11.0000    3.0000 
2563.6728  110.8000    2.5600   -0.3100    0.4700   15.8300   11.0000    3.0000 
2563.8252  112.3100    2.5800   -0.3100    0.4100   16.5100   11.0000    3.0000 
2563.9776  112.6300    2.5300   -0.3300    0.3700   16.7600   11.0000    3.0000 
2564.1300  111.6600    2.5300   -0.3300    0.3700   16.3600   11.0000    3.0000 
2564.2824  109.6900    2.5400   -0.3300    0.4100   15.9300   11.0000    3.0000 
2564.4348  107.5100    2.5200   -0.3400    0.4800   15.7400   11.0000    3.0000 
2564.5872  105.5800    2.5400   -0.3300    0.5000   15.4900   11.0000    3.0000 
2564.7396  105.1300    2.5800   -0.3200    0.5300   16.1300   11.0000    3.0000 
