~VERSION INFORMATION
 VERS.                 2.0:   CWLS LOG ASCII STANDARD - VERSION 2.0
 WRAP.                  NO:   SINGLE LINE PER DEPTH STEP
 CREA.                 08/01/2018 13:34:12
#CREATED USING DSPetro VERSION 5000.10.1.3 BY H191660 ON 08/01/2018 13:34:12
~WELL INFORMATION
#MNEM.UNIT       DATA                          DESCRIPTION MNEMONIC
#---------      ---------------------------   --------------------------
 STRT    .M         0.0000                    : START DEPTH
 STOP    .M         3099.9684                 : STOP DEPTH
 STEP    .M         0.1524                    : STEP VALUE
 NULL    .      -999.0000                     : NULL VALUE
 DATE    .      08/01/2018                    : LAS file Creation Date
 WELL .      1849_Huascaran-1            : Well Name
 COMP .      Neftex Exploration Insights : Company
 FLD  .                                  : Field
 UWI  .      ZAUWL_005236                : Unique Well Identifier (UWI)
 LOC  .                                  : Location
 RWS  .      -999                        : Def_Rw
 WST  .      -999                        : Def_Rwt
 SRVC .                                  : Contractor
~CURVE INFORMATION
#MNEM              UNIT       API CODE   Curve Type Comments
#----------  --------------- ----------  ---------- -----------
 DEPTH      .M                         : Depth       
 GR_API     .API                       : gammaRay    Gamma Ray (API) - Measures the intensity of natural gamma-ray radiation emitted from formations containing radioactive elements, such as K, Th and U
 RHOB_G_CC  .g/cc                      : density     Bulk Density - Measures the density of bulk material, including any void space or other materials contained in the subject volume
 DRHO_G_CC  .g/cc                      : drho        Density Correction - Investigates the correction to the Bulk Density log; used as an indication of hole condition to validate the Bulk Density measure
 NPHI_v/v   .usl                       : neutron     Neutron Porosity - Measured with an neutron logging device calibrated to a given matrix (limestone, sandstone and dolomite) - unscaled
 PEF_B_E    .b/e-                      : PEF         Photoelectric Factor - A log of photoelectric absorption properties. Often expressed in an approximation unit barns/electron (b/e-)
 LITH       .                          : LITH        Lithology Curve
 LITH_v2    .                          : LITH        Lithology Curve
~A  DEPTH   GR_API  RHOB_G_C  DRHO_G_C   NPHI_v/v  PEF_B_E     LITH    LITH_v2  
# ...
2896.8192  104.3500    2.5500    0.0300    0.2800    2.8200   37.0000   37.0000 
2896.9716  126.2000    2.5600    0.0300    0.3100    2.6800   37.0000   37.0000 
2897.1240  147.4000    2.5000    0.0300    0.2400    2.7800   37.0000   37.0000 
2897.2764  147.4000    2.5000    0.0300    0.2400    2.7800   37.0000   37.0000 
2897.4288  144.1700    2.4800    0.0300    0.2900    2.8400   37.0000   37.0000 
2897.5812  139.3900    2.4400    0.0300    0.3000    2.8700   37.0000   37.0000 
2897.7336  138.6400    2.4100    0.0300    0.4900    3.2700   10.0000   37.0000 
2897.8860  134.4300    2.3700    0.0300    0.4000    3.1500   10.0000   37.0000 
2898.0384  119.6100    2.3600    0.0200    0.3800    3.0100   10.0000   37.0000 
2898.1908   96.0400    2.3500    0.0200    0.3200    2.5500   10.0000   37.0000 
2898.3432   77.6300    2.3600    0.0300    0.2900    2.6000   37.0000   37.0000 
2898.4956   73.0200    2.3500    0.0500    0.2400    2.6700   36.0000   36.0000 
2898.6480   70.2300    2.3300    0.0300    0.2200    2.7200   36.0000   36.0000 
2898.8004   63.3400    2.3100    0.0300    0.1900    2.6100   36.0000   27.0000 
2898.9528   55.8500    2.3200    0.0300    0.1900    2.5600   36.0000   27.0000 
2899.1052   56.2000    2.3100    0.0200    0.1800    2.5400   36.0000   27.0000 
2899.2576   60.1300    2.3100    0.0200    0.1900    2.6400   36.0000   27.0000 
2899.4100   58.6000    2.3100    0.0100    0.1900    2.7900   36.0000   27.0000 
2899.5624   52.5300    2.3200    0.0200    0.2000    2.7600   36.0000   27.0000 
2899.7148   47.2300    2.3100    0.0300    0.1900    2.8100   27.0000   27.0000 
2899.8672   47.4500    2.3200    0.0300    0.1900    2.6000   27.0000   27.0000 
2900.0196   54.1100    2.3300    0.0200    0.1800    2.7000   27.0000   27.0000 
2900.1720   65.5300    2.3500    0.0200    0.2000    2.7800   27.0000   36.0000 
2900.3244  100.7100    2.3900    0.0200    0.2400    2.9700   37.0000   37.0000 
2900.4768  100.7100    2.3900    0.0200    0.2400    2.9700   37.0000   37.0000 
2900.6292  116.6900    2.4200    0.0200    0.2400    2.9700   37.0000   37.0000 
2900.7816  125.7200    2.4200    0.0200    0.2500    2.8800   37.0000   37.0000 
2900.9340  126.6800    2.4300    0.0300    0.2400    2.9100   37.0000   37.0000 
2901.0864  125.5200    2.4400    0.0200    0.2400    2.9000   37.0000   37.0000 
2901.2388  128.6800    2.4700    0.0300    0.2200    3.0100   37.0000   37.0000 
2901.3912  128.3800    2.4700    0.0300    0.2000    2.7700   37.0000   37.0000 
2901.5436  119.5000    2.4400    0.0300    0.2000    2.5700   37.0000   37.0000 
2901.6960   98.1700    2.4100    0.0300    0.1800    2.4500   36.0000   36.0000 
2901.8484   76.8800    2.3700    0.0300    0.1900    2.6000   36.0000   36.0000 
2902.0008   65.2300    2.3800    0.0400    0.1900    2.8200   36.0000   36.0000 
2902.1532   69.6000    2.3900    0.0300    0.2100    2.8400   37.0000   37.0000 
2902.3056   82.5600    2.4000    0.0300    0.2100    2.7000   37.0000   37.0000 
2902.4580   89.7900    2.3700    0.0200    0.2100    2.7000   37.0000   37.0000 
2902.6104   85.5400    2.3500    0.0300    0.2200    2.8400   37.0000   37.0000 
2902.7628   81.4400    2.3700    0.0300    0.2300    2.7300   37.0000   37.0000 
2902.9152   89.2700    2.4000    0.0400    0.2400    2.7300   37.0000   37.0000 
2903.0676  105.9900    2.4200    0.0200    0.2500    2.3800   37.0000   37.0000 
2903.2200  118.6700    2.4300    0.0300    0.2300    2.4900   37.0000   37.0000 
2903.3724  113.3600    2.4100    0.0300    0.1900    2.4300   37.0000   37.0000 
2903.5248   76.9700    2.3700    0.0300    0.1400    2.6900   37.0000   27.0000 
2903.6772   76.9700    2.3700    0.0300    0.1400    2.6900   36.0000   27.0000 
2903.8296   77.3200    2.3100    0.0100    0.1700    2.9000   36.0000   27.0000 
2903.9820   89.4700    2.2700    0.0100    0.2100    3.0200   36.0000   27.0000 
2904.1344   95.2000    2.2500    0.0000    0.2600    2.9800   37.0000   36.0000 
2904.2868   95.4200    2.3200    0.0100    0.2600    2.6200   37.0000   37.0000 
2904.4392   86.3000    2.3900    0.0100    0.2200    2.4600   37.0000   37.0000 
2904.5916   68.5000    2.4300    0.0300    0.1900    2.8000   37.0000   37.0000 
2904.7440   47.4800    2.3600    0.0300    0.1700    3.0100   27.0000   27.0000 
2904.8964   44.1600    2.3000    0.0200    0.2100    3.2000   27.0000   36.0000 
2905.0488   68.6400    2.3000    0.0300    0.2600    2.9900   37.0000   37.0000 
2905.2012  104.1600    2.3500    0.0300    0.3000    2.9300   37.0000   37.0000 
2905.3536  128.5600    2.3900    0.0300    0.2600    2.8800   37.0000   37.0000 
2905.5060  131.6900    2.3800    0.0300    0.2400    2.8000   37.0000   37.0000 
2905.6584  124.3700    2.3600    0.0200    0.2000    2.6700   27.0000   27.0000 
2905.8108  113.5400    2.3700    0.0300    0.1900    2.5500   27.0000   36.0000 
2905.9632   98.2300    2.3600    0.0200    0.1800    2.4300   27.0000   36.0000 
2906.1156   83.3200    2.3700    0.0300    0.1700    2.4100   27.0000   36.0000 
2906.2680   69.0900    2.3900    0.0300    0.1500    2.4900   27.0000   27.0000 
2906.4204   61.1500    2.4000    0.0300    0.1500    2.5400   27.0000   36.0000 
2906.5728   55.1400    2.4000    0.0300    0.1500    2.7100   27.0000   27.0000 
2906.7252   54.9400    2.4100    0.0400    0.1600    2.7100   27.0000   36.0000 
2906.8776   62.6400    2.4500    0.0500    0.1600    2.6600   37.0000   37.0000 
2907.0300   78.2500    2.5000    0.0600    0.1900    2.6700   37.0000   37.0000 
2907.1824   98.2000    2.5300    0.0400    0.2100    2.6500   37.0000   37.0000 
2907.3348  115.2500    2.5300    0.0300    0.2500    2.6000   37.0000   37.0000 
2907.4872  125.7400    2.5200    0.0300    0.2800    2.6700   37.0000   37.0000 
2907.6396  132.4400    2.5100    0.0300    0.3000    2.5900   37.0000   37.0000 
2907.7920  136.6900    2.5100    0.0300    0.3200    2.6600   37.0000   37.0000 
2907.9444  142.1500    2.5100    0.0200    0.3400    2.6900   37.0000   37.0000 
2908.0968  146.8300    2.5200    0.0300    0.3400    2.8600   37.0000   37.0000 
2908.2492  148.3000    2.5000    0.0300    0.3300    2.8200   37.0000   37.0000 
2908.4016  145.6800    2.4700    0.0200    0.3000    2.9000   37.0000   37.0000 
2908.5540  131.2800    2.4700    0.0300    0.2400    2.7000   37.0000   37.0000 
2908.7064  110.3000    2.4200    0.0200    0.2100    2.6800   37.0000   37.0000 
2908.8588   86.4300    2.4300    0.0300    0.1900    2.5900   37.0000   37.0000 
2909.0112   76.9100    2.4100    0.0100    0.1800    2.8500   37.0000   37.0000 
2909.1636   75.3800    2.4200    0.0100    0.1900    3.0600   37.0000   37.0000 
2909.3160   84.1200    2.4000    0.0000    0.2000    3.1500   37.0000   37.0000 
2909.4684   91.9500    2.3500    0.0000    0.2100    2.9000   37.0000   37.0000 
2909.6208   93.1700    2.3100    0.0000    0.2200    2.7300   27.0000   36.0000 
2909.7732   81.7600    2.3100    0.0200    0.2100    2.5700   27.0000   36.0000 
2909.9256   65.3200    2.3300    0.0200    0.1900    2.5100   27.0000   36.0000 
2910.0780   52.7500    2.3600    0.0300    0.1800    2.4600   27.0000   36.0000 
2910.2304   44.2600    2.3600    0.0200    0.1600    2.4100   27.0000   27.0000 
2910.3828   38.6400    2.3400    0.0100    0.1600    2.4000   27.0000   27.0000 
2910.5352   37.2300    2.3400    0.0200    0.1700    2.4700   27.0000   27.0000 
2910.6876   40.8100    2.3200    0.0100    0.1800    2.5100   27.0000   27.0000 
2910.8400   49.4400    2.3300    0.0100    0.2000    2.5500   27.0000   36.0000 
2910.9924   60.9800    2.3200    0.0100    0.2000    2.5400   27.0000   36.0000 
2911.1448   71.5300    2.3400    0.0200    0.2200    2.6500   37.0000   37.0000 
2911.2972   82.1700    2.3500    0.0100    0.2300    2.7100   37.0000   37.0000 
2911.4496   98.4800    2.3900    0.0200    0.2400    2.8000   37.0000   37.0000 
2911.6020  116.0600    2.3900    0.0200    0.2200    2.8900   37.0000   37.0000 
2911.7544  121.2100    2.3900    0.0400    0.2200    2.9600   37.0000   37.0000 
