~VERSION INFORMATION
 VERS.                 2.0:   CWLS LOG ASCII STANDARD - VERSION 2.0
 WRAP.                  NO:   SINGLE LINE PER DEPTH STEP
 CREA.                 08/01/2018 13:34:12
#CREATED USING DSPetro VERSION 5000.10.1.3 BY H191660 ON 08/01/2018 13:34:12
~WELL INFORMATION
#MNEM.UNIT       DATA                          DESCRIPTION MNEMONIC
#---------      ---------------------------   --------------------------
 STRT    .M         0.0000                    : START DEPTH
 STOP    .M         3099.9684                 : STOP DEPTH
 STEP    .M         0.1524                    : STEP VALUE
 NULL    .      -999.0000                     : NULL VALUE
 DATE    .      08/01/2018                    : LAS file Creation Date
 WELL .      1849_Huascaran-1            : Well Name
 COMP .      Neftex Exploration Insights : Company
 FLD  .                                  : Field
 UWI  .      ZAUWL_005236                : Unique Well Identifier (UWI)
 LOC  .                                  : Location
 RWS  .      -999                        : Def_Rw
 WST  .      -999                        : Def_Rwt
 SRVC .                                  : Contractor
~CURVE INFORMATION
#MNEM              UNIT       API CODE   Curve Type Comments
#----------  --------------- ----------  ---------- -----------
 DEPTH      .M                         : Depth       
 GR_API     .API                       : gammaRay    Gamma Ray (API) - Measures the intensity of natural gamma-ray radiation emitted from formations containing radioactive elements, such as K, Th and U
 RHOB_G_CC  .g/cc                      : density     Bulk Density - Measures the density of bulk material, including any void space or other materials contained in the subject volume
 DRHO_G_CC  .g/cc                      : drho        Density Correction - Investigates the correction to the Bulk Density log; used as an indication of hole condition to validate the Bulk Density measure
 NPHI_v/v   .usl                       : neutron     Neutron Porosity - Measured with an neutron logging device calibrated to a given matrix (limestone, sandstone and dolomite) - unscaled
 PEF_B_E    .b/e-                      : PEF         Photoelectric Factor - A log of photoelectric absorption properties. Often expressed in an approximation unit barns/electron (b/e-)
 LITH       .                          : LITH        Lithology Curve
 LITH_v2    .                          : LITH        Lithology Curve
~A  DEPTH   GR_API  RHOB_G_C  DRHO_G_C   NPHI_v/v  PEF_B_E     LITH    LITH_v2  
# ...
2625.2424   60.4900    2.1300    0.1300    0.3400    7.9000   11.0000    3.0000 
2625.3948   59.0900    2.0500    0.1300    0.3000    9.4800   11.0000    3.0000 
2625.5472   58.2700    1.9800    0.1300    0.3200   11.3500   11.0000    3.0000 
2625.6996   57.4600    1.9500    0.1400    0.3000   12.3700   11.0000    3.0000 
2625.8520   62.4600    1.9400    0.1400    0.3000   12.6800   11.0000    3.0000 
2626.0044   67.4600    1.9400    0.1400    0.3200   12.6800   11.0000    3.0000 
2626.1568   79.8900    1.9400    0.1400    0.3500   12.6800   11.0000    3.0000 
2626.3092   86.8700    1.9200    0.1400    0.3700   12.6700   11.0000    3.0000 
2626.4616   93.8600    1.9100    0.1300    0.3700   12.7600   11.0000    3.0000 
2626.6140   90.8400    1.9100    0.1300    0.3700   12.8400   11.0000    3.0000 
2626.7664   88.2700    1.9200    0.1300    0.3800   12.8300   11.0000    3.0000 
2626.9188   87.5300    1.9300    0.1400    0.3500   12.8400   11.0000    3.0000 
2627.0712   92.5200    1.9100    0.1400    0.3400   13.0900   11.0000    3.0000 
2627.2236   99.7500    1.9000    0.1400    0.3300   13.3100   11.0000    3.0000 
2627.3760  106.4800    1.8700    0.1300    0.3400   13.5300   11.0000    3.0000 
2627.5284  110.0600    1.8600    0.1200    0.3400   13.6300   11.0000    3.0000 
2627.6808  110.9700    1.8600    0.1200    0.3500   13.6400   11.0000    3.0000 
2627.8332  110.5400    1.8600    0.1200    0.3600   13.6000   11.0000    3.0000 
2627.9856  113.3500    1.8700    0.1300    0.3700   13.4800   11.0000    3.0000 
2628.1380  105.5700    1.8900    0.1300    0.3700   13.3200   11.0000    3.0000 
2628.2904  105.5200    1.8900    0.1300    0.3800   13.2200   11.0000    3.0000 
2628.4428  102.2400    1.8800    0.1300    0.3600   13.1500   11.0000    3.0000 
2628.5952  109.9600    1.8800    0.1300    0.3500   13.3000   11.0000    3.0000 
2628.7476  109.9600    1.8900    0.1300    0.3300   13.3100   11.0000    3.0000 
2628.9000  109.9600    1.9000    0.1300    0.3400   13.1900   11.0000    3.0000 
2629.0524  109.9600    1.9000    0.1300    0.3400   13.0200   11.0000    3.0000 
2629.2048  112.8700    1.8900    0.1300    0.3600   13.1100   11.0000    3.0000 
2629.3572  115.7700    1.8800    0.1300    0.3700   13.1500   11.0000    3.0000 
2629.5096  118.6800    1.8800    0.1300    0.3900   13.3300   11.0000    3.0000 
2629.6620  118.6800    1.8800    0.1200    0.3900   13.4400   11.0000    3.0000 
2629.8144  118.6800    1.9000    0.1200    0.3900   13.5300   11.0000    3.0000 
2629.9668  118.6800    1.9100    0.1300    0.3600   13.3200   11.0000    3.0000 
2630.1192  106.0200    1.9200    0.1300    0.3800   13.0300   11.0000    3.0000 
2630.2716   93.3600    1.9100    0.1300    0.3700   13.1900   11.0000    3.0000 
2630.4240  101.4700    1.9000    0.1200    0.3400   13.5200   11.0000    3.0000 
2630.5764  101.4700    1.9000    0.1200    0.3400   13.5200   11.0000    3.0000 
2630.7288  111.8600    1.8900    0.1200    0.3500   14.0000   11.0000    3.0000 
2630.8812  101.3900    1.8900    0.1200    0.3700   14.1000   11.0000    3.0000 
2631.0336   90.9200    1.8800    0.1200    0.3800   14.1100   11.0000    3.0000 
2631.1860   92.4600    1.8800    0.1200    0.3800   13.9400   11.0000    3.0000 
2631.3384  104.4800    1.8900    0.1200    0.3800   13.9600   11.0000    3.0000 
2631.4908  116.4900    1.9100    0.1200    0.3700   13.8600   11.0000    3.0000 
2631.6432  116.4900    1.9100    0.1300    0.3700   13.8000   11.0000    3.0000 
2631.7956  115.5500    1.9100    0.1300    0.3700   13.8400   11.0000    3.0000 
2631.9480  114.6100    1.8900    0.1200    0.3700   13.8900   11.0000    3.0000 
2632.1004  113.6700    1.8800    0.1200    0.3700   14.0900   11.0000    3.0000 
2632.2528  113.3700    1.8700    0.1200    0.3800   14.1900   11.0000    3.0000 
2632.4052  113.0800    1.8500    0.1100    0.3900   14.6900   11.0000    3.0000 
2632.5576  112.7800    1.8500    0.1100    0.4100   14.5300   11.0000    3.0000 
2632.7100  114.1800    1.8700    0.1200    0.4000   14.0900   11.0000    3.0000 
2632.8624  114.8200    1.9000    0.1200    0.4000   13.4700   11.0000    3.0000 
2633.0148  116.7800    1.9100    0.1300    0.3700   13.3600   11.0000    3.0000 
2633.1672  117.6700    1.9300    0.1400    0.3700   13.1200   11.0000    3.0000 
2633.3196  119.4700    1.9400    0.1400    0.3500   12.9900   11.0000    3.0000 
2633.4720  119.4500    1.9300    0.1400    0.3600   12.9500   11.0000    3.0000 
2633.6244  118.0600    1.9400    0.1400    0.3700   13.0600   11.0000    3.0000 
2633.7768  118.0600    1.9400    0.1400    0.3700   13.0600   11.0000    3.0000 
2633.9292  118.5600    1.9400    0.1400    0.3700   12.9600   11.0000    3.0000 
2634.0816  120.3400    1.9400    0.1400    0.3800   12.8600   11.0000    3.0000 
2634.2340  118.9900    1.9400    0.1400    0.4100   12.7500   11.0000    3.0000 
2634.3864  116.1600    1.9400    0.1400    0.4100   12.7200   11.0000    3.0000 
2634.5388  114.9000    1.9400    0.1400    0.3900   12.9100   11.0000    3.0000 
2634.6912  115.5600    1.9400    0.1400    0.3900   13.0000   11.0000    3.0000 
2634.8436  116.1300    1.9400    0.1400    0.3900   13.0800   11.0000    3.0000 
2634.9960  115.4400    1.9400    0.1400    0.3900   13.1000   11.0000    3.0000 
2635.1484  114.5000    1.9300    0.1400    0.3800   12.9100   11.0000    3.0000 
2635.3008  114.2600    1.9300    0.1400    0.3600   12.8900   11.0000    3.0000 
2635.4532  114.7600    1.9200    0.1400    0.3700   12.6600   11.0000    3.0000 
2635.6056  116.8400    1.9300    0.1400    0.3600   12.5900   11.0000    3.0000 
2635.7580  120.2500    1.9400    0.1400    0.3600   12.6200   11.0000    3.0000 
2635.9104  123.4700    1.9400    0.1400    0.3500   12.8400   11.0000    3.0000 
2636.0628  124.6800    1.9400    0.1400    0.3500   12.7600   11.0000    3.0000 
2636.2152  122.2300    1.9300    0.1400    0.3600   12.7900   11.0000    3.0000 
2636.3676  110.6700    1.9300    0.1300    0.3700   12.7600   11.0000    3.0000 
2636.5200  105.7300    1.9300    0.1400    0.3800   12.8100   11.0000    3.0000 
2636.6724  104.2700    1.9200    0.1300    0.3600   12.7500   11.0000    3.0000 
2636.8248  117.4400    1.9100    0.1200    0.3400   13.0200   11.0000    3.0000 
2636.9772  117.4400    1.9100    0.1200    0.3400   13.0200   11.0000    3.0000 
2637.1296  122.9600    1.9200    0.1300    0.3500   13.1900   11.0000    3.0000 
2637.2820  125.2600    1.9200    0.1300    0.3600   13.1100   11.0000    3.0000 
2637.4344  126.2200    1.9300    0.1300    0.3600   13.2200   11.0000    3.0000 
2637.5868  126.7300    1.9300    0.1300    0.3500   13.3100   11.0000    3.0000 
2637.7392  128.2400    1.9200    0.1300    0.3300   13.1600   11.0000    3.0000 
2637.8916  127.8900    1.9200    0.1300    0.3300   13.0100   11.0000    3.0000 
2638.0440  126.3000    1.9200    0.1300    0.3100   12.9200   11.0000    3.0000 
2638.1964  124.6700    1.9100    0.1200    0.3200   12.9000   11.0000    3.0000 
2638.3488  124.8000    1.9100    0.1200    0.3100   12.9200   11.0000    3.0000 
2638.5012  123.8200    1.9100    0.1200    0.3400   12.7000   11.0000    3.0000 
2638.6536  123.1200    1.9300    0.1300    0.3400   12.4900   11.0000    3.0000 
2638.8060  121.7300    1.9500    0.1300    0.3500   12.2600   11.0000    3.0000 
2638.9584  121.0000    1.9700    0.1300    0.3400   12.3500   11.0000    3.0000 
2639.1108  122.5100    1.9700    0.1300    0.3500   12.1800   11.0000    3.0000 
2639.2632  124.4600    1.9800    0.1300    0.3400   12.1800   11.0000    3.0000 
2639.4156  126.1000    2.0600    0.1500    0.3200   11.3300   11.0000    3.0000 
2639.5680  123.0200    2.1600    0.1200    0.3000    9.0800   11.0000    3.0000 
2639.7204  117.2100    2.3400    0.1000    0.3900    6.7000   11.0000    3.0000 
2639.8728  113.1800    2.4800    0.0500    0.3800    4.8600   11.0000    3.0000 
2640.0252  113.5100    2.5500    0.0500    0.3500    4.6300   11.0000    3.0000 
2640.1776  116.4100    2.5800    0.0600    0.3200    4.4600   37.0000    3.0000 
