~VERSION INFORMATION
 VERS.                 2.0:   CWLS LOG ASCII STANDARD - VERSION 2.0
 WRAP.                  NO:   SINGLE LINE PER DEPTH STEP
 CREA.                 08/01/2018 13:34:12
#CREATED USING DSPetro VERSION 5000.10.1.3 BY H191660 ON 08/01/2018 13:34:12
~WELL INFORMATION
#MNEM.UNIT       DATA                          DESCRIPTION MNEMONIC
#---------      ---------------------------   --------------------------
 STRT    .M         0.0000                    : START DEPTH
 STOP    .M         3099.9684                 : STOP DEPTH
 STEP    .M         0.1524                    : STEP VALUE
 NULL    .      -999.0000                     : NULL VALUE
 DATE    .      08/01/2018                    : LAS file Creation Date
 WELL .      1849_Huascaran-1            : Well Name
 COMP .      Neftex Exploration Insights : Company
 FLD  .                                  : Field
 UWI  .      ZAUWL_005236                : Unique Well Identifier (UWI)
 LOC  .                                  : Location
 RWS  .      -999                        : Def_Rw
 WST  .      -999                        : Def_Rwt
 SRVC .                                  : Contractor
~CURVE INFORMATION
#MNEM              UNIT       API CODE   Curve Type Comments
#----------  --------------- ----------  ---------- -----------
 DEPTH      .M                         : Depth       
 GR_API     .API                       : gammaRay    Gamma Ray (API) - Measures the intensity of natural gamma-ray radiation emitted from formations containing radioactive elements, such as K, Th and U
 RHOB_G_CC  .g/cc                      : density     Bulk Density - Measures the density of bulk material, including any void space or other materials contained in the subject volume
 DRHO_G_CC  .g/cc                      : drho        Density Correction - Investigates the correction to the Bulk Density log; used as an indication of hole condition to validate the Bulk Density measure
 NPHI_v/v   .usl                       : neutron     Neutron Porosity - Measured with an neutron logging device calibrated to a given matrix (limestone, sandstone and dolomite) - unscaled
 PEF_B_E    .b/e-                      : PEF         Photoelectric Factor - A log of photoelectric absorption properties. Often expressed in an approximation unit barns/electron (b/e-)
 LITH       .                          : LITH        Lithology Curve
 LITH_v2    .                          : LITH        Lithology Curve
~A  DEPTH   GR_API  RHOB_G_C  DRHO_G_C   NPHI_v/v  PEF_B_E     LITH    LITH_v2  
# ...
2715.7680  130.1800    2.5600    0.0300    0.2900    4.2300   37.0000   37.0000 
2715.9204  131.5800    2.5500    0.0300    0.2900    4.1100   37.0000   37.0000 
2716.0728  135.0500    2.5400    0.0300    0.2800    3.9000   37.0000   37.0000 
2716.2252  136.8600    2.5400    0.0300    0.2900    4.0300   37.0000   37.0000 
2716.3776  137.0800    2.5500    0.0300    0.2900    4.1200   37.0000   37.0000 
2716.5300  136.7000    2.5600    0.0300    0.3100    4.2400   37.0000   37.0000 
2716.6824  137.0600    2.5500    0.0300    0.3000    4.3600   37.0000   37.0000 
2716.8348  137.7300    2.5500    0.0300    0.3000    4.2800   37.0000   37.0000 
2716.9872  138.5300    2.5400    0.0200    0.2900    4.1100   37.0000   37.0000 
2717.1396  139.9300    2.5400    0.0300    0.3000    3.9200   37.0000   37.0000 
2717.2920  139.5800    2.5500    0.0300    0.2900    3.9000   37.0000   37.0000 
2717.4444  136.1800    2.5600    0.0300    0.2900    3.9700   37.0000   37.0000 
2717.5968  132.8700    2.5800    0.0200    0.2900    4.0300   37.0000   37.0000 
2717.7492  132.7600    2.5700    0.0200    0.2900    4.1400   37.0000   37.0000 
2717.9016  135.7100    2.5600    0.0200    0.2900    4.0600   37.0000   37.0000 
2718.0540  137.2800    2.5500    0.0300    0.2900    3.9200   37.0000   37.0000 
2718.2064  137.0300    2.5400    0.0300    0.3000    3.7600   37.0000   37.0000 
2718.3588  135.3600    2.5500    0.0300    0.3000    3.8700   37.0000   37.0000 
2718.5112  135.3200    2.5600    0.0300    0.3100    3.9100   37.0000   37.0000 
2718.6636  135.5900    2.5600    0.0300    0.3100    3.9400   37.0000   37.0000 
2718.8160  135.3800    2.5900    0.0400    0.3100    4.0400   37.0000   37.0000 
2718.9684  133.5800    2.5900    0.0300    0.3200    4.5100   37.0000   37.0000 
2719.1208  129.7800    2.6200    0.0200    0.3000    5.0400   37.0000   37.0000 
2719.2732  126.7400    2.6100    0.0100    0.3100    5.2200   23.0000   23.0000 
2719.4256  125.5700    2.6000    0.0200    0.3000    4.7400   37.0000   37.0000 
2719.5780  128.1200    2.5900    0.0400    0.2900    4.3400   37.0000   37.0000 
2719.7304  131.3200    2.5700    0.0400    0.2900    4.1700   37.0000   37.0000 
2719.8828  133.7700    2.5700    0.0300    0.2900    4.3400   37.0000   37.0000 
2720.0352  133.6800    2.5600    0.0300    0.3000    4.2800   37.0000   37.0000 
2720.1876  134.3100    2.5600    0.0400    0.2900    4.2600   37.0000   37.0000 
2720.3400  134.9000    2.5500    0.0400    0.2800    4.0800   37.0000   37.0000 
2720.4924  135.1200    2.5500    0.0300    0.2800    4.1900   37.0000   37.0000 
2720.6448  134.7300    2.5400    0.0300    0.2800    4.0800   37.0000   37.0000 
2720.7972  135.2300    2.5500    0.0300    0.2800    4.0500   37.0000   37.0000 
2720.9496  136.8400    2.5600    0.0400    0.2800    4.1200   37.0000   37.0000 
2721.1020  135.4600    2.5700    0.0400    0.2900    4.1500   37.0000   37.0000 
2721.2544  133.0000    2.5700    0.0400    0.2900    4.2200   37.0000   37.0000 
2721.4068  130.8900    2.5700    0.0400    0.2900    4.1400   37.0000   37.0000 
2721.5592  132.1200    2.5700    0.0400    0.2800    4.2000   37.0000   37.0000 
2721.7116  131.8300    2.5800    0.0400    0.2800    4.2200   37.0000   37.0000 
2721.8640  132.1800    2.5800    0.0400    0.2900    4.1900   37.0000   37.0000 
2722.0164  130.4600    2.5700    0.0300    0.2900    4.1500   37.0000   37.0000 
2722.1688  129.9700    2.5600    0.0300    0.3000    4.2100   37.0000   37.0000 
2722.3212  128.2600    2.5600    0.0200    0.3000    4.2600   37.0000   37.0000 
2722.4736  129.4100    2.5800    0.0200    0.3100    4.3300   37.0000   37.0000 
2722.6260  129.0500    2.5600    0.0300    0.2900    4.3200   37.0000   37.0000 
2722.7784  128.3000    2.5800    0.0400    0.2800    4.2600   37.0000   37.0000 
2722.9308  126.6000    2.5700    0.0300    0.2700    4.2200   37.0000   37.0000 
2723.0832  126.2900    2.5800    0.0400    0.2800    4.0800   37.0000   37.0000 
2723.2356  125.8400    2.5700    0.0400    0.2800    4.1100   37.0000   37.0000 
2723.3880  127.7100    2.5600    0.0400    0.2800    4.1900   37.0000   37.0000 
2723.5404  129.9800    2.5700    0.0300    0.2800    4.1900   37.0000   37.0000 
2723.6928  133.8100    2.5700    0.0400    0.2600    4.1600   37.0000   37.0000 
2723.8452  133.5100    2.5900    0.0400    0.2700    4.0400   37.0000   37.0000 
2723.9976  133.8400    2.6000    0.0300    0.2600    4.2800   37.0000   37.0000 
2724.1500  131.3500    2.6000    0.0200    0.2700    4.3900   37.0000   37.0000 
2724.3024  128.6100    2.5700    0.0300    0.2600    4.5100   37.0000   37.0000 
2724.4548  125.2400    2.5600    0.0400    0.2600    4.3700   37.0000   37.0000 
2724.6072  126.0200    2.5600    0.0400    0.2600    4.2300   37.0000   37.0000 
2724.7596  127.0200    2.5500    0.0300    0.2600    4.1500   37.0000   37.0000 
2724.9120  129.4700    2.5600    0.0400    0.2700    4.1800   37.0000   37.0000 
2725.0644  128.4300    2.5600    0.0400    0.2700    4.2200   37.0000   37.0000 
2725.2168  128.5000    2.5600    0.0400    0.2800    4.3200   37.0000   37.0000 
2725.3692  127.9500    2.5600    0.0300    0.2700    4.2900   37.0000   37.0000 
2725.5216  127.7600    2.5600    0.0300    0.2700    4.2600   37.0000   37.0000 
2725.6740  128.1000    2.5600    0.0300    0.2700    4.1700   37.0000   37.0000 
2725.8264  127.2400    2.5700    0.0400    0.2700    4.1900   37.0000   37.0000 
2725.9788  127.9200    2.5700    0.0500    0.2700    4.3700   37.0000   37.0000 
2726.1312  128.0500    2.5700    0.0600    0.2600    4.4700   37.0000   37.0000 
2726.2836  129.4000    2.5300    0.0400    0.2600    4.3700   37.0000   37.0000 
2726.4360  130.1300    2.5500    0.0400    0.2600    4.1500   37.0000   37.0000 
2726.5884  130.1700    2.5500    0.0300    0.2600    4.0600   37.0000   37.0000 
2726.7408  130.5200    2.5800    0.0300    0.2700    4.1500   37.0000   37.0000 
2726.8932  129.7800    2.6000    0.0400    0.2900    4.2300   37.0000   37.0000 
2727.0456  129.7300    2.6200    0.0400    0.3000    4.3700   37.0000   37.0000 
2727.1980  126.8100    2.6400    0.0500    0.2900    4.3400   37.0000   37.0000 
2727.3504  126.5400    2.6100    0.0400    0.2900    4.4300   37.0000   37.0000 
2727.5028  125.5600    2.5800    0.0400    0.2800    4.2300   37.0000   37.0000 
2727.6552  127.6300    2.5500    0.0300    0.2800    4.0700   37.0000   37.0000 
2727.8076  128.1200    2.5400    0.0200    0.2600    3.8900   37.0000   37.0000 
2727.9600  128.9700    2.5500    0.0300    0.2700    3.8400   37.0000   37.0000 
2728.1124  129.5200    2.5800    0.0400    0.2700    3.9300   37.0000   37.0000 
2728.2648  130.5700    2.5900    0.0400    0.2800    4.0200   37.0000   37.0000 
2728.4172  130.1300    2.5800    0.0400    0.2700    4.0200   37.0000   37.0000 
2728.5696  130.2000    2.5700    0.0400    0.2700    4.0300   37.0000   37.0000 
2728.7220  128.4600    2.5600    0.0400    0.2600    3.9900   37.0000   37.0000 
2728.8744  128.6800    2.5600    0.0300    0.2700    4.0900   37.0000   37.0000 
2729.0268  128.8700    2.5600    0.0300    0.2700    4.0900   37.0000   37.0000 
2729.1792  130.6900    2.5600    0.0300    0.2800    4.0600   37.0000   37.0000 
2729.3316  133.5800    2.5500    0.0300    0.2600    3.9900   37.0000   37.0000 
2729.4840  132.9600    2.5500    0.0300    0.2700    4.0400   37.0000   37.0000 
2729.6364  131.0600    2.5500    0.0300    0.2600    4.4300   37.0000   37.0000 
2729.7888  128.4100    2.5700    0.0300    0.2800    4.7900   37.0000   37.0000 
2729.9412  125.8400    2.5800    0.0100    0.2700    5.7900   23.0000   23.0000 
2730.0936  124.0400    2.6000    0.0100    0.2700    5.9200   23.0000   23.0000 
2730.2460  120.1400    2.6200    0.0100    0.2600    5.8900   23.0000   23.0000 
2730.3984  116.7900    2.6300    0.0200    0.2600    5.0300   37.0000   37.0000 
2730.5508  115.5200    2.6200    0.0300    0.2600    4.7600   37.0000   37.0000 
2730.7032  116.4400    2.6000    0.0300    0.2500    4.5600   37.0000   37.0000 
