~VERSION INFORMATION
 VERS.                 2.0:   CWLS LOG ASCII STANDARD - VERSION 2.0
 WRAP.                  NO:   SINGLE LINE PER DEPTH STEP
 CREA.                 08/01/2018 13:34:12
#CREATED USING DSPetro VERSION 5000.10.1.3 BY H191660 ON 08/01/2018 13:34:12
~WELL INFORMATION
#MNEM.UNIT       DATA                          DESCRIPTION MNEMONIC
#---------      ---------------------------   --------------------------
 STRT    .M         0.0000                    : START DEPTH
 STOP    .M         3099.9684                 : STOP DEPTH
 STEP    .M         0.1524                    : STEP VALUE
 NULL    .      -999.0000                     : NULL VALUE
 DATE    .      08/01/2018                    : LAS file Creation Date
 WELL .      1849_Huascaran-1            : Well Name
 COMP .      Neftex Exploration Insights : Company
 FLD  .                                  : Field
 UWI  .      ZAUWL_005236                : Unique Well Identifier (UWI)
 LOC  .                                  : Location
 RWS  .      -999                        : Def_Rw
 WST  .      -999                        : Def_Rwt
 SRVC .                                  : Contractor
~CURVE INFORMATION
#MNEM              UNIT       API CODE   Curve Type Comments
#----------  --------------- ----------  ---------- -----------
 DEPTH      .M                         : Depth       
 GR_API     .API                       : gammaRay    Gamma Ray (API) - Measures the intensity of natural gamma-ray radiation emitted from formations containing radioactive elements, such as K, Th and U
 RHOB_G_CC  .g/cc                      : density     Bulk Density - Measures the density of bulk material, including any void space or other materials contained in the subject volume
 DRHO_G_CC  .g/cc                      : drho        Density Correction - Investigates the correction to the Bulk Density log; used as an indication of hole condition to validate the Bulk Density measure
 NPHI_v/v   .usl                       : neutron     Neutron Porosity - Measured with an neutron logging device calibrated to a given matrix (limestone, sandstone and dolomite) - unscaled
 PEF_B_E    .b/e-                      : PEF         Photoelectric Factor - A log of photoelectric absorption properties. Often expressed in an approximation unit barns/electron (b/e-)
 LITH       .                          : LITH        Lithology Curve
 LITH_v2    .                          : LITH        Lithology Curve
~A  DEPTH   GR_API  RHOB_G_C  DRHO_G_C   NPHI_v/v  PEF_B_E     LITH    LITH_v2  
# ...
2579.9796  101.5200    2.5400   -0.3300    0.4300   17.3900   11.0000    3.0000 
2580.1320  102.3100    2.5400   -0.3400    0.4500   17.4200   11.0000    3.0000 
2580.2844  104.3800    2.5300   -0.3600    0.5000   17.7500   11.0000    3.0000 
2580.4368  104.5400    2.5200   -0.3700    0.5100   18.6500   11.0000    3.0000 
2580.5892  105.0400    2.5400   -0.3600    0.5200   18.2000   11.0000    3.0000 
2580.7416  106.2100    2.5600   -0.3500    0.5300   18.1500   11.0000    3.0000 
2580.8940  108.0400    2.5800   -0.3400    0.5200   17.4600   11.0000    3.0000 
2581.0464  109.1400    2.5600   -0.3400    0.5100   17.1400   11.0000    3.0000 
2581.1988  108.0600    2.5400   -0.3400    0.4600   17.8000   11.0000    3.0000 
2581.3512  107.7000    2.5300   -0.3600    0.4300   17.9700   11.0000    3.0000 
2581.5036  108.0200    2.5400   -0.3700    0.4300   17.2600   11.0000    3.0000 
2581.6560  109.3500    2.5500   -0.3800    0.4900   17.0700   11.0000    3.0000 
2581.8084  107.3100    2.5600   -0.3700    0.5400   17.1700   11.0000    3.0000 
2581.9608  104.3000    2.5500   -0.3600    0.5500   17.1700   11.0000    3.0000 
2582.1132  102.8900    2.5500   -0.3500    0.5500   17.2100   11.0000    3.0000 
2582.2656  103.9400    2.5700   -0.3500    0.5200   17.1300   11.0000    3.0000 
2582.4180  105.1200    2.5600   -0.3500    0.4900   17.4400   11.0000    3.0000 
2582.5704  104.3900    2.5600   -0.3500    0.4300   18.1900   11.0000    3.0000 
2582.7228  103.9000    2.5800   -0.3500    0.4200   18.0900   11.0000    3.0000 
2582.8752  101.6600    2.5700   -0.3800    0.3900   17.7100   11.0000    3.0000 
2583.0276  102.5700    2.6100   -0.3900    0.3900   17.2900   11.0000    3.0000 
2583.1800  103.1900    2.6200   -0.4100    0.3800   16.7400   11.0000    3.0000 
2583.3324  104.5800    2.7000   -0.3800    0.4000   16.0400   11.0000    3.0000 
2583.4848  102.5700    2.6700   -0.3700    0.4000   16.3000   11.0000    3.0000 
2583.6372  102.6300    2.6300   -0.3500    0.4200   16.6200   11.0000    3.0000 
2583.7896  102.1100    2.5900   -0.3500    0.4000   17.3200   11.0000    3.0000 
2583.9420  103.4200    2.5800   -0.3400    0.3900   17.6700   11.0000    3.0000 
2584.0944  102.9500    2.5900   -0.3300    0.4200   17.3200   11.0000    3.0000 
2584.2468  102.3300    2.5900   -0.3300    0.4700   17.2200   11.0000    3.0000 
2584.3992   99.8800    2.5900   -0.3300    0.4800   17.3000   11.0000    3.0000 
2584.5516   98.4200    2.5900   -0.3300    0.4700   17.5500   11.0000    3.0000 
2584.7040   97.0800    2.5700   -0.3400    0.4500   17.7300   11.0000    3.0000 
2584.8564   96.1600    2.5500   -0.3400    0.4600   17.7300   11.0000    3.0000 
2585.0088   96.6000    2.5300   -0.3500    0.4800   17.9300   11.0000    3.0000 
2585.1612   99.4200    2.5300   -0.3500    0.4900   17.5100   11.0000    3.0000 
2585.3136  101.0300    2.5300   -0.3500    0.4800   17.3900   11.0000    3.0000 
2585.4660  101.2800    2.5500   -0.3500    0.4400   17.2600   11.0000    3.0000 
2585.6184  100.5200    2.5700   -0.3300    0.3900   17.0200   11.0000    3.0000 
2585.7708  101.9900    2.5700   -0.3200    0.3700   16.6900   11.0000    3.0000 
2585.9232  104.2000    2.5700   -0.3200    0.3800   16.4500   11.0000    3.0000 
2586.0756  105.6700    2.5600   -0.3200    0.4600   16.5200   11.0000    3.0000 
2586.2280  105.7900    2.5600   -0.3200    0.5300   17.2200   11.0000    3.0000 
2586.3804  104.5200    2.5700   -0.3200    0.5600   17.1900   11.0000    3.0000 
2586.5328  105.0600    2.5900   -0.3200    0.5200   16.7400   11.0000    3.0000 
2586.6852  107.8800    2.6000   -0.3200    0.4900   17.1900   11.0000    3.0000 
2586.8376  110.2700    2.5800   -0.3300    0.4600   17.3700   11.0000    3.0000 
2586.9900  109.2100    2.5600   -0.3400    0.4600   18.0500   11.0000    3.0000 
2587.1424  108.0400    2.5400   -0.3500    0.4600   17.4500   11.0000    3.0000 
2587.2948  106.0500    2.5400   -0.3500    0.4500   17.4700   11.0000    3.0000 
2587.4472  108.5000    2.5100   -0.3500    0.4400   17.8400   11.0000    3.0000 
2587.5996  107.0700    2.5100   -0.3400    0.4400   18.1000   11.0000    3.0000 
2587.7520  106.3400    2.5100   -0.3500    0.4400   17.3300   11.0000    3.0000 
2587.9044  103.6300    2.5300   -0.3400    0.4600   16.9600   11.0000    3.0000 
2588.0568  102.6000    2.5400   -0.3500    0.4700   16.1300   11.0000    3.0000 
2588.2092  101.6900    2.5700   -0.3400    0.4600   15.8500   11.0000    3.0000 
2588.3616  100.6900    2.5700   -0.3500    0.4400   16.9200   11.0000    3.0000 
2588.5140  102.2200    2.5600   -0.3500    0.4300   17.6600   11.0000    3.0000 
2588.6664  106.2400    2.5300   -0.3700    0.4600   18.4000   11.0000    3.0000 
2588.8188  109.0700    2.6600   -0.3500    0.4900   16.6100   11.0000    3.0000 
2588.9712  107.3400    2.7900   -0.3800    0.4800   15.0700   11.0000    3.0000 
2589.1236  101.2400    2.9100   -0.3900    0.4500   14.4600   11.0000    3.0000 
2589.2760   99.1800    2.8500   -0.3800    0.4400   14.9900   11.0000    3.0000 
2589.4284  100.3900    2.7100   -0.3500    0.4600   15.9600   11.0000    3.0000 
2589.5808  103.5000    2.6500   -0.3200    0.5000   16.7300   11.0000    3.0000 
2589.7332  103.7600    2.5400   -0.3500    0.5100   17.5700   11.0000    3.0000 
2589.8856  102.4300    2.5600   -0.3400    0.5100   17.2200   11.0000    3.0000 
2590.0380  104.2500    2.5700   -0.3400    0.4600   17.1800   11.0000    3.0000 
2590.1904  104.6200    2.5700   -0.3400    0.4300   17.2300   11.0000    3.0000 
2590.3428  105.1600    2.5600   -0.3400    0.4000   17.9200   11.0000    3.0000 
2590.4952  105.7100    2.5400   -0.3400    0.4000   18.3300   11.0000    3.0000 
2590.6476  105.1000    2.5400   -0.3300    0.4100   17.9500   11.0000    3.0000 
2590.8000  105.2500    2.5500   -0.3300    0.4200   17.2200   11.0000    3.0000 
2590.9524  103.6600    2.5600   -0.3200    0.4200   17.2400   11.0000    3.0000 
2591.1048  102.8600    2.5600   -0.3300    0.4400   17.2500   11.0000    3.0000 
2591.2572  102.0600    2.5400   -0.3500    0.4500   18.1200   11.0000    3.0000 
2591.4096  100.5800    2.5300   -0.3500    0.4800   17.8700   11.0000    3.0000 
2591.5620  100.2300    2.5300   -0.3500    0.4800   17.7900   11.0000    3.0000 
2591.7144   99.4900    2.5300   -0.3500    0.4700   18.2300   11.0000    3.0000 
2591.8668  100.8600    2.5500   -0.3400    0.4700   17.5200   11.0000    3.0000 
2592.0192  102.2800    2.5700   -0.3400    0.4500   17.2800   11.0000    3.0000 
2592.1716  102.4800    2.5900   -0.3400    0.4400   17.1800   11.0000    3.0000 
2592.3240   97.2700    2.6000   -0.3400    0.4900   16.7900   11.0000    3.0000 
2592.4764   97.2700    2.6000   -0.3400    0.4900   16.7900   11.0000    3.0000 
2592.6288   95.5800    2.5900   -0.3300    0.5200   16.4300   11.0000    3.0000 
2592.7812   95.7900    2.5700   -0.3300    0.5400   16.4300   11.0000    3.0000 
2592.9336   97.9600    2.5300   -0.3500    0.5300   16.6200   11.0000    3.0000 
2593.0860  100.2800    2.5300   -0.3500    0.5200   16.7800   11.0000    3.0000 
2593.2384   98.5100    2.5300   -0.3500    0.4900   16.7100   11.0000    3.0000 
2593.3908   98.9000    2.5500   -0.3400    0.4800   16.9900   11.0000    3.0000 
2593.5432   99.5200    2.5500   -0.3400    0.4700   16.7500   11.0000    3.0000 
2593.6956  101.6900    2.5500   -0.3300    0.4900   16.4500   11.0000    3.0000 
2593.8480   99.6300    2.5600   -0.3300    0.4600   16.6000   11.0000    3.0000 
2594.0004  100.1000    2.5700   -0.3300    0.4300   16.0500   11.0000    3.0000 
2594.1528  101.9600    2.5800   -0.3300    0.4100   16.6300   11.0000    3.0000 
2594.3052  105.1300    2.5600   -0.3400    0.4200   16.7700   11.0000    3.0000 
2594.4576  106.4300    2.5400   -0.3600    0.4300   17.6400   11.0000    3.0000 
2594.6100  106.7400    2.5500   -0.3500    0.4500   17.4100   11.0000    3.0000 
2594.7624  105.9800    2.5600   -0.3500    0.4700   17.2300   11.0000    3.0000 
2594.9148  104.2500    2.5700   -0.3500    0.4600   17.2500   11.0000    3.0000 
