~VERSION INFORMATION
 VERS.                 2.0:   CWLS LOG ASCII STANDARD - VERSION 2.0
 WRAP.                  NO:   SINGLE LINE PER DEPTH STEP
 CREA.                 08/01/2018 13:34:12
#CREATED USING DSPetro VERSION 5000.10.1.3 BY H191660 ON 08/01/2018 13:34:12
~WELL INFORMATION
#MNEM.UNIT       DATA                          DESCRIPTION MNEMONIC
#---------      ---------------------------   --------------------------
 STRT    .M         0.0000                    : START DEPTH
 STOP    .M         3099.9684                 : STOP DEPTH
 STEP    .M         0.1524                    : STEP VALUE
 NULL    .      -999.0000                     : NULL VALUE
 DATE    .      08/01/2018                    : LAS file Creation Date
 WELL .      1849_Huascaran-1            : Well Name
 COMP .      Neftex Exploration Insights : Company
 FLD  .                                  : Field
 UWI  .      ZAUWL_005236                : Unique Well Identifier (UWI)
 LOC  .                                  : Location
 RWS  .      -999                        : Def_Rw
 WST  .      -999                        : Def_Rwt
 SRVC .                                  : Contractor
~CURVE INFORMATION
#MNEM              UNIT       API CODE   Curve Type Comments
#----------  --------------- ----------  ---------- -----------
 DEPTH      .M                         : Depth       
 GR_API     .API                       : gammaRay    Gamma Ray (API) - Measures the intensity of natural gamma-ray radiation emitted from formations containing radioactive elements, such as K, Th and U
 RHOB_G_CC  .g/cc                      : density     Bulk Density - Measures the density of bulk material, including any void space or other materials contained in the subject volume
 DRHO_G_CC  .g/cc                      : drho        Density Correction - Investigates the correction to the Bulk Density log; used as an indication of hole condition to validate the Bulk Density measure
 NPHI_v/v   .usl                       : neutron     Neutron Porosity - Measured with an neutron logging device calibrated to a given matrix (limestone, sandstone and dolomite) - unscaled
 PEF_B_E    .b/e-                      : PEF         Photoelectric Factor - A log of photoelectric absorption properties. Often expressed in an approximation unit barns/electron (b/e-)
 LITH       .                          : LITH        Lithology Curve
 LITH_v2    .                          : LITH        Lithology Curve
~A  DEPTH   GR_API  RHOB_G_C  DRHO_G_C   NPHI_v/v  PEF_B_E     LITH    LITH_v2  
# ...
2730.8556  119.1900    2.6100    0.0400    0.2400    4.4600   37.0000   37.0000 
2731.0080  120.9900    2.5900    0.0300    0.2400    4.6000   37.0000   37.0000 
2731.1604  122.3900    2.5900    0.0400    0.2600    4.5000   37.0000   37.0000 
2731.3128  123.2400    2.5800    0.0300    0.2500    4.3900   37.0000   37.0000 
2731.4652  123.8200    2.5800    0.0300    0.2600    4.2700   37.0000   37.0000 
2731.6176  124.4200    2.5800    0.0200    0.2500    4.3000   37.0000   37.0000 
2731.7700  125.4400    2.5800    0.0300    0.2700    4.4000   37.0000   37.0000 
2731.9224  124.9500    2.5900    0.0300    0.2800    4.3100   37.0000   37.0000 
2732.0748  125.4800    2.5800    0.0300    0.2700    4.1600   37.0000   37.0000 
2732.2272  125.2700    2.5800    0.0300    0.2700    4.0600   37.0000   37.0000 
2732.3796  123.9400    2.5800    0.0300    0.2700    3.9800   37.0000   37.0000 
2732.5320  121.0100    2.5800    0.0300    0.2800    4.0100   37.0000   37.0000 
2732.6844  117.1800    2.5900    0.0300    0.2600    3.9600   37.0000   37.0000 
2732.8368  113.7300    2.6000    0.0400    0.2600    4.0900   37.0000   37.0000 
2732.9892  109.2800    2.6200    0.0300    0.2500    4.2400   37.0000   37.0000 
2733.1416  105.6400    2.6300    0.0300    0.2500    4.4300   37.0000   37.0000 
2733.2940  104.6900    2.6300    0.0400    0.2400    4.5000   37.0000   37.0000 
2733.4464  107.8000    2.6300    0.0400    0.2300    4.4800   37.0000   37.0000 
2733.5988  111.2400    2.6200    0.0400    0.2300    4.5300   37.0000   37.0000 
2733.7512  115.4100    2.6000    0.0400    0.2300    4.5600   37.0000   37.0000 
2733.9036  118.1000    2.6000    0.0400    0.2400    4.4400   37.0000   37.0000 
2734.0560  123.2900    2.5800    0.0300    0.2400    4.3000   37.0000   37.0000 
2734.2084  127.3000    2.5900    0.0300    0.2500    4.2500   37.0000   37.0000 
2734.3608  130.3800    2.5700    0.0300    0.2500    4.2900   37.0000   37.0000 
2734.5132  128.9200    2.5700    0.0300    0.2500    4.3900   37.0000   37.0000 
2734.6656  127.0200    2.5800    0.0400    0.2600    4.3600   37.0000   37.0000 
2734.8180  125.4200    2.5700    0.0300    0.2600    4.3900   37.0000   37.0000 
2734.9704  124.7500    2.5900    0.0400    0.2600    4.2600   37.0000   37.0000 
2735.1228  123.6500    2.5700    0.0300    0.2500    4.3400   37.0000   37.0000 
2735.2752  122.0100    2.5700    0.0300    0.2500    4.3900   37.0000   37.0000 
2735.4276  123.0900    2.5700    0.0300    0.2500    4.5400   37.0000   37.0000 
2735.5800  123.7400    2.5800    0.0300    0.2500    4.4300   37.0000   37.0000 
2735.7324  125.8500    2.5700    0.0300    0.2700    4.3700   37.0000   37.0000 
2735.8848  125.8400    2.5700    0.0300    0.2700    4.2100   37.0000   37.0000 
2736.0372  125.2700    2.5800    0.0400    0.2700    4.2100   37.0000   37.0000 
2736.1896  124.4500    2.5900    0.0300    0.2600    4.1800   37.0000   37.0000 
2736.3420  125.6900    2.6000    0.0400    0.2600    4.1200   37.0000   37.0000 
2736.4944  127.3400    2.5900    0.0300    0.2500    4.0400   37.0000   37.0000 
2736.6468  128.1200    2.5800    0.0300    0.2500    4.0000   37.0000   37.0000 
2736.7992  128.2300    2.5700    0.0300    0.2500    4.0700   37.0000   37.0000 
2736.9516  129.2700    2.5800    0.0300    0.2600    4.0600   37.0000   37.0000 
2737.1040  130.3200    2.5900    0.0400    0.2600    4.0500   37.0000   37.0000 
2737.2564  130.7400    2.5800    0.0400    0.2600    3.9600   37.0000   37.0000 
2737.4088  129.9600    2.5700    0.0400    0.2600    3.9900   37.0000   37.0000 
2737.5612  130.4900    2.5700    0.0400    0.2700    3.9300   37.0000   37.0000 
2737.7136  129.9000    2.5600    0.0400    0.2600    3.9400   37.0000   37.0000 
2737.8660  128.1800    2.5600    0.0400    0.2600    3.9100   37.0000   37.0000 
2738.0184  126.0600    2.5600    0.0200    0.2500    4.3300   37.0000   37.0000 
2738.1708  125.7100    2.5900    0.0200    0.2600    4.5700   37.0000   37.0000 
2738.3232  125.4400    2.5900    0.0200    0.2600    4.6600   37.0000   37.0000 
2738.4756  124.6500    2.5900    0.0300    0.2600    4.3100   37.0000   37.0000 
2738.6280  125.2100    2.5900    0.0300    0.2500    4.2700   37.0000   37.0000 
2738.7804  130.2400    2.6000    0.0300    0.2600    4.1300   37.0000   37.0000 
2738.9328  133.2000    2.5900    0.0300    0.2600    4.1600   37.0000   37.0000 
2739.0852  131.7200    2.5600    0.0400    0.2700    4.0100   37.0000   37.0000 
2739.2376  129.8100    2.5400    0.0400    0.2600    4.0100   37.0000   37.0000 
2739.3900  128.3700    2.5300    0.0400    0.2600    3.9700   37.0000   37.0000 
2739.5424  127.7300    2.5500    0.0400    0.2500    3.9800   37.0000   37.0000 
2739.6948  124.3600    2.5600    0.0500    0.2600    4.0000   37.0000   37.0000 
2739.8472  123.0400    2.5800    0.0400    0.2600    4.0000   37.0000   37.0000 
2739.9996  123.9600    2.5900    0.0400    0.2600    4.0200   37.0000   37.0000 
2740.1520  125.8900    2.5800    0.0300    0.2700    3.9500   37.0000   37.0000 
2740.3044  127.0000    2.5700    0.0300    0.2600    3.9100   37.0000   37.0000 
2740.4568  127.0300    2.5700    0.0400    0.2500    3.8900   37.0000   37.0000 
2740.6092  127.7900    2.5800    0.0400    0.2600    3.9900   37.0000   37.0000 
2740.7616  129.1900    2.5900    0.0400    0.2600    4.1500   37.0000   37.0000 
2740.9140  133.3300    2.6000    0.0400    0.2800    4.0400   37.0000   37.0000 
2741.0664  135.4900    2.5800    0.0400    0.2700    4.1200   37.0000   37.0000 
2741.2188  137.3700    2.5600    0.0400    0.3100    3.9000   37.0000   37.0000 
2741.3712  132.6500    2.5500    0.0400    0.3000    3.9700   37.0000   37.0000 
2741.5236  126.2500    2.5600    0.0400    0.2800    3.9600   37.0000   37.0000 
2741.6760  118.6400    2.5900    0.0400    0.2400    3.9800   37.0000   37.0000 
2741.8284  111.3500    2.6100    0.0400    0.2500    4.1500   37.0000   37.0000 
2741.9808  104.0400    2.6200    0.0400    0.2600    4.3000   37.0000   37.0000 
2742.1332   98.6100    2.6300    0.0300    0.2600    4.4100   37.0000   37.0000 
2742.2856  104.2300    2.6400    0.0400    0.2500    4.3100   23.0000   23.0000 
2742.4380  118.7100    2.7100    0.0600    0.2400    4.2400   23.0000   23.0000 
2742.5904  134.9200    2.7500    0.0500    0.2500    5.4000   23.0000   23.0000 
2742.7428  143.1900    2.6900   -0.0100    0.2500    6.6200   23.0000   23.0000 
2742.8952  146.7400    2.6000   -0.0300    0.2600    6.5100   23.0000   23.0000 
2743.0476  148.0700    2.5300   -0.0200    0.2400    4.8200   37.0000   37.0000 
2743.2000  148.6300    2.5500    0.0200    0.2400    3.7600   37.0000   37.0000 
2743.3524  146.2800    2.5400    0.0200    0.2300    3.4400   37.0000   37.0000 
2743.5048  143.6300    2.5400    0.0300    0.2400    3.4000   37.0000   37.0000 
2743.6572  143.4000    2.5300    0.0300    0.2300    3.4800   37.0000   37.0000 
2743.8096  142.0900    2.5400    0.0300    0.2400    3.6200   37.0000   37.0000 
2743.9620  141.5400    2.5300    0.0300    0.2600    3.6700   37.0000   37.0000 
2744.1144  139.7900    2.5400    0.0300    0.2600    3.6300   37.0000   37.0000 
2744.2668  138.8200    2.5200    0.0200    0.2600    3.5100   37.0000   37.0000 
2744.4192  131.8100    2.5200    0.0200    0.2400    3.4400   37.0000   37.0000 
2744.5716  128.0700    2.5200    0.0200    0.2500    3.3100   37.0000   37.0000 
2744.7240  131.9800    2.5900    0.0300    0.2400    4.1500   37.0000   37.0000 
2744.8764  131.9800    2.5900    0.0300    0.2400    4.1500   37.0000   37.0000 
2745.0288  137.2300    2.6300    0.0200    0.2300    4.4400   37.0000   37.0000 
2745.1812  141.2900    2.6200    0.0100    0.2300    4.9100   23.0000   23.0000 
2745.3336  143.0800    2.6100    0.0000    0.2500    4.7700   23.0000   23.0000 
2745.4860  142.9700    2.6100    0.0000    0.2500    4.7300   23.0000   23.0000 
2745.6384  142.9600    2.5900    0.0000    0.2500    4.2800   37.0000   37.0000 
2745.7908  140.7400    2.5600    0.0300    0.2400    3.7100   37.0000   37.0000 
