~VERSION INFORMATION
 VERS.                 2.0:   CWLS LOG ASCII STANDARD - VERSION 2.0
 WRAP.                  NO:   SINGLE LINE PER DEPTH STEP
 CREA.                 08/01/2018 13:34:12
#CREATED USING DSPetro VERSION 5000.10.1.3 BY H191660 ON 08/01/2018 13:34:12
~WELL INFORMATION
#MNEM.UNIT       DATA                          DESCRIPTION MNEMONIC
#---------      ---------------------------   --------------------------
 STRT    .M         0.0000                    : START DEPTH
 STOP    .M         3099.9684                 : STOP DEPTH
 STEP    .M         0.1524                    : STEP VALUE
 NULL    .      -999.0000                     : NULL VALUE
 DATE    .      08/01/2018                    : LAS file Creation Date
 WELL .      1849_Huascaran-1            : Well Name
 COMP .      Neftex Exploration Insights : Company
 FLD  .                                  : Field
 UWI  .      ZAUWL_005236                : Unique Well Identifier (UWI)
 LOC  .                                  : Location
 RWS  .      -999                        : Def_Rw
 WST  .      -999                        : Def_Rwt
 SRVC .                                  : Contractor
~CURVE INFORMATION
#MNEM              UNIT       API CODE   Curve Type Comments
#----------  --------------- ----------  ---------- -----------
 DEPTH      .M                         : Depth       
 GR_API     .API                       : gammaRay    Gamma Ray (API) - Measures the intensity of natural gamma-ray radiation emitted from formations containing radioactive elements, such as K, Th and U
 RHOB_G_CC  .g/cc                      : density     Bulk Density - Measures the density of bulk material, including any void space or other materials contained in the subject volume
 DRHO_G_CC  .g/cc                      : drho        Density Correction - Investigates the correction to the Bulk Density log; used as an indication of hole condition to validate the Bulk Density measure
 NPHI_v/v   .usl                       : neutron     Neutron Porosity - Measured with an neutron logging device calibrated to a given matrix (limestone, sandstone and dolomite) - unscaled
 PEF_B_E    .b/e-                      : PEF         Photoelectric Factor - A log of photoelectric absorption properties. Often expressed in an approximation unit barns/electron (b/e-)
 LITH       .                          : LITH        Lithology Curve
 LITH_v2    .                          : LITH        Lithology Curve
~A  DEPTH   GR_API  RHOB_G_C  DRHO_G_C   NPHI_v/v  PEF_B_E     LITH    LITH_v2  
# ...
2791.2060  143.5300    2.5600    0.0400    0.2800    3.5500   37.0000   37.0000 
2791.3584  141.6400    2.5700    0.0400    0.2800    3.4500   37.0000   37.0000 
2791.5108  142.3800    2.5600    0.0300    0.2800    3.4400   37.0000   37.0000 
2791.6632  141.2100    2.5600    0.0300    0.2800    3.4600   37.0000   37.0000 
2791.8156  139.3200    2.5500    0.0300    0.2700    3.5500   37.0000   37.0000 
2791.9680  133.4100    2.5400    0.0400    0.2700    3.6400   37.0000   37.0000 
2792.1204  129.1400    2.5300    0.0400    0.2800    3.6600   37.0000   37.0000 
2792.2728  127.0100    2.5500    0.0400    0.2700    3.9300   37.0000   37.0000 
2792.4252  132.4900    2.5500    0.0200    0.2600    4.3500   37.0000   37.0000 
2792.5776  136.7000    2.5700    0.0100    0.2400    4.3700   37.0000   37.0000 
2792.7300  139.5600    2.5600    0.0100    0.2400    4.0900   37.0000   37.0000 
2792.8824  138.7400    2.5600    0.0400    0.2500    3.7400   37.0000   37.0000 
2793.0348  138.6200    2.5500    0.0300    0.2500    3.7700   37.0000   37.0000 
2793.1872  138.6500    2.5700    0.0400    0.2600    3.8100   37.0000   37.0000 
2793.3396  139.6500    2.5800    0.0400    0.2600    3.8200   37.0000   37.0000 
2793.4920  141.0800    2.5700    0.0300    0.2600    3.7500   37.0000   37.0000 
2793.6444  140.3400    2.5500    0.0300    0.2700    3.5800   37.0000   37.0000 
2793.7968  137.9000    2.5400    0.0300    0.2800    3.5500   37.0000   37.0000 
2793.9492  138.5800    2.5500    0.0300    0.2700    3.5900   37.0000   37.0000 
2794.1016  140.2000    2.5600    0.0400    0.2700    3.6800   37.0000   37.0000 
2794.2540  142.9900    2.5700    0.0400    0.2800    3.6700   37.0000   37.0000 
2794.4064  144.7000    2.5600    0.0400    0.2800    3.5700   37.0000   37.0000 
2794.5588  145.4300    2.5600    0.0400    0.2800    3.5500   37.0000   37.0000 
2794.7112  142.5700    2.5500    0.0300    0.2700    3.4900   37.0000   37.0000 
2794.8636  136.7400    2.5500    0.0300    0.2600    3.4700   37.0000   37.0000 
2795.0160  133.8000    2.5700    0.0300    0.2500    3.4900   37.0000   37.0000 
2795.1684  134.6300    2.5600    0.0200    0.2500    3.5300   37.0000   37.0000 
2795.3208  136.5000    2.5600    0.0200    0.2500    3.5100   37.0000   37.0000 
2795.4732  136.9900    2.5500    0.0200    0.2500    3.4600   37.0000   37.0000 
2795.6256  135.5800    2.5600    0.0400    0.2500    3.5100   37.0000   37.0000 
2795.7780  136.9000    2.5600    0.0400    0.2700    3.7500   37.0000   37.0000 
2795.9304  136.5100    2.5700    0.0400    0.2600    3.8500   37.0000   37.0000 
2796.0828  138.8000    2.5600    0.0300    0.2500    3.8900   37.0000   37.0000 
2796.2352  138.9100    2.5500    0.0300    0.2500    3.7100   37.0000   37.0000 
2796.3876  141.8100    2.5400    0.0200    0.2500    3.8900   37.0000   37.0000 
2796.5400  141.9000    2.5500    0.0200    0.2500    3.9100   37.0000   37.0000 
2796.6924  143.0100    2.5600    0.0300    0.2300    3.9800   37.0000   37.0000 
2796.8448  136.2300    2.5600    0.0400    0.2200    3.8000   37.0000   37.0000 
2796.9972  124.3600    2.5700    0.0500    0.2200    3.8100   37.0000   37.0000 
2797.1496  115.5700    2.5700    0.0200    0.2100    4.1400   37.0000   37.0000 
2797.3020  116.4500    2.6000    0.0200    0.1900    4.1200   37.0000   37.0000 
2797.4544  127.0600    2.5800    0.0100    0.1700    4.2100   37.0000   37.0000 
2797.6068  133.8500    2.5700    0.0400    0.1800    3.8900   37.0000   37.0000 
2797.7592  138.0700    2.5400    0.0300    0.2100    3.8200   37.0000   37.0000 
2797.9116  138.0100    2.5400    0.0300    0.2500    3.5200   37.0000   37.0000 
2798.0640  137.7600    2.5500    0.0200    0.2500    3.4200   37.0000   37.0000 
2798.2164  136.4500    2.5500    0.0200    0.2400    3.3700   37.0000   37.0000 
2798.3688  136.0800    2.5500    0.0300    0.2400    3.5300   37.0000   37.0000 
2798.5212  135.2700    2.5500    0.0300    0.2600    3.5800   37.0000   37.0000 
2798.6736  136.2100    2.5600    0.0200    0.2700    3.6000   37.0000   37.0000 
2798.8260  139.0600    2.5700    0.0200    0.2700    3.5200   37.0000   37.0000 
2798.9784  141.5900    2.5800    0.0300    0.2700    3.4400   37.0000   37.0000 
2799.1308  142.3400    2.5800    0.0300    0.2700    3.4600   37.0000   37.0000 
2799.2832  140.3600    2.5700    0.0300    0.2700    3.4600   37.0000   37.0000 
2799.4356  136.6300    2.5700    0.0300    0.2600    3.5500   37.0000   37.0000 
2799.5880  131.4100    2.5600    0.0300    0.2600    3.5700   37.0000   37.0000 
2799.7404  129.4200    2.5900    0.0400    0.2700    3.8200   37.0000   37.0000 
2799.8928  132.7300    2.6100    0.0300    0.2800    3.9500   37.0000   37.0000 
2800.0452  139.1200    2.6100    0.0400    0.2800    3.9500   37.0000   37.0000 
2800.1976  145.1300    2.5700    0.0300    0.2800    3.8600   37.0000   37.0000 
2800.3500  145.7900    2.5500    0.0300    0.2800    3.6700   37.0000   37.0000 
2800.5024  142.3900    2.5700    0.0500    0.2900    3.6900   37.0000   37.0000 
2800.6548  142.1700    2.6000    0.0400    0.2800    4.0000   37.0000   37.0000 
2800.8072  143.3400    2.5900    0.0200    0.2800    4.2000   37.0000   37.0000 
2800.9596  148.0300    2.5700    0.0200    0.2600    4.1000   37.0000   37.0000 
2801.1120  147.4200    2.5400    0.0300    0.2600    3.6200   37.0000   37.0000 
2801.2644  146.5100    2.5200    0.0300    0.2500    3.4300   37.0000   37.0000 
2801.4168  145.3100    2.4800    0.0300    0.2500    3.4500   37.0000   37.0000 
2801.5692  144.3600    2.4400    0.0200    0.2300    3.3600   37.0000   37.0000 
2801.7216  142.7600    2.4300    0.0200    0.2200    3.3100   37.0000   37.0000 
2801.8740  138.2900    2.4200    0.0200    0.2100    3.3000   37.0000   37.0000 
2802.0264  132.5300    2.4200    0.0300    0.2100    3.3400   37.0000   37.0000 
2802.1788  133.8800    2.4200    0.0300    0.2100    3.2500   37.0000   37.0000 
2802.3312  141.4200    2.4400    0.0300    0.2100    3.2200   37.0000   37.0000 
2802.4836  147.6300    2.4700    0.0400    0.2200    3.3700   37.0000   37.0000 
2802.6360  153.6100    2.4900    0.0400    0.2200    3.4900   37.0000   37.0000 
2802.7884  157.0500    2.5100    0.0400    0.2400    3.5300   37.0000   37.0000 
2802.9408  162.5900    2.5300    0.0500    0.2400    3.5700   37.0000   37.0000 
2803.0932  159.6100    2.5500    0.0500    0.2500    3.6800   37.0000   37.0000 
2803.2456  154.2300    2.5700    0.0400    0.2500    3.7000   37.0000   37.0000 
2803.3980  143.2300    2.5600    0.0400    0.2500    3.8500   37.0000   37.0000 
2803.5504  131.9100    2.6000    0.0600    0.2400    3.7400   37.0000   37.0000 
2803.7028  126.1500    2.6200    0.0500    0.2400    3.9100   37.0000   37.0000 
2803.8552  129.5900    2.6300    0.0600    0.2500    3.8600   37.0000   37.0000 
2804.0076  138.1700    2.5800    0.0500    0.2700    3.9300   37.0000   37.0000 
2804.1600  140.9800    2.6000    0.0700    0.2600    4.0500   37.0000   37.0000 
2804.3124  138.3900    2.6100    0.0500    0.2600    4.3500   37.0000   37.0000 
2804.4648  135.4800    2.6500    0.0500    0.2600    4.3300   37.0000   37.0000 
2804.6172  136.3700    2.6100    0.0300    0.2500    4.4100   37.0000   37.0000 
2804.7696  140.0200    2.6000    0.0400    0.2500    3.8600   37.0000   37.0000 
2804.9220  142.5700    2.5500    0.0300    0.2300    3.7100   37.0000   37.0000 
2805.0744  144.3800    2.5200    0.0400    0.2300    3.4100   37.0000   37.0000 
2805.2268  141.4800    2.5600    0.0700    0.2200    3.3200   37.0000   37.0000 
2805.3792  124.9600    2.7100    0.1200    0.2200    3.5000   37.0000   37.0000 
2805.5316  122.3800    2.8600    0.1400    0.2200    3.9000   23.0000   23.0000 
2805.6840  127.1500    2.8000    0.1100    0.2200    4.0700   23.0000   23.0000 
2805.8364  146.3100    2.6200    0.0400    0.2100    3.9800   37.0000   37.0000 
2805.9888  149.0800    2.5200    0.0500    0.2100    3.3900   37.0000   37.0000 
2806.1412  144.4200    2.5300    0.0500    0.2200    3.3900   37.0000   37.0000 
