~VERSION INFORMATION
 VERS.                 2.0:   CWLS LOG ASCII STANDARD - VERSION 2.0
 WRAP.                  NO:   SINGLE LINE PER DEPTH STEP
 CREA.                 08/01/2018 13:34:12
#CREATED USING DSPetro VERSION 5000.10.1.3 BY H191660 ON 08/01/2018 13:34:12
~WELL INFORMATION
#MNEM.UNIT       DATA                          DESCRIPTION MNEMONIC
#---------      ---------------------------   --------------------------
 STRT    .M         0.0000                    : START DEPTH
 STOP    .M         3099.9684                 : STOP DEPTH
 STEP    .M         0.1524                    : STEP VALUE
 NULL    .      -999.0000                     : NULL VALUE
 DATE    .      08/01/2018                    : LAS file Creation Date
 WELL .      1849_Huascaran-1            : Well Name
 COMP .      Neftex Exploration Insights : Company
 FLD  .                                  : Field
 UWI  .      ZAUWL_005236                : Unique Well Identifier (UWI)
 LOC  .                                  : Location
 RWS  .      -999                        : Def_Rw
 WST  .      -999                        : Def_Rwt
 SRVC .                                  : Contractor
~CURVE INFORMATION
#MNEM              UNIT       API CODE   Curve Type Comments
#----------  --------------- ----------  ---------- -----------
 DEPTH      .M                         : Depth       
 GR_API     .API                       : gammaRay    Gamma Ray (API) - Measures the intensity of natural gamma-ray radiation emitted from formations containing radioactive elements, such as K, Th and U
 RHOB_G_CC  .g/cc                      : density     Bulk Density - Measures the density of bulk material, including any void space or other materials contained in the subject volume
 DRHO_G_CC  .g/cc                      : drho        Density Correction - Investigates the correction to the Bulk Density log; used as an indication of hole condition to validate the Bulk Density measure
 NPHI_v/v   .usl                       : neutron     Neutron Porosity - Measured with an neutron logging device calibrated to a given matrix (limestone, sandstone and dolomite) - unscaled
 PEF_B_E    .b/e-                      : PEF         Photoelectric Factor - A log of photoelectric absorption properties. Often expressed in an approximation unit barns/electron (b/e-)
 LITH       .                          : LITH        Lithology Curve
 LITH_v2    .                          : LITH        Lithology Curve
~A  DEPTH   GR_API  RHOB_G_C  DRHO_G_C   NPHI_v/v  PEF_B_E     LITH    LITH_v2  
# ...
2866.6440  143.3200    2.5400    0.0300    0.3300    3.6100   37.0000   37.0000 
2866.7964  142.0200    2.5400    0.0300    0.3500    3.4500   37.0000   37.0000 
2866.9488  143.7400    2.5400    0.0300    0.3400    3.4800   37.0000   37.0000 
2867.1012  145.4200    2.5500    0.0300    0.3600    3.4700   37.0000   37.0000 
2867.2536  148.1700    2.5400    0.0300    0.3500    3.5700   37.0000   37.0000 
2867.4060  148.6200    2.5300    0.0300    0.3500    3.6800   37.0000   37.0000 
2867.5584  144.1300    2.5100    0.0200    0.3500    3.7200   37.0000   37.0000 
2867.7108  139.6200    2.5100    0.0200    0.3600    3.5400   37.0000   37.0000 
2867.8632  137.5300    2.5100    0.0300    0.3800    3.3900   37.0000   37.0000 
2868.0156  137.4000    2.5000    0.0300    0.3300    3.2600   37.0000   37.0000 
2868.1680  136.7100    2.5000    0.0300    0.3300    3.1900   37.0000   37.0000 
2868.3204  140.0400    2.4700    0.0300    0.3100    3.0800   37.0000   37.0000 
2868.4728  143.6500    2.4200    0.0300    0.3200    3.0000   37.0000   37.0000 
2868.6252  148.0300    2.3500    0.0200    0.2800    2.9200   37.0000   37.0000 
2868.7776  147.1700    2.3100    0.0200    0.2600    2.8900   37.0000   37.0000 
2868.9300  140.4600    2.3000    0.0200    0.2300    2.9200   37.0000   37.0000 
2869.0824  126.7100    2.2700   -0.0100    0.2200    3.2900   37.0000   37.0000 
2869.2348  106.6600    2.3600    0.0300    0.2200    3.1700   37.0000   37.0000 
2869.3872   89.6200    2.3400    0.0300    0.2400    3.1300   37.0000   37.0000 
2869.5396   79.4700    2.3800    0.0600    0.2400    2.6800   37.0000   37.0000 
2869.6920   78.7600    2.2800    0.0200    0.2300    2.7900   37.0000   36.0000 
2869.8444   83.1100    2.3000    0.0200    0.2200    2.7200   27.0000   36.0000 
2869.9968   88.3300    2.2900    0.0100    0.2200    2.7300   27.0000   36.0000 
2870.1492   90.6700    2.2900    0.0100    0.2200    2.6000   27.0000   36.0000 
2870.3016   90.1800    2.2900    0.0100    0.2200    2.5700   27.0000   36.0000 
2870.4540   86.8000    2.2900    0.0200    0.2200    2.6800   27.0000   36.0000 
2870.6064   82.8100    2.2900    0.0200    0.2100    2.8000   27.0000   27.0000 
2870.7588   77.3900    2.3000    0.0300    0.2100    2.8200   27.0000   27.0000 
2870.9112   74.7000    2.3200    0.0300    0.2000    2.7100   27.0000   27.0000 
2871.0636   77.0200    2.3300    0.0200    0.2000    2.6200   27.0000   36.0000 
2871.2160   84.7500    2.3400    0.0200    0.1900    2.6000   27.0000   36.0000 
2871.3684   91.6000    2.3400    0.0200    0.1700    2.6300   27.0000   27.0000 
2871.5208   90.9900    2.3400    0.0300    0.1700    2.5900   27.0000   27.0000 
2871.6732   83.6800    2.3300    0.0200    0.1700    2.6100   27.0000   27.0000 
2871.8256   73.6700    2.3100    0.0200    0.1800    2.6100   27.0000   27.0000 
2871.9780   66.0600    2.3100    0.0200    0.1900    2.7500   27.0000   27.0000 
2872.1304   59.4900    2.3100    0.0200    0.1900    2.8000   27.0000   27.0000 
2872.2828   52.9400    2.3200    0.0200    0.1900    2.8300   27.0000   27.0000 
2872.4352   46.6700    2.3200    0.0200    0.1900    2.7300   27.0000   27.0000 
2872.5876   42.9700    2.3600    0.0200    0.1800    2.7000   27.0000   36.0000 
2872.7400   42.2600    2.3800    0.0300    0.1800    2.7600   27.0000   36.0000 
2872.8924   44.6600    2.3700    0.0300    0.1700    2.8800   27.0000   27.0000 
2873.0448   45.1500    2.3600    0.0300    0.1700    2.7900   27.0000   27.0000 
2873.1972   43.9500    2.3400    0.0200    0.1700    2.7800   27.0000   27.0000 
2873.3496   40.4100    2.3400    0.0300    0.1700    2.7300   27.0000   27.0000 
2873.5020   36.6700    2.3400    0.0200    0.1800    2.8100   27.0000   27.0000 
2873.6544   39.0000    2.3500    0.0300    0.1900    2.7500   27.0000   36.0000 
2873.8068   47.7900    2.3400    0.0200    0.1800    2.6100   27.0000   27.0000 
2873.9592   61.2300    2.3400    0.0200    0.1900    2.5800   27.0000   36.0000 
2874.1116   70.4000    2.3400    0.0200    0.1800    2.5500   27.0000   27.0000 
2874.2640   70.0200    2.3500    0.0100    0.1700    2.6000   27.0000   27.0000 
2874.4164   67.0100    2.3700    0.0200    0.1700    2.7100   27.0000   36.0000 
2874.5688   69.4700    2.3700    0.0200    0.1700    2.9000   27.0000   27.0000 
2874.7212   81.6200    2.3700    0.0200    0.1800    2.9700   27.0000   36.0000 
2874.8736   94.4500    2.3600    0.0200    0.1700    2.9200   27.0000   27.0000 
2875.0260   95.9800    2.3600    0.0200    0.1800    2.8700   27.0000   36.0000 
2875.1784   84.6100    2.3900    0.0100    0.1800    3.1000   27.0000   36.0000 
2875.3308   70.1600    2.4500    0.0000    0.1800    3.1000   37.0000   37.0000 
2875.4832   57.7600    2.5000    0.0100    0.1900    3.1500   37.0000   37.0000 
2875.6356   60.2900    2.4900    0.0200    0.2100    3.0700   37.0000   37.0000 
2875.7880   85.4700    2.4300    0.0200    0.2300    3.0700   37.0000   37.0000 
2875.9404  121.2400    2.3800    0.0300    0.2200    2.9600   37.0000   37.0000 
2876.0928  145.3400    2.3400    0.0200    0.2100    2.8400   27.0000   36.0000 
2876.2452  132.5000    2.3400    0.0300    0.2000    2.8600   27.0000   36.0000 
2876.3976  107.5500    2.3500    0.0200    0.2000    2.9100   27.0000   36.0000 
2876.5500   82.8500    2.3600    0.0200    0.2000    3.0400   27.0000   36.0000 
2876.7024   76.5100    2.3700    0.0200    0.1800    3.0300   27.0000   36.0000 
2876.8548   79.7300    2.3600    0.0200    0.1700    2.9000   27.0000   27.0000 
2877.0072   85.8400    2.3600    0.0200    0.1600    2.6900   27.0000   27.0000 
2877.1596   83.6900    2.3700    0.0200    0.1500    2.5500   27.0000   27.0000 
2877.3120   71.8300    2.3800    0.0300    0.1500    2.5000   27.0000   27.0000 
2877.4644   58.1100    2.3700    0.0300    0.1500    2.5600   27.0000   27.0000 
2877.6168   48.8500    2.3800    0.0300    0.1500    2.5500   27.0000   27.0000 
2877.7692   42.1300    2.3600    0.0200    0.1500    2.4500   27.0000   27.0000 
2877.9216   36.4200    2.3600    0.0200    0.1500    2.4000   27.0000   27.0000 
2878.0740   31.7600    2.3600    0.0100    0.1500    2.4300   27.0000   27.0000 
2878.2264   29.5400    2.3700    0.0100    0.1500    2.4700   27.0000   27.0000 
2878.3788   28.4400    2.3800    0.0100    0.1500    2.4200   27.0000   27.0000 
2878.5312   28.1800    2.3700    0.0100    0.1500    2.3200   27.0000   27.0000 
2878.6836   27.7500    2.3500    0.0100    0.1400    2.2200   27.0000   27.0000 
2878.8360   27.6100    2.3500    0.0100    0.1500    2.2200   27.0000   27.0000 
2878.9884   27.6900    2.3600    0.0100    0.1600    2.3700   27.0000   27.0000 
2879.1408   28.5900    2.3800    0.0200    0.1700    2.5500   27.0000   36.0000 
2879.2932   29.8100    2.3600    0.0200    0.1700    2.8800   27.0000   27.0000 
2879.4456   34.4700    2.3300    0.0200    0.1700    2.9700   27.0000   27.0000 
2879.5980   46.6400    2.3200    0.0200    0.1700    2.8400   27.0000   27.0000 
2879.7504   66.3100    2.3200    0.0200    0.1800    2.7600   27.0000   27.0000 
2879.9028   78.3500    2.3300    0.0200    0.2000    2.7200   27.0000   36.0000 
2880.0552   81.2100    2.3000    0.0100    0.2100    2.6600   27.0000   27.0000 
2880.2076   82.4000    2.3100    0.0300    0.2300    2.6600   27.0000   27.0000 
2880.3600   95.5000    2.3200    0.0300    0.2500    2.6800   37.0000   37.0000 
2880.5124  106.8400    2.3400    0.0300    0.2400    2.7600   37.0000   37.0000 
2880.6648  110.9600    2.3400    0.0200    0.2100    2.7700   27.0000   36.0000 
2880.8172  108.0600    2.3900    0.0200    0.1900    2.7000   37.0000   37.0000 
2880.9696  105.7400    2.4300    0.0200    0.1700    2.5700   37.0000   37.0000 
2881.1220  101.8600    2.4700    0.0200    0.1600    2.5300   37.0000   37.0000 
2881.2744   96.4100    2.4600    0.0300    0.1500    2.5300   37.0000   37.0000 
2881.4268   88.4500    2.4400    0.0200    0.1400    2.6200   27.0000   36.0000 
2881.5792   79.9500    2.4000    0.0200    0.1400    2.6600   27.0000   27.0000 
