~VERSION INFORMATION
 VERS.                 2.0:   CWLS LOG ASCII STANDARD - VERSION 2.0
 WRAP.                  NO:   SINGLE LINE PER DEPTH STEP
 CREA.                 08/01/2018 13:34:12
#CREATED USING DSPetro VERSION 5000.10.1.3 BY H191660 ON 08/01/2018 13:34:12
~WELL INFORMATION
#MNEM.UNIT       DATA                          DESCRIPTION MNEMONIC
#---------      ---------------------------   --------------------------
 STRT    .M         0.0000                    : START DEPTH
 STOP    .M         3099.9684                 : STOP DEPTH
 STEP    .M         0.1524                    : STEP VALUE
 NULL    .      -999.0000                     : NULL VALUE
 DATE    .      08/01/2018                    : LAS file Creation Date
 WELL .      1849_Huascaran-1            : Well Name
 COMP .      Neftex Exploration Insights : Company
 FLD  .                                  : Field
 UWI  .      ZAUWL_005236                : Unique Well Identifier (UWI)
 LOC  .                                  : Location
 RWS  .      -999                        : Def_Rw
 WST  .      -999                        : Def_Rwt
 SRVC .                                  : Contractor
~CURVE INFORMATION
#MNEM              UNIT       API CODE   Curve Type Comments
#----------  --------------- ----------  ---------- -----------
 DEPTH      .M                         : Depth       
 GR_API     .API                       : gammaRay    Gamma Ray (API) - Measures the intensity of natural gamma-ray radiation emitted from formations containing radioactive elements, such as K, Th and U
 RHOB_G_CC  .g/cc                      : density     Bulk Density - Measures the density of bulk material, including any void space or other materials contained in the subject volume
 DRHO_G_CC  .g/cc                      : drho        Density Correction - Investigates the correction to the Bulk Density log; used as an indication of hole condition to validate the Bulk Density measure
 NPHI_v/v   .usl                       : neutron     Neutron Porosity - Measured with an neutron logging device calibrated to a given matrix (limestone, sandstone and dolomite) - unscaled
 PEF_B_E    .b/e-                      : PEF         Photoelectric Factor - A log of photoelectric absorption properties. Often expressed in an approximation unit barns/electron (b/e-)
 LITH       .                          : LITH        Lithology Curve
 LITH_v2    .                          : LITH        Lithology Curve
~A  DEPTH   GR_API  RHOB_G_C  DRHO_G_C   NPHI_v/v  PEF_B_E     LITH    LITH_v2  
# ...
2519.6292  112.6300    2.5400   -0.3200    0.5500   16.6000   11.0000    3.0000 
2519.7816  110.6100    2.5200   -0.3200    0.5200   16.6700   11.0000    3.0000 
2519.9340  113.2900    2.5400   -0.3200    0.4900   17.5500   11.0000    3.0000 
2520.0864  114.0000    2.5500   -0.3200    0.4600   18.4400   11.0000    3.0000 
2520.2388  114.5100    2.5800   -0.3100    0.5000   19.1200   11.0000    3.0000 
2520.3912  112.4000    2.5700   -0.3100    0.5100   18.7000   11.0000    3.0000 
2520.5436  111.3100    2.5600   -0.3200    0.5300   18.5900   11.0000    3.0000 
2520.6960  111.1200    2.5600   -0.3200    0.4700   18.4700   11.0000    3.0000 
2520.8484  108.8700    2.5600   -0.3200    0.4400   17.9600   11.0000    3.0000 
2521.0008  107.3000    2.5600   -0.3200    0.4200   17.4600   11.0000    3.0000 
2521.1532  106.2600    2.5800   -0.3200    0.4400   16.8700   11.0000    3.0000 
2521.3056  105.4600    2.6000   -0.3200    0.4500   16.5700   11.0000    3.0000 
2521.4580  104.6700    2.5800   -0.3200    0.4400   16.6100   11.0000    3.0000 
2521.6104  105.3900    2.5800   -0.3200    0.4300   16.8200   11.0000    3.0000 
2521.7628  105.6000    2.5800   -0.3200    0.4100   17.2300   11.0000    3.0000 
2521.9152  109.2500    2.5900   -0.3100    0.4400   17.7100   11.0000    3.0000 
2522.0676  109.9800    2.6000   -0.3200    0.4600   17.6800   11.0000    3.0000 
2522.2200  110.9300    2.5900   -0.3200    0.4800   17.8300   11.0000    3.0000 
2522.3724  109.4000    2.5900   -0.3300    0.4900   18.0600   11.0000    3.0000 
2522.5248  108.0000    2.5900   -0.3200    0.5100   17.5800   11.0000    3.0000 
2522.6772  108.0000    2.5900   -0.3200    0.5100   17.5800   11.0000    3.0000 
2522.8296  107.7300    2.5900   -0.3200    0.5100   17.3700   11.0000    3.0000 
2522.9820  109.4100    2.6000   -0.3200    0.5100   17.0900   11.0000    3.0000 
2523.1344  110.1700    2.5900   -0.3100    0.5100   17.2900   11.0000    3.0000 
2523.2868  110.1100    2.5900   -0.3100    0.4800   17.1700   11.0000    3.0000 
2523.4392  110.6000    2.5800   -0.3100    0.4500   17.2300   11.0000    3.0000 
2523.5916  109.7000    2.5800   -0.3200    0.4300   17.5700   11.0000    3.0000 
2523.7440  108.6700    2.5900   -0.3200    0.4300   17.8200   11.0000    3.0000 
2523.8964  106.2000    2.6000   -0.3200    0.4300   18.2400   11.0000    3.0000 
2524.0488  101.3000    2.6200   -0.3100    0.4300   18.1100   11.0000    3.0000 
2524.2012  102.3600    2.6200   -0.3100    0.4500   18.1100   11.0000    3.0000 
2524.3536  103.7200    2.6100   -0.3300    0.4700   17.4600   11.0000    3.0000 
2524.5060  108.9100    2.6300   -0.3300    0.4900   17.1800   11.0000    3.0000 
2524.6584  110.1300    2.6600   -0.3400    0.4900   16.6200   11.0000    3.0000 
2524.8108  110.9100    2.7100   -0.3200    0.5100   16.3600   11.0000    3.0000 
2524.9632  110.9600    2.7100   -0.3200    0.5300   16.3600   11.0000    3.0000 
2525.1156  109.9800    2.7100   -0.3200    0.5600   16.3600   11.0000    3.0000 
2525.2680  109.9800    2.6400   -0.3300    0.5600   16.2400   11.0000    3.0000 
2525.4204  111.2800    2.5800   -0.3200    0.5600   16.1700   11.0000    3.0000 
2525.5728  111.6300    2.5300   -0.3200    0.5300   16.4100   11.0000    3.0000 
2525.7252  111.5400    2.5300   -0.3200    0.5000   16.4100   11.0000    3.0000 
2525.8776  110.3100    2.5300   -0.3200    0.4700   17.0100   11.0000    3.0000 
2526.0300  108.0400    2.5500   -0.3100    0.4700   17.6000   11.0000    3.0000 
2526.1824  105.2600    2.5700   -0.3000    0.4700   18.2300   11.0000    3.0000 
2526.3348  103.1100    2.5900   -0.3000    0.4900   18.1400   11.0000    3.0000 
2526.4872  104.6700    2.5900   -0.3000    0.4900   18.1400   11.0000    3.0000 
2526.6396  106.6800    2.5900   -0.3000    0.5000   18.0000   11.0000    3.0000 
2526.7920  106.7700    2.5700   -0.3000    0.4900   17.8500   11.0000    3.0000 
2526.9444  105.7900    2.5500   -0.3000    0.4500   17.8500   11.0000    3.0000 
2527.0968  105.0000    2.5400   -0.3100    0.4100   17.9500   11.0000    3.0000 
2527.2492  107.3900    2.5400   -0.3100    0.3800   17.9500   11.0000    3.0000 
2527.4016  108.9900    2.5500   -0.3100    0.3800   17.3400   11.0000    3.0000 
2527.5540  109.8500    2.5600   -0.3100    0.3800   16.8500   11.0000    3.0000 
2527.7064  109.4700    2.5700   -0.3100    0.4000   16.3100   11.0000    3.0000 
2527.8588  107.6300    2.5700   -0.3100    0.4500   16.3100   11.0000    3.0000 
2528.0112  111.1400    2.5700   -0.3100    0.5000   16.6200   11.0000    3.0000 
2528.1636  112.1300    2.5600   -0.3100    0.5000   17.0800   11.0000    3.0000 
2528.3160  113.5600    2.5500   -0.3200    0.4800   17.6100   11.0000    3.0000 
2528.4684  111.0400    2.5300   -0.3200    0.4600   17.7000   11.0000    3.0000 
2528.6208  108.8900    2.5300   -0.3200    0.4500   17.7000   11.0000    3.0000 
2528.7732  108.6000    2.5300   -0.3200    0.4500   17.2800   11.0000    3.0000 
2528.9256  105.2300    2.5300   -0.3200    0.4700   17.0200   11.0000    3.0000 
2529.0780  105.3700    2.5400   -0.3200    0.5100   16.8000   11.0000    3.0000 
2529.2304  105.8500    2.5400   -0.3200    0.5300   16.8000   11.0000    3.0000 
2529.3828  109.7500    2.5300   -0.3200    0.5100   16.6300   11.0000    3.0000 
2529.5352  111.8100    2.5300   -0.3200    0.4700   16.5000   11.0000    3.0000 
2529.6876  111.5200    2.5200   -0.3200    0.4300   16.3800   11.0000    3.0000 
2529.8400  110.2300    2.5200   -0.3300    0.4300   16.7300   11.0000    3.0000 
2529.9924  109.4100    2.5700   -0.3200    0.4300   16.8300   11.0000    3.0000 
2530.1448  109.9900    2.6300   -0.3000    0.4700   16.9400   11.0000    3.0000 
2530.2972  109.1400    2.7000   -0.2900    0.5200   16.5200   11.0000    3.0000 
2530.4496  109.3000    2.6500   -0.3300    0.5700   16.0600   11.0000    3.0000 
2530.6020  108.9100    2.6600   -0.3700    0.5600   15.3700   11.0000    3.0000 
2530.7544  109.9600    2.6700   -0.4100    0.5300   14.5900   11.0000    3.0000 
2530.9068  108.0300    2.7500   -0.3900    0.5100   14.2300   11.0000    3.0000 
2531.0592  110.3100    2.7500   -0.3900    0.5100   14.2300   11.0000    3.0000 
2531.2116  111.7200    2.6700   -0.3700    0.5100   15.0600   11.0000    3.0000 
2531.3640  116.0500    2.6100   -0.3400    0.5000   15.7600   11.0000    3.0000 
2531.5164  114.4300    2.5600   -0.3200    0.4900   16.5300   11.0000    3.0000 
2531.6688  112.8800    2.5600   -0.3200    0.4900   16.7600   11.0000    3.0000 
2531.8212  107.4000    2.5500   -0.3200    0.5200   16.9900   11.0000    3.0000 
2531.9736  102.9500    2.5400   -0.3200    0.5500   17.3600   11.0000    3.0000 
2532.1260  102.8200    2.5400   -0.3300    0.5800   17.3600   11.0000    3.0000 
2532.2784  106.2700    2.5300   -0.3300    0.5800   16.9000   11.0000    3.0000 
2532.4308  112.8800    2.5300   -0.3200    0.5800   16.5200   11.0000    3.0000 
2532.5832  116.0100    2.5300   -0.3200    0.5300   16.1000   11.0000    3.0000 
2532.7356  117.1200    2.5300   -0.3200    0.4900   16.1000   11.0000    3.0000 
2532.8880  113.0400    2.5300   -0.3200    0.4400   16.2000   11.0000    3.0000 
2533.0404  110.9500    2.5400   -0.3100    0.4400   16.5500   11.0000    3.0000 
2533.1928  109.5800    2.5500   -0.3100    0.4600   17.0600   11.0000    3.0000 
2533.3452  110.1000    2.5500   -0.3100    0.4800   17.0600   11.0000    3.0000 
2533.4976  108.4800    2.5500   -0.3100    0.5000   17.2300   11.0000    3.0000 
2533.6500  106.0800    2.5500   -0.3100    0.5100   17.3800   11.0000    3.0000 
2533.8024  106.3500    2.5500   -0.3100    0.5100   17.7100   11.0000    3.0000 
2533.9548  107.4700    2.5600   -0.3100    0.5100   17.6200   11.0000    3.0000 
2534.1072  108.2300    2.5600   -0.3100    0.5100   17.6200   11.0000    3.0000 
2534.2596  108.9000    2.5700   -0.3100    0.5100   17.8700   11.0000    3.0000 
2534.4120  110.7100    2.5700   -0.3000    0.5100   18.2800   11.0000    3.0000 
2534.5644  113.1600    2.5800   -0.3000    0.5100   18.4800   11.0000    3.0000 
