~VERSION INFORMATION
 VERS.                 2.0:   CWLS LOG ASCII STANDARD - VERSION 2.0
 WRAP.                  NO:   SINGLE LINE PER DEPTH STEP
 CREA.                 08/01/2018 13:34:12
#CREATED USING DSPetro VERSION 5000.10.1.3 BY H191660 ON 08/01/2018 13:34:12
~WELL INFORMATION
#MNEM.UNIT       DATA                          DESCRIPTION MNEMONIC
#---------      ---------------------------   --------------------------
 STRT    .M         0.0000                    : START DEPTH
 STOP    .M         3099.9684                 : STOP DEPTH
 STEP    .M         0.1524                    : STEP VALUE
 NULL    .      -999.0000                     : NULL VALUE
 DATE    .      08/01/2018                    : LAS file Creation Date
 WELL .      1849_Huascaran-1            : Well Name
 COMP .      Neftex Exploration Insights : Company
 FLD  .                                  : Field
 UWI  .      ZAUWL_005236                : Unique Well Identifier (UWI)
 LOC  .                                  : Location
 RWS  .      -999                        : Def_Rw
 WST  .      -999                        : Def_Rwt
 SRVC .                                  : Contractor
~CURVE INFORMATION
#MNEM              UNIT       API CODE   Curve Type Comments
#----------  --------------- ----------  ---------- -----------
 DEPTH      .M                         : Depth       
 GR_API     .API                       : gammaRay    Gamma Ray (API) - Measures the intensity of natural gamma-ray radiation emitted from formations containing radioactive elements, such as K, Th and U
 RHOB_G_CC  .g/cc                      : density     Bulk Density - Measures the density of bulk material, including any void space or other materials contained in the subject volume
 DRHO_G_CC  .g/cc                      : drho        Density Correction - Investigates the correction to the Bulk Density log; used as an indication of hole condition to validate the Bulk Density measure
 NPHI_v/v   .usl                       : neutron     Neutron Porosity - Measured with an neutron logging device calibrated to a given matrix (limestone, sandstone and dolomite) - unscaled
 PEF_B_E    .b/e-                      : PEF         Photoelectric Factor - A log of photoelectric absorption properties. Often expressed in an approximation unit barns/electron (b/e-)
 LITH       .                          : LITH        Lithology Curve
 LITH_v2    .                          : LITH        Lithology Curve
~A  DEPTH   GR_API  RHOB_G_C  DRHO_G_C   NPHI_v/v  PEF_B_E     LITH    LITH_v2  
# ...
2851.5564  160.5400    2.5000    0.0400    0.2200    3.5400   37.0000   37.0000 
2851.7088  159.7900    2.5400    0.0500    0.2400    3.4300   37.0000   37.0000 
2851.8612  155.9900    2.6000    0.0500    0.2700    4.0600   37.0000   37.0000 
2852.0136  153.6600    2.7000    0.0300    0.2700    5.2200   23.0000   23.0000 
2852.1660  155.7600    2.7900    0.0200    0.2500    6.5600   23.0000   23.0000 
2852.3184  161.3700    2.7400    0.0200    0.2300    5.6300   23.0000   23.0000 
2852.4708  155.7800    2.6300    0.0400    0.2000    4.6100   37.0000   37.0000 
2852.6232  147.3500    2.5900    0.0800    0.1900    3.8500   37.0000   37.0000 
2852.7756  147.2200    2.5500    0.0600    0.1900    4.2900   37.0000   37.0000 
2852.9280  155.8600    2.5500    0.0600    0.1900    4.2900   37.0000   37.0000 
2853.0804  159.3400    2.5100    0.0500    0.2000    4.4100   37.0000   37.0000 
2853.2328  151.8400    2.5000    0.0700    0.2000    4.3600   37.0000   37.0000 
2853.3852  147.2500    2.4700    0.0600    0.2000    4.3000   37.0000   37.0000 
2853.5376  144.5000    2.4400    0.0400    0.2000    4.1600   37.0000   37.0000 
2853.6900  138.8900    2.4200    0.0400    0.2100    3.6500   37.0000   37.0000 
2853.8424  133.0100    2.4100    0.0300    0.2000    3.7600   37.0000   37.0000 
2853.9948  130.7200    2.4800    0.0500    0.2200    4.0000   37.0000   37.0000 
2854.1472  137.1700    2.5300    0.0200    0.2300    4.9700   37.0000   37.0000 
2854.2996  143.0300    2.5400    0.0100    0.2200    4.7700   37.0000   37.0000 
2854.4520  145.7300    2.4600    0.0000    0.2000    4.4100   37.0000   37.0000 
2854.6044  146.5900    2.4500    0.0300    0.1900    3.7500   37.0000   37.0000 
2854.7568  150.5000    2.5000    0.0500    0.1900    3.6100   37.0000   37.0000 
2854.9092  153.0500    2.5400    0.0300    0.2000    4.1300   37.0000   37.0000 
2855.0616  158.9800    2.5900    0.0300    0.2000    4.0300   37.0000   37.0000 
2855.2140  164.1800    2.5700    0.0200    0.2100    4.1100   37.0000   37.0000 
2855.3664  176.1000    2.5800    0.0400    0.2200    3.9900   37.0000   37.0000 
2855.5188  186.6500    2.5800    0.0300    0.2200    4.1600   37.0000   37.0000 
2855.6712  197.0400    2.6800    0.0700    0.2300    4.4700   23.0000   23.0000 
2855.8236  201.7700    2.7500    0.0600    0.2200    4.9000   23.0000   23.0000 
2855.9760  197.6100    2.7700    0.0800    0.2100    4.8400   23.0000   23.0000 
2856.1284  184.1400    2.6600    0.0400    0.2000    5.1200   23.0000   23.0000 
2856.2808  181.4800    2.5500    0.0300    0.2000    4.4200   37.0000   37.0000 
2856.4332  186.0800    2.5000    0.0200    0.2000    4.2100   37.0000   37.0000 
2856.5856  195.8600    2.5100    0.0300    0.2100    4.0100   37.0000   37.0000 
2856.7380  200.8600    2.5600    0.0500    0.2100    4.1300   37.0000   37.0000 
2856.8904  201.1000    2.6000    0.0600    0.2100    4.7200   37.0000   37.0000 
2857.0428  202.3000    2.6400    0.0800    0.2200    4.6200   37.0000   37.0000 
2857.1952  203.0900    2.6400    0.0600    0.2200    4.4600   37.0000   37.0000 
2857.3476  198.2600    2.6100    0.0700    0.2300    4.1300   37.0000   37.0000 
2857.5000  187.7000    2.5500    0.0400    0.2500    4.2600   37.0000   37.0000 
2857.6524  173.3400    2.6000    0.0600    0.2500    4.6500   23.0000   23.0000 
2857.8048  172.7000    2.5900    0.0000    0.2400    5.8300   23.0000   23.0000 
2857.9572  175.7900    2.6800    0.0100    0.2300    6.1000   23.0000   23.0000 
2858.1096  172.3900    2.6100   -0.0100    0.2200    6.3200   23.0000   23.0000 
2858.2620  167.1000    2.6100    0.0300    0.2200    5.4600   23.0000   23.0000 
2858.4144  172.4600    2.5900    0.0300    0.2200    5.3600   23.0000   23.0000 
2858.5668  198.5100    2.6200    0.0500    0.2200    4.4700   37.0000   37.0000 
2858.7192  225.7000    2.5800    0.0600    0.2200    3.8000   37.0000   37.0000 
2858.8716  234.9300    2.5200    0.0600    0.2300    3.3000   37.0000   37.0000 
2859.0240  170.7200    2.5100    0.0100    0.2500    3.8300   37.0000   37.0000 
2859.1764  170.7200    2.5100    0.0100    0.2500    3.8300   37.0000   37.0000 
2859.3288  139.3200    2.5600    0.0100    0.2700    3.9300   37.0000   37.0000 
2859.4812  137.6000    2.5600    0.0100    0.3000    3.6000   37.0000   37.0000 
2859.6336  150.7500    2.5600    0.0300    0.3100    3.3900   37.0000   37.0000 
2859.7860  162.4200    2.5600    0.0300    0.3100    3.3300   37.0000   37.0000 
2859.9384  164.2000    2.5600    0.0300    0.3200    3.3900   37.0000   37.0000 
2860.0908  162.0600    2.5700    0.0300    0.3200    3.3800   37.0000   37.0000 
2860.2432  158.4200    2.5800    0.0400    0.3000    3.4700   37.0000   37.0000 
2860.3956  155.9300    2.5700    0.0300    0.2900    3.5400   37.0000   37.0000 
2860.5480  151.8800    2.5600    0.0300    0.2900    3.5500   37.0000   37.0000 
2860.7004  149.7500    2.5600    0.0300    0.3100    3.5400   37.0000   37.0000 
2860.8528  148.3400    2.5700    0.0300    0.3100    3.5300   37.0000   37.0000 
2861.0052  150.5700    2.5700    0.0300    0.3000    3.7300   37.0000   37.0000 
2861.1576  153.3100    2.5900    0.0300    0.2900    3.7600   37.0000   37.0000 
2861.3100  153.5900    2.5800    0.0300    0.2900    3.8200   37.0000   37.0000 
2861.4624  151.5400    2.5900    0.0300    0.3100    3.6100   37.0000   37.0000 
2861.6148  152.2400    2.5900    0.0300    0.2900    3.6200   37.0000   37.0000 
2861.7672  153.4900    2.5900    0.0300    0.2800    3.6400   37.0000   37.0000 
2861.9196  153.8000    2.6000    0.0400    0.2600    3.6400   37.0000   37.0000 
2862.0720  152.0900    2.6000    0.0400    0.2700    3.6600   37.0000   37.0000 
2862.2244  146.3100    2.5700    0.0400    0.2800    3.5700   37.0000   37.0000 
2862.3768  146.3100    2.5700    0.0400    0.2800    3.5700   37.0000   37.0000 
2862.5292  148.5500    2.5600    0.0400    0.2700    3.9500   37.0000   37.0000 
2862.6816  153.7200    2.5600    0.0300    0.2700    4.1400   37.0000   37.0000 
2862.8340  157.7600    2.5800    0.0400    0.2500    4.1500   37.0000   37.0000 
2862.9864  154.0300    2.5600    0.0500    0.2400    3.7100   37.0000   37.0000 
2863.1388  148.4800    2.6300    0.0800    0.2600    3.8600   37.0000   37.0000 
2863.2912  147.1800    2.6500    0.0700    0.2600    4.0900   37.0000   37.0000 
2863.4436  151.5400    2.6500    0.0700    0.2600    4.0700   37.0000   37.0000 
2863.5960  152.5500    2.5700    0.0300    0.2600    4.1100   37.0000   37.0000 
2863.7484  151.9700    2.5500    0.0400    0.2700    3.9900   37.0000   37.0000 
2863.9008  153.0700    2.5500    0.0400    0.2700    4.0700   37.0000   37.0000 
2864.0532  161.0700    2.5600    0.0500    0.2600    3.5000   37.0000   37.0000 
2864.2056  168.1100    2.5600    0.0500    0.2600    3.3200   37.0000   37.0000 
2864.3580  172.6600    2.5700    0.0400    0.2400    3.4100   37.0000   37.0000 
2864.5104  169.1500    2.5600    0.0500    0.2600    3.4800   37.0000   37.0000 
2864.6628  160.0100    2.5300    0.0400    0.2400    3.4200   37.0000   37.0000 
2864.8152  150.1600    2.5100    0.0300    0.2500    3.1500   37.0000   37.0000 
2864.9676  143.7500    2.4900    0.0300    0.2300    3.1200   37.0000   37.0000 
2865.1200  143.5100    2.5100    0.0500    0.2400    3.2400   37.0000   37.0000 
2865.2724  143.6200    2.5400    0.0500    0.2400    3.9100   37.0000   37.0000 
2865.4248  148.7500    2.5600    0.0500    0.2100    4.5200   37.0000   37.0000 
2865.5772  148.7500    2.5600    0.0500    0.2100    4.5200   37.0000   37.0000 
2865.7296  141.6900    2.4800    0.0400    0.1900    3.8300   37.0000   37.0000 
2865.8820  130.5300    2.4200    0.0400    0.2000    3.3000   37.0000   37.0000 
2866.0344  125.7500    2.3800    0.0300    0.2100    3.1700   37.0000   37.0000 
2866.1868  130.9800    2.3900    0.0200    0.2400    3.4100   37.0000   37.0000 
2866.3392  138.7300    2.4400    0.0200    0.2700    3.6300   37.0000   37.0000 
2866.4916  141.5600    2.4900    0.0200    0.3200    3.7600   37.0000   37.0000 
