~VERSION INFORMATION
 VERS.                 2.0:   CWLS LOG ASCII STANDARD - VERSION 2.0
 WRAP.                  NO:   SINGLE LINE PER DEPTH STEP
 CREA.                 15/01/2018 11:41:51
#CREATED USING DSPetro VERSION 5000.10.1.3 BY H191660 ON 15/01/2018 11:41:51
~WELL INFORMATION
#MNEM.UNIT       DATA                          DESCRIPTION MNEMONIC
#---------      ---------------------------   --------------------------
 STRT    .M         0.0000                    : START DEPTH
 STOP    .M         3500.0184                 : STOP DEPTH
 STEP    .M         0.1524                    : STEP VALUE
 NULL    .      -999.0000                     : NULL VALUE
 DATE    .      15/01/2018                    : LAS file Creation Date
 WELL .      2612_Pluto-1                : Well Name
 COMP .      Neftex Exploration Insights : Company
 FLD  .      PLUTO                       : Field
 UWI  .      ZAUWL_007298                : Unique Well Identifier (UWI)
 LOC  .                                  : Location
 RWS  .      -999                        : Def_Rw
 WST  .      -999                        : Def_Rwt
 SRVC .                                  : Contractor
~CURVE INFORMATION
#MNEM              UNIT       API CODE   Curve Type Comments
#----------  --------------- ----------  ---------- -----------
 DEPTH      .M                         : Depth       
 BS         .in                        : BitSize     
 CAL_INCH   .inch                      : caliper     Caliper Log - A representation of the measured diameter of a borehole along its depth
 SP_MV1     .mv                        : SP          Spontaneous Potential - Records the electrical potential produced by the interaction of formation water, conductive drilling mud, and certain ion-sele
 GR_API     .API                       : gammaRay    Gamma Ray (API) - Measures the intensity of natural gamma-ray radiation emitted from formations containing radioactive elements, such as K, Th and U
 GRC_API    .API                       : gammaRay    Borehole Corrected Gamma Ray - Log calibrated to account for borehole effects that could disrupt the gamma response
 TH_PPM     .ppm                       : spectral    Thorium Abundance (SGR) - The quantitative elemental abundace of Thorium derived from the Spectral Gamma Ray Log
 K_%        .PC                        : spectral    Potassium Abundance (SGR) - The quantitative elemental abundace of Potassium derived from the Spectral Gamma Ray Log. Also wt_%
 U_PPM      .ppm                       : Spectral    Uranium Abundance (SGR) - The quantitative elemental abundace of Uranium derived from the Spectral Gamma Ray Log
 RES_OHMM   .ohmm                      : deepRes     Unspecified Resistivity Log - No accroynm or method of attainment is specified - units of ohmm
 RHOB_G_CC  .g/cc                      : density     Bulk Density - Measures the density of bulk material, including any void space or other materials contained in the subject volume
 NPHI_v/v   .ratio                     : neutron     Neutron Porosity - Measured with an neutron logging device calibrated to a given matrix (limestone, sandstone and dolomite)
 PEF_B_E    .b/e-                      : PEF         Photoelectric Factor - A log of photoelectric absorption properties. Often expressed in an approximation unit barns/electron (b/e-)
 LITH       .                          : LITH        Lithology Curve
 LITH_v2    .                          : LITH        Lithology Curve
~A  DEPTH     BS     CAL_INCH   SP_MV1    GR_API   GRC_API    TH_PPM     K_%      U_PPM    RES_OHMM RHOB_G_C~  NPHI_v/v  PEF_B_E     LITH    LITH_v2  
# ...
3133.9536    8.5000    8.5141    8.4540  157.2334  130.0169   22.3948    0.0329    2.1784    3.7699    2.4668    0.3013    2.5378   37.0000    7.0000 
3134.1060    8.5000    8.5480    6.8178  145.8026  128.4817   21.9558    0.0328    2.1016    4.0255    2.4804    0.2616    2.5064   37.0000    7.0000 
3134.2584    8.5000    8.5480    5.4315  143.8678  126.4422   21.2235    0.0330    2.1745    4.9337    2.4876    0.2216    2.4876   37.0000    7.0000 
3134.4108    8.5000    8.5405    5.4203  146.4442  129.8909   21.9432    0.0336    2.0297    5.5240    2.4905    0.2153    2.4657   37.0000    7.0000 
3134.5632    8.5000    8.5480    4.9716  154.4083  133.6481   22.9171    0.0340    1.9763    5.0260    2.4905    0.2268    2.4520   37.0000    7.0000 
3134.7156    8.5000    8.5593    4.7104  156.8979  134.9123   23.1016    0.0344    2.2451    4.4989    2.4934    0.2495    2.4488   37.0000    7.0000 
3134.8680    8.5000    8.5593    5.2617  159.4240  138.3791   23.7955    0.0351    2.3946    4.4063    2.4853    0.2708    2.4808   37.0000    7.0000 
3135.0204    8.5000    8.5593    4.2505  162.8870  134.9167   23.1358    0.0343    3.1204    4.5155    2.4670    0.2729    2.5336   37.0000    7.0000 
3135.1728    8.5000    8.5405    3.7393  161.6401  134.7198   22.4552    0.0354    3.6583    4.4026    2.4437    0.3197    2.5757   37.0000    7.0000 
3135.3252    8.5000    8.5405    3.9781  169.7680  136.9380   22.9253    0.0358    4.2707    4.1672    2.4365    0.3388    2.5696   37.0000    7.0000 
3135.4776    8.5000    8.5405    4.9043  177.5083  145.4217   24.2619    0.0382    4.2246    3.9480    2.4377    0.3547    2.5375   37.0000    7.0000 
3135.6300    8.5000    8.5367    6.2681  189.4092  149.9826   24.6250    0.0400    4.8376    3.6219    2.4381    0.3599    2.5351   37.0000    7.0000 
3135.7824    8.5000    8.5480    4.5955  194.8179  146.7033   23.5786    0.0400    4.9519    3.4242    2.4365    0.3662    2.5546   37.0000    7.0000 
3135.9348    8.5000    8.5254    6.3227  190.7437  142.8250   23.1878    0.0386    4.5775    3.2505    2.4427    0.3702    2.5664   37.0000    7.0000 
3136.0872    8.5000    8.5103    6.7375  186.6075  128.9130   20.4434    0.0356    4.3144    4.0130    2.4521    0.3244    2.5766   37.0000    7.0000 
3136.2396    8.5000    8.5028    8.0273  171.0630  112.7817   17.6119    0.0316    3.8592    4.6772    2.4386    0.2911    2.6283   37.0000    7.0000 
3136.3920    8.5000    8.4576   10.3170  149.9575  106.1231   16.5333    0.0298    3.3873    4.4357    2.3944    0.2623    2.7267   37.0000    7.0000 
3136.5444    8.5000    8.3898   12.7943  140.3324  108.2248   16.7091    0.0307    3.2018    2.7715    2.3576    0.2619    2.7826   37.0000    7.0000 
3136.6968    8.5000    8.3446   13.7716  142.8949  119.2317   18.3340    0.0339    3.5650    2.0579    2.3621    0.2618    2.7480   37.0000    7.0000 
3136.8492    8.5000    8.4576   13.1864  157.8965  126.0724   19.6483    0.0354    3.8273    2.6220    2.3973    0.2721    2.6551   37.0000    7.0000 
3137.0016    8.5000    8.5405   11.6636  164.3049  131.1103   20.4796    0.0368    3.4895    4.6829    2.4232    0.2772    2.5770   37.0000    7.0000 
3137.1540    8.5000    8.5706   10.3284  168.7707  131.6471   20.4520    0.0371    3.9238    4.4412    2.4339    0.2761    2.5456   37.0000    7.0000 
3137.3064    8.5000    8.5706    8.4932  166.6613  134.8667   21.5941    0.0369    3.9471    3.3640    2.4387    0.2711    2.5538   37.0000    7.0000 
3137.4588    8.5000    8.5819    6.5955  166.1348  136.5629   22.2908    0.0367    4.2555    4.4882    2.4456    0.2704    2.5772   37.0000    7.0000 
3137.6112    8.5000    8.5781    5.5102  161.4471  134.6084   21.9754    0.0361    4.5799    3.9803    2.4540    0.2694    2.5908   37.0000    7.0000 
3137.7636    8.5000    8.5630    4.3625  166.7749  136.0443   22.5027    0.0360    4.6611    4.0834    2.4631    0.2814    2.5707   37.0000    7.0000 
3137.9160    8.5000    8.5480    2.7773  169.1055  135.7561   22.3408    0.0361    4.8179    3.9202    2.4627    0.2818    2.5643   37.0000    7.0000 
3138.0684    8.5000    8.5254    2.6920  176.4848  138.8182   22.4965    0.0376    4.7896    3.7349    2.4590    0.2995    2.5625   37.0000    7.0000 
3138.2208    8.5000    8.5367    1.3568  183.0007  142.9669   22.5572    0.0397    4.7060    3.6737    2.4498    0.3290    2.5819   37.0000    7.0000 
3138.3732    8.5000    8.5329    0.2091  185.9972  146.1607   22.9744    0.0408    4.4154    3.7891    2.4450    0.3391    2.5826   37.0000    7.0000 
3138.5256    8.5000    8.5405   -0.3137  179.6433  143.3833   22.4692    0.0401    3.6441    3.6672    2.4349    0.3158    2.5831   37.0000    7.0000 
3138.6780    8.5000    8.5367    0.5386  170.9912  132.7247   20.6700    0.0373    3.8127    3.6736    2.4186    0.2825    2.5889   37.0000    7.0000 
3138.8304    8.5000    8.4915    3.6409  164.4434  127.8619   20.1921    0.0355    3.8219    3.5011    2.4150    0.2685    2.5673   37.0000    7.0000 
3138.9828    8.5000    8.4124    4.9307  168.7766  127.3777   20.1723    0.0353    4.3569    2.6192    2.4259    0.2748    2.5229   37.0000    7.0000 
3139.1352    8.5000    8.5179    2.7829  173.2432  129.0862   20.3380    0.0359    4.7224    4.6123    2.4448    0.2697    2.4842   37.0000    7.0000 
3139.2876    8.5000    8.5103    3.3227  172.4393  132.0821   20.9329    0.0365    4.7255    4.6811    2.4586    0.2690    2.4702   37.0000    7.0000 
3139.4400    8.5000    8.5103    2.4250  173.3221  132.7319   20.9254    0.0369    4.9522    3.9928    2.4622    0.2743    2.4886   37.0000    7.0000 
3139.5924    8.5000    8.5254    1.9648  174.2223  134.0158   21.2761    0.0370    5.0129    3.8456    2.4651    0.2746    2.5256   37.0000    7.0000 
3139.7448    8.5000    8.5141    2.3170  176.3580  136.1558   22.1315    0.0367    5.4296    4.1577    2.4682    0.2817    2.5769   37.0000    7.0000 
3139.8972    8.5000    8.5028    2.1693  173.4443  134.1550   22.6076    0.0348    5.6726    4.0231    2.4714    0.3064    2.5987   37.0000    7.0000 
3140.0496    8.5000    8.4953    0.2716  170.7685  131.0348   22.4706    0.0333    5.4857    3.7575    2.4684    0.3216    2.5728   37.0000    7.0000 
3140.2020    8.5000    8.4802   -0.7512  169.1874  120.4003   21.4059    0.0293    5.5613    3.4554    2.4646    0.3434    2.5226   37.0000    7.0000 
3140.3544    8.5000    8.5028   -1.7114  165.6643  124.5534   22.7363    0.0293    5.0782    3.2321    2.4611    0.3427    2.4831   37.0000    7.0000 
3140.5068    8.5000    8.4802   -2.7966  166.1901  129.0978   23.3106    0.0308    4.9630    3.1974    2.4637    0.3434    2.4767   37.0000    7.0000 
3140.6592    8.5000    8.4915   -2.3818  172.8894  139.6433   24.9002    0.0339    4.8108    3.2886    2.4510    0.3606    2.5176   37.0000    7.0000 
3140.8116    8.5000    8.4576   -0.7796  185.6192  150.0083   27.3730    0.0353    4.5474    3.2561    2.4516    0.3681    2.6164   37.0000    7.0000 
3140.9640    8.5000    8.4124   -1.3023  186.4251  155.8345   28.3016    0.0369    4.1851    2.4278    2.4567    0.3846    2.7021   37.0000    7.0000 
3141.1164    8.5000    8.4689   -1.1375  185.3829  156.2634   28.6819    0.0365    3.7672    2.5128    2.4734    0.3760    2.7199   37.0000    7.0000 
3141.2688    8.5000    8.4802   -1.4102  179.7558  148.0401   26.5984    0.0356    3.7772    3.2802    2.4663    0.3665    2.6556   37.0000    7.0000 
3141.4212    8.5000    8.4802   -1.4330  177.3143  145.8144   25.9261    0.0355    3.4759    2.9563    2.4582    0.3293    2.5872   37.0000    7.0000 
3141.5736    8.5000    8.4425   -1.1432  175.2330  141.2468   25.1686    0.0343    3.7167    3.2605    2.4505    0.2848    2.5464   37.0000    7.0000 
3141.7260    8.5000    8.4877   -1.1660  172.5408  137.6662   24.8599    0.0329    4.2250    4.4978    2.4572    0.2543    2.5111   37.0000    7.0000 
3141.8784    8.5000    8.5028   -1.9387  173.4287  136.6532   24.6127    0.0328    4.7129    4.3349    2.4606    0.2442    2.4733   37.0000    7.0000 
