~VERSION INFORMATION
 VERS.                 2.0:   CWLS LOG ASCII STANDARD - VERSION 2.0
 WRAP.                  NO:   SINGLE LINE PER DEPTH STEP
 CREA.                 15/01/2018 11:41:51
#CREATED USING DSPetro VERSION 5000.10.1.3 BY H191660 ON 15/01/2018 11:41:51
~WELL INFORMATION
#MNEM.UNIT       DATA                          DESCRIPTION MNEMONIC
#---------      ---------------------------   --------------------------
 STRT    .M         0.0000                    : START DEPTH
 STOP    .M         3500.0184                 : STOP DEPTH
 STEP    .M         0.1524                    : STEP VALUE
 NULL    .      -999.0000                     : NULL VALUE
 DATE    .      15/01/2018                    : LAS file Creation Date
 WELL .      2612_Pluto-1                : Well Name
 COMP .      Neftex Exploration Insights : Company
 FLD  .      PLUTO                       : Field
 UWI  .      ZAUWL_007298                : Unique Well Identifier (UWI)
 LOC  .                                  : Location
 RWS  .      -999                        : Def_Rw
 WST  .      -999                        : Def_Rwt
 SRVC .                                  : Contractor
~CURVE INFORMATION
#MNEM              UNIT       API CODE   Curve Type Comments
#----------  --------------- ----------  ---------- -----------
 DEPTH      .M                         : Depth       
 BS         .in                        : BitSize     
 CAL_INCH   .inch                      : caliper     Caliper Log - A representation of the measured diameter of a borehole along its depth
 SP_MV1     .mv                        : SP          Spontaneous Potential - Records the electrical potential produced by the interaction of formation water, conductive drilling mud, and certain ion-sele
 GR_API     .API                       : gammaRay    Gamma Ray (API) - Measures the intensity of natural gamma-ray radiation emitted from formations containing radioactive elements, such as K, Th and U
 GRC_API    .API                       : gammaRay    Borehole Corrected Gamma Ray - Log calibrated to account for borehole effects that could disrupt the gamma response
 TH_PPM     .ppm                       : spectral    Thorium Abundance (SGR) - The quantitative elemental abundace of Thorium derived from the Spectral Gamma Ray Log
 K_%        .PC                        : spectral    Potassium Abundance (SGR) - The quantitative elemental abundace of Potassium derived from the Spectral Gamma Ray Log. Also wt_%
 U_PPM      .ppm                       : Spectral    Uranium Abundance (SGR) - The quantitative elemental abundace of Uranium derived from the Spectral Gamma Ray Log
 RES_OHMM   .ohmm                      : deepRes     Unspecified Resistivity Log - No accroynm or method of attainment is specified - units of ohmm
 RHOB_G_CC  .g/cc                      : density     Bulk Density - Measures the density of bulk material, including any void space or other materials contained in the subject volume
 NPHI_v/v   .ratio                     : neutron     Neutron Porosity - Measured with an neutron logging device calibrated to a given matrix (limestone, sandstone and dolomite)
 PEF_B_E    .b/e-                      : PEF         Photoelectric Factor - A log of photoelectric absorption properties. Often expressed in an approximation unit barns/electron (b/e-)
 LITH       .                          : LITH        Lithology Curve
 LITH_v2    .                          : LITH        Lithology Curve
~A  DEPTH     BS     CAL_INCH   SP_MV1    GR_API   GRC_API    TH_PPM     K_%      U_PPM    RES_OHMM RHOB_G_C~  NPHI_v/v  PEF_B_E     LITH    LITH_v2  
# ...
2681.6304    8.5000    8.5480   22.9167   37.2275   43.5536    1.3956    0.0214   -0.6331    1.6707    2.4350    0.2187    4.9038   22.0000   18.0000 
2681.7828    8.5000    8.5480   24.1141   36.6479   45.3462    1.4900    0.0223   -0.6622    1.4172    2.4213    0.2374    4.9143   22.0000   18.0000 
2681.9352    8.5000    8.5480   24.5615   33.3178   44.0455    1.6046    0.0214   -0.7595    1.7255    2.4093    0.2447    4.9322   22.0000   18.0000 
2682.0876    8.5000    8.5480   25.0714   31.4312   43.7178    1.5873    0.0212   -0.8371    1.5748    2.4059    0.2249    4.9079   18.0000   18.0000 
2682.2400    8.5000    8.5480   24.9563   31.9029   40.2644    1.4333    0.0196   -0.6567    1.8848    2.4033    0.2086    4.8851   18.0000   18.0000 
2682.3924    8.5000    8.5480   25.4663   31.8689   40.1420    1.3486    0.0197   -0.7187    1.7135    2.3959    0.2124    4.8757   18.0000   18.0000 
2682.5448    8.5000    8.5480   25.4137   32.6338   41.8586    1.2258    0.0208   -0.6568    1.5226    2.3778    0.2411    4.9385   18.0000   18.0000 
2682.6972    8.5000    8.5367   25.6736   33.3474   43.1244    1.2827    0.0214   -0.6340    1.2883    2.3643    0.2454    5.0079   22.0000   18.0000 
2682.8496    8.5000    8.5329   25.9960   32.9035   41.2714    1.3677    0.0202   -0.6152    1.5290    2.3676    0.2387    5.0337   18.0000   18.0000 
2683.0020    8.5000    8.5367   26.6310   29.9589   37.1693    1.0967    0.0185   -0.5739    1.6753    2.3833    0.2121    5.0241   18.0000   18.0000 
2683.1544    8.5000    8.5405   27.3909   28.0065   32.8025    0.7954    0.0166   -0.5212    1.6047    2.3945    0.2041    5.0100   18.0000   18.0000 
2683.3068    8.5000    8.5367   27.6508   30.0176   36.3059    0.7449    0.0186   -0.5936    1.4878    2.3916    0.2126    4.9922   18.0000   18.0000 
2683.4592    8.5000    8.5254   27.7857   30.0887   38.5283    0.7690    0.0198   -0.5965    1.4964    2.3789    0.2238    4.9457   18.0000   18.0000 
2683.6116    8.5000    8.5329   27.7331   32.9926   43.7657    0.7498    0.0227   -0.6615    1.3379    2.3607    0.2418    4.9008   18.0000   18.0000 
2683.7640    8.5000    8.5367   27.1805   31.3144   41.9470    0.5718    0.0220   -0.6220    1.2957    2.3419    0.2500    4.8716   18.0000   18.0000 
2683.9164    8.5000    8.5254   27.6905   33.1558   41.6557    0.6272    0.0217   -0.7431    1.1561    2.3251    0.2725    4.8666   18.0000   18.0000 
2684.0688    8.5000    8.5103   27.8254   32.6821   40.2280    0.6546    0.0209   -0.7155    1.0318    2.3237    0.2770    4.8371   18.0000   18.0000 
2684.2212    8.5000    8.5254   27.4603   34.1248   41.6259    0.6800    0.0216   -0.7826    1.1363    2.3321    0.2782    4.8336   22.0000   18.0000 
2684.3736    8.5000    8.5367   27.9077   33.8870   41.0308    0.5857    0.0215   -0.8015    1.3525    2.3455    0.2626    4.8373   18.0000   18.0000 
2684.5260    8.5000    8.5367   28.2927   34.5642   39.5588    0.4265    0.0209   -0.6694    1.1475    2.3441    0.2670    4.8860   22.0000   18.0000 
2684.6784    8.5000    8.5329   28.4901   33.4929   36.4282    0.3134    0.0194   -0.5008    1.0670    2.3422    0.2625    4.8967   18.0000   18.0000 
2684.8308    8.5000    8.5254   28.8125   32.2222   38.1271    0.4381    0.0201   -0.5649    1.2441    2.3408    0.2563    4.8951   18.0000   18.0000 
2684.9832    8.5000    8.5141   28.8849   31.6496   36.9395    0.3506    0.0196   -0.5056    1.3914    2.3393    0.2507    4.9014   18.0000   18.0000 
2685.1356    8.5000    8.5367   29.2698   31.2782   37.9933    0.3078    0.0203   -0.4805    1.0603    2.3264    0.2539    4.9564   18.0000   18.0000 
2685.2880    8.5000    8.5141   29.2798   31.7221   38.6536    0.5293    0.0202   -0.5183    1.1141    2.3176    0.2625    5.0175   18.0000   18.0000 
2685.4404    8.5000    8.5028   29.2272   29.5836   39.4476    0.8590    0.0201   -0.6400    1.2349    2.3208    0.2726    5.0271   22.0000   18.0000 
2685.5928    8.5000    8.5028   29.6746   28.6958   38.7519    0.8338    0.0198   -0.5941    1.1152    2.3360    0.2725    4.9880   22.0000   18.0000 
2685.7452    8.5000    8.5179   29.9345   30.3550   37.6241    0.9234    0.0190   -0.6640    1.0412    2.3479    0.2678    4.9377   22.0000   18.0000 
2685.8976    8.5000    8.4915   29.6319   30.8368   38.2756    1.0998    0.0191   -0.7385    1.2244    2.3558    0.2556    4.8922   18.0000   18.0000 
2686.0500    8.5000    8.4915   29.4543   30.4520   38.0564    1.0162    0.0191   -0.8101    1.0114    2.3509    0.2423    4.8880   18.0000   18.0000 
2686.2024    8.5000    8.4915   29.4643   32.2199   40.8964    1.1921    0.0203   -1.0113    1.0902    2.3448    0.2463    4.8943   18.0000   18.0000 
2686.3548    8.5000    8.4953   29.2867   36.6244   41.6089    1.2742    0.0206   -1.0554    1.3753    2.3350    0.2472    4.9165   18.0000   18.0000 
2686.5072    8.5000    8.5028   28.9841   36.1213   43.4220    1.2582    0.0216   -1.0868    1.3895    2.3299    0.2721    4.8954   22.0000   18.0000 
2686.6596    8.5000    8.5254   28.5565   32.3214   42.7259    1.2498    0.0212   -1.1314    1.0552    2.3148    0.2739    4.8999   18.0000   18.0000 
2686.8120    8.5000    8.5028   28.6290   30.7013   41.1633    1.2423    0.0204   -1.0487    0.9788    2.3095    0.2797    4.8743   18.0000   18.0000 
2686.9644    8.5000    8.5028   28.7639   34.0306   40.3930    0.9981    0.0204   -1.0324    0.9807    2.3107    0.2713    4.8748   18.0000   18.0000 
2687.1168    8.5000    8.5179   28.1488   33.9118   40.0513    0.7824    0.0206   -0.9215    1.1684    2.3237    0.2659    4.8456   18.0000   18.0000 
2687.2692    8.5000    8.5254   27.6587   31.9142   42.4691    0.8238    0.0218   -1.0077    1.2098    2.3348    0.2582    4.8083   18.0000   18.0000 
2687.4216    8.5000    8.5179   27.1061   29.2507   40.7625    0.6370    0.0212   -0.9420    1.0638    2.3438    0.2472    4.7745   18.0000   18.0000 
2687.5740    8.5000    8.5141   26.7411   30.0823   39.1689    0.5429    0.0205   -0.8001    1.2534    2.3476    0.2476    4.7706   18.0000   18.0000 
2687.7264    8.5000    8.5254   26.5635   31.8580   35.6518    0.6370    0.0184   -0.7516    1.3574    2.3441    0.2569    4.8533   18.0000   18.0000 
2687.8788    8.5000    8.5367   26.2609   34.1886   34.8220    0.6611    0.0179   -0.7184    1.1456    2.3440    0.2594    4.9544   18.0000   18.0000 
2688.0312    8.5000    8.5405   25.5833   34.0698   34.1552    0.6461    0.0176   -0.6179    1.2755    2.3532    0.2527    5.0638   22.0000   18.0000 
2688.1836    8.5000    8.5329   24.6557   33.8478   37.1676    0.8794    0.0188   -0.6778    1.7220    2.3741    0.2317    5.1284   22.0000   18.0000 
2688.3360    8.5000    8.5480   23.6656   33.9613   37.8670    1.0706    0.0189   -0.5968    2.0965    2.3937    0.2187    5.1519   18.0000   18.0000 
2688.4884    8.5000    8.5405   24.2381   35.5157   40.2686    1.4409    0.0196   -0.8059    2.0452    2.4026    0.2170    5.1696   22.0000   18.0000 
2688.6408    8.5000    8.5367   24.3105   34.9633   40.6700    1.5227    0.0197   -0.8254    1.7494    2.4025    0.2209    5.2539   22.0000   18.0000 
2688.7932    8.5000    8.5367   24.1329   32.9536   44.2293    1.8520    0.0210   -1.0026    1.7461    2.4134    0.2144    5.4047   22.0000    6.0000 
2688.9456    8.5000    8.5367   23.2053   33.0750   46.2991    2.0144    0.0219   -1.0048    2.3325    2.4389    0.2067    5.6107   22.0000    6.0000 
2689.0980    8.5000    8.5405   23.2778   35.0701   48.2889    2.1744    0.0227   -1.1384    2.5247    2.4551    0.2020    5.7270   22.0000    6.0000 
2689.2504    8.5000    8.5367   23.2877   35.9982   49.4971    2.3132    0.0231   -1.2461    2.4276    2.4607    0.2001    5.7358   22.0000    6.0000 
2689.4028    8.5000    8.5329   23.2976   36.6536   47.3689    2.2525    0.0221   -1.1722    2.1873    2.4507    0.2015    5.6566   22.0000    6.0000 
2689.5552    8.5000    8.5480   24.0575   34.1011   46.0618    2.1667    0.0215   -1.1628    2.2102    2.4418    0.2023    5.5856   22.0000    6.0000 
