~VERSION INFORMATION
 VERS.                 2.0:   CWLS LOG ASCII STANDARD - VERSION 2.0
 WRAP.                  NO:   SINGLE LINE PER DEPTH STEP
 CREA.                 15/01/2018 11:41:51
#CREATED USING DSPetro VERSION 5000.10.1.3 BY H191660 ON 15/01/2018 11:41:51
~WELL INFORMATION
#MNEM.UNIT       DATA                          DESCRIPTION MNEMONIC
#---------      ---------------------------   --------------------------
 STRT    .M         0.0000                    : START DEPTH
 STOP    .M         3500.0184                 : STOP DEPTH
 STEP    .M         0.1524                    : STEP VALUE
 NULL    .      -999.0000                     : NULL VALUE
 DATE    .      15/01/2018                    : LAS file Creation Date
 WELL .      2612_Pluto-1                : Well Name
 COMP .      Neftex Exploration Insights : Company
 FLD  .      PLUTO                       : Field
 UWI  .      ZAUWL_007298                : Unique Well Identifier (UWI)
 LOC  .                                  : Location
 RWS  .      -999                        : Def_Rw
 WST  .      -999                        : Def_Rwt
 SRVC .                                  : Contractor
~CURVE INFORMATION
#MNEM              UNIT       API CODE   Curve Type Comments
#----------  --------------- ----------  ---------- -----------
 DEPTH      .M                         : Depth       
 BS         .in                        : BitSize     
 CAL_INCH   .inch                      : caliper     Caliper Log - A representation of the measured diameter of a borehole along its depth
 SP_MV1     .mv                        : SP          Spontaneous Potential - Records the electrical potential produced by the interaction of formation water, conductive drilling mud, and certain ion-sele
 GR_API     .API                       : gammaRay    Gamma Ray (API) - Measures the intensity of natural gamma-ray radiation emitted from formations containing radioactive elements, such as K, Th and U
 GRC_API    .API                       : gammaRay    Borehole Corrected Gamma Ray - Log calibrated to account for borehole effects that could disrupt the gamma response
 TH_PPM     .ppm                       : spectral    Thorium Abundance (SGR) - The quantitative elemental abundace of Thorium derived from the Spectral Gamma Ray Log
 K_%        .PC                        : spectral    Potassium Abundance (SGR) - The quantitative elemental abundace of Potassium derived from the Spectral Gamma Ray Log. Also wt_%
 U_PPM      .ppm                       : Spectral    Uranium Abundance (SGR) - The quantitative elemental abundace of Uranium derived from the Spectral Gamma Ray Log
 RES_OHMM   .ohmm                      : deepRes     Unspecified Resistivity Log - No accroynm or method of attainment is specified - units of ohmm
 RHOB_G_CC  .g/cc                      : density     Bulk Density - Measures the density of bulk material, including any void space or other materials contained in the subject volume
 NPHI_v/v   .ratio                     : neutron     Neutron Porosity - Measured with an neutron logging device calibrated to a given matrix (limestone, sandstone and dolomite)
 PEF_B_E    .b/e-                      : PEF         Photoelectric Factor - A log of photoelectric absorption properties. Often expressed in an approximation unit barns/electron (b/e-)
 LITH       .                          : LITH        Lithology Curve
 LITH_v2    .                          : LITH        Lithology Curve
~A  DEPTH     BS     CAL_INCH   SP_MV1    GR_API   GRC_API    TH_PPM     K_%      U_PPM    RES_OHMM RHOB_G_C~  NPHI_v/v  PEF_B_E     LITH    LITH_v2  
# ...
1607.3628   12.2500    4.2272 -269.1209   40.5018   36.4174    2.6285    0.0154   -0.3686    0.0115    2.2395    0.5531   10.0000 -999.0000 -999.0000 
1607.5152   12.2500    4.2272 -268.4334   35.5102   33.7845    2.4191    0.0143   -0.2812    0.0119    2.2363    0.5411   10.0000 -999.0000 -999.0000 
1607.6676   12.2500    4.2272 -267.8084   37.1762   30.7961    2.3241    0.0129    0.0010    0.0114    2.2369    0.5611   10.0000 -999.0000 -999.0000 
1607.8200   12.2500    4.2046 -266.8084   35.5123   28.8447    2.1963    0.0120    0.1193    0.0097    2.2432    0.6528   10.0000 -999.0000 -999.0000 
1607.9724   12.2500    4.2046 -266.1834   44.1328   28.7159    2.2007    0.0119    0.3648    0.0101    2.2589    0.6673   10.0000 -999.0000 -999.0000 
1608.1248   12.2500    4.2046 -265.6834   41.8977   29.1846    2.2492    0.0121    0.4467    0.0106    2.2676    0.7774   10.0000 -999.0000 -999.0000 
1608.2772   12.2500    4.2046 -265.9334   44.1161   29.8454    2.4452    0.0121    0.6209    0.0107    2.2759    0.7187   10.0000 -999.0000 -999.0000 
1608.4296   12.2500    4.2272 -267.0584   31.6217   30.4002    2.5902    0.0122    0.6398    0.0075    2.2766    0.6211   10.0000 -999.0000 -999.0000 
1608.5820   12.2500    4.2046 -268.6209   33.2855   28.4280    2.4081    0.0114    0.7982    0.0101    2.2722    0.5453   10.0000 -999.0000 -999.0000 
1608.7344   12.2500    4.2046 -270.4959   36.0586   25.6960    1.9798    0.0107    0.9582    0.0083    2.2732    0.6263   10.0000 -999.0000 -999.0000 
1608.8868   12.2500    4.2272 -271.6834   43.5553   22.2291    1.4800    0.0096    1.2191    0.0104    2.2778    0.6276   10.0000 -999.0000 -999.0000 
1609.0392   12.2500    4.2046 -272.0584   42.4461   22.9519    1.3348    0.0103    1.2504    0.0084    2.2727    0.5904   10.0000 -999.0000 -999.0000 
1609.1916   12.2500    4.2272 -272.2459   37.4545   23.6365    1.2489    0.0108    1.2574    0.0081    2.2667    0.5384   10.0000 -999.0000 -999.0000 
1609.3440   12.2500    4.2046 -272.7459   32.4567   25.1820    1.2969    0.0115    1.1548    0.0112    2.2571    0.6493   10.0000 -999.0000 -999.0000 
1609.4964   12.2500    4.2046 -273.1209   33.0113   26.8421    1.4707    0.0122    0.9480    0.0107    2.2729    0.6704   10.0000 -999.0000 -999.0000 
1609.6488   12.2500    4.2272 -273.0584   32.1929   28.9441    1.6185    0.0131    0.5589    0.0113    2.2781    0.6621   10.0000 -999.0000 -999.0000 
1609.8012   12.2500    4.2272 -272.6834   42.4419   30.4584    1.6875    0.0138    0.2641    0.0111    2.2825    0.5503   10.0000 -999.0000 -999.0000 
1609.9536   12.2500    4.2046 -272.3084   41.0689   30.5211    1.4924    0.0141    0.0972    0.0108    2.2751    0.5185   10.0000 -999.0000 -999.0000 
1610.1060   12.2500    4.2272 -271.9959   46.3242   31.1233    1.3843    0.0146    0.1227    0.0113    2.2673    0.5017   10.0000 -999.0000 -999.0000 
1610.2584   12.2500    4.2046 -271.6209   41.8873   32.7123    1.3511    0.0156    0.1456    0.0117    2.2589    0.7925   10.0000 -999.0000 -999.0000 
1610.4108   12.2500    4.2046 -271.1834   44.3862   33.7910    1.3686    0.0161    0.2558    0.0113    2.2512    0.9063   10.0000 -999.0000 -999.0000 
1610.5632   12.2500    4.2046 -270.6834   40.5039   36.2732    1.5000    0.0173    0.2207    0.0108    2.2558    0.9559   10.0000 -999.0000 -999.0000 
1610.7156   12.2500    4.2046 -270.0584   36.6215   35.8257    1.4702    0.0171    0.3260    0.0116    2.2768    0.7818   10.0000 -999.0000 -999.0000 
1610.8680   12.2500    4.2272 -269.4334   34.1226   35.5333    1.3904    0.0170    0.3884    0.0194    2.2846    0.9289   10.0000 -999.0000 -999.0000 
1611.0204   12.2500    4.2272 -268.8709   40.7781   32.2087    1.1274    0.0157    0.5352    0.0139    2.2784    0.8525   10.0000 -999.0000 -999.0000 
1611.1728   12.2500    4.2046 -268.1834   39.6440   29.5561    0.8810    0.0146    0.7100    0.0088    2.2568    0.8216   10.0000 -999.0000 -999.0000 
1611.3252   12.2500    4.2046 -267.8084   41.6035   26.7837    0.6937    0.0135    0.9316    0.0066    2.2761    0.6230   10.0000 -999.0000 -999.0000 
1611.4776   12.2500    4.2272 -267.5584   39.9397   25.4426    0.5731    0.0129    1.0818    0.0048    2.3175    0.6207   10.0000 -999.0000 -999.0000 
1611.6300   12.2500    4.2272 -268.2459   45.7487   25.4268    0.8571    0.0124    0.9727    0.0107    2.3609    0.5201   10.0000 -999.0000 -999.0000 
1611.7824   12.2500    4.2046 -269.9334   40.7252   25.2966    1.1122    0.0119    0.7847    0.0118    2.3894    0.5231   10.0000 -999.0000 -999.0000 
1611.9348   12.2500    4.2046 -271.1834   36.0266   25.8605    1.5407    0.0115    0.5593    0.0162    2.3737    0.4681   10.0000 -999.0000 -999.0000 
1612.0872   12.2500    4.2046 -272.7459   30.7970   26.3514    1.6433    0.0116    0.3031    0.0133    2.3358    0.6295   10.0000 -999.0000 -999.0000 
1612.2396   12.2500    4.2046 -273.6209   34.1247   27.6703    1.8100    0.0120    0.0898    0.0134    2.2848    0.6680   10.0000 -999.0000 -999.0000 
1612.3920   12.2500    4.2046 -273.8084   31.6258   27.9496    1.7545    0.0123   -0.0640    0.0127    2.2635    0.8804   10.0000 -999.0000 -999.0000 
1612.5444   12.2500    4.2046 -273.6209   38.2812   29.6057    1.8678    0.0130   -0.1794    0.0110    2.2542    0.8551   10.0000 -999.0000 -999.0000 
1612.6968   12.2500    4.2272 -274.1209   41.3493   31.3100    1.9952    0.0137   -0.3667    0.0095    2.2504    0.8318   10.0000 -999.0000 -999.0000 
1612.8492   12.2500    4.2046 -274.0584   44.1099   33.0902    2.0054    0.0147   -0.5142    0.0099    2.2456    0.7179   10.0000 -999.0000 -999.0000 
1613.0016   12.2500    4.2046 -273.4334   36.3453   34.6644    2.0346    0.0155   -0.5847    0.0135    2.2460    0.6590   10.0000 -999.0000 -999.0000 
1613.1540   12.2500    4.2046 -272.9959   33.0134   36.3208    2.2130    0.0161   -0.6823    0.0106    2.2399    0.7023   10.0000 -999.0000 -999.0000 
1613.3064   12.2500    4.2046 -272.1209   34.1226   35.9579    2.1736    0.0159   -0.6617    0.0151    2.2448    0.7103   10.0000 -999.0000 -999.0000 
1613.4588   12.2500    4.2046 -271.1209   36.8957   34.4745    1.9620    0.0155   -0.6029    0.0133    2.2527    0.6645   10.0000 -999.0000 -999.0000 
1613.6112   12.2500    4.2046 -270.3709   40.2276   31.4184    1.4139    0.0148   -0.4594    0.0122    2.2477    0.5787   10.0000 -999.0000 -999.0000 
1613.7636   12.2500    4.2272 -269.3709   40.7822   30.5683    1.3171    0.0145   -0.4904    0.0142    2.2388    0.4808   10.0000 -999.0000 -999.0000 
1613.9160   12.2500    4.2046 -268.3709   39.1184   29.7539    1.2227    0.0142   -0.5216    0.0123    2.2254    0.5064   10.0000 -999.0000 -999.0000 
1614.0684   12.2500    4.2272 -266.8709   35.7865   33.9618    1.5957    0.0158   -0.5685    0.0118    2.2290    0.4994   10.0000 -999.0000 -999.0000 
1614.2208   12.2500    4.2272 -265.4334   33.0279   35.0635    1.7790    0.0161   -0.4392    0.0115    2.2286    0.6915   10.0000 -999.0000 -999.0000 
1614.3732   12.2500    4.2272 -263.9959   31.9187   34.2663    1.8746    0.0155   -0.3049    0.0106    2.2230    0.8122   10.0000 -999.0000 -999.0000 
1614.5256   12.2500    4.2046 -262.4959   35.5102   29.8483    1.6954    0.0134   -0.1333    0.0135    2.2229    0.7827   10.0000 -999.0000 -999.0000 
1614.6780   12.2500    4.2272 -261.3084   38.8234   30.1199    1.8423    0.0133   -0.0820    0.0127    2.2156    0.9411   10.0000 -999.0000 -999.0000 
1614.8304   12.2500    4.2046 -261.2459   35.2256   30.3630    1.7845    0.0135    0.0698    0.0072    2.2238    0.8080   10.0000 -999.0000 -999.0000 
1614.9828   12.2500    4.2046 -261.8709   30.2341   30.5443    1.7195    0.0138    0.2289    0.0093    2.2244    0.8929   10.0000 -999.0000 -999.0000 
1615.1352   12.2500    4.2046 -262.6209   29.4198   29.6017    1.6027    0.0134    0.2902    0.0105    2.2386    0.6829   10.0000 -999.0000 -999.0000 
1615.2876   12.2500    4.2046 -263.4959   37.4545   31.2440    1.8330    0.0139    0.2805    0.0120    2.2541    0.7202   10.0000 -999.0000 -999.0000 
