~VERSION INFORMATION
 VERS.                 2.0:   CWLS LOG ASCII STANDARD - VERSION 2.0
 WRAP.                  NO:   SINGLE LINE PER DEPTH STEP
 CREA.                 15/01/2018 11:41:51
#CREATED USING DSPetro VERSION 5000.10.1.3 BY H191660 ON 15/01/2018 11:41:51
~WELL INFORMATION
#MNEM.UNIT       DATA                          DESCRIPTION MNEMONIC
#---------      ---------------------------   --------------------------
 STRT    .M         0.0000                    : START DEPTH
 STOP    .M         3500.0184                 : STOP DEPTH
 STEP    .M         0.1524                    : STEP VALUE
 NULL    .      -999.0000                     : NULL VALUE
 DATE    .      15/01/2018                    : LAS file Creation Date
 WELL .      2612_Pluto-1                : Well Name
 COMP .      Neftex Exploration Insights : Company
 FLD  .      PLUTO                       : Field
 UWI  .      ZAUWL_007298                : Unique Well Identifier (UWI)
 LOC  .                                  : Location
 RWS  .      -999                        : Def_Rw
 WST  .      -999                        : Def_Rwt
 SRVC .                                  : Contractor
~CURVE INFORMATION
#MNEM              UNIT       API CODE   Curve Type Comments
#----------  --------------- ----------  ---------- -----------
 DEPTH      .M                         : Depth       
 BS         .in                        : BitSize     
 CAL_INCH   .inch                      : caliper     Caliper Log - A representation of the measured diameter of a borehole along its depth
 SP_MV1     .mv                        : SP          Spontaneous Potential - Records the electrical potential produced by the interaction of formation water, conductive drilling mud, and certain ion-sele
 GR_API     .API                       : gammaRay    Gamma Ray (API) - Measures the intensity of natural gamma-ray radiation emitted from formations containing radioactive elements, such as K, Th and U
 GRC_API    .API                       : gammaRay    Borehole Corrected Gamma Ray - Log calibrated to account for borehole effects that could disrupt the gamma response
 TH_PPM     .ppm                       : spectral    Thorium Abundance (SGR) - The quantitative elemental abundace of Thorium derived from the Spectral Gamma Ray Log
 K_%        .PC                        : spectral    Potassium Abundance (SGR) - The quantitative elemental abundace of Potassium derived from the Spectral Gamma Ray Log. Also wt_%
 U_PPM      .ppm                       : Spectral    Uranium Abundance (SGR) - The quantitative elemental abundace of Uranium derived from the Spectral Gamma Ray Log
 RES_OHMM   .ohmm                      : deepRes     Unspecified Resistivity Log - No accroynm or method of attainment is specified - units of ohmm
 RHOB_G_CC  .g/cc                      : density     Bulk Density - Measures the density of bulk material, including any void space or other materials contained in the subject volume
 NPHI_v/v   .ratio                     : neutron     Neutron Porosity - Measured with an neutron logging device calibrated to a given matrix (limestone, sandstone and dolomite)
 PEF_B_E    .b/e-                      : PEF         Photoelectric Factor - A log of photoelectric absorption properties. Often expressed in an approximation unit barns/electron (b/e-)
 LITH       .                          : LITH        Lithology Curve
 LITH_v2    .                          : LITH        Lithology Curve
~A  DEPTH     BS     CAL_INCH   SP_MV1    GR_API   GRC_API    TH_PPM     K_%      U_PPM    RES_OHMM RHOB_G_C~  NPHI_v/v  PEF_B_E     LITH    LITH_v2  
# ...
1914.2964   12.2500    4.1820 -511.8709   42.7203   35.0859    2.6785    0.0146    0.3727    0.0091    2.2839    0.4681   10.0000 -999.0000 -999.0000 
1914.4488   12.2500    4.1820 -510.8709   32.1825   34.2930    2.4660    0.0145    0.2584    0.0084    2.2787    0.4875   10.0000 -999.0000 -999.0000 
1914.6012   12.2500    4.1820 -510.4959   34.4010   33.5125    2.2572    0.0145    0.1463    0.0087    2.2789    0.4785   10.0000 -999.0000 -999.0000 
1914.7536   12.2500    4.2046 -510.6209   29.9495   34.2616    1.9528    0.0154    0.1273    0.0097    2.2723    0.5352   10.0000 -999.0000 -999.0000 
1914.9060   12.2500    4.1820 -511.5584   31.9042   34.3191    1.6494    0.0159    0.3023    0.0098    2.2729    0.5193   10.0000 -999.0000 -999.0000 
1915.0584   12.2500    4.2046 -513.2459   33.0134   31.2077    1.4194    0.0146    0.6453    0.0089    2.2828    0.5381   10.0000 -999.0000 -999.0000 
1915.2108   12.2500    4.1820 -514.9334   39.1142   27.2617    1.1571    0.0129    0.9446    0.0090    2.2796    0.4980   10.0000 -999.0000 -999.0000 
1915.3632   12.2500    4.1820 -515.8084   39.9472   25.8667    1.5927    0.0114    0.8443    0.0096    2.2770    0.4662   10.0000 -999.0000 -999.0000 
1915.5156   12.2500    4.1820 -516.4959   38.8379   26.7785    1.9518    0.0113    0.6963    0.0088    2.2824    0.4232   10.0000 -999.0000 -999.0000 
1915.6680   12.2500    4.2046 -517.3084   37.7287   28.1448    2.3573    0.0114    0.5521    0.0089    2.2875    0.4530   10.0000 -999.0000 -999.0000 
1915.8204   12.2500    4.2046 -517.8084   43.8150   28.7556    2.3093    0.0118    0.5615    0.0097    2.2900    0.5132   10.0000 -999.0000 -999.0000 
1915.9728   12.2500    4.1820 -518.0584   43.2770   27.8324    2.1600    0.0115    0.7642    0.0096    2.2929    0.5613   10.0000 -999.0000 -999.0000 
1916.1252   12.2500    4.1820 -517.6209   46.6047   27.2984    2.2371    0.0111    0.8246    0.0094    2.2872    0.5787   10.0000 -999.0000 -999.0000 
1916.2776   12.2500    4.1820 -516.9959   45.4954   26.7864    2.3130    0.0107    0.8836    0.0090    2.2985    0.5345   10.0000 -999.0000 -999.0000 
1916.4300   12.2500    4.2046 -516.4334   41.3306   26.4029    2.5963    0.0100    0.8205    0.0089    2.3231    0.4492   10.0000 -999.0000 -999.0000 
1916.5824   12.2500    4.1820 -515.9334   36.8937   26.9045    2.7741    0.0100    0.7936    0.0090    2.3607    0.4526   10.0000 -999.0000 -999.0000 
1916.7348   12.2500    4.2046 -515.6209   32.4567   28.6868    2.9248    0.0107    0.5659    0.0096    2.3702    0.4875   10.0000 -999.0000 -999.0000 
1916.8872   12.2500    4.1820 -515.0584   35.7886   31.6002    3.0576    0.0120    0.2461    0.0106    2.3257    0.5015   10.0000 -999.0000 -999.0000 
1917.0396   12.2500    4.2046 -514.2459   35.2340   30.4050    2.4722    0.0124    0.2705    0.0114    2.2748    0.5329   10.0000 -999.0000 -999.0000 
1917.1920   12.2500    4.1820 -513.6209   33.5701   30.0136    2.1313    0.0128    0.3156    0.0108    2.2585    0.4863   10.0000 -999.0000 -999.0000 
1917.3444   12.2500    4.1820 -513.1834   34.3864   29.6441    1.7989    0.0131    0.3600    0.0096    2.2652    0.4898   10.0000 -999.0000 -999.0000 
1917.4968   12.2500    4.1820 -512.3084   41.5965   32.9224    2.1107    0.0144    0.2074    0.0098    2.2721    0.4260   10.0000 -999.0000 -999.0000 
1917.6492   12.2500    4.1820 -511.3084   44.3862   35.2448    2.4274    0.0151    0.0996    0.0098    2.2562    0.4838   10.0000 -999.0000 -999.0000 
1917.8016   12.2500    4.1820 -510.8084   41.6131   34.8152    2.1447    0.0154    0.3127    0.0100    2.2497    0.4977   10.0000 -999.0000 -999.0000 
1917.9540   12.2500    4.2046 -511.1209   32.1846   33.0731    1.7744    0.0150    0.5193    0.0096    2.2393    0.5429   10.0000 -999.0000 -999.0000 
1918.1064   12.2500    4.1820 -511.8084   30.5187   31.3232    1.4032    0.0147    0.6187    0.0094    2.2296    0.5920   10.0000 -999.0000 -999.0000 
1918.2588   12.2500    4.2046 -513.0584   34.4010   30.9868    1.5830    0.0142    0.4500    0.0097    2.2298    0.6537   10.0000 -999.0000 -999.0000 
1918.4112   12.2500    4.1820 -514.9334   38.8379   31.0315    1.7684    0.0139    0.2983    0.0095    2.2353    0.7298   10.0000 -999.0000 -999.0000 
1918.5636   12.2500    4.1820 -516.2459   42.1698   30.4764    2.0632    0.0131    0.3345    0.0098    2.2421    0.6598   10.0000 -999.0000 -999.0000 
1918.7160   12.2500    4.2046 -517.0584   42.1698   31.6676    2.5470    0.0130    0.3127    0.0098    2.2381    0.7198   10.0000 -999.0000 -999.0000 
1918.8684   12.2500    4.1820 -517.4334   43.2790   31.3148    2.8573    0.0122    0.3755    0.0099    2.2151    0.5636   10.0000 -999.0000 -999.0000 
1919.0208   12.2500    4.1820 -518.1209   43.2603   30.9969    3.1672    0.0115    0.4380    0.0102    2.2011    0.5939   10.0000 -999.0000 -999.0000 
1919.1732   12.2500    4.2046 -518.4334   44.6666   29.2034    3.1046    0.0107    0.5996    0.0099    2.1851    0.5226   10.0000 -999.0000 -999.0000 
1919.3256   12.2500    4.1820 -518.2459   43.5574   30.8287    3.3513    0.0111    0.6466    0.0095    2.2009    0.5216   10.0000 -999.0000 -999.0000 
1919.4780   12.2500    4.2046 -517.9334   45.2212   33.7389    3.8696    0.0118    0.4754    0.0091    2.2069    0.5667   10.0000 -999.0000 -999.0000 
1919.6304   12.2500    4.1820 -517.1834   44.3883   36.8594    4.4268    0.0126    0.2907    0.0089    2.2077    0.5921   10.0000 -999.0000 -999.0000 
1919.7828   12.2500    4.2046 -516.6209   45.4975   37.3293    4.7069    0.0124    0.2174    0.0093    2.1958    0.6736   10.0000 -999.0000 -999.0000 
1919.9352   12.2500    4.2046 -515.7459   47.7160   38.8440    5.1195    0.0125    0.1342    0.0091    2.1858    0.6184   10.0000 -999.0000 -999.0000 
1920.0876   12.2500    4.1820 -515.1209   47.7160   38.6497    5.3073    0.0121    0.0448    0.0092    2.1886    0.5732   10.0000 -999.0000 -999.0000 
1920.2400   12.2500    4.1820 -514.0584   47.7160   39.2253    5.3672    0.0123   -0.1845    0.0094    2.1944    0.4974   10.0000 -999.0000 -999.0000 
1920.3924   12.2500    4.1820 -513.1209   47.7160   36.1460    4.9171    0.0114   -0.1339    0.0095    2.2008    0.4766   10.0000 -999.0000 -999.0000 
1920.5448   12.2500    4.1820 -512.1834   46.0334   35.8874    4.7702    0.0115   -0.1125    0.0092    2.1906    0.4586   10.0000 -999.0000 -999.0000 
1920.6972   12.2500    4.1820 -511.4334   48.8273   35.6282    4.6230    0.0116   -0.0911    0.0087    2.1796    0.5451   10.0000 -999.0000 -999.0000 
1920.8496   12.2500    4.1820 -510.4959   46.6088   37.1137    4.6412    0.0124   -0.2003    0.0089    2.1637    0.7453   10.0000 -999.0000 -999.0000 
1921.0020   12.2500    4.2046 -510.0584   45.4996   37.4550    4.3660    0.0130   -0.2938    0.0094    2.1663    0.8254   10.0000 -999.0000 -999.0000 
1921.1544   12.2500    4.1820 -510.2459   38.8358   37.8462    4.0245    0.0138   -0.2825    0.0091    2.1562    0.7285   10.0000 -999.0000 -999.0000 
1921.3068   12.2500    4.1820 -511.4959   39.3905   38.4840    3.7008    0.0147   -0.2728    0.0092    2.1485    0.5000   10.0000 -999.0000 -999.0000 
1921.4592   12.2500    4.1820 -512.9959   39.3905   37.2518    3.2828    0.0147   -0.1194    0.0091    2.1466    0.4307   10.0000 -999.0000 -999.0000 
1921.6116   12.2500    4.1820 -514.5584   45.2212   35.4921    2.9597    0.0143    0.1669    0.0100    2.1678    0.4906   10.0000 -999.0000 -999.0000 
1921.7640   12.2500    4.1820 -515.3084   45.2212   33.8505    2.6415    0.0140    0.4614    0.0093    2.1847    0.5207   10.0000 -999.0000 -999.0000 
1921.9164   12.2500    4.1820 -515.9334   40.7843   33.9138    2.6680    0.0140    0.6146    0.0094    2.1870    0.6173   10.0000 -999.0000 -999.0000 
1922.0688   12.2500    4.1820 -516.1209   41.5965   34.9236    2.7451    0.0144    0.3190    0.0091    2.1881    0.6051   10.0000 -999.0000 -999.0000 
1922.2212   12.2500    4.1820 -516.1834   38.8234   34.1125    2.5820    0.0142    0.2564    0.0094    2.1934    0.7565   10.0000 -999.0000 -999.0000 
