~VERSION INFORMATION
 VERS.                 2.0:   CWLS LOG ASCII STANDARD - VERSION 2.0
 WRAP.                  NO:   SINGLE LINE PER DEPTH STEP
 CREA.                 15/01/2018 11:41:51
#CREATED USING DSPetro VERSION 5000.10.1.3 BY H191660 ON 15/01/2018 11:41:51
~WELL INFORMATION
#MNEM.UNIT       DATA                          DESCRIPTION MNEMONIC
#---------      ---------------------------   --------------------------
 STRT    .M         0.0000                    : START DEPTH
 STOP    .M         3500.0184                 : STOP DEPTH
 STEP    .M         0.1524                    : STEP VALUE
 NULL    .      -999.0000                     : NULL VALUE
 DATE    .      15/01/2018                    : LAS file Creation Date
 WELL .      2612_Pluto-1                : Well Name
 COMP .      Neftex Exploration Insights : Company
 FLD  .      PLUTO                       : Field
 UWI  .      ZAUWL_007298                : Unique Well Identifier (UWI)
 LOC  .                                  : Location
 RWS  .      -999                        : Def_Rw
 WST  .      -999                        : Def_Rwt
 SRVC .                                  : Contractor
~CURVE INFORMATION
#MNEM              UNIT       API CODE   Curve Type Comments
#----------  --------------- ----------  ---------- -----------
 DEPTH      .M                         : Depth       
 BS         .in                        : BitSize     
 CAL_INCH   .inch                      : caliper     Caliper Log - A representation of the measured diameter of a borehole along its depth
 SP_MV1     .mv                        : SP          Spontaneous Potential - Records the electrical potential produced by the interaction of formation water, conductive drilling mud, and certain ion-sele
 GR_API     .API                       : gammaRay    Gamma Ray (API) - Measures the intensity of natural gamma-ray radiation emitted from formations containing radioactive elements, such as K, Th and U
 GRC_API    .API                       : gammaRay    Borehole Corrected Gamma Ray - Log calibrated to account for borehole effects that could disrupt the gamma response
 TH_PPM     .ppm                       : spectral    Thorium Abundance (SGR) - The quantitative elemental abundace of Thorium derived from the Spectral Gamma Ray Log
 K_%        .PC                        : spectral    Potassium Abundance (SGR) - The quantitative elemental abundace of Potassium derived from the Spectral Gamma Ray Log. Also wt_%
 U_PPM      .ppm                       : Spectral    Uranium Abundance (SGR) - The quantitative elemental abundace of Uranium derived from the Spectral Gamma Ray Log
 RES_OHMM   .ohmm                      : deepRes     Unspecified Resistivity Log - No accroynm or method of attainment is specified - units of ohmm
 RHOB_G_CC  .g/cc                      : density     Bulk Density - Measures the density of bulk material, including any void space or other materials contained in the subject volume
 NPHI_v/v   .ratio                     : neutron     Neutron Porosity - Measured with an neutron logging device calibrated to a given matrix (limestone, sandstone and dolomite)
 PEF_B_E    .b/e-                      : PEF         Photoelectric Factor - A log of photoelectric absorption properties. Often expressed in an approximation unit barns/electron (b/e-)
 LITH       .                          : LITH        Lithology Curve
 LITH_v2    .                          : LITH        Lithology Curve
~A  DEPTH     BS     CAL_INCH   SP_MV1    GR_API   GRC_API    TH_PPM     K_%      U_PPM    RES_OHMM RHOB_G_C~  NPHI_v/v  PEF_B_E     LITH    LITH_v2  
# ...
1308.5064   12.2500    4.2272 -345.9959   55.2085   28.0688    1.8750    0.0121    1.3475    0.0117    2.1719    0.4867   10.0000 -999.0000 -999.0000 
1308.6588   12.2500    4.2272 -344.2459   51.0437   28.1968    1.9108    0.0121    1.3000    0.0118    2.1642    0.5410   10.0000 -999.0000 -999.0000 
1308.8112   12.2500    4.2272 -343.1209   46.0521   27.1431    1.9608    0.0115    1.3699    0.0110    2.1626    0.5731   10.0000 -999.0000 -999.0000 
1308.9636   12.2500    4.2272 -342.4334   47.7388   26.1566    1.9367    0.0110    1.5407    0.0116    2.1732    0.6449   10.0000 -999.0000 -999.0000 
1309.1160   12.2500    4.2498 -342.6209   53.8209   27.5950    2.0722    0.0115    1.8241    0.0112    2.1804    0.7597   10.0000 -999.0000 -999.0000 
1309.2684   12.2500    4.2272 -343.2459   54.3942   29.6733    2.3273    0.0122    2.1517    0.0116    2.1855    0.7592   10.0000 -999.0000 -999.0000 
1309.4208   12.2500    4.2272 -343.7459   49.9344   31.9667    2.3933    0.0134    2.2268    0.0109    2.1700    0.6631   10.0000 -999.0000 -999.0000 
1309.5732   12.2500    4.2272 -343.4334   45.5182   29.4991    1.9185    0.0128    2.2564    0.0114    2.1474    0.7262   10.0000 -999.0000 -999.0000 
1309.7256   12.2500    4.2272 -342.5584   41.6172   27.4202    1.5535    0.0123    2.2384    0.0127    2.1235    0.7790   10.0000 -999.0000 -999.0000 
1309.8780   12.2500    4.2272 -341.4959   43.2811   25.3033    1.4409    0.0114    2.3239    0.0112    2.1321    0.8853   10.0000 -999.0000 -999.0000 
1310.0304   12.2500    4.2272 -340.9959   44.9470   25.1003    1.5704    0.0110    2.1155    0.0107    2.1341    0.7162   10.0000 -999.0000 -999.0000 
1310.1828   12.2500    4.2272 -340.3084   48.8293   23.8729    1.4999    0.0105    2.0117    0.0113    2.1507    0.8056   10.0000 -999.0000 -999.0000 
1310.3352   12.2500    4.2272 -338.8709   49.3840   22.3434    1.3342    0.0099    1.8996    0.0118    2.1547    0.9221   10.0000 -999.0000 -999.0000 
1310.4876   12.2500    4.2498 -337.5584   46.0521   23.3005    1.3721    0.0104    1.7242    0.0116    2.1689    1.0477   10.0000 -999.0000 -999.0000 
1310.6400   12.2500    4.2272 -336.3709   45.4975   24.8444    1.4861    0.0110    1.5430    0.0115    2.1631    0.8954   10.0000 -999.0000 -999.0000 
1310.7924   12.2500    4.2272 -335.0584   39.4091   26.3287    1.5764    0.0117    1.4373    0.0114    2.1516    0.7866   10.0000 -999.0000 -999.0000 
1310.9448   12.2500    4.2272 -333.8084   41.6089   26.9494    1.4156    0.0123    1.4744    0.0116    2.1465    0.6696   10.0000 -999.0000 -999.0000 
1311.0972   12.2500    4.2272 -332.4959   50.4249   26.5652    1.3110    0.0123    1.5220    0.0113    2.1429    0.6752   10.0000 -999.0000 -999.0000 
1311.2496   12.2500    4.2272 -331.2459   55.9586   26.0087    1.2170    0.0121    1.5754    0.0113    2.1512    0.7009   10.0000 -999.0000 -999.0000 
1311.4020   12.2500    4.2272 -329.9334   56.5576   25.3227    1.0047    0.0121    1.5895    0.0112    2.1424    0.9470   10.0000 -999.0000 -999.0000 
1311.5544   12.2500    4.2272 -328.7459   51.5784   26.1788    0.7501    0.0130    1.6087    0.0118    2.1414    0.9500   10.0000 -999.0000 -999.0000 
1311.7068   12.2500    4.2272 -327.4959   47.6961   26.4444    0.6318    0.0134    1.7335    0.0120    2.1197    0.9833   10.0000 -999.0000 -999.0000 
1311.8592   12.2500    4.2272 -325.9334   48.2521   27.5575    0.8261    0.0136    1.8142    0.0114    2.1070    0.6545   10.0000 -999.0000 -999.0000 
1312.0116   12.2500    4.2272 -324.6834   41.6132   27.7815    1.1191    0.0133    1.8088    0.0109    2.0894    0.6699   10.0000 -999.0000 -999.0000 
1312.1640   12.2500    4.2272 -324.1209   49.3779   27.7637    1.2379    0.0131    1.8370    0.0112    2.1062    0.8435   10.0000 -999.0000 -999.0000 
1312.3164   12.2500    4.2498 -324.1209   43.5242   26.7518    1.0697    0.0128    1.8686    0.0114    2.1192    0.9797   10.0000 -999.0000 -999.0000 
1312.4688   12.2500    4.2272 -325.0584   46.3263   28.6580    0.9640    0.0140    1.8447    0.0108    2.0992    0.9562   10.0000 -999.0000 -999.0000 
1312.6212   12.2500    4.2498 -325.6834   37.7432   31.2443    1.0192    0.0153    1.6639    0.0112    2.0607    0.7176   10.0000 -999.0000 -999.0000 
1312.7736   12.2500    4.2272 -326.4959   39.1142   33.3561    1.0706    0.0164    1.5672    0.0125    2.0429    0.8237   10.0000 -999.0000 -999.0000 
1312.9260   12.2500    4.2498 -326.6209   36.3556   32.7031    1.0258    0.0161    1.2974    0.0121    2.0494    0.9016   10.0000 -999.0000 -999.0000 
1313.0784   12.2500    4.2272 -326.6209   44.9387   31.7111    1.0315    0.0156    1.1141    0.0110    2.0623    0.9678   10.0000 -999.0000 -999.0000 
1313.2308   12.2500    4.2272 -326.6209   48.2664   30.8418    1.0546    0.0151    0.8857    0.0112    2.0756    0.8767   10.0000 -999.0000 -999.0000 
1313.3832   12.2500    4.2272 -326.9959   49.3611   30.3300    1.0639    0.0148    0.8247    0.0106    2.1110    0.8417   10.0000 -999.0000 -999.0000 
1313.5356   12.2500    4.2272 -326.6834   51.6066   29.7586    0.8042    0.0149    0.8173    0.0108    2.1198    0.7702   10.0000 -999.0000 -999.0000 
1313.6880   12.2500    4.2498 -325.7459   44.9512   29.2466    0.5788    0.0150    0.7843    0.0112    2.1155    0.7208   10.0000 -999.0000 -999.0000 
1313.8404   12.2500    4.2498 -325.0584   45.5224   30.0411    0.3880    0.0158    0.7585    0.0124    2.0951    0.6274   10.0000 -999.0000 -999.0000 
1313.9928   12.2500    4.2272 -324.2459   36.6215   29.7143    0.3358    0.0157    0.7086    0.0100    2.0992    0.6177   10.0000 -999.0000 -999.0000 
1314.1452   12.2500    4.2272 -323.7459   37.7453   28.8940    0.3467    0.0152    0.7993    0.0110    2.1058    0.6210   10.0000 -999.0000 -999.0000 
1314.2976   12.2500    4.2272 -322.9959   38.8379   27.5913    0.3972    0.0144    0.8437    0.0110    2.1279    0.7759   10.0000 -999.0000 -999.0000 
1314.4500   12.2500    4.2272 -322.2459   37.6997   28.2050    0.5466    0.0145    0.7926    0.0113    2.1292    0.7381   10.0000 -999.0000 -999.0000 
1314.6024   12.2500    4.2272 -321.3084   38.2703   28.0361    0.6653    0.0142    0.7370    0.0111    2.1178    0.7099   10.0000 -999.0000 -999.0000 
1314.7548   12.2500    4.2272 -320.3709   43.8165   26.3399    0.7931    0.0130    0.9121    0.0110    2.1159    0.7149   10.0000 -999.0000 -999.0000 
1314.9072   12.2500    4.2272 -319.8709   47.9657   24.8094    0.9100    0.0120    1.0387    0.0112    2.1146    0.7318   10.0000 -999.0000 -999.0000 
1315.0596   12.2500    4.2272 -319.1209   47.4097   24.8058    1.0734    0.0117    1.1173    0.0123    2.1211    0.8037   10.0000 -999.0000 -999.0000 
1315.2120   12.2500    4.2272 -318.1209   41.5511   25.6362    1.1767    0.0120    1.0573    0.0119    2.1051    0.7866   10.0000 -999.0000 -999.0000 
1315.3644   12.2500    4.2272 -317.5584   39.6492   26.7152    1.1673    0.0126    1.2033    0.0115    2.1177    0.8227   10.0000 -999.0000 -999.0000 
1315.5168   12.2500    4.2498 -317.5584   40.7612   27.8291    1.1340    0.0133    1.3931    0.0113    2.1299    0.7885   10.0000 -999.0000 -999.0000 
1315.6692   12.2500    4.2272 -318.0584   45.7404   30.7635    1.5098    0.0142    1.3606    0.0117    2.1438    0.9305   10.0000 -999.0000 -999.0000 
1315.8216   12.2500    4.2272 -319.3084   46.2950   33.4817    1.9738    0.0149    1.1537    0.0113    2.1482    0.8946   10.0000 -999.0000 -999.0000 
1315.9740   12.2500    4.2272 -321.1834   50.1454   32.1042    1.9346    0.0142    1.1681    0.0112    2.1406    1.4249   10.0000 -999.0000 -999.0000 
1316.1264   12.2500    4.2272 -322.5584   39.3884   30.4861    1.8204    0.0135    1.2075    0.0112    2.1413    1.1797   10.0000 -999.0000 -999.0000 
1316.2788   12.2500    4.2272 -322.9959   39.3884   28.3749    1.6247    0.0127    1.3587    0.0116    2.1418    1.1614   10.0000 -999.0000 -999.0000 
1316.4312   12.2500    4.2272 -322.6209   36.0773   29.7401    1.5054    0.0137    1.2264    0.0118    2.1493    0.5848   10.0000 -999.0000 -999.0000 
