~VERSION INFORMATION
 VERS.                 2.0:   CWLS LOG ASCII STANDARD - VERSION 2.0
 WRAP.                  NO:   SINGLE LINE PER DEPTH STEP
 CREA.                 15/01/2018 11:41:51
#CREATED USING DSPetro VERSION 5000.10.1.3 BY H191660 ON 15/01/2018 11:41:51
~WELL INFORMATION
#MNEM.UNIT       DATA                          DESCRIPTION MNEMONIC
#---------      ---------------------------   --------------------------
 STRT    .M         0.0000                    : START DEPTH
 STOP    .M         3500.0184                 : STOP DEPTH
 STEP    .M         0.1524                    : STEP VALUE
 NULL    .      -999.0000                     : NULL VALUE
 DATE    .      15/01/2018                    : LAS file Creation Date
 WELL .      2612_Pluto-1                : Well Name
 COMP .      Neftex Exploration Insights : Company
 FLD  .      PLUTO                       : Field
 UWI  .      ZAUWL_007298                : Unique Well Identifier (UWI)
 LOC  .                                  : Location
 RWS  .      -999                        : Def_Rw
 WST  .      -999                        : Def_Rwt
 SRVC .                                  : Contractor
~CURVE INFORMATION
#MNEM              UNIT       API CODE   Curve Type Comments
#----------  --------------- ----------  ---------- -----------
 DEPTH      .M                         : Depth       
 BS         .in                        : BitSize     
 CAL_INCH   .inch                      : caliper     Caliper Log - A representation of the measured diameter of a borehole along its depth
 SP_MV1     .mv                        : SP          Spontaneous Potential - Records the electrical potential produced by the interaction of formation water, conductive drilling mud, and certain ion-sele
 GR_API     .API                       : gammaRay    Gamma Ray (API) - Measures the intensity of natural gamma-ray radiation emitted from formations containing radioactive elements, such as K, Th and U
 GRC_API    .API                       : gammaRay    Borehole Corrected Gamma Ray - Log calibrated to account for borehole effects that could disrupt the gamma response
 TH_PPM     .ppm                       : spectral    Thorium Abundance (SGR) - The quantitative elemental abundace of Thorium derived from the Spectral Gamma Ray Log
 K_%        .PC                        : spectral    Potassium Abundance (SGR) - The quantitative elemental abundace of Potassium derived from the Spectral Gamma Ray Log. Also wt_%
 U_PPM      .ppm                       : Spectral    Uranium Abundance (SGR) - The quantitative elemental abundace of Uranium derived from the Spectral Gamma Ray Log
 RES_OHMM   .ohmm                      : deepRes     Unspecified Resistivity Log - No accroynm or method of attainment is specified - units of ohmm
 RHOB_G_CC  .g/cc                      : density     Bulk Density - Measures the density of bulk material, including any void space or other materials contained in the subject volume
 NPHI_v/v   .ratio                     : neutron     Neutron Porosity - Measured with an neutron logging device calibrated to a given matrix (limestone, sandstone and dolomite)
 PEF_B_E    .b/e-                      : PEF         Photoelectric Factor - A log of photoelectric absorption properties. Often expressed in an approximation unit barns/electron (b/e-)
 LITH       .                          : LITH        Lithology Curve
 LITH_v2    .                          : LITH        Lithology Curve
~A  DEPTH     BS     CAL_INCH   SP_MV1    GR_API   GRC_API    TH_PPM     K_%      U_PPM    RES_OHMM RHOB_G_C~  NPHI_v/v  PEF_B_E     LITH    LITH_v2  
# ...
1760.8296   12.2500    4.2046 -385.8084   30.7898   21.9880    0.8107    0.0106   -0.2894    0.0112    1.8748    0.6254   10.0000 -999.0000 -999.0000 
1760.9820   12.2500    4.2046 -385.8084   24.6925   23.0941    0.8998    0.0111   -0.3207    0.0095    1.8805    0.5659   10.0000 -999.0000 -999.0000 
1761.1344   12.2500    4.2046 -385.8084   23.0286   25.5189    1.0457    0.0122   -0.3233    0.0099    1.8964    0.6833   10.0000 -999.0000 -999.0000 
1761.2868   12.2500    4.2046 -385.8709   31.3272   28.5697    1.3463    0.0133   -0.3917    0.0108    1.9037    0.6341   10.0000 -999.0000 -999.0000 
1761.4392   12.2500    4.2046 -385.6209   33.5512   30.5451    1.5477    0.0140   -0.3832    0.0111    1.9112    0.8664   10.0000 -999.0000 -999.0000 
1761.5916   12.2500    4.2046 -385.0584   32.9966   28.3474    1.4365    0.0130   -0.3208    0.0091    1.9065    0.7679   10.0000 -999.0000 -999.0000 
1761.7440   12.2500    4.2046 -384.3709   26.3577   25.9611    1.3247    0.0119   -0.2531    0.0080    1.9000    0.8549   10.0000 -999.0000 -999.0000 
1761.8964   12.2500    4.2046 -383.2459   26.3577   24.0535    1.1865    0.0111   -0.1565    0.0135    1.8950    0.5980   10.0000 -999.0000 -999.0000 
1762.0488   12.2500    4.2046 -382.2459   28.0216   26.0431    1.3467    0.0119   -0.2447    0.0114    1.9019    0.5304   10.0000 -999.0000 -999.0000 
1762.2012   12.2500    4.2046 -381.3709   36.0780   27.3541    1.4058    0.0125   -0.3755    0.0054    1.9020    0.5484   10.0000 -999.0000 -999.0000 
1762.3536   12.2500    4.2046 -380.6209   34.9162   27.8598    1.4205    0.0128   -0.5074    0.0083    1.9017    0.5866   10.0000 -999.0000 -999.0000 
1762.5060   12.2500    4.2046 -379.8084   37.7240   26.6963    1.1947    0.0125   -0.5518    0.0104    1.8929    0.6534   10.0000 -999.0000 -999.0000 
1762.6584   12.2500    4.2046 -378.9959   30.4974   27.2936    1.2486    0.0128   -0.6414    0.0062    1.8884    0.6422   10.0000 -999.0000 -999.0000 
1762.8108   12.2500    4.2046 -377.9334   28.8584   27.8755    1.3012    0.0130   -0.7288    0.0066    1.8850    0.6005   10.0000 -999.0000 -999.0000 
1762.9632   12.2500    4.2046 -377.1209   22.7423   28.9599    1.2411    0.0137   -0.7461    0.0066    1.8787    0.7592   10.0000 -999.0000 -999.0000 
1763.1156   12.2500    4.2046 -376.3709   27.7215   29.9608    1.1262    0.0144   -0.7214    0.0084    1.8910    0.8017   10.0000 -999.0000 -999.0000 
1763.2680   12.2500    4.2046 -375.9959   29.3853   30.0041    0.9882    0.0147   -0.6793    0.0093    1.8974    0.8176   10.0000 -999.0000 -999.0000 
1763.4204   12.2500    4.2046 -376.0584   30.4973   29.5320    0.9335    0.0145   -0.6632    0.0095    1.9087    0.6286   10.0000 -999.0000 -999.0000 
1763.5728   12.2500    4.2046 -377.1209   28.0078   27.3134    0.9043    0.0134   -0.6070    0.0106    1.9056    0.5743   10.0000 -999.0000 -999.0000 
1763.7252   12.2500    4.2046 -378.4959   29.1170   25.7564    0.7397    0.0128   -0.3871    0.0114    1.9087    0.6142   10.0000 -999.0000 -999.0000 
1763.8776   12.2500    4.2046 -379.6834   31.8679   24.2103    0.5763    0.0122   -0.1689    0.0116    1.9034    0.7826   10.0000 -999.0000 -999.0000 
1764.0300   12.2500    4.1820 -380.3084   34.4010   23.9555    0.5036    0.0122   -0.0212    0.0102    1.9161    0.9486   10.0000 -999.0000 -999.0000 
1764.1824   12.2500    4.2046 -380.6209   36.6195   23.3056    0.6058    0.0117   -0.0113    0.0093    1.9207    1.0065   10.0000 -999.0000 -999.0000 
1764.3348   12.2500    4.2046 -381.1209   32.4692   22.9315    0.6714    0.0114    0.0440    0.0075    1.9314    0.8007   10.0000 -999.0000 -999.0000 
1764.4872   12.2500    4.2046 -381.5584   31.9000   22.8441    0.6878    0.0113    0.0685    0.0132    1.9472    0.7168   10.0000 -999.0000 -999.0000 
1764.6396   12.2500    4.2046 -381.6834   25.2446   23.5741    0.7890    0.0115   -0.0395    0.0164    1.9615    0.6953   10.0000 -999.0000 -999.0000 
1764.7920   12.2500    4.2046 -380.8709   31.6134   23.2785    0.8435    0.0113   -0.1740    0.0178    1.9747    0.7279   10.0000 -999.0000 -999.0000 
1764.9444   12.2500    4.2046 -379.5584   27.1847   22.7702    0.8317    0.0110   -0.2929    0.0096    1.9690    0.7320   10.0000 -999.0000 -999.0000 
1765.0968   12.2500    4.2046 -378.9334   32.7309   22.4723    0.7029    0.0111   -0.2851    0.0083    1.9672    0.7480   10.0000 -999.0000 -999.0000 
1765.2492   12.2500    4.2046 -377.9334   24.9663   22.8116    0.7184    0.0112   -0.2675    0.0088    1.9639    0.7092   10.0000 -999.0000 -999.0000 
1765.4016   12.2500    4.2046 -377.1834   34.9618   23.8761    0.8325    0.0116   -0.3027    0.0106    1.9624    0.6840   10.0000 -999.0000 -999.0000 
1765.5540   12.2500    4.2046 -376.4334   33.8526   26.6785    1.2915    0.0124   -0.4883    0.0115    1.9491    0.5717   10.0000 -999.0000 -999.0000 
1765.7064   12.2500    4.2046 -375.0584   33.8526   29.0238    1.5451    0.0132   -0.6437    0.0118    1.9477    0.7563   10.0000 -999.0000 -999.0000 
1765.8588   12.2500    4.2046 -373.9959   28.8548   29.8888    1.7082    0.0134   -0.7550    0.0100    1.9480    0.6721   10.0000 -999.0000 -999.0000 
1766.0112   12.2500    4.2046 -373.2459   25.5271   28.6448    1.5355    0.0130   -0.7603    0.0131    1.9627    0.6534   10.0000 -999.0000 -999.0000 
1766.1636   12.2500    4.2046 -372.4334   28.5889   27.4491    1.4177    0.0126   -0.6473    0.0108    1.9720    0.4908   10.0000 -999.0000 -999.0000 
1766.3160   12.2500    4.2046 -371.2459   25.8013   27.2907    1.3070    0.0127   -0.4859    0.0093    1.9793    0.5160   10.0000 -999.0000 -999.0000 
1766.4684   12.2500    4.2046 -370.4334   24.6921   26.9949    1.1811    0.0127   -0.3088    0.0137    1.9990    0.5579   10.0000 -999.0000 -999.0000 
1766.6208   12.2500    4.2046 -369.9334   28.8569   24.8244    1.0394    0.0118   -0.0907    0.0136    2.0136    0.5882   10.0000 -999.0000 -999.0000 
1766.7732   12.2500    4.2046 -369.9959   29.9661   23.1545    0.9409    0.0110   -0.0337    0.0114    2.0276    0.5371   10.0000 -999.0000 -999.0000 
1766.9256   12.2500    4.2046 -370.4959   32.1846   22.8612    0.7548    0.0112   -0.0477    0.0101    2.0285    0.6837   10.0000 -999.0000 -999.0000 
1767.0780   12.2500    4.2046 -371.9959   26.3538   23.6176    0.6574    0.0118   -0.0746    0.0106    2.0365    0.6055   10.0000 -999.0000 -999.0000 
1767.2304   12.2500    4.2046 -372.4959   24.1354   22.7309    0.2302    0.0120    0.1205    0.0127    2.0572    0.6430   10.0000 -999.0000 -999.0000 
1767.3828   12.2500    4.2046 -372.4959   21.9169   20.5686   -0.1485    0.0115    0.3244    0.0108    2.0606    0.5168   10.0000 -999.0000 -999.0000 
1767.5352   12.2500    4.2046 -372.6834   24.9579   18.4706   -0.5100    0.0110    0.5188    0.0106    2.0693    0.5119   10.0000 -999.0000 -999.0000 
1767.6876   12.2500    4.2046 -372.6834   28.8548   17.9420   -0.4774    0.0106    0.5621    0.0100    2.0760    0.5919   10.0000 -999.0000 -999.0000 
1767.8400   12.2500    4.2046 -372.7459   32.7371   18.3171   -0.4397    0.0108    0.5500    0.0108    2.0824    0.4877   10.0000 -999.0000 -999.0000 
1767.9924   12.2500    4.2046 -372.3709   35.5102   18.4969   -0.3728    0.0107    0.5351    0.0105    2.0770    0.5397   10.0000 -999.0000 -999.0000 
1768.1448   12.2500    4.2046 -371.8084   37.1762   19.5137   -0.2914    0.0112    0.4245    0.0098    2.0628    0.4440   10.0000 -999.0000 -999.0000 
1768.2972   12.2500    4.2046 -393.9959   36.6215   20.1415   -0.1710    0.0113    0.2715    0.0101    2.0578    0.5153   10.0000 -999.0000 -999.0000 
1768.4496   12.2500    4.2046 -501.3084   29.1415   20.9636    0.2164    0.0111    0.1943    0.0090    2.0586    0.5640   10.0000 -999.0000 -999.0000 
1768.6020   12.2500    4.2046 -541.3709   23.5787   21.7874    0.6047    0.0109    0.1169    0.0129    2.0585    0.5732   10.0000 -999.0000 -999.0000 
1768.7544   12.2500    4.2046 -587.2459   19.6963   22.6052    0.9740    0.0107    0.0286    0.0197    2.0679    0.6882   10.0000 -999.0000 -999.0000 
