~VERSION INFORMATION
 VERS.                 2.0:   CWLS LOG ASCII STANDARD - VERSION 2.0
 WRAP.                  NO:   SINGLE LINE PER DEPTH STEP
 CREA.                 15/01/2018 11:41:51
#CREATED USING DSPetro VERSION 5000.10.1.3 BY H191660 ON 15/01/2018 11:41:51
~WELL INFORMATION
#MNEM.UNIT       DATA                          DESCRIPTION MNEMONIC
#---------      ---------------------------   --------------------------
 STRT    .M         0.0000                    : START DEPTH
 STOP    .M         3500.0184                 : STOP DEPTH
 STEP    .M         0.1524                    : STEP VALUE
 NULL    .      -999.0000                     : NULL VALUE
 DATE    .      15/01/2018                    : LAS file Creation Date
 WELL .      2612_Pluto-1                : Well Name
 COMP .      Neftex Exploration Insights : Company
 FLD  .      PLUTO                       : Field
 UWI  .      ZAUWL_007298                : Unique Well Identifier (UWI)
 LOC  .                                  : Location
 RWS  .      -999                        : Def_Rw
 WST  .      -999                        : Def_Rwt
 SRVC .                                  : Contractor
~CURVE INFORMATION
#MNEM              UNIT       API CODE   Curve Type Comments
#----------  --------------- ----------  ---------- -----------
 DEPTH      .M                         : Depth       
 BS         .in                        : BitSize     
 CAL_INCH   .inch                      : caliper     Caliper Log - A representation of the measured diameter of a borehole along its depth
 SP_MV1     .mv                        : SP          Spontaneous Potential - Records the electrical potential produced by the interaction of formation water, conductive drilling mud, and certain ion-sele
 GR_API     .API                       : gammaRay    Gamma Ray (API) - Measures the intensity of natural gamma-ray radiation emitted from formations containing radioactive elements, such as K, Th and U
 GRC_API    .API                       : gammaRay    Borehole Corrected Gamma Ray - Log calibrated to account for borehole effects that could disrupt the gamma response
 TH_PPM     .ppm                       : spectral    Thorium Abundance (SGR) - The quantitative elemental abundace of Thorium derived from the Spectral Gamma Ray Log
 K_%        .PC                        : spectral    Potassium Abundance (SGR) - The quantitative elemental abundace of Potassium derived from the Spectral Gamma Ray Log. Also wt_%
 U_PPM      .ppm                       : Spectral    Uranium Abundance (SGR) - The quantitative elemental abundace of Uranium derived from the Spectral Gamma Ray Log
 RES_OHMM   .ohmm                      : deepRes     Unspecified Resistivity Log - No accroynm or method of attainment is specified - units of ohmm
 RHOB_G_CC  .g/cc                      : density     Bulk Density - Measures the density of bulk material, including any void space or other materials contained in the subject volume
 NPHI_v/v   .ratio                     : neutron     Neutron Porosity - Measured with an neutron logging device calibrated to a given matrix (limestone, sandstone and dolomite)
 PEF_B_E    .b/e-                      : PEF         Photoelectric Factor - A log of photoelectric absorption properties. Often expressed in an approximation unit barns/electron (b/e-)
 LITH       .                          : LITH        Lithology Curve
 LITH_v2    .                          : LITH        Lithology Curve
~A  DEPTH     BS     CAL_INCH   SP_MV1    GR_API   GRC_API    TH_PPM     K_%      U_PPM    RES_OHMM RHOB_G_C~  NPHI_v/v  PEF_B_E     LITH    LITH_v2  
# ...
1001.5728    4.2000    4.1820 -484.9959   43.5760   36.7416    0.6433    0.0190   -0.4030    0.0374    1.4128    0.6585   10.0000 -999.0000 -999.0000 
1001.7252    4.2000    4.1594 -485.3709   40.7843   35.7943    0.6519    0.0184   -0.6449    0.0400    1.4188    0.7073   10.0000 -999.0000 -999.0000 
1001.8776    4.2000    4.1820 -485.6209   41.8935   35.3782    0.6929    0.0181   -0.6316    0.0400    1.4183    0.6344   10.0000 -999.0000 -999.0000 
1002.0300    4.2000    4.1820 -485.3709   41.8935   34.7362    0.5798    0.0180   -0.4756    0.0405    1.4196    0.7546   10.0000 -999.0000 -999.0000 
1002.1824    4.2000    4.1820 -485.7459   41.3389   34.4025    0.4606    0.0180   -0.3158    0.0398    1.4220    0.7219   10.0000 -999.0000 -999.0000 
1002.3348    4.2000    4.1594 -485.6209   36.9019   34.9444    0.3102    0.0186   -0.2878    0.0395    1.4246    0.8424   10.0000 -999.0000 -999.0000 
1002.4872    4.2000    4.1594 -484.1834   35.4956   34.3474    0.2861    0.0183   -0.2188    0.0390    1.4264    0.5881   10.0000 -999.0000 -999.0000 
1002.6396    4.2000    4.1820 -483.8084   42.1739   33.7711    0.2626    0.0180   -0.1508    0.0407    1.4247    0.6109   10.0000 -999.0000 -999.0000 
1002.7920    4.2000    4.1820 -483.7459   46.6109   33.6083    0.2482    0.0179   -0.0639    0.0382    1.4237    0.5791   10.0000 -999.0000 -999.0000 
1002.9444    4.2000    4.1594 -483.1209   47.1655   33.4028    0.2211    0.0179    0.0679    0.0384    1.4242    0.7131   10.0000 -999.0000 -999.0000 
1003.0968    4.2000    4.1820 -482.8084   40.4872   32.8644    0.1909    0.0176    0.1348    0.0381    1.4257    0.6918   10.0000 -999.0000 -999.0000 
1003.2492    4.2000    4.1820 -482.8709   41.5964   31.7209    0.1575    0.0171    0.1984    0.0374    1.4261    0.8542   10.0000 -999.0000 -999.0000 
1003.4016    4.2000    4.1820 -483.6209   42.7459   29.4723    0.1412    0.0159    0.2069    0.0372    1.4293    0.9106   10.0000 -999.0000 -999.0000 
1003.5540    4.2000    4.1820 -484.1834   45.5190   29.2385    0.1073    0.0158    0.0961    0.0379    1.4324    0.9389   10.0000 -999.0000 -999.0000 
1003.7064    4.2000    4.1820 -484.7459   43.3005   30.0920    0.0785    0.0163   -0.0076    0.0401    1.4358    0.7740   10.0000 -999.0000 -999.0000 
1003.8588    4.2000    4.1820 -485.4334   40.4541   32.1678    0.0739    0.0175   -0.0134    0.0352    1.4385    0.6440   10.0000 -999.0000 -999.0000 
1004.0112    4.2000    4.1820 -485.2459   35.4861   33.3892    0.0870    0.0181    0.0610    0.0416    1.4415    0.5921   10.0000 -999.0000 -999.0000 
1004.1636    4.2000    4.1820 -484.2459   38.8138   34.1112    0.0927    0.0185   -0.0127    0.0429    1.4424    0.9025   10.0000 -999.0000 -999.0000 
1004.3160    4.2000    4.1594 -484.5584   37.9840   34.8470    0.0985    0.0189   -0.0892    0.0410    1.4433    0.8821   10.0000 -999.0000 -999.0000 
1004.4684    4.2000    4.1594 -484.3709   45.2120   35.7466    0.1152    0.0193   -0.2407    0.0401    1.4340    0.9582   10.0000 -999.0000 -999.0000 
1004.6208    4.2000    4.1594 -483.9334   46.3213   36.6744    0.1024    0.0199   -0.3588    0.0432    1.4008    0.6400   10.0000 -999.0000 -999.0000 
1004.7732    4.2000    4.1820 -482.9959   46.3213   36.6213    0.0635    0.0199   -0.3085    0.0403    1.3655    0.6814   10.0000 -999.0000 -999.0000 
1004.9256    4.2000    4.1820 -481.3084   42.4292   36.4963    0.0266    0.0199   -0.2603    0.0395    1.3451    0.7311   10.0000 -999.0000 -999.0000 
1005.0780    4.2000    4.1820 -480.6834   42.9838   36.9485    0.0216    0.0202   -0.1966    0.0395    1.3688    0.6830   10.0000 -999.0000 -999.0000 
1005.2304    4.2000    4.1820 -479.4959   42.7376   37.9854    0.0330    0.0207   -0.1974    0.0337    1.3929    0.8709   10.0000 -999.0000 -999.0000 
1005.3828    4.2000    4.1820 -477.8084   46.5466   39.0160    0.0450    0.0212   -0.1980    0.0453    1.4161    0.8062   10.0000 -999.0000 -999.0000 
1005.5352    4.2000    4.1820 -476.5584   44.3670   38.6486    0.0276    0.0211   -0.2136    0.0811    1.4207    1.0799   10.0000 -999.0000 -999.0000 
1005.6876    4.2000    4.1820 -475.9959   44.9216   39.1359    0.0184    0.0214   -0.2263    0.0752    1.4245    0.8947   10.0000 -999.0000 -999.0000 
1005.8400    4.2000    4.1820 -474.6209   41.6353   38.9159    0.0298    0.0212   -0.1387    0.0403    1.4240    0.8288   10.0000 -999.0000 -999.0000 
1005.9924    4.2000    4.1820 -472.7459   40.2275   39.4633    0.0354    0.0215   -0.1647    0.0351    1.4232    0.7385   10.0000 -999.0000 -999.0000 
1006.1448    4.2000    4.1820 -471.3084   45.2191   38.5985    0.0294    0.0210   -0.1226    0.0398    1.4236    0.7663   10.0000 -999.0000 -999.0000 
1006.2972    4.2000    4.1820 -469.9334   45.7737   39.1378    0.0352    0.0213   -0.0971    0.0396    1.4248    1.0296   10.0000 -999.0000 -999.0000 
1006.4496    4.2000    4.1594 -468.4959   46.0334   39.8853    0.0480    0.0217   -0.1573    0.0395    1.4295    0.8370   10.0000 -999.0000 -999.0000 
1006.6020    4.2000    4.1594 -467.5584   43.2790   41.0804    0.0666    0.0223   -0.1993    0.0390    1.4581    0.7871   10.0000 -999.0000 -999.0000 
1006.7544    4.2000    4.1820 -466.9334   43.8336   40.5781    0.0458    0.0221   -0.2353    0.0389    1.6352    0.4925   10.0000 -999.0000 -999.0000 
1006.9068    4.2000    4.1594 -466.9959   34.3927   40.6491    0.0125    0.0222   -0.2655    0.0373    1.9479    0.5580   10.0000 -999.0000 -999.0000 
1007.0592    4.2000    4.1820 -465.4959   24.4033   37.4048   -0.0325    0.0205   -0.2270    0.0321    2.0995    0.5853   10.0000 -999.0000 -999.0000 
1007.2116    4.2000    4.1820 -459.0584   13.8656   32.5883   -0.0566    0.0179   -0.2690    0.0196    2.0740    0.7718   10.0000 -999.0000 -999.0000 
1007.3640    4.2000    4.1820 -451.1834   14.9873   26.9233   -0.0140    0.0147   -0.2544    0.0156    1.9087    0.7780   10.0000 -999.0000 -999.0000 
1007.5164    4.2000    4.1594 -444.7459   16.6469   23.1318    0.0218    0.0126   -0.2685    0.0140    1.8642    1.1137   10.0000 -999.0000 -999.0000 
1007.6688    4.2000    4.2046 -439.8709   18.3108   20.9386    0.0116    0.0114   -0.2538 100000.0000    1.8351    1.3037   10.0000 -999.0000 -999.0000 
1007.8212    4.2000    4.1820 -435.4959   17.2016   18.6490    0.0041    0.0102   -0.2264    0.0157    1.8138    1.2684   10.0000 -999.0000 -999.0000 
1007.9736    4.2000    4.1820 -432.1209   16.3686   17.3367   -0.0119    0.0095   -0.1783    0.0131    1.8170    0.8470   10.0000 -999.0000 -999.0000 
1008.1260    4.2000    4.1820 -428.8709   14.1501   16.9824   -0.0153    0.0093   -0.1179    0.0132    1.8351    0.5094   10.0000 -999.0000 -999.0000 
1008.2784    4.2000    4.1820 -435.1209   16.3686   15.6365   -0.0192    0.0086   -0.0688 100000.0000    1.8340    0.8907   10.0000 -999.0000 -999.0000 
1008.4308    4.2000    4.1820 -454.9959   17.1767   14.3495   -0.0019    0.0078   -0.0742 100000.0000    1.8218    1.0561   10.0000 -999.0000 -999.0000 
1008.5832    4.2000    4.1820 -468.8709   20.5210   13.4729    0.0073    0.0073   -0.0551 100000.0000    1.8112    1.1760   10.0000 -999.0000 -999.0000 
1008.7356    4.2000    4.1820 -469.4334   19.4118   15.2547    0.0266    0.0083   -0.0841 100000.0000    1.8456    0.8636   10.0000 -999.0000 -999.0000 
1008.8880    4.2000    4.1820 -469.5584   19.9830   16.9662    0.0409    0.0092   -0.0934 100000.0000    1.9695    0.7369   10.0000 -999.0000 -999.0000 
1009.0404    4.2000    4.1820 -484.7459   19.9663   19.2506   -0.0126    0.0105   -0.1398 100000.0000    2.1219    0.6428   10.0000 -999.0000 -999.0000 
1009.1928    4.2000    4.1820 -488.1209   18.8633   19.2850   -0.0732    0.0107   -0.1486 100000.0000    2.2747    0.5661   10.0000 -999.0000 -999.0000 
1009.3452    4.2000    4.1820 -476.8084   15.8026   19.3641    0.0532    0.0105   -0.1909 100000.0000    2.2889    0.5745   10.0000 -999.0000 -999.0000 
1009.4976    4.2000    4.1820 -485.2459   17.4872   16.8150    0.1533    0.0089   -0.1969 100000.0000    2.1635    0.6000   10.0000 -999.0000 -999.0000 
