~VERSION INFORMATION
 VERS.                 2.0:   CWLS LOG ASCII STANDARD - VERSION 2.0
 WRAP.                  NO:   SINGLE LINE PER DEPTH STEP
 CREA.                 15/01/2018 11:41:51
#CREATED USING DSPetro VERSION 5000.10.1.3 BY H191660 ON 15/01/2018 11:41:51
~WELL INFORMATION
#MNEM.UNIT       DATA                          DESCRIPTION MNEMONIC
#---------      ---------------------------   --------------------------
 STRT    .M         0.0000                    : START DEPTH
 STOP    .M         3500.0184                 : STOP DEPTH
 STEP    .M         0.1524                    : STEP VALUE
 NULL    .      -999.0000                     : NULL VALUE
 DATE    .      15/01/2018                    : LAS file Creation Date
 WELL .      2612_Pluto-1                : Well Name
 COMP .      Neftex Exploration Insights : Company
 FLD  .      PLUTO                       : Field
 UWI  .      ZAUWL_007298                : Unique Well Identifier (UWI)
 LOC  .                                  : Location
 RWS  .      -999                        : Def_Rw
 WST  .      -999                        : Def_Rwt
 SRVC .                                  : Contractor
~CURVE INFORMATION
#MNEM              UNIT       API CODE   Curve Type Comments
#----------  --------------- ----------  ---------- -----------
 DEPTH      .M                         : Depth       
 BS         .in                        : BitSize     
 CAL_INCH   .inch                      : caliper     Caliper Log - A representation of the measured diameter of a borehole along its depth
 SP_MV1     .mv                        : SP          Spontaneous Potential - Records the electrical potential produced by the interaction of formation water, conductive drilling mud, and certain ion-sele
 GR_API     .API                       : gammaRay    Gamma Ray (API) - Measures the intensity of natural gamma-ray radiation emitted from formations containing radioactive elements, such as K, Th and U
 GRC_API    .API                       : gammaRay    Borehole Corrected Gamma Ray - Log calibrated to account for borehole effects that could disrupt the gamma response
 TH_PPM     .ppm                       : spectral    Thorium Abundance (SGR) - The quantitative elemental abundace of Thorium derived from the Spectral Gamma Ray Log
 K_%        .PC                        : spectral    Potassium Abundance (SGR) - The quantitative elemental abundace of Potassium derived from the Spectral Gamma Ray Log. Also wt_%
 U_PPM      .ppm                       : Spectral    Uranium Abundance (SGR) - The quantitative elemental abundace of Uranium derived from the Spectral Gamma Ray Log
 RES_OHMM   .ohmm                      : deepRes     Unspecified Resistivity Log - No accroynm or method of attainment is specified - units of ohmm
 RHOB_G_CC  .g/cc                      : density     Bulk Density - Measures the density of bulk material, including any void space or other materials contained in the subject volume
 NPHI_v/v   .ratio                     : neutron     Neutron Porosity - Measured with an neutron logging device calibrated to a given matrix (limestone, sandstone and dolomite)
 PEF_B_E    .b/e-                      : PEF         Photoelectric Factor - A log of photoelectric absorption properties. Often expressed in an approximation unit barns/electron (b/e-)
 LITH       .                          : LITH        Lithology Curve
 LITH_v2    .                          : LITH        Lithology Curve
~A  DEPTH     BS     CAL_INCH   SP_MV1    GR_API   GRC_API    TH_PPM     K_%      U_PPM    RES_OHMM RHOB_G_C~  NPHI_v/v  PEF_B_E     LITH    LITH_v2  
# ...
1461.9732   12.2500    4.2272 -281.0584   44.3862   36.4349    3.8154    0.0134   -0.2419    0.0098    2.1883    0.7400   10.0000 -999.0000 -999.0000 
1462.1256   12.2500    4.2272 -280.3709   46.9017   38.4396    3.7926    0.0145   -0.2138    0.0127    2.2005    0.7444   10.0000 -999.0000 -999.0000 
1462.2780   12.2500    4.2272 -279.6834   49.1036   39.5971    3.7205    0.0153   -0.1863    0.0069    2.2108    0.8204   10.0000 -999.0000 -999.0000 
1462.4304   12.2500    4.2272 -279.1834   47.9943   40.2204    3.6261    0.0158   -0.0849    0.0068    2.2211    0.7356   10.0000 -999.0000 -999.0000 
1462.5828   12.2500    4.2272 -278.3084   48.8273   40.3766    3.4760    0.0161    0.0138    0.0114    2.2153    0.7743   10.0000 -999.0000 -999.0000 
1462.7352   12.2500    4.2272 -277.9334   47.1634   43.4702    3.4320    0.0179   -0.1801    0.0111    2.1949    0.6662   10.0000 -999.0000 -999.0000 
1462.8876   12.2500    4.2272 -276.8084   49.3819   42.7482    3.1430    0.0180   -0.3034    0.0108    2.1782    0.7436   10.0000 -999.0000 -999.0000 
1463.0400   12.2500    4.2272 -275.8084   49.3819   41.0362    2.8576    0.0175   -0.4783    0.0102    2.1598    0.6530   10.0000 -999.0000 -999.0000 
1463.1924   12.2500    4.2272 -275.0584   46.6088   34.4715    2.2245    0.0150   -0.1947    0.0090    2.1444    0.5772   10.0000 -999.0000 -999.0000 
1463.3448   12.2500    4.2272 -274.0584   46.0771   32.1833    1.9094    0.0143    0.0772    0.0044    2.1328    0.5546   10.0000 -999.0000 -999.0000 
1463.4972   12.2500    4.2272 -273.3084   43.8378   29.9439    1.6008    0.0136    0.3439    0.0111    2.1491    0.5131   10.0000 -999.0000 -999.0000 
1463.6496   12.2500    4.2272 -272.9334   49.3840   31.7172    1.6921    0.0144    0.2918    0.0090    2.1826    0.6624   10.0000 -999.0000 -999.0000 
1463.8020   12.2500    4.2272 -273.6834   43.5532   34.5097    2.0171    0.0154    0.1457    0.0007    2.2123    0.7629   10.0000 -999.0000 -999.0000 
1463.9544   12.2500    4.2272 -275.1209   44.1078   38.1030    2.3761    0.0168    0.0362    0.0080    2.2228    0.8062   10.0000 -999.0000 -999.0000 
1464.1068   12.2500    4.2272 -276.6834   45.7717   40.7764    2.5949    0.0178   -0.0002    0.0110    2.2198    0.6552   10.0000 -999.0000 -999.0000 
1464.2592   12.2500    4.2046 -278.1834   48.2706   41.8472    2.5213    0.0186    0.0517    0.0042    2.2121    0.5295   10.0000 -999.0000 -999.0000 
1464.4116   12.2500    4.2272 -278.8084   51.5983   38.8480    2.0923    0.0177    0.3685    0.0103    2.1953    0.6624   10.0000 -999.0000 -999.0000 
1464.5640   12.2500    4.2272 -279.0584   53.8168   35.8260    1.7741    0.0165    0.6422    0.0064    2.1963    0.6868   10.0000 -999.0000 -999.0000 
1464.7164   12.2500    4.2272 -279.1834   50.4849   31.8489    1.4373    0.0149    0.8733    0.0038    2.2041    0.6162   10.0000 -999.0000 -999.0000 
1464.8688   12.2500    4.2272 -279.6834   49.3757   30.7983    1.4221    0.0144    0.9362    0.0122    2.2226    0.4618   10.0000 -999.0000 -999.0000 
1465.0212   12.2500    4.2272 -280.0584   42.7203   30.8612    1.5707    0.0142    0.8890    0.0063    2.2373    0.7645   10.0000 -999.0000 -999.0000 
1465.1736   12.2500    4.2272 -279.7459   41.8469   31.0952    1.8599    0.0138    1.0486    0.0085    2.2594    1.0088   10.0000 -999.0000 -999.0000 
1465.3260   12.2500    4.2272 -278.7459   35.7738   30.6378    1.9682    0.0134    1.0939    0.0147    2.3143    0.9687   10.0000 -999.0000 -999.0000 
1465.4784   12.2500    4.2272 -278.3084   33.5264   27.5785    1.7153    0.0121    1.1553    0.0109    2.3568    0.6857   10.0000 -999.0000 -999.0000 
1465.6308   12.2500    4.2046 -277.8709   36.6037   24.8927    1.3625    0.0113    1.0270    0.0111    2.3744    0.5329   10.0000 -999.0000 -999.0000 
1465.7832   12.2500    4.2272 -277.0584   33.8237   22.7907    1.1784    0.0104    0.8089    0.0117    2.3346    0.7216   10.0000 -999.0000 -999.0000 
1465.9356   12.2500    4.2046 -276.7459   32.9938   22.5678    1.2733    0.0102    0.6941    0.0161    2.2638    0.8322   10.0000 -999.0000 -999.0000 
1466.0880   12.2500    4.2272 -276.3084   32.4392   22.3362    1.3642    0.0099    0.5825    0.0140    2.1829    0.9851   10.0000 -999.0000 -999.0000 
1466.2404   12.2500    4.2272 -275.6209   38.5552   24.0234    1.6762    0.0103    0.4850    0.0121    2.1253    0.8760   10.0000 -999.0000 -999.0000 
1466.3928   12.2500    4.2272 -275.0584   42.7045   26.2122    2.0275    0.0109    0.5685    0.0118    2.1219    0.8590   10.0000 -999.0000 -999.0000 
1466.5452   12.2500    4.2272 -274.3709   42.7045   29.2296    2.4396    0.0118    0.5209    0.0120    2.1305    0.7603   10.0000 -999.0000 -999.0000 
1466.6976   12.2500    4.2272 -273.5584   43.2418   30.4235    2.4622    0.0124    0.5971    0.0122    2.1488    0.7156   10.0000 -999.0000 -999.0000 
1466.8500   12.2500    4.2272 -273.1209   42.7244   31.3681    2.4642    0.0129    0.2211    0.0119    2.1434    0.7402   10.0000 -999.0000 -999.0000 
1467.0024   12.2500    4.2272 -273.2459   45.4975   31.5732    2.5362    0.0129    0.1029    0.0119    2.1472    0.6341   10.0000 -999.0000 -999.0000 
1467.1548   12.2500    4.2272 -274.3084   48.8294   31.9144    2.9088    0.0125    0.0183    0.0112    2.1608    0.7574   10.0000 -999.0000 -999.0000 
1467.3072   12.2500    4.2272 -275.9334   49.3840   32.8797    3.3932    0.0122    0.1769    0.0123    2.1672    0.6759   10.0000 -999.0000 -999.0000 
1467.4596   12.2500    4.2272 -277.4334   42.1740   33.1731    3.6479    0.0119    0.3302    0.0117    2.1749    0.6904   10.0000 -999.0000 -999.0000 
1467.6120   12.2500    4.2272 -278.6834   37.1762   33.7246    3.9169    0.0117    0.3901    0.0114    2.1695    0.6826   10.0000 -999.0000 -999.0000 
1467.7644   12.2500    4.2272 -279.3084   41.0585   34.7039    4.0125    0.0121    0.4441    0.0115    2.1663    0.7021   10.0000 -999.0000 -999.0000 
1467.9168   12.2500    4.2272 -279.4959   44.6791   34.2428    3.6478    0.0125    0.5040    0.0116    2.1623    0.5648   10.0000 -999.0000 -999.0000 
1468.0692   12.2500    4.2272 -279.7459   45.7717   33.5829    3.1926    0.0129    0.4597    0.0113    2.1714    0.5428   10.0000 -999.0000 -999.0000 
1468.2216   12.2500    4.2272 -280.1834   42.9986   31.6328    2.7098    0.0127    0.4524    0.0104    2.1966    0.4765   10.0000 -999.0000 -999.0000 
1468.3740   12.2500    4.2272 -280.3084   52.1612   31.0127    2.6283    0.0125    0.3221    0.0112    2.2179    0.6338   10.0000 -999.0000 -999.0000 
1468.5264   12.2500    4.2272 -280.4334   54.9343   30.4257    2.4267    0.0125    0.4129    0.0115    2.2081    0.6155   10.0000 -999.0000 -999.0000 
1468.6788   12.2500    4.2272 -280.1209   52.7159   29.7837    2.2181    0.0125    0.5453    0.0111    2.1854    0.6861   10.0000 -999.0000 -999.0000 
1468.8312   12.2500    4.2272 -279.1209   37.7225   30.0067    1.7553    0.0134    0.6101    0.0107    2.1812    0.6790   10.0000 -999.0000 -999.0000 
1468.9836   12.2500    4.2272 -278.6209   32.1763   30.9992    1.4197    0.0145    0.5918    0.0114    2.1986    0.6125   10.0000 -999.0000 -999.0000 
1469.1360   12.2500    4.2272 -278.5584   37.1679   32.5857    1.2793    0.0156    0.5237    0.0117    2.2271    0.5340   10.0000 -999.0000 -999.0000 
1469.2884   12.2500    4.2272 -278.8084   47.9964   34.1257    1.1471    0.0167    0.4800    0.0122    2.2277    0.4896   10.0000 -999.0000 -999.0000 
1469.4408   12.2500    4.2272 -278.1834   53.5426   33.4156    1.1038    0.0164    0.5028    0.0119    2.2282    0.6396   10.0000 -999.0000 -999.0000 
1469.5932   12.2500    4.2046 -277.3084   53.0108   32.1522    1.0683    0.0157    0.5402    0.0116    2.2009    0.7137   10.0000 -999.0000 -999.0000 
1469.7456   12.2500    4.2272 -276.4334   46.0563   30.6133    0.9034    0.0152    0.5784    0.0112    2.1874    0.8442   10.0000 -999.0000 -999.0000 
1469.8980   12.2500    4.2272 -275.7459   41.0647   31.2589    0.9369    0.0155    0.5184    0.0115    2.1648    0.6676   10.0000 -999.0000 -999.0000 
