~VERSION INFORMATION
 VERS.                 2.0:   CWLS LOG ASCII STANDARD - VERSION 2.0
 WRAP.                  NO:   SINGLE LINE PER DEPTH STEP
 CREA.                 15/01/2018 11:41:51
#CREATED USING DSPetro VERSION 5000.10.1.3 BY H191660 ON 15/01/2018 11:41:51
~WELL INFORMATION
#MNEM.UNIT       DATA                          DESCRIPTION MNEMONIC
#---------      ---------------------------   --------------------------
 STRT    .M         0.0000                    : START DEPTH
 STOP    .M         3500.0184                 : STOP DEPTH
 STEP    .M         0.1524                    : STEP VALUE
 NULL    .      -999.0000                     : NULL VALUE
 DATE    .      15/01/2018                    : LAS file Creation Date
 WELL .      2612_Pluto-1                : Well Name
 COMP .      Neftex Exploration Insights : Company
 FLD  .      PLUTO                       : Field
 UWI  .      ZAUWL_007298                : Unique Well Identifier (UWI)
 LOC  .                                  : Location
 RWS  .      -999                        : Def_Rw
 WST  .      -999                        : Def_Rwt
 SRVC .                                  : Contractor
~CURVE INFORMATION
#MNEM              UNIT       API CODE   Curve Type Comments
#----------  --------------- ----------  ---------- -----------
 DEPTH      .M                         : Depth       
 BS         .in                        : BitSize     
 CAL_INCH   .inch                      : caliper     Caliper Log - A representation of the measured diameter of a borehole along its depth
 SP_MV1     .mv                        : SP          Spontaneous Potential - Records the electrical potential produced by the interaction of formation water, conductive drilling mud, and certain ion-sele
 GR_API     .API                       : gammaRay    Gamma Ray (API) - Measures the intensity of natural gamma-ray radiation emitted from formations containing radioactive elements, such as K, Th and U
 GRC_API    .API                       : gammaRay    Borehole Corrected Gamma Ray - Log calibrated to account for borehole effects that could disrupt the gamma response
 TH_PPM     .ppm                       : spectral    Thorium Abundance (SGR) - The quantitative elemental abundace of Thorium derived from the Spectral Gamma Ray Log
 K_%        .PC                        : spectral    Potassium Abundance (SGR) - The quantitative elemental abundace of Potassium derived from the Spectral Gamma Ray Log. Also wt_%
 U_PPM      .ppm                       : Spectral    Uranium Abundance (SGR) - The quantitative elemental abundace of Uranium derived from the Spectral Gamma Ray Log
 RES_OHMM   .ohmm                      : deepRes     Unspecified Resistivity Log - No accroynm or method of attainment is specified - units of ohmm
 RHOB_G_CC  .g/cc                      : density     Bulk Density - Measures the density of bulk material, including any void space or other materials contained in the subject volume
 NPHI_v/v   .ratio                     : neutron     Neutron Porosity - Measured with an neutron logging device calibrated to a given matrix (limestone, sandstone and dolomite)
 PEF_B_E    .b/e-                      : PEF         Photoelectric Factor - A log of photoelectric absorption properties. Often expressed in an approximation unit barns/electron (b/e-)
 LITH       .                          : LITH        Lithology Curve
 LITH_v2    .                          : LITH        Lithology Curve
~A  DEPTH     BS     CAL_INCH   SP_MV1    GR_API   GRC_API    TH_PPM     K_%      U_PPM    RES_OHMM RHOB_G_C~  NPHI_v/v  PEF_B_E     LITH    LITH_v2  
# ...
2067.7632   12.2500    4.1594 -511.6834   30.8032   28.5578    1.4829    0.0131   -0.6060    0.0087    2.3264    0.5498   10.0000 -999.0000 -999.0000 
2067.9156   12.2500    4.1594 -510.8084   23.0209   28.0952    1.4173    0.0129   -0.6868    0.0085    2.3153    0.5041   10.0000 -999.0000 -999.0000 
2068.0680   12.2500    4.1594 -509.8084   23.0209   25.6508    1.0759    0.0122   -0.5318    0.0084    2.3011    0.5366   10.0000 -999.0000 -999.0000 
2068.2204   12.2500    4.1594 -509.0584   23.2941   26.1240    0.8965    0.0127   -0.3603    0.0091    2.2814    0.5368   10.0000 -999.0000 -999.0000 
2068.3728   12.2500    4.1594 -508.4334   25.9052   24.8984    0.9308    0.0120   -0.2288    0.0095    2.2825    0.5591   10.0000 -999.0000 -999.0000 
2068.5252   12.2500    4.1820 -507.6834   27.5691   25.9276    0.9019    0.0126   -0.3662    0.0092    2.2770    0.5106   10.0000 -999.0000 -999.0000 
2068.6776   12.2500    4.1594 -507.0584   27.3022   29.3047    0.9522    0.0144   -0.5413    0.0098    2.2932    0.5294   10.0000 -999.0000 -999.0000 
2068.8300   12.2500    4.1594 -506.1209   24.4137   31.0540    1.1416    0.0150   -0.6001    0.0093    2.2893    0.5535   10.0000 -999.0000 -999.0000 
2068.9824   12.2500    4.1594 -505.3084   22.7540   30.3419    1.3037    0.0144   -0.6634    0.0086    2.2917    0.5835   10.0000 -999.0000 -999.0000 
2069.1348   12.2500    4.1820 -504.4959   23.5755   28.0758    1.3753    0.0130   -0.6830    0.0089    2.2884    0.5731   10.0000 -999.0000 -999.0000 
2069.2872   12.2500    4.1820 -503.8709   27.7351   27.0050    1.1581    0.0128   -0.6594    0.0083    2.2939    0.5353   10.0000 -999.0000 -999.0000 
2069.4396   12.2500    4.1820 -503.8709   29.3948   27.3549    1.0546    0.0131   -0.5145    0.0080    2.2955    0.5242   10.0000 -999.0000 -999.0000 
2069.5920   12.2500    4.1820 -504.3709   26.9074   27.4955    0.9282    0.0134   -0.3464    0.0080    2.2838    0.5202   10.0000 -999.0000 -999.0000 
2069.7444   12.2500    4.1594 -505.5584   28.2997   29.1579    0.9957    0.0142   -0.3372    0.0077    2.2842    0.5156   10.0000 -999.0000 -999.0000 
2069.8968   12.2500    4.1594 -507.3084   28.5770   30.2974    1.0382    0.0148   -0.5181    0.0093    2.2942    0.5117   10.0000 -999.0000 -999.0000 
2070.0492   12.2500    4.1594 -508.6209   33.2332   29.5105    1.0162    0.0144   -0.7091    0.0087    2.3044    0.4974   10.0000 -999.0000 -999.0000 
2070.2016   12.2500    4.1594 -509.0584   34.2131   26.1305    0.9063    0.0127   -0.4987    0.0088    2.3042    0.5497   10.0000 -999.0000 -999.0000 
2070.3540   12.2500    4.1820 -509.3084   30.6114   24.4632    0.8553    0.0119   -0.3307    0.0089    2.3014    0.5005   10.0000 -999.0000 -999.0000 
2070.5064   12.2500    4.1820 -509.5584   27.0659   23.8337    0.7470    0.0117   -0.2923    0.0093    2.3095    0.5089   10.0000 -999.0000 -999.0000 
2070.6588   12.2500    4.1594 -509.6209   24.8258   21.7510    0.4989    0.0110   -0.0809    0.0090    2.3051    0.4527   10.0000 -999.0000 -999.0000 
2070.8112   12.2500    4.1594 -509.6209   26.4905   20.4998    0.2845    0.0107    0.1126    0.0096    2.2945    0.4947   10.0000 -999.0000 -999.0000 
2070.9636   12.2500    4.1594 -509.3084   25.7078   21.3383    0.4108    0.0110    0.1013    0.0090    2.2829    0.5371   10.0000 -999.0000 -999.0000 
2071.1160   12.2500    4.1594 -508.9334   25.3033   22.3555    0.3716    0.0116    0.2517    0.0087    2.2850    0.5332   10.0000 -999.0000 -999.0000 
2071.2684   12.2500    4.1594 -508.2459   29.9450   23.7110    0.3280    0.0124    0.4305    0.0085    2.2857    0.5017   10.0000 -999.0000 -999.0000 
2071.4208   12.2500    4.1820 -507.4959   34.6148   24.9623    0.3665    0.0130    0.5671    0.0090    2.2740    0.4686   10.0000 -999.0000 -999.0000 
2071.5732   12.2500    4.1820 -506.7459   31.9513   23.0560    0.3287    0.0120    0.7497    0.0086    2.2635    0.5178   10.0000 -999.0000 -999.0000 
2071.7256   12.2500    4.1820 -505.9959   31.6378   20.5941    0.2503    0.0108    0.8115    0.0093    2.2540    0.5373   10.0000 -999.0000 -999.0000 
2071.8780   12.2500    4.1820 -505.1209   32.8631   19.9009    0.2164    0.0105    0.5662    0.0085    2.2605    0.5722   10.0000 -999.0000 -999.0000 
2072.0304   12.2500    4.1820 -504.4959   35.1937   21.6767    0.2112    0.0115    0.4074    0.0081    2.2667    0.5644   10.0000 -999.0000 -999.0000 
2072.1828   12.2500    4.1820 -503.7459   32.8631   21.6414    0.2390    0.0114    0.3875    0.0083    2.2758    0.5800   10.0000 -999.0000 -999.0000 
2072.3352   12.2500    4.1820 -502.5584   29.9644   21.5461    0.2226    0.0114    0.4192    0.0082    2.2821    0.5370   10.0000 -999.0000 -999.0000 
2072.4876   12.2500    4.1594 -502.1209   27.3762   20.7525    0.1980    0.0110    0.4395    0.0081    2.2864    0.5101   10.0000 -999.0000 -999.0000 
2072.6400   12.2500    4.1594 -502.4334   27.0433   20.2809    0.1440    0.0108    0.6472    0.0083    2.2954    0.5339   10.0000 -999.0000 -999.0000 
2072.7924   12.2500    4.1594 -503.8709   25.0457   19.0322    0.3402    0.0098    0.5246    0.0084    2.2979    0.5361   10.0000 -999.0000 -999.0000 
2072.9448   12.2500    4.1594 -505.1209   26.9680   18.9230    0.4297    0.0096    0.3558    0.0095    2.3017    0.5659   10.0000 -999.0000 -999.0000 
2073.0972   12.2500    4.1594 -506.6209   24.0468   18.3842    0.5550    0.0091    0.2608    0.0087    2.3127    0.5366   10.0000 -999.0000 -999.0000 
2073.2496   12.2500    4.1707 -508.0584   24.3798   22.5310    0.6868    0.0111    0.2576    0.0087    2.3140    0.5936   10.0000 -999.0000 -999.0000 
2073.4020   12.2500    4.1594 -508.8084   24.0468   24.2367    0.6960    0.0121    0.2560    0.0086    2.3120    0.6119   10.0000 -999.0000 -999.0000 
2073.5544   12.2500    4.1594 -509.7459   27.3009   24.6342    0.8000    0.0121    0.3561    0.0091    2.2951    0.5726   10.0000 -999.0000 -999.0000 
2073.7068   12.2500    4.1594 -510.6209   26.9680   23.8456    0.8685    0.0115    0.4423    0.0086    2.2875    0.5539   10.0000 -999.0000 -999.0000 
2073.8592   12.2500    4.1594 -511.3709   27.8728   22.5842    0.8740    0.0108    0.4005    0.0080    2.2831    0.4872   10.0000 -999.0000 -999.0000 
2074.0116   12.2500    4.1820 -511.7459   27.5399   22.5294    0.8489    0.0109    0.3620    0.0093    2.2924    0.5924   10.0000 -999.0000 -999.0000 
2074.1640   12.2500    4.1594 -512.1209   27.2069   22.3918    0.8225    0.0108    0.3253    0.0090    2.3125    0.6342   10.0000 -999.0000 -999.0000 
2074.3164   12.2500    4.1594 -512.3709   24.7127   24.3422    0.7729    0.0120    0.1015    0.0096    2.3440    0.5951   10.0000 -999.0000 -999.0000 
2074.4688   12.2500    4.1820 -512.3709   22.0492   25.5725    0.6900    0.0128    0.0309    0.0088    2.3757    0.5527   10.0000 -999.0000 -999.0000 
2074.6212   12.2500    4.1820 -512.6834   23.7139   24.9839    0.6552    0.0125    0.0569    0.0090    2.3980    0.4786   10.0000 -999.0000 -999.0000 
2074.7736   12.2500    4.1594 -512.7459   25.3033   25.0058    0.4834    0.0128    0.0471    0.0088    2.3883    0.5587   10.0000 -999.0000 -999.0000 
2074.9260   12.2500    4.1820 -512.6834   27.5399   23.8198    0.4222    0.0123    0.0251    0.0097    2.3444    0.5253   10.0000 -999.0000 -999.0000 
2075.0784   12.2500    4.1594 -512.5584   29.8704   22.7292    0.3947    0.0117   -0.0032    0.0116    2.2940    0.5601   10.0000 -999.0000 -999.0000 
2075.2308   12.2500    4.1820 -512.8084   31.2022   22.5125    0.4813    0.0115   -0.1578    0.0104    2.2705    0.5405   10.0000 -999.0000 -999.0000 
2075.3832   12.2500    4.1820 -512.9334   29.2985   25.9170    0.6501    0.0131   -0.3461    0.0093    2.2800    0.5882   10.0000 -999.0000 -999.0000 
2075.5356   12.2500    4.1594 -512.8709   26.9680   29.3864    0.5885    0.0151   -0.2834    0.0103    2.2926    0.5636   10.0000 -999.0000 -999.0000 
2075.6880   12.2500    4.1820 -513.1209   23.2154   30.4560    0.5708    0.0157   -0.4005    0.0093    2.2931    0.6184   10.0000 -999.0000 -999.0000 
