~VERSION INFORMATION
 VERS.                 2.0:   CWLS LOG ASCII STANDARD - VERSION 2.0
 WRAP.                  NO:   SINGLE LINE PER DEPTH STEP
 CREA.                 15/01/2018 11:41:51
#CREATED USING DSPetro VERSION 5000.10.1.3 BY H191660 ON 15/01/2018 11:41:51
~WELL INFORMATION
#MNEM.UNIT       DATA                          DESCRIPTION MNEMONIC
#---------      ---------------------------   --------------------------
 STRT    .M         0.0000                    : START DEPTH
 STOP    .M         3500.0184                 : STOP DEPTH
 STEP    .M         0.1524                    : STEP VALUE
 NULL    .      -999.0000                     : NULL VALUE
 DATE    .      15/01/2018                    : LAS file Creation Date
 WELL .      2612_Pluto-1                : Well Name
 COMP .      Neftex Exploration Insights : Company
 FLD  .      PLUTO                       : Field
 UWI  .      ZAUWL_007298                : Unique Well Identifier (UWI)
 LOC  .                                  : Location
 RWS  .      -999                        : Def_Rw
 WST  .      -999                        : Def_Rwt
 SRVC .                                  : Contractor
~CURVE INFORMATION
#MNEM              UNIT       API CODE   Curve Type Comments
#----------  --------------- ----------  ---------- -----------
 DEPTH      .M                         : Depth       
 BS         .in                        : BitSize     
 CAL_INCH   .inch                      : caliper     Caliper Log - A representation of the measured diameter of a borehole along its depth
 SP_MV1     .mv                        : SP          Spontaneous Potential - Records the electrical potential produced by the interaction of formation water, conductive drilling mud, and certain ion-sele
 GR_API     .API                       : gammaRay    Gamma Ray (API) - Measures the intensity of natural gamma-ray radiation emitted from formations containing radioactive elements, such as K, Th and U
 GRC_API    .API                       : gammaRay    Borehole Corrected Gamma Ray - Log calibrated to account for borehole effects that could disrupt the gamma response
 TH_PPM     .ppm                       : spectral    Thorium Abundance (SGR) - The quantitative elemental abundace of Thorium derived from the Spectral Gamma Ray Log
 K_%        .PC                        : spectral    Potassium Abundance (SGR) - The quantitative elemental abundace of Potassium derived from the Spectral Gamma Ray Log. Also wt_%
 U_PPM      .ppm                       : Spectral    Uranium Abundance (SGR) - The quantitative elemental abundace of Uranium derived from the Spectral Gamma Ray Log
 RES_OHMM   .ohmm                      : deepRes     Unspecified Resistivity Log - No accroynm or method of attainment is specified - units of ohmm
 RHOB_G_CC  .g/cc                      : density     Bulk Density - Measures the density of bulk material, including any void space or other materials contained in the subject volume
 NPHI_v/v   .ratio                     : neutron     Neutron Porosity - Measured with an neutron logging device calibrated to a given matrix (limestone, sandstone and dolomite)
 PEF_B_E    .b/e-                      : PEF         Photoelectric Factor - A log of photoelectric absorption properties. Often expressed in an approximation unit barns/electron (b/e-)
 LITH       .                          : LITH        Lithology Curve
 LITH_v2    .                          : LITH        Lithology Curve
~A  DEPTH     BS     CAL_INCH   SP_MV1    GR_API   GRC_API    TH_PPM     K_%      U_PPM    RES_OHMM RHOB_G_C~  NPHI_v/v  PEF_B_E     LITH    LITH_v2  
# ...
2528.1636    8.5000    8.4802   -0.7376   88.5612   88.2788   12.1423    0.0276    0.0503    0.9476    2.2078    0.3992    3.3759   37.0000    8.0000 
2528.3160    8.5000    8.4953    0.4637   84.0111   86.4172   11.7395    0.0272    0.2791    1.3496    2.2465    0.3567    3.4209   37.0000    8.0000 
2528.4684    8.5000    8.5103    1.3525   82.1244   83.6718   11.2958    0.0265    0.0640    1.1363    2.2575    0.3547    3.3956   37.0000    8.0000 
2528.6208    8.5000    8.5179    1.1163   80.3234   81.1102   10.9645    0.0257    0.1567    0.9364    2.2344    0.3471    3.2980   37.0000    8.0000 
2528.7732    8.5000    8.5329    0.8802   81.9881   77.9703   10.7035    0.0244    0.4360    0.9527    2.2079    0.3747    3.1965   37.0000    8.0000 
2528.9256    8.5000    8.4651    0.7065   77.4144   77.1726   10.6725    0.0240    0.5204    0.9825    2.1966    0.3846    3.1197   37.0000    8.0000 
2529.0780    8.5000    8.4576   -0.5922   83.4326   75.6747   10.5090    0.0235    0.7634    1.0173    2.1977    0.4047    3.0894   37.0000    8.0000 
2529.2304    8.5000    8.4651   -0.8908   81.4350   77.2044   10.5016    0.0243    0.7640    0.9738    2.2027    0.3890    3.0858   37.0000    8.0000 
2529.3828    8.5000    8.4689   -0.9395   81.7915   77.6572   10.3912    0.0247    1.0876    0.9358    2.2054    0.3575    3.1208   37.0000    8.0000 
2529.5352    8.5000    8.4802   -0.2382   80.3488   77.5949   10.2555    0.0249    1.1720    0.9355    2.2111    0.3479    3.1421   37.0000    8.0000 
2529.6876    8.5000    8.4576   -0.1619   84.2330   76.5993   10.1674    0.0246    0.9831    0.9018    2.2023    0.3498    3.1593   37.0000    8.0000 
2529.8400    8.5000    8.4350   -0.0230   88.3393   75.3318   10.3492    0.0235    1.0863    0.8961    2.1922    0.3809    3.1330   37.0000    8.0000 
2529.9924    8.5000    8.4350    0.6783   87.0898   80.3774   11.3209    0.0246    0.7844    0.9399    2.1784    0.3762    3.0879   37.0000    8.0000 
2530.1448    8.5000    8.4463    1.3796   84.7593   81.4444   11.6526    0.0247    0.9354    0.9114    2.1632    0.4099    3.0351   37.0000    8.0000 
2530.2972    8.5000    8.4576    1.2685   86.0577   80.0832   10.9551    0.0251    0.6266    0.9244    2.1505    0.3927    2.9948   37.0000    8.0000 
2530.4496    8.5000    8.4463    0.5323   84.3106   78.1002   10.2270    0.0253    0.5706    0.8619    2.1386    0.4049    2.9961   37.0000    8.0000 
2530.6020    8.5000    8.4350    0.2336   83.0632   79.6426   10.6006    0.0255    0.2290    0.8168    2.1367    0.3947    3.0242   37.0000    8.0000 
2530.7544    8.5000    8.4350    0.1849   76.2159   80.5774   10.4060    0.0263    0.0375    0.8041    2.1327    0.4264    3.0804   37.0000    8.0000 
2530.9068    8.5000    8.4350    0.0738   75.0803   82.5822   10.5265    0.0272   -0.2606    0.7969    2.1381    0.4319    3.1105   37.0000    8.0000 
2531.0592    8.5000    8.4576    0.0251   71.9995   84.9746   11.2517    0.0273   -0.7307    0.7931    2.1437    0.4245    3.1179   37.0000    8.0000 
2531.2116    8.5000    8.4350    0.7264   74.6630   82.3497   10.6464    0.0269   -0.5691    0.8034    2.1518    0.4465    3.0997   37.0000    8.0000 
2531.3640    8.5000    8.4350    1.3653   73.5790   78.5831   10.0918    0.0258   -0.5830    0.8086    2.1532    0.4349    3.0824   37.0000    8.0000 
2531.5164    8.5000    8.4350    1.0666   74.2449   77.9881   10.2035    0.0253   -0.6731    0.8183    2.1529    0.4221    3.0642   37.0000    8.0000 
2531.6688    8.5000    8.4576    1.2679   73.2461   78.0078   10.0224    0.0256   -0.3683    0.8204    2.1507    0.3793    3.0612   37.0000    8.0000 
2531.8212    8.5000    8.4425    1.1567   70.2497   78.9774   10.1180    0.0259   -0.4179    0.8240    2.1452    0.4020    3.0854   37.0000    8.0000 
2531.9736    8.5000    8.4350    1.0456   69.7820   76.5118    9.9266    0.0249   -0.0776    0.8252    2.1444    0.4123    3.1016   37.0000    8.0000 
2532.1260    8.5000    8.4350    0.6219   70.2259   77.0807   10.2638    0.0247    0.0046    0.8239    2.1460    0.3985    3.1061   37.0000    8.0000 
2532.2784    8.5000    8.4425    0.3857   71.6686   75.1372   10.0117    0.0240    0.4084    0.8120    2.1541    0.3911    3.0889   37.0000    8.0000 
2532.4308    8.5000    8.4425    0.0245   70.7817   76.3060   10.5748    0.0237    0.3984    0.8078    2.1559    0.4127    3.0998   37.0000    8.0000 
2532.5832    8.5000    8.4350    0.2259   73.6671   72.4085    9.8963    0.0227    0.6445    0.8112    2.1560    0.4470    3.1120   37.0000    8.0000 
2532.7356    8.5000    8.4425   -0.0728   75.5538   69.4056    9.4435    0.0219    0.5868    0.8201    2.1507    0.4460    3.1376   37.0000    8.0000 
2532.8880    8.5000    8.4576   -0.7465   75.0218   68.6016    9.4622    0.0214    0.4322    0.8218    2.1491    0.4278    3.1482   37.0000    8.0000 
2533.0404    8.5000    8.4576   -0.4826   71.1375   67.3543    8.9391    0.0216    0.5454    0.8183    2.1528    0.4046    3.1440   37.0000    8.0000 
2533.1928    8.5000    8.4501    0.4687   68.9179   67.9203    7.9919    0.0235    0.6282    0.8256    2.1587    0.4086    3.1428   37.0000    8.0000 
2533.3452    8.5000    8.4425    1.3575   72.6912   68.4394    8.1565    0.0235    0.4453    0.8340    2.1613    0.4206    3.1553   37.0000    8.0000 
2533.4976    8.5000    8.4576    1.9338   70.8937   66.7510    8.1175    0.0227    0.4268    0.8405    2.1592    0.4149    3.2023   37.0000    8.0000 
2533.6500    8.5000    8.4501    2.0102   67.6754   68.7219    8.5017    0.0231    0.0673    0.8433    2.1622    0.4204    3.2484   37.0000    8.0000 
2533.8024    8.5000    8.4576    1.3365   61.8841   67.0020    8.2771    0.0225   -0.0314    0.8487    2.1652    0.4054    3.3102   37.0000    8.0000 
2533.9548    8.5000    8.4576    1.1003   61.7949   67.3612    7.8323    0.0235   -0.1475    0.8702    2.1691    0.4299    3.3606   37.0000    8.0000 
2534.1072    8.5000    8.4350    1.0517   67.3439   67.1413    7.5067    0.0239    0.0012    0.8821    2.1695    0.4045    3.3915   37.0000    8.0000 
2534.2596    8.5000    8.4425    1.1280   71.4704   70.9518    8.2444    0.0247   -0.1705    0.8836    2.1764    0.3931    3.3589   37.0000    8.0000 
2534.4120    8.5000    8.4463    1.0168   76.1316   72.7487    8.2711    0.0257   -0.1342    0.8720    2.1780    0.3906    3.3201   37.0000    8.0000 
2534.5644    8.5000    8.4350    0.9056   78.3511   72.5582    8.4185    0.0253   -0.3574    0.8638    2.1830    0.4171    3.2828   37.0000    8.0000 
2534.7168    8.5000    8.4350    0.6070   78.3511   73.1532    8.7396    0.0251   -0.3334    0.8682    2.1812    0.4432    3.2800   37.0000    8.0000 
2534.8692    8.5000    8.4576   -0.0042   76.8835   73.6113    9.0721    0.0248   -0.2338    0.8687    2.1871    0.4296    3.2720   37.0000    8.0000 
2535.0216    8.5000    8.4576   -0.6779   76.4396   75.3449    9.3485    0.0253   -0.3879    0.8761    2.1899    0.4291    3.2667   37.0000    8.0000 
2535.1740    8.5000    8.4350   -0.6640   77.2457   73.7368    8.7946    0.0253   -0.3124    0.8837    2.1955    0.4302    3.2529   37.0000    8.0000 
2535.3264    8.5000    8.4576    0.2873   75.5797   71.2085    8.5993    0.0243    0.1030    0.8773    2.1967    0.4099    3.2367   37.0000    8.0000 
2535.4788    8.5000    8.4350   -0.0114   73.9150   72.7615    8.6851    0.0250    0.2043    0.8784    2.1941    0.3966    3.2223   37.0000    8.0000 
2535.6312    8.5000    8.4425   -0.4976   73.5582   76.9038    9.4876    0.0259    0.1460    0.8853    2.1872    0.3999    3.2322   37.0000    8.0000 
2535.7836    8.5000    8.4425   -0.7337   73.0068   78.5807   10.0283    0.0259    0.1842    0.8709    2.1828    0.4138    3.2554   37.0000    8.0000 
2535.9360    8.5000    8.4425   -1.2824   74.6715   76.4772    9.4876    0.0256    0.4100    0.8435    2.1823    0.3971    3.2906   37.0000    8.0000 
2536.0884    8.5000    8.4501   -1.5186   74.5552   71.9673    9.1203    0.0238    0.4067    0.8301    2.1866    0.3963    3.3205   37.0000    8.0000 
