~VERSION INFORMATION
 VERS.                 2.0:   CWLS LOG ASCII STANDARD - VERSION 2.0
 WRAP.                  NO:   SINGLE LINE PER DEPTH STEP
 CREA.                 15/01/2018 11:41:51
#CREATED USING DSPetro VERSION 5000.10.1.3 BY H191660 ON 15/01/2018 11:41:51
~WELL INFORMATION
#MNEM.UNIT       DATA                          DESCRIPTION MNEMONIC
#---------      ---------------------------   --------------------------
 STRT    .M         0.0000                    : START DEPTH
 STOP    .M         3500.0184                 : STOP DEPTH
 STEP    .M         0.1524                    : STEP VALUE
 NULL    .      -999.0000                     : NULL VALUE
 DATE    .      15/01/2018                    : LAS file Creation Date
 WELL .      2612_Pluto-1                : Well Name
 COMP .      Neftex Exploration Insights : Company
 FLD  .      PLUTO                       : Field
 UWI  .      ZAUWL_007298                : Unique Well Identifier (UWI)
 LOC  .                                  : Location
 RWS  .      -999                        : Def_Rw
 WST  .      -999                        : Def_Rwt
 SRVC .                                  : Contractor
~CURVE INFORMATION
#MNEM              UNIT       API CODE   Curve Type Comments
#----------  --------------- ----------  ---------- -----------
 DEPTH      .M                         : Depth       
 BS         .in                        : BitSize     
 CAL_INCH   .inch                      : caliper     Caliper Log - A representation of the measured diameter of a borehole along its depth
 SP_MV1     .mv                        : SP          Spontaneous Potential - Records the electrical potential produced by the interaction of formation water, conductive drilling mud, and certain ion-sele
 GR_API     .API                       : gammaRay    Gamma Ray (API) - Measures the intensity of natural gamma-ray radiation emitted from formations containing radioactive elements, such as K, Th and U
 GRC_API    .API                       : gammaRay    Borehole Corrected Gamma Ray - Log calibrated to account for borehole effects that could disrupt the gamma response
 TH_PPM     .ppm                       : spectral    Thorium Abundance (SGR) - The quantitative elemental abundace of Thorium derived from the Spectral Gamma Ray Log
 K_%        .PC                        : spectral    Potassium Abundance (SGR) - The quantitative elemental abundace of Potassium derived from the Spectral Gamma Ray Log. Also wt_%
 U_PPM      .ppm                       : Spectral    Uranium Abundance (SGR) - The quantitative elemental abundace of Uranium derived from the Spectral Gamma Ray Log
 RES_OHMM   .ohmm                      : deepRes     Unspecified Resistivity Log - No accroynm or method of attainment is specified - units of ohmm
 RHOB_G_CC  .g/cc                      : density     Bulk Density - Measures the density of bulk material, including any void space or other materials contained in the subject volume
 NPHI_v/v   .ratio                     : neutron     Neutron Porosity - Measured with an neutron logging device calibrated to a given matrix (limestone, sandstone and dolomite)
 PEF_B_E    .b/e-                      : PEF         Photoelectric Factor - A log of photoelectric absorption properties. Often expressed in an approximation unit barns/electron (b/e-)
 LITH       .                          : LITH        Lithology Curve
 LITH_v2    .                          : LITH        Lithology Curve
~A  DEPTH     BS     CAL_INCH   SP_MV1    GR_API   GRC_API    TH_PPM     K_%      U_PPM    RES_OHMM RHOB_G_C~  NPHI_v/v  PEF_B_E     LITH    LITH_v2  
# ...
2980.4868    8.5000    8.3446   10.2848  124.2530  108.7350   16.5506    0.0312    1.8070   10.0551    2.1837    0.2131    3.2423   31.0000   31.0000 
2980.6392    8.5000    8.3333   10.2469  120.3012  110.2915   16.5999    0.0320    1.5179   10.2863    2.1938    0.2145    3.2083   31.0000   31.0000 
2980.7916    8.5000    8.3672   10.0841  116.5279  104.8668   15.4111    0.0311    1.4349    9.6109    2.2090    0.2210    3.1795   31.0000   31.0000 
2980.9440    8.5000    8.3295    9.3588  100.8799   91.0820   13.1736    0.0273    1.3232   12.2252    2.2080    0.1971    3.1528   31.0000   31.0000 
2981.0964    8.5000    8.3220    9.1334   88.4367   79.5522   11.3001    0.0242    0.9484   17.0801    2.1646    0.1678    3.1591   31.0000   31.0000 
2981.2488    8.5000    8.3145   10.4706   71.2350   69.4195    9.5985    0.0216    0.7598   18.8201    2.1025    0.1289    3.1564   31.0000   31.0000 
2981.4012    8.5000    8.3220   10.8703   64.5762   62.7821    8.5451    0.0198    0.3697   22.4512    2.0448    0.1044    3.1721   31.0000   31.0000 
2981.5536    8.5000    8.3220   10.7074   59.9286   67.0444    8.7953    0.0217    0.4610   26.1134    2.0336    0.1106    3.1466   31.0000   31.0000 
2981.7060    8.5000    8.3220   10.1071   75.7047   82.9754   11.1755    0.0263    0.4427   13.1310    2.0757    0.1558    3.1216   31.0000   31.0000 
2981.8584    8.5000    8.3107   10.7568   97.4566  105.4370   14.4196    0.0331    0.3148   10.2371    2.1477    0.2138    3.1091   31.0000   31.0000 
2982.0108    8.5000    8.3446   10.5314  119.4304  111.1089   14.9328    0.0353    0.6182    9.2554    2.1837    0.2398    3.1660   31.0000   31.0000 
2982.1632    8.5000    8.3107   10.1186  119.1914  109.9325   14.4667    0.0354    0.6914    8.3274    2.1693    0.2341    3.2668   31.0000   31.0000 
2982.3156    8.5000    8.3069   10.5183  111.8668  106.4955   13.8103    0.0347    0.8767    7.6481    2.1445    0.2301    3.3389   31.0000   31.0000 
2982.4680    8.5000    8.3069   10.0429  106.2811  108.1919   14.3804    0.0346    1.0943    6.9853    2.1763    0.2443    3.3596   31.0000   31.0000 
2982.6204    8.5000    8.2994    9.3176  109.2775  105.2170   14.2497    0.0332    0.9994    6.8724    2.2194    0.2491    3.5056   31.0000   31.0000 
2982.7728    8.5000    8.2919    9.5923  104.3944   96.8359   12.9050    0.0309    1.1714    7.3212    2.2531    0.2433    3.8208   37.0000    7.0000 
2982.9252    8.5000    8.3220    9.8669  102.7899   91.9491   11.9540    0.0299    1.2813    7.0279    2.2660    0.2443    4.1143   37.0000    7.0000 
2983.0776    8.5000    8.2881    9.7041  105.4124   98.0455   12.7511    0.0319    1.6577    6.5729    2.2745    0.2640    4.1446   37.0000    7.0000 
2983.2300    8.5000    8.2843    8.9788  116.8433  108.1001   14.2244    0.0349    1.5054    5.9695    2.2682    0.2678    3.9127   37.0000    7.0000 
2983.3824    8.5000    8.2843    7.1909  124.4774  112.4496   14.3108    0.0371    1.7169    5.3828    2.2524    0.2756    3.6217   37.0000    7.0000 
2983.5348    8.5000    8.2994    7.0906  121.2623  105.2844   13.3387    0.0348    1.3590    5.7933    2.2268    0.2584    3.4347   37.0000    7.0000 
2983.6872    8.5000    8.3220    7.1153  115.7287   97.0132   12.9840    0.0309    1.3771    5.9777    2.1896    0.2401    3.3616   31.0000   31.0000 
2983.8396    8.5000    8.2994    7.0149  106.2955   86.6443   11.9444    0.0270    1.3449    5.7885    2.1584    0.2202    3.3220   31.0000   31.0000 
2983.9920    8.5000    8.2919    6.3521  102.5260   89.4554   12.9161    0.0269    1.2749    6.3005    2.1558    0.1969    3.2849   31.0000   31.0000 
2984.1444    8.5000    8.2768    5.2518  105.0631   96.9816   13.8689    0.0294    1.6264    5.5054    2.2105    0.1962    3.1693   31.0000   31.0000 
2984.2968    8.5000    8.2994    4.0264  115.9009  107.1962   14.9798    0.0331    2.1587    4.4498    2.2946    0.2121    3.0216   37.0000    7.0000 
2984.4492    8.5000    8.4350    4.3011  128.3645  116.0688   16.3000    0.0357    2.3239    5.2432    2.3734    0.2375    2.8861   37.0000    7.0000 
2984.6016    8.5000    8.4350    3.3258  136.1987  119.7286   17.7181    0.0353    2.1691    5.0834    2.4128    0.2612    2.9096   37.0000    7.0000 
2984.7540    8.5000    8.4350    2.9754  138.5673  117.8337   17.9346    0.0338    2.0898    4.7573    2.4016    0.2603    3.1152   37.0000    7.0000 
2984.9064    8.5000    8.4199    3.0626  137.4990  117.1209   17.9065    0.0335    2.6594    4.2958    2.3802    0.2622    3.2907   37.0000    7.0000 
2985.0588    8.5000    8.3898    3.5248  139.0981  122.2320   19.1462    0.0342    2.4988    3.0179    2.3546    0.2769    3.3301   37.0000    7.0000 
2985.2112    8.5000    8.3333    3.1119  140.6037  128.8282   20.3772    0.0357    2.6198    3.6851    2.3574    0.3069    3.1737   37.0000    7.0000 
2985.3636    8.5000    8.4350    2.1366  146.5552  130.5027   19.9763    0.0373    2.3403    5.3453    2.3718    0.3311    2.9934   37.0000    7.0000 
2985.5160    8.5000    8.4275    1.4738  151.2163  126.6534   19.4686    0.0361    2.0868    5.1315    2.3809    0.3293    2.8500   37.0000    7.0000 
2985.6684    8.5000    8.4275    3.9984  141.9421  116.5302   17.4016    0.0340    1.9895    5.3861    2.3582    0.2815    2.8017   37.0000    7.0000 
2985.8208    8.5000    8.4124    5.0231  127.1506  110.4603   16.7370    0.0319    1.3526    3.7335    2.3326    0.2387    2.7974   37.0000    7.0000 
2985.9732    8.5000    8.3107    5.6728  115.7197  111.7848   17.1548    0.0319    0.8671    2.8138    2.3367    0.2212    2.8102   37.0000    7.0000 
2986.1256    8.5000    8.3672    5.6349  120.9358  112.7366   17.7380    0.0314    0.6382    3.9813    2.3668    0.2284    2.8297   37.0000    7.0000 
2986.2780    8.5000    8.3597    4.1239  125.7392  113.0764   17.4356    0.0321    0.7470    3.9489    2.3815    0.2510    2.8717   37.0000    7.0000 
2986.4304    8.5000    8.3446    5.7711  129.1795  117.5357   18.1620    0.0333    0.4813    3.1223    2.3915    0.2479    2.8829   37.0000    7.0000 
2986.5828    8.5000    8.3559    2.4184  131.3358  124.0822   18.9933    0.0355    0.3339    3.2363    2.4076    0.2487    2.8247   37.0000    7.0000 
2986.7352    8.5000    8.4425    2.8156  137.5506  128.5980   19.2096    0.0376    0.4449    4.0486    2.4303    0.2580    2.7550   37.0000    7.0000 
2986.8876    8.5000    8.4576    2.5253  141.1019  131.0065   19.5596    0.0383    0.4902    4.8920    2.4380    0.2824    2.7457   37.0000    7.0000 
2987.0400    8.5000    8.4576    3.6100  138.3908  131.7705   20.0592    0.0378    0.3184    4.7170    2.4313    0.2933    2.8376   37.0000    7.0000 
2987.1924    8.5000    8.4237    3.8197  127.3725  121.5805   18.3793    0.0351    0.4662    3.3212    2.4421    0.2650    3.0739   37.0000    7.0000 
2987.3448    8.5000    8.3898    7.5294  115.7197  110.1943   16.8475    0.0315    0.7078    3.4030    2.4838    0.2520    3.4919   37.0000    7.0000 
2987.4972    8.5000    8.3446    8.6766  111.1696  105.1866   15.9340    0.0303    0.8968    3.5635    2.5157    0.2555    3.9612   37.0000    7.0000 
2987.6496    8.5000    8.3672    9.5738  117.0828  108.8077   16.2255    0.0318    1.1505    3.2293    2.4863    0.2703    4.2561   37.0000    7.0000 
2987.8020    8.5000    8.3521    8.7835  121.8549  114.4856   16.5164    0.0344    1.6136    3.2553    2.4081    0.2590    4.1611   37.0000    7.0000 
2987.9544    8.5000    8.3220    9.0557  131.2547  119.5327   17.1230    0.0362    1.5299    3.2262    2.3430    0.2685    3.8946   37.0000    7.0000 
2988.1068    8.5000    8.3107    8.2654  132.4754  119.7175   16.6006    0.0372    1.9599    2.9338    2.3305    0.2826    3.6125   37.0000    7.0000 
2988.2592    8.5000    8.3446    8.2876  132.6974  118.3798   16.8340    0.0360    1.6931    3.5845    2.3336    0.2860    3.4667   37.0000    7.0000 
2988.4116    8.5000    8.3785    9.0598  127.2928  116.6792   16.7741    0.0352    1.6912    3.8836    2.3211    0.2671    3.3196   37.0000    7.0000 
