~VERSION INFORMATION
 VERS.                 2.0:   CWLS LOG ASCII STANDARD - VERSION 2.0
 WRAP.                  NO:   SINGLE LINE PER DEPTH STEP
 CREA.                 15/01/2018 11:41:51
#CREATED USING DSPetro VERSION 5000.10.1.3 BY H191660 ON 15/01/2018 11:41:51
~WELL INFORMATION
#MNEM.UNIT       DATA                          DESCRIPTION MNEMONIC
#---------      ---------------------------   --------------------------
 STRT    .M         0.0000                    : START DEPTH
 STOP    .M         3500.0184                 : STOP DEPTH
 STEP    .M         0.1524                    : STEP VALUE
 NULL    .      -999.0000                     : NULL VALUE
 DATE    .      15/01/2018                    : LAS file Creation Date
 WELL .      2612_Pluto-1                : Well Name
 COMP .      Neftex Exploration Insights : Company
 FLD  .      PLUTO                       : Field
 UWI  .      ZAUWL_007298                : Unique Well Identifier (UWI)
 LOC  .                                  : Location
 RWS  .      -999                        : Def_Rw
 WST  .      -999                        : Def_Rwt
 SRVC .                                  : Contractor
~CURVE INFORMATION
#MNEM              UNIT       API CODE   Curve Type Comments
#----------  --------------- ----------  ---------- -----------
 DEPTH      .M                         : Depth       
 BS         .in                        : BitSize     
 CAL_INCH   .inch                      : caliper     Caliper Log - A representation of the measured diameter of a borehole along its depth
 SP_MV1     .mv                        : SP          Spontaneous Potential - Records the electrical potential produced by the interaction of formation water, conductive drilling mud, and certain ion-sele
 GR_API     .API                       : gammaRay    Gamma Ray (API) - Measures the intensity of natural gamma-ray radiation emitted from formations containing radioactive elements, such as K, Th and U
 GRC_API    .API                       : gammaRay    Borehole Corrected Gamma Ray - Log calibrated to account for borehole effects that could disrupt the gamma response
 TH_PPM     .ppm                       : spectral    Thorium Abundance (SGR) - The quantitative elemental abundace of Thorium derived from the Spectral Gamma Ray Log
 K_%        .PC                        : spectral    Potassium Abundance (SGR) - The quantitative elemental abundace of Potassium derived from the Spectral Gamma Ray Log. Also wt_%
 U_PPM      .ppm                       : Spectral    Uranium Abundance (SGR) - The quantitative elemental abundace of Uranium derived from the Spectral Gamma Ray Log
 RES_OHMM   .ohmm                      : deepRes     Unspecified Resistivity Log - No accroynm or method of attainment is specified - units of ohmm
 RHOB_G_CC  .g/cc                      : density     Bulk Density - Measures the density of bulk material, including any void space or other materials contained in the subject volume
 NPHI_v/v   .ratio                     : neutron     Neutron Porosity - Measured with an neutron logging device calibrated to a given matrix (limestone, sandstone and dolomite)
 PEF_B_E    .b/e-                      : PEF         Photoelectric Factor - A log of photoelectric absorption properties. Often expressed in an approximation unit barns/electron (b/e-)
 LITH       .                          : LITH        Lithology Curve
 LITH_v2    .                          : LITH        Lithology Curve
~A  DEPTH     BS     CAL_INCH   SP_MV1    GR_API   GRC_API    TH_PPM     K_%      U_PPM    RES_OHMM RHOB_G_C~  NPHI_v/v  PEF_B_E     LITH    LITH_v2  
# ...
1155.0396   12.2500    4.2046 -379.8084   31.5802   19.7782    0.8352    0.0094    0.6243    0.0164    2.1917    0.9347   10.0000 -999.0000 -999.0000 
1155.1920   12.2500    4.2272 -380.9334   34.3838   19.6688    0.8199    0.0093    0.6199    0.0170    2.1790    0.9555   10.0000 -999.0000 -999.0000 
1155.3444   12.2500    4.2046 -382.4334   32.7241   21.1094    0.8412    0.0101    0.5468    0.0136    2.1473    0.9845   10.0000 -999.0000 -999.0000 
1155.4968   12.2500    4.2272 -383.5584   37.1610   21.8651    0.9939    0.0102    0.6083    0.0144    2.1161    0.7948   10.0000 -999.0000 -999.0000 
1155.6492   12.2500    4.2272 -383.9959   33.8250   21.8292    1.0968    0.0101    0.7563    0.0095    2.1259    0.7472   10.0000 -999.0000 -999.0000 
1155.8016   12.2500    4.2046 -383.8084   32.9951   21.8473    1.2539    0.0098    1.0681    0.0119    2.1197    0.5981   10.0000 -999.0000 -999.0000 
1155.9540   12.2500    4.2046 -383.9334   34.6590   20.8504    1.2820    0.0092    1.4609    0.0124    2.1067    0.6532   10.0000 -999.0000 -999.0000 
1156.1064   12.2500    4.2046 -384.4959   36.5914   19.1963    1.2541    0.0083    1.7867    0.0124    2.0730    0.7913   10.0000 -999.0000 -999.0000 
1156.2588   12.2500    4.2272 -384.4959   34.6331   16.7669    1.3025    0.0069    1.9792    0.0118    2.1009    0.9804   10.0000 -999.0000 -999.0000 
1156.4112   12.2500    4.2046 -384.3084   31.3638   14.8928    1.1004    0.0063    2.1056    0.0115    2.1247    0.9175   10.0000 -999.0000 -999.0000 
1156.5636   12.2500    4.2046 -383.4959   27.1990   13.8472    1.0007    0.0059    2.3249    0.0116    2.1337    0.8100   10.0000 -999.0000 -999.0000 
1156.7160   12.2500    4.2046 -382.8709   30.5707   12.6280    0.8069    0.0055    2.5600    0.0123    2.1582    0.7302   10.0000 -999.0000 -999.0000 
1156.8684   12.2500    4.2046 -382.6209   30.5269   12.4178    0.8926    0.0053    2.6050    0.0115    2.1692    0.9064   10.0000 -999.0000 -999.0000 
1157.0208   12.2500    4.2272 -382.1834   33.2917   12.5237    1.0735    0.0050    2.4577    0.0107    2.2051    0.9210   10.0000 -999.0000 -999.0000 
1157.1732   12.2500    4.2046 -381.4959   36.9164   13.7225    1.1348    0.0056    2.1183    0.0116    2.1901    0.9395   10.0000 -999.0000 -999.0000 
1157.3256   12.2500    4.2046 -380.9334   34.6834   15.1491    1.1438    0.0063    1.7171    0.0135    2.1997    0.7253   10.0000 -999.0000 -999.0000 
1157.4780   12.2500    4.2046 -380.4959   37.4565   17.4890    1.2400    0.0074    1.3358    0.0140    2.1896    0.7493   10.0000 -999.0000 -999.0000 
1157.6304   12.2500    4.2046 -379.8709   34.9576   20.2742    1.4310    0.0086    0.9182    0.0139    2.1817    0.6609   10.0000 -999.0000 -999.0000 
1157.7828   12.2500    4.2272 -379.7459   37.1761   23.1241    1.6765    0.0098    0.4928    0.0126    2.1790    0.6362   10.0000 -999.0000 -999.0000 
1157.9352   12.2500    4.2272 -378.9959   33.2938   25.1811    1.6080    0.0110    0.3299    0.0125    2.2139    0.6487   10.0000 -999.0000 -999.0000 
1158.0876   12.2500    4.2046 -378.1834   28.2960   24.8202    1.4723    0.0110    0.3505    0.0125    2.2456    0.7311   10.0000 -999.0000 -999.0000 
1158.2400   12.2500    4.2272 -378.1834   27.1867   24.6929    1.3159    0.0112    0.3653    0.0119    2.2834    0.7550   10.0000 -999.0000 -999.0000 
1158.3924   12.2500    4.2272 -378.4959   25.5229   23.1802    1.1597    0.0107    0.2506    0.0120    2.3067    0.7980   10.0000 -999.0000 -999.0000 
1158.5448   12.2500    4.2046 -380.0584   28.0218   23.8005    1.0909    0.0111    0.1793    0.0125    2.3260    0.6435   10.0000 -999.0000 -999.0000 
1158.6972   12.2500    4.2046 -381.9334   31.3495   23.2037    0.9276    0.0111    0.2943    0.0141    2.2983    0.6512   10.0000 -999.0000 -999.0000 
1158.8496   12.2500    4.2046 -383.9334   34.6897   24.7178    0.8155    0.0121    0.4340    0.0149    2.2339    0.5372   10.0000 -999.0000 -999.0000 
1159.0020   12.2500    4.2272 -384.8084   37.1719   24.3106    0.6528    0.0122    0.5888    0.0151    2.1772    0.7147   10.0000 -999.0000 -999.0000 
1159.1544   12.2500    4.2046 -385.2459   33.2648   24.0095    0.4352    0.0124    0.7206    0.0130    2.1503    0.6572   10.0000 -999.0000 -999.0000 
1159.3068   12.2500    4.2046 -385.6834   36.0573   21.6812    0.2118    0.0115    0.7283    0.0126    2.1615    0.5623   10.0000 -999.0000 -999.0000 
1159.4592   12.2500    4.2046 -385.9334   32.1750   20.0509   -0.0125    0.0110    0.8097    0.0114    2.1715    0.4924   10.0000 -999.0000 -999.0000 
1159.6116   12.2500    4.2046 -385.6834   41.3034   21.1390   -0.0263    0.0116    0.7043    0.0077    2.1836    0.7950   10.0000 -999.0000 -999.0000 
1159.7640   12.2500    4.2272 -384.9334   41.2715   23.5332   -0.0042    0.0129    0.7060    0.0134    2.1856    0.8712   10.0000 -999.0000 -999.0000 
1159.9164   12.2500    4.2272 -384.3084   41.8386   25.5630    0.0401    0.0139    0.6516    0.0122    2.1839    1.0054   10.0000 -999.0000 -999.0000 
1160.0688   12.2500    4.2046 -383.4959   34.9535   24.8972    0.0699    0.0135    0.6380    0.0122    2.1854    0.8492   10.0000 -999.0000 -999.0000 
1160.2212   12.2500    4.2046 -382.6834   33.8442   24.2666    0.0512    0.0132    0.5965    0.0127    2.1900    0.7986   10.0000 -999.0000 -999.0000 
1160.3736   12.2500    4.2272 -381.8709   37.1761   25.2559    0.4253    0.0131    0.4071    0.0132    2.1969    0.7682   10.0000 -999.0000 -999.0000 
1160.5260   12.2500    4.2272 -380.5584   41.6130   26.7089    0.8094    0.0132    0.2500    0.0135    2.2019    0.6874   10.0000 -999.0000 -999.0000 
1160.6784   12.2500    4.2046 -379.0584   43.2935   27.9116    1.2415    0.0131    0.0818    0.0126    2.1888    0.7740   10.0000 -999.0000 -999.0000 
1160.8308   12.2500    4.2046 -378.2459   42.1676   27.3533    1.2792    0.0128    0.0417    0.0130    2.1712    0.7367   10.0000 -999.0000 -999.0000 
1160.9832   12.2500    4.2272 -377.3709   33.2938   28.1037    1.3119    0.0131    0.0014    0.0138    2.1428    0.7669   10.0000 -999.0000 -999.0000 
1161.1356   12.2500    4.2272 -376.3084   37.4586   29.2995    1.3693    0.0137   -0.1091    0.0201    2.1455    0.7380   10.0000 -999.0000 -999.0000 
1161.2880   12.2500    4.2272 -375.1209   40.2317   30.1471    1.4529    0.0140   -0.1163    0.0151    2.1616    0.6465   10.0000 -999.0000 -999.0000 
1161.4404   12.2500    4.2046 -374.0584   46.6274   28.4945    1.3638    0.0132   -0.0525    0.0167    2.1928    0.6852   10.0000 -999.0000 -999.0000 
1161.5928   12.2500    4.2272 -373.4959   41.3368   27.7614    1.3034    0.0129    0.0561    0.0125    2.1985    0.7973   10.0000 -999.0000 -999.0000 
1161.7452   12.2500    4.2046 -373.6209   37.4544   27.1879    1.2214    0.0128    0.1086    0.0090    2.1881    0.7516   10.0000 -999.0000 -999.0000 
1161.8976   12.2500    4.2046 -374.8084   39.1204   28.2383    1.4224    0.0130    0.2071    0.0153    2.1654    0.6952   10.0000 -999.0000 -999.0000 
1162.0500   12.2500    4.2046 -376.2459   39.6750   27.4086    1.2172    0.0129    0.4849    0.0166    2.1498    0.5722   10.0000 -999.0000 -999.0000 
1162.2024   12.2500    4.2046 -377.3709   41.9101   26.8095    0.9953    0.0129    0.7491    0.0140    2.1595    0.6851   10.0000 -999.0000 -999.0000 
1162.3548   12.2500    4.2272 -377.6209   34.9576   24.8475    0.5061    0.0127    1.0386    0.0094    2.1689    0.6258   10.0000 -999.0000 -999.0000 
1162.5072   12.2500    4.2272 -377.5584   28.8568   22.3754    0.4135    0.0115    1.0801    0.0114    2.1685    0.5993   10.0000 -999.0000 -999.0000 
1162.6596   12.2500    4.2046 -377.5584   25.5249   19.3963    0.3537    0.0100    1.1743    0.0119    2.1575    0.5368   10.0000 -999.0000 -999.0000 
1162.8120   12.2500    4.2272 -377.8709   31.6257   17.9406    0.5294    0.0089    1.0155    0.0112    2.1520    0.5607   10.0000 -999.0000 -999.0000 
1162.9644   12.2500    4.2272 -377.8709   38.2480   19.1130    0.9682    0.0088    1.0262    0.0118    2.1459    0.5955   10.0000 -999.0000 -999.0000 
