~VERSION INFORMATION
 VERS.                 2.0:   CWLS LOG ASCII STANDARD - VERSION 2.0
 WRAP.                  NO:   SINGLE LINE PER DEPTH STEP
 CREA.                 15/01/2018 11:41:51
#CREATED USING DSPetro VERSION 5000.10.1.3 BY H191660 ON 15/01/2018 11:41:51
~WELL INFORMATION
#MNEM.UNIT       DATA                          DESCRIPTION MNEMONIC
#---------      ---------------------------   --------------------------
 STRT    .M         0.0000                    : START DEPTH
 STOP    .M         3500.0184                 : STOP DEPTH
 STEP    .M         0.1524                    : STEP VALUE
 NULL    .      -999.0000                     : NULL VALUE
 DATE    .      15/01/2018                    : LAS file Creation Date
 WELL .      2612_Pluto-1                : Well Name
 COMP .      Neftex Exploration Insights : Company
 FLD  .      PLUTO                       : Field
 UWI  .      ZAUWL_007298                : Unique Well Identifier (UWI)
 LOC  .                                  : Location
 RWS  .      -999                        : Def_Rw
 WST  .      -999                        : Def_Rwt
 SRVC .                                  : Contractor
~CURVE INFORMATION
#MNEM              UNIT       API CODE   Curve Type Comments
#----------  --------------- ----------  ---------- -----------
 DEPTH      .M                         : Depth       
 BS         .in                        : BitSize     
 CAL_INCH   .inch                      : caliper     Caliper Log - A representation of the measured diameter of a borehole along its depth
 SP_MV1     .mv                        : SP          Spontaneous Potential - Records the electrical potential produced by the interaction of formation water, conductive drilling mud, and certain ion-sele
 GR_API     .API                       : gammaRay    Gamma Ray (API) - Measures the intensity of natural gamma-ray radiation emitted from formations containing radioactive elements, such as K, Th and U
 GRC_API    .API                       : gammaRay    Borehole Corrected Gamma Ray - Log calibrated to account for borehole effects that could disrupt the gamma response
 TH_PPM     .ppm                       : spectral    Thorium Abundance (SGR) - The quantitative elemental abundace of Thorium derived from the Spectral Gamma Ray Log
 K_%        .PC                        : spectral    Potassium Abundance (SGR) - The quantitative elemental abundace of Potassium derived from the Spectral Gamma Ray Log. Also wt_%
 U_PPM      .ppm                       : Spectral    Uranium Abundance (SGR) - The quantitative elemental abundace of Uranium derived from the Spectral Gamma Ray Log
 RES_OHMM   .ohmm                      : deepRes     Unspecified Resistivity Log - No accroynm or method of attainment is specified - units of ohmm
 RHOB_G_CC  .g/cc                      : density     Bulk Density - Measures the density of bulk material, including any void space or other materials contained in the subject volume
 NPHI_v/v   .ratio                     : neutron     Neutron Porosity - Measured with an neutron logging device calibrated to a given matrix (limestone, sandstone and dolomite)
 PEF_B_E    .b/e-                      : PEF         Photoelectric Factor - A log of photoelectric absorption properties. Often expressed in an approximation unit barns/electron (b/e-)
 LITH       .                          : LITH        Lithology Curve
 LITH_v2    .                          : LITH        Lithology Curve
~A  DEPTH     BS     CAL_INCH   SP_MV1    GR_API   GRC_API    TH_PPM     K_%      U_PPM    RES_OHMM RHOB_G_C~  NPHI_v/v  PEF_B_E     LITH    LITH_v2  
# ...
2221.2300    8.5000    8.4501    3.2131   38.0530   50.9375    2.8567    0.0230   -0.8236    0.9574    2.2471    0.3311    4.6685   18.0000   18.0000 
2221.3824    8.5000    8.4802    3.1707   38.2750   50.1981    3.1640    0.0221   -0.8181    1.0758    2.2380    0.3302    4.9412   18.0000   18.0000 
2221.5348    8.5000    8.4727    3.5032   39.0385   48.7128    2.9094    0.0217   -0.7681    1.0228    2.2236    0.3470    5.2619   22.0000   18.0000 
2221.6872    8.5000    8.4651    3.8358   40.5532   47.2309    2.4895    0.0216   -0.7591    0.9753    2.2404    0.3394    5.3180   22.0000   18.0000 
2221.8396    8.5000    8.4802    4.2933   43.0054   48.3276    2.4250    0.0223   -0.8686    0.9570    2.2379    0.3634    5.0660   22.0000   18.0000 
2221.9920    8.5000    8.4802    4.4384   44.1285   51.4038    2.5748    0.0237   -1.0867    0.9146    2.2371    0.3901    4.7331   22.0000   22.0000 
2222.1444    8.5000    8.4651    5.6459   41.6186   48.4328    2.5265    0.0222   -0.9247    0.8668    2.2227    0.3825    4.5414   22.0000   22.0000 
2222.2968    8.5000    8.3597    5.0410   39.1664   45.8296    2.4657    0.0209   -0.8025    0.9647    2.2384    0.3531    4.5003   22.0000   18.0000 
2222.4492    8.5000    8.3371    5.1860   36.8237   43.4352    2.2213    0.0200   -0.8229    1.0025    2.2530    0.3062    4.5010   18.0000   18.0000 
2222.6016    8.5000    8.4199    5.3311   36.8433   42.7563    1.9703    0.0200   -0.5997    0.9264    2.2408    0.3178    4.5472   18.0000   18.0000 
2222.7540    8.5000    8.3823    4.9136   37.8048   45.6159    2.1851    0.0212   -0.7308    0.8521    2.2186    0.3545    4.5836   22.0000   18.0000 
2222.9064    8.5000    8.4651    4.9337   38.4829   45.4825    2.0068    0.0215   -0.6441    0.8501    2.2007    0.3768    4.6309   22.0000   18.0000 
2223.0588    8.5000    8.4802    5.2662   39.7771   45.6401    1.6339    0.0222   -0.5440    0.9427    2.2041    0.3434    4.6511   22.0000   18.0000 
2223.2112    8.5000    8.4727    5.9113   38.4365   45.6580    1.7144    0.0221   -0.5454    0.9703    2.2133    0.3084    4.6765   18.0000   18.0000 
2223.3636    8.5000    8.4651    4.9313   38.9879   46.7536    2.1363    0.0219   -0.6747    0.9249    2.2249    0.2812    4.7235   18.0000   18.0000 
2223.5160    8.5000    8.4425    4.0139   38.5062   44.3050    2.2254    0.0204   -0.5569    0.8508    2.2521    0.2907    4.7271   18.0000   18.0000 
2223.6684    8.5000    8.4651    2.7839   42.3053   46.2696    2.5024    0.0210   -0.5747    1.2161    2.2865    0.2695    4.6605   18.0000   18.0000 
2223.8208    8.5000    8.4727    1.9290   43.7419   50.9492    3.0290    0.0227   -0.7503    1.0924    2.3038    0.2952    4.5426   18.0000   18.0000 
2223.9732    8.5000    8.4651    1.5740   47.9244   55.5233    3.1493    0.0250   -0.8879    0.8546    2.2928    0.3103    4.4281   18.0000   18.0000 
2224.1256    8.5000    8.4576    0.9691   46.9459   54.1464    3.1243    0.0243   -0.9265    0.9752    2.2657    0.3278    4.3833   22.0000   18.0000 
2224.2780    8.5000    8.4651    0.6390   46.6227   53.6215    3.2414    0.0238   -1.0767    0.9958    2.2371    0.3209    4.4189   18.0000   18.0000 
2224.4304    8.5000    8.4651    1.6884   42.6032   50.0896    2.9835    0.0223   -0.9513    0.9310    2.2185    0.3087    4.4916   18.0000   18.0000 
2224.5828    8.5000    8.4651    1.8002   38.8299   50.4397    3.1172    0.0223   -1.1190    0.9332    2.2195    0.3158    4.5435   18.0000   18.0000 
2224.7352    8.5000    8.4651    2.3496   38.9409   50.7243    3.3372    0.0221   -1.3392    1.0483    2.2327    0.3443    4.5699   22.0000   18.0000 
2224.8876    8.5000    8.4576    2.7115   36.9560   50.9464    3.3103    0.0222   -1.2811    0.9241    2.2325    0.3573    4.5862   22.0000   18.0000 
2225.0400    8.5000    8.4576    3.9483   37.5849   48.0058    2.8568    0.0214   -1.1755    0.8872    2.2162    0.3740    4.5965   22.0000   18.0000 
2225.1924    8.5000    8.4501    4.6852   31.3798   47.2599    2.9155    0.0209   -1.2353    0.9127    2.2100    0.3419    4.5689   22.0000   18.0000 
2225.3448    8.5000    8.4350    5.4846   32.5663   45.5357    2.4894    0.0207   -1.1177    0.9345    2.2189    0.3141    4.5900   18.0000   18.0000 
2225.4972    8.5000    8.4124    6.1589   32.4077   46.2080    2.2928    0.0214   -1.0541    0.8833    2.2402    0.2921    4.6390   18.0000   18.0000 
2225.6496    8.5000    8.4124    6.5833   37.4866   48.5934    2.4255    0.0224   -1.0148    0.9153    2.2546    0.2779    4.6570   18.0000   18.0000 
2225.8020    8.5000    8.4350    6.0702   37.6318   47.5885    2.4469    0.0219   -0.9883    0.9115    2.2603    0.3039    4.6223   18.0000   18.0000 
2225.9544    8.5000    8.4576    4.7445   37.9754   48.0953    2.5449    0.0220   -0.9660    0.9612    2.2505    0.3095    4.5874   18.0000   18.0000 
2226.1068    8.5000    8.4802    5.1689   36.8820   47.0583    2.4807    0.0215   -0.9734    0.9029    2.2410    0.3133    4.6031   18.0000   18.0000 
2226.2592    8.5000    8.4576    5.0933   36.9930   44.2981    2.2523    0.0204   -0.7341    0.8840    2.2457    0.3027    4.6562   18.0000   18.0000 
2226.4116    8.5000    8.4689    5.0176   35.8462   43.6307    2.0849    0.0203   -0.5922    1.0111    2.2615    0.2860    4.7117   18.0000   18.0000 
2226.5640    8.5000    8.4727    5.2545   36.6230   48.5096    2.5300    0.0222   -0.8438    1.1263    2.2662    0.3075    4.7503   18.0000   18.0000 
2226.7164    8.5000    8.4802    3.4289   38.7316   51.9567    3.1909    0.0230   -0.9909    0.9405    2.2580    0.3045    4.7231   18.0000   18.0000 
2226.8688    8.5000    8.4576    3.2907   42.0465   51.5962    3.0735    0.0230   -0.8906    0.9261    2.2427    0.3357    4.6592   22.0000   18.0000 
2227.0212    8.5000    8.4651    3.9651   40.0745   50.2955    3.4302    0.0217   -0.9508    0.9485    2.2313    0.3306    4.6031   18.0000   18.0000 
2227.1736    8.5000    8.4576    4.7020   38.2327   46.7110    3.2721    0.0200   -0.8634    0.8803    2.2229    0.3430    4.5894   22.0000   18.0000 
2227.3260    8.5000    8.4275    5.1888   37.0264   46.4538    3.1137    0.0201   -0.8816    0.9648    2.2184    0.3255    4.5884   18.0000   18.0000 
2227.4784    8.5000    8.4237    4.1132   40.0565   45.9258    2.9114    0.0202   -0.8251    0.9926    2.2141    0.3109    4.5862   18.0000   18.0000 
2227.6308    8.5000    8.4350    2.9126   41.6009   49.4739    3.1187    0.0217   -0.8758    0.8988    2.2132    0.3367    4.5419   18.0000   18.0000 
2227.7832    8.5000    8.4576    3.6494   42.6387   49.0852    3.3438    0.0211   -0.9880    0.8840    2.2046    0.3785    4.5096   22.0000   18.0000 
2227.9356    8.5000    8.4576    4.9488   40.9022   50.4649    3.7753    0.0212   -1.1381    0.8368    2.2006    0.3907    4.4864   22.0000   22.0000 
2228.0880    8.5000    8.4651    5.3732   36.8714   47.6614    3.7295    0.0197   -1.0333    0.8201    2.2075    0.3460    4.5006   22.0000   18.0000 
2228.2404    8.5000    8.4576    5.8600   35.8365   47.8786    3.7261    0.0198   -1.0625    0.8906    2.2275    0.3198    4.5437   18.0000   18.0000 
2228.3928    8.5000    8.4350    4.2219   36.6234   47.4033    3.4601    0.0200   -1.0300    0.9197    2.2471    0.3191    4.5995   18.0000   18.0000 
2228.5452    8.5000    8.4501    3.6463   39.0649   49.2556    3.6210    0.0208   -1.0655    0.8669    2.2463    0.3513    4.6377   22.0000   18.0000 
2228.6976    8.5000    8.4727    3.4456   40.3938   49.0777    3.5668    0.0208   -1.1235    0.9379    2.2302    0.3561    4.6073   22.0000   18.0000 
2228.8500    8.5000    8.4727    2.3700   39.9524   49.9198    3.7770    0.0209   -1.3604    0.8813    2.2029    0.3452    4.5273   22.0000   18.0000 
2229.0024    8.5000    8.4802    2.6694   40.8270   48.0749    3.7269    0.0199   -1.3191    0.8963    2.1845    0.3276    4.4355   18.0000   18.0000 
2229.1548    8.5000    8.4651    3.5313   40.4940   50.0800    3.9937    0.0206   -1.4255    1.0041    2.1842    0.3079    4.3523   18.0000   18.0000 
