~VERSION INFORMATION
 VERS.                 2.0:   CWLS LOG ASCII STANDARD - VERSION 2.0
 WRAP.                  NO:   SINGLE LINE PER DEPTH STEP
 CREA.                 15/01/2018 11:41:51
#CREATED USING DSPetro VERSION 5000.10.1.3 BY H191660 ON 15/01/2018 11:41:51
~WELL INFORMATION
#MNEM.UNIT       DATA                          DESCRIPTION MNEMONIC
#---------      ---------------------------   --------------------------
 STRT    .M         0.0000                    : START DEPTH
 STOP    .M         3500.0184                 : STOP DEPTH
 STEP    .M         0.1524                    : STEP VALUE
 NULL    .      -999.0000                     : NULL VALUE
 DATE    .      15/01/2018                    : LAS file Creation Date
 WELL .      2612_Pluto-1                : Well Name
 COMP .      Neftex Exploration Insights : Company
 FLD  .      PLUTO                       : Field
 UWI  .      ZAUWL_007298                : Unique Well Identifier (UWI)
 LOC  .                                  : Location
 RWS  .      -999                        : Def_Rw
 WST  .      -999                        : Def_Rwt
 SRVC .                                  : Contractor
~CURVE INFORMATION
#MNEM              UNIT       API CODE   Curve Type Comments
#----------  --------------- ----------  ---------- -----------
 DEPTH      .M                         : Depth       
 BS         .in                        : BitSize     
 CAL_INCH   .inch                      : caliper     Caliper Log - A representation of the measured diameter of a borehole along its depth
 SP_MV1     .mv                        : SP          Spontaneous Potential - Records the electrical potential produced by the interaction of formation water, conductive drilling mud, and certain ion-sele
 GR_API     .API                       : gammaRay    Gamma Ray (API) - Measures the intensity of natural gamma-ray radiation emitted from formations containing radioactive elements, such as K, Th and U
 GRC_API    .API                       : gammaRay    Borehole Corrected Gamma Ray - Log calibrated to account for borehole effects that could disrupt the gamma response
 TH_PPM     .ppm                       : spectral    Thorium Abundance (SGR) - The quantitative elemental abundace of Thorium derived from the Spectral Gamma Ray Log
 K_%        .PC                        : spectral    Potassium Abundance (SGR) - The quantitative elemental abundace of Potassium derived from the Spectral Gamma Ray Log. Also wt_%
 U_PPM      .ppm                       : Spectral    Uranium Abundance (SGR) - The quantitative elemental abundace of Uranium derived from the Spectral Gamma Ray Log
 RES_OHMM   .ohmm                      : deepRes     Unspecified Resistivity Log - No accroynm or method of attainment is specified - units of ohmm
 RHOB_G_CC  .g/cc                      : density     Bulk Density - Measures the density of bulk material, including any void space or other materials contained in the subject volume
 NPHI_v/v   .ratio                     : neutron     Neutron Porosity - Measured with an neutron logging device calibrated to a given matrix (limestone, sandstone and dolomite)
 PEF_B_E    .b/e-                      : PEF         Photoelectric Factor - A log of photoelectric absorption properties. Often expressed in an approximation unit barns/electron (b/e-)
 LITH       .                          : LITH        Lithology Curve
 LITH_v2    .                          : LITH        Lithology Curve
~A  DEPTH     BS     CAL_INCH   SP_MV1    GR_API   GRC_API    TH_PPM     K_%      U_PPM    RES_OHMM RHOB_G_C~  NPHI_v/v  PEF_B_E     LITH    LITH_v2  
# ...
2374.6968    8.5000    8.4802    0.3018   56.9136   57.8018    6.5893    0.0204   -0.5006    1.2381    2.2197    0.3690    3.7875   37.0000   22.0000 
2374.8492    8.5000    8.4727    0.2518   52.8073   57.3408    6.6100    0.0201   -0.4834    1.2465    2.2400    0.3369    3.8264   37.0000   22.0000 
2375.0016    8.5000    8.4576   -0.3607   57.0031   58.5769    7.1163    0.0199   -0.4523    1.1873    2.2450    0.3296    3.8416   37.0000   22.0000 
2375.1540    8.5000    8.4727   -0.8482   61.1280   61.3103    7.6645    0.0205   -0.3896    1.0480    2.2322    0.3568    3.8396   37.0000   22.0000 
2375.3064    8.5000    8.4802   -1.2732   68.3179   65.1711    7.8690    0.0222   -0.3658    0.9343    2.2014    0.3912    3.8618   37.0000   22.0000 
2375.4588    8.5000    8.4802   -1.0107   68.0065   71.3847    8.9010    0.0239   -0.5887    0.8481    2.1811    0.4076    3.8400   37.0000   22.0000 
2375.6112    8.5000    8.4802   -0.7482   68.0945   73.4003    9.0288    0.0247   -0.5819    0.8019    2.1703    0.4067    3.7786   37.0000   22.0000 
2375.7636    8.5000    8.4689   -1.1107   63.4571   72.8048    9.0573    0.0244   -0.6753    0.8584    2.1714    0.4046    3.6804   37.0000   22.0000 
2375.9160    8.5000    8.4689   -1.6607   61.9947   69.8882    8.3473    0.0240   -0.7392    0.9368    2.1686    0.3977    3.6327   37.0000   22.0000 
2376.0684    8.5000    8.4802   -0.8982   57.5784   64.7491    7.5520    0.0225   -0.6125    1.0236    2.1752    0.3691    3.6284   37.0000   22.0000 
2376.2208    8.5000    8.4576   -0.9482   54.4710   60.5231    7.2938    0.0207   -0.8120    1.1406    2.1918    0.3396    3.6395   37.0000   22.0000 
2376.3732    8.5000    8.4689   -1.1232   51.4943   58.2745    7.1403    0.0197   -0.8066    1.2351    2.2124    0.3238    3.6469   37.0000   22.0000 
2376.5256    8.5000    8.4802   -1.3607   51.7162   55.8519    6.7435    0.0190   -0.8252    1.2178    2.2179    0.3347    3.6866   37.0000   22.0000 
2376.6780    8.5000    8.4802   -1.0982   51.3833   55.9995    6.6846    0.0192   -0.6821    1.1742    2.2177    0.3354    3.7139   37.0000   22.0000 
2376.8304    8.5000    8.4689   -1.2107   54.0468   58.0401    6.3411    0.0209   -0.5677    1.1620    2.2183    0.3398    3.7176   37.0000   22.0000 
2376.9828    8.5000    8.4727   -1.5107   51.6999   59.8185    6.8699    0.0210   -0.4889    1.0948    2.2183    0.3279    3.7100   37.0000   22.0000 
2377.1352    8.5000    8.4727   -1.4982   53.8085   62.9736    7.0022    0.0225   -0.6170    1.1054    2.2114    0.3290    3.7340   37.0000   22.0000 
2377.2876    8.5000    8.4651   -1.6107   55.1195   63.6040    7.2968    0.0223   -0.8185    1.1474    2.2027    0.3348    3.7435   37.0000   22.0000 
2377.4400    8.5000    8.4802   -1.2857   56.9116   62.9910    7.1815    0.0222   -0.7440    1.1477    2.1965    0.3471    3.7230   37.0000   22.0000 
2377.5924    8.5000    8.4727   -1.0857   57.9104   61.3719    7.1035    0.0215   -0.8684    1.1530    2.1934    0.3506    3.6693   37.0000   22.0000 
2377.7448    8.5000    8.4576   -0.9482   57.4871   60.8876    6.9965    0.0214   -0.7887    1.1578    2.1873    0.3459    3.6508   37.0000   22.0000 
2377.8972    8.5000    8.4576   -2.3732   57.9311   63.0582    7.2155    0.0222   -0.8480    1.1515    2.1837    0.3438    3.6476   37.0000   22.0000 
2378.0496    8.5000    8.4802   -0.2357   60.0397   65.0779    7.2463    0.0232   -0.8997    1.0695    2.1873    0.3533    3.6500   37.0000   22.0000 
2378.2020    8.5000    8.4727   -0.0357   57.0432   66.0875    7.0519    0.0241   -0.9289    1.0284    2.1937    0.3615    3.6557   37.0000   22.0000 
2378.3544    8.5000    8.4689    0.5393   56.1377   63.1928    6.8905    0.0228   -0.9148    1.0324    2.2024    0.3665    3.6567   37.0000   22.0000 
2378.5068    8.5000    8.4727   -1.0107   55.5828   64.2241    7.2202    0.0228   -0.8884    1.1107    2.2054    0.3566    3.6605   37.0000   22.0000 
2378.6592    8.5000    8.4727   -1.5607   54.4569   61.3682    6.7768    0.0220   -0.9541    1.1853    2.2088    0.3336    3.6385   37.0000   22.0000 
2378.8116    8.5000    8.4651   -1.2982   54.3143   58.9870    6.5237    0.0211   -0.7626    1.2708    2.2087    0.3287    3.6405   37.0000   22.0000 
2378.9640    8.5000    8.4727   -0.8482   51.8415   54.1543    5.8074    0.0197   -0.4577    1.2952    2.2093    0.3427    3.6771   37.0000   22.0000 
2379.1164    8.5000    8.4727   -0.7107   50.9698   57.0801    6.3179    0.0204   -0.6030    1.2543    2.2125    0.3496    3.7178   37.0000   22.0000 
2379.2688    8.5000    8.4802   -1.1982   49.7983   56.3756    6.3589    0.0200   -0.3006    1.2095    2.2179    0.3397    3.7352   37.0000   22.0000 
2379.4212    8.5000    8.4915   -1.6857   50.1521   57.6621    6.5963    0.0203   -0.3340    1.1743    2.2164    0.3140    3.7431   37.0000   22.0000 
2379.5736    8.5000    8.4802   -2.5482   56.3637   58.4645    6.4181    0.0210   -0.3280    1.1490    2.2103    0.3227    3.7526   37.0000   22.0000 
2379.7260    8.5000    8.4802   -0.5982   60.3083   60.2258    6.4782    0.0219   -0.1244    1.0866    2.2012    0.3225    3.7480   37.0000   22.0000 
2379.8784    8.5000    8.4802   -1.5857   61.8724   61.7856    6.4285    0.0228    0.1980    1.0229    2.1922    0.3648    3.7191   37.0000   22.0000 
2380.0308    8.5000    8.4802   -0.9482   61.9867   62.4382    6.4164    0.0232    0.2197    0.9889    2.1861    0.3689    3.6716   37.0000   22.0000 
2380.1832    8.5000    8.4689   -0.9357   64.5898   63.7624    6.6837    0.0235    0.0389    0.9834    2.1810    0.3836    3.6490   37.0000   22.0000 
2380.3356    8.5000    8.4727   -0.8607   65.0337   60.2851    6.4848    0.0219    0.1298    1.0098    2.1879    0.3831    3.6252   37.0000   22.0000 
2380.4880    8.5000    8.4651   -1.0981   64.0349   59.0162    6.6729    0.0209    0.1667    1.0450    2.1952    0.3938    3.6364   37.0000   22.0000 
2380.6404    8.5000    8.4802   -1.4607   60.5751   58.7062    6.7686    0.0206    0.0599    1.0825    2.2006    0.3816    3.6531   37.0000   22.0000 
2380.7928    8.5000    8.4802   -1.3232   58.2445   57.7774    6.5011    0.0205    0.2655    1.0748    2.1976    0.3638    3.6699   37.0000   22.0000 
2380.9452    8.5000    8.4802   -1.5606   58.0022   56.8272    6.1834    0.0205    0.2814    1.0180    2.1896    0.3724    3.6593   37.0000   22.0000 
2381.0976    8.5000    8.4576   -1.8606   60.2413   57.2172    6.3392    0.0205    0.3802    0.9839    2.1809    0.4108    3.6394   37.0000   22.0000 
2381.2500    8.5000    8.4802   -1.3481   61.2401   58.1836    6.5336    0.0207    0.2994    0.9769    2.1828    0.4232    3.6244   37.0000   22.0000 
2381.4024    8.5000    8.4727   -1.0231   60.2616   57.4203    7.0155    0.0194    0.1066    1.0216    2.1880    0.4124    3.6752   37.0000   22.0000 
2381.5548    8.5000    8.4651   -0.6356   57.5981   57.9815    7.3339    0.0192   -0.3813    1.1284    2.2029    0.3790    3.7440   37.0000   22.0000 
2381.7072    8.5000    8.4576   -0.9981   55.1566   57.0670    7.4406    0.0185   -0.5930    1.2156    2.2182    0.3669    3.8260   37.0000   22.0000 
2381.8596    8.5000    8.4689   -1.4856   50.0516   57.9404    7.6531    0.0186   -0.6543    1.2387    2.2339    0.3408    3.8705   37.0000   22.0000 
2382.0120    8.5000    8.4802   -1.8481   45.8195   53.4456    6.8410    0.0176   -0.4755    1.2844    2.2416    0.3232    3.8970   37.0000   22.0000 
2382.1644    8.5000    8.4689   -1.6481   45.9305   57.7399    7.0280    0.0196   -0.5338    1.3184    2.2389    0.2907    3.8698   37.0000   22.0000 
2382.3168    8.5000    8.4802   -1.5106   50.0184   59.3844    7.2346    0.0201   -0.5904    1.1812    2.2256    0.3193    3.7811   37.0000   22.0000 
2382.4692    8.5000    8.4802   -1.5606   55.5821   63.8865    7.7500    0.0217   -0.5448    1.0653    2.2013    0.3588    3.6866   37.0000   22.0000 
2382.6216    8.5000    8.4689   -1.8606   59.0237   64.6470    7.7565    0.0221   -0.7112    1.0042    2.1821    0.3859    3.6244   37.0000   22.0000 
