~VERSION INFORMATION
 VERS.                 2.0:   CWLS LOG ASCII STANDARD - VERSION 2.0
 WRAP.                  NO:   SINGLE LINE PER DEPTH STEP
 CREA.                 15/01/2018 11:41:51
#CREATED USING DSPetro VERSION 5000.10.1.3 BY H191660 ON 15/01/2018 11:41:51
~WELL INFORMATION
#MNEM.UNIT       DATA                          DESCRIPTION MNEMONIC
#---------      ---------------------------   --------------------------
 STRT    .M         0.0000                    : START DEPTH
 STOP    .M         3500.0184                 : STOP DEPTH
 STEP    .M         0.1524                    : STEP VALUE
 NULL    .      -999.0000                     : NULL VALUE
 DATE    .      15/01/2018                    : LAS file Creation Date
 WELL .      2612_Pluto-1                : Well Name
 COMP .      Neftex Exploration Insights : Company
 FLD  .      PLUTO                       : Field
 UWI  .      ZAUWL_007298                : Unique Well Identifier (UWI)
 LOC  .                                  : Location
 RWS  .      -999                        : Def_Rw
 WST  .      -999                        : Def_Rwt
 SRVC .                                  : Contractor
~CURVE INFORMATION
#MNEM              UNIT       API CODE   Curve Type Comments
#----------  --------------- ----------  ---------- -----------
 DEPTH      .M                         : Depth       
 BS         .in                        : BitSize     
 CAL_INCH   .inch                      : caliper     Caliper Log - A representation of the measured diameter of a borehole along its depth
 SP_MV1     .mv                        : SP          Spontaneous Potential - Records the electrical potential produced by the interaction of formation water, conductive drilling mud, and certain ion-sele
 GR_API     .API                       : gammaRay    Gamma Ray (API) - Measures the intensity of natural gamma-ray radiation emitted from formations containing radioactive elements, such as K, Th and U
 GRC_API    .API                       : gammaRay    Borehole Corrected Gamma Ray - Log calibrated to account for borehole effects that could disrupt the gamma response
 TH_PPM     .ppm                       : spectral    Thorium Abundance (SGR) - The quantitative elemental abundace of Thorium derived from the Spectral Gamma Ray Log
 K_%        .PC                        : spectral    Potassium Abundance (SGR) - The quantitative elemental abundace of Potassium derived from the Spectral Gamma Ray Log. Also wt_%
 U_PPM      .ppm                       : Spectral    Uranium Abundance (SGR) - The quantitative elemental abundace of Uranium derived from the Spectral Gamma Ray Log
 RES_OHMM   .ohmm                      : deepRes     Unspecified Resistivity Log - No accroynm or method of attainment is specified - units of ohmm
 RHOB_G_CC  .g/cc                      : density     Bulk Density - Measures the density of bulk material, including any void space or other materials contained in the subject volume
 NPHI_v/v   .ratio                     : neutron     Neutron Porosity - Measured with an neutron logging device calibrated to a given matrix (limestone, sandstone and dolomite)
 PEF_B_E    .b/e-                      : PEF         Photoelectric Factor - A log of photoelectric absorption properties. Often expressed in an approximation unit barns/electron (b/e-)
 LITH       .                          : LITH        Lithology Curve
 LITH_v2    .                          : LITH        Lithology Curve
~A  DEPTH     BS     CAL_INCH   SP_MV1    GR_API   GRC_API    TH_PPM     K_%      U_PPM    RES_OHMM RHOB_G_C~  NPHI_v/v  PEF_B_E     LITH    LITH_v2  
# ...
3287.4204    8.5000    4.0285  -67.6717  184.2284   65.2352   12.3319    0.0146    4.9865    4.3274    2.1082    0.2557    9.2466   11.0000   11.0000 
3287.5728    8.5000    4.0285  -70.8592  184.2284   65.2352   12.3319    0.0146    4.9865    4.2432    2.1082    0.2557    9.2469   11.0000   11.0000 
3287.7252    8.5000    4.0285  -74.5467  184.2284   65.2352   12.3319    0.0146    4.9865    4.1308    2.1082    0.2557    9.2472   11.0000   11.0000 
3287.8776    8.5000    4.0285  -78.2342  184.2284   65.2352   12.3319    0.0146    4.9865    4.1665    2.1082    0.2557    9.2475   11.0000   11.0000 
3288.0300    8.5000    4.0285  -80.7967  184.2284   65.2352   12.3319    0.0146    4.9865    4.1580    2.1082    0.2557    9.2478   11.0000   11.0000 
3288.1824    8.5000    4.0285  -82.2967  184.2284   65.2352   12.3319    0.0146    4.9865    4.1461    2.1082    0.2557    9.2481   11.0000   11.0000 
3288.3348    8.5000    4.0285  -82.4842  184.2284   65.2352   12.3319    0.0146    4.9865    4.1473    2.1082    0.2557    9.2484   11.0000   11.0000 
3288.4872    8.5000    4.0285  -82.2967  184.2284   65.2352   12.3319    0.0146    4.9865    4.1455    2.1082    0.2557    9.2486   11.0000   11.0000 
3288.6396    8.5000    4.0285  -81.6092  184.2284   65.2352   12.3319    0.0146    4.9865    4.1442    2.1082    0.2557    9.2489   11.0000   11.0000 
3288.7920    8.5000    4.0285  -84.8592  184.2284   65.2352   12.3319    0.0146    4.9865    4.1501    2.1082    0.2557    9.2492   11.0000   11.0000 
3288.9444    8.5000    4.0285  -87.7967  184.2284   65.2352   12.3319    0.0146    4.9865    4.1482    2.1082    0.2557    9.2495   11.0000   11.0000 
3289.0968    8.5000    4.0285  -90.5467  184.2284   65.2352   12.3319    0.0146    4.9865    4.1520    2.1082    0.2557    9.2498   11.0000   11.0000 
3289.2492    8.5000    4.0285  -93.1092  184.2284   65.2352   12.3319    0.0146    4.9865    4.1441    2.1082    0.2557    9.2500   11.0000   11.0000 
3289.4016    8.5000    4.0285  -93.3592  184.2284   65.2352   12.3319    0.0146    4.9865    4.1444    2.1082    0.2557    9.2503   11.0000   11.0000 
3289.5540    8.5000    4.0285  -96.0467  184.2284   65.2352   12.3319    0.0146    4.9865    4.1387    2.1082    0.2557    9.2506   11.0000   11.0000 
3289.7064    8.5000    4.0285  -97.3592  184.2284   65.2352   12.3319    0.0146    4.9865    4.1625    2.1082    0.2557    9.2508   11.0000   11.0000 
3289.8588    8.5000    4.0285  -97.6717  184.2284   65.2352   12.3319    0.0146    4.9865    4.2523    2.1082    0.2557    9.2510   11.0000   11.0000 
3290.0112    8.5000    4.0285  -98.5467  184.2284   65.2352   12.3319    0.0146    4.9865    4.2413    2.1082    0.2557    9.2513   11.0000   11.0000 
3290.1636    8.5000    4.0285  -99.4842  184.2284   65.2352   12.3319    0.0146    4.9865    4.2735    2.1082    0.2557    9.2515   11.0000   11.0000 
3290.3160    8.5000    4.0285  -97.0467  184.2284   65.2352   12.3319    0.0146    4.9865    4.2733    2.1082    0.2557    9.2517   11.0000   11.0000 
3290.4684    8.5000    4.0285  -80.7342  184.2284   65.2352   12.3319    0.0146    4.9865    4.2733    2.1082    0.2557    9.2519   11.0000   11.0000 
3290.6208    8.5000    4.0285  -86.6092  184.2284   65.2352   12.3319    0.0146    4.9865    4.2733    2.1082    0.2557    9.2520   11.0000   11.0000 
3290.7732    8.5000    4.0285 -101.2967  184.2284   65.2352   12.3319    0.0146    4.9865    4.2733    2.1082    0.2557    9.2521   11.0000   11.0000 
3290.9256    8.5000    4.0285 -109.1092  184.2284   65.2352   12.3319    0.0146    4.9865    4.2733    2.1082    0.2557    9.2522   11.0000   11.0000 
3291.0780    8.5000    4.0285 -107.8592  184.2284   65.2352   12.3319    0.0146    4.9865    4.2733    2.1082    0.2557    9.2522   11.0000   11.0000 
3291.2304    8.5000    4.0285 -112.1092  184.2284   65.2352   12.3319    0.0146    4.9865    4.2733    2.1081    0.2557    9.2521   11.0000   11.0000 
3291.3828    8.5000    4.0285 -113.7967  184.2284   65.2352   12.3319    0.0146    4.9865    4.2733    2.1081    0.2557    9.2520   11.0000   11.0000 
3291.5352    8.5000    4.0285 -114.6092  184.2284   65.2352   12.3319    0.0146    4.9865    4.2733    2.1081    0.2557    9.2517   11.0000   11.0000 
3291.6876    8.5000    4.0285 -118.8592  184.2284   65.2352   12.3319    0.0146    4.9865    4.2733    2.1081    0.2557    9.2514   11.0000   11.0000 
3291.8400    8.5000    4.0285 -120.0467  184.2284   65.2352   12.3319    0.0146    4.9865    4.2733    2.1081    0.2557    9.2508   11.0000   11.0000 
3291.9924    8.5000    4.0285 -122.2342  184.2284   65.2352   12.3319    0.0146    4.9865    4.2733    2.1081    0.2557    9.2501   11.0000   11.0000 
3292.1448    8.5000    4.0285 -123.6717  184.2284   65.2352   12.3319    0.0146    4.9865    4.2733    2.1081    0.2557    9.2492   11.0000   11.0000 
3292.2972    8.5000    4.0285 -125.2967  184.2284   65.2352   12.3319    0.0146    4.9865    4.2733    2.1081    0.2557    9.2479   11.0000   11.0000 
3292.4496    8.5000    4.0285 -127.2342  184.2284   65.2352   12.3319    0.0146    4.9865    4.2733    2.1080    0.2557    9.2463   11.0000   11.0000 
3292.6020    8.5000    4.0285 -129.6717  184.2284   65.2352   12.3319    0.0146    4.9865    4.2733    2.1080    0.2557    9.2442   11.0000   11.0000 
3292.7544    8.5000    4.0285 -131.4842  184.2284   65.2352   12.3319    0.0146    4.9865    4.2733    2.1080    0.2557    9.2416   11.0000   11.0000 
3292.9068    8.5000    4.0285 -133.7967  184.2284   65.2352   12.3319    0.0146    4.9865    4.2733    2.1079    0.2557    9.2383   11.0000   11.0000 
3293.0592    8.5000    4.0285 -136.7967  184.2284   65.2352   12.3319    0.0146    4.9865    4.2733    2.1078    0.2557    9.2341   11.0000   11.0000 
3293.2116    8.5000    4.0285 -140.3592  184.2284   65.2352   12.3319    0.0146    4.9865    4.2733    2.1078    0.2557    9.2288   11.0000   11.0000 
3293.3640    8.5000    4.0285 -143.9842  184.2284   65.2352   12.3319    0.0146    4.9865    4.2733    2.1077    0.2557    9.2223   11.0000   11.0000 
3293.5164    8.5000    4.0285 -144.6092  184.2284   65.2352   12.3319    0.0146    4.9865    4.2733    2.1076    0.2557    9.2142   11.0000   11.0000 
3293.6688    8.5000    4.0285 -146.6717  184.2284   65.2352   12.3319    0.0146    4.9865    4.2733    2.1074    0.2557    9.2037   11.0000   11.0000 
3293.8212    8.5000    4.0285 -149.9217  184.2284   65.2352   12.3319    0.0146    4.9865    4.2733    2.1073    0.2557    9.1912   11.0000   11.0000 
3293.9736    8.5000    4.0285 -155.2342  184.2284   65.2352   12.3319    0.0146    4.9865    4.2733    2.1070    0.2557    9.1760   11.0000   11.0000 
3294.1260    8.5000    4.0285 -164.5467  184.2284   65.2352   12.3319    0.0146    4.9865    4.2733    2.1068    0.2557    9.1535   11.0000   11.0000 
3294.2784    8.5000    4.0285 -177.7342  184.2284   65.2352   12.3319    0.0146    4.9865    4.2733    2.1066    0.2557    9.1339   11.0000   11.0000 
3294.4308    8.5000    4.0285 -193.0467  184.2284   65.2352   12.3319    0.0146    4.9865    4.2733    2.1062    0.2557    9.1013   11.0000   11.0000 
3294.5832    8.5000    4.0285 -198.2967  184.2284   65.2352   12.3319    0.0146    4.9865    4.2733    2.1059    0.2557    9.0553   11.0000   11.0000 
3294.7356    8.5000    4.0285 -195.9217  184.2284   65.2352   12.3319    0.0146    4.9865    4.2733    2.1060    0.2557    9.0423   11.0000   11.0000 
3294.8880    8.5000    4.0285 -187.5467  184.2284   65.2352   12.3319    0.0146    4.9865    4.2733    2.1042    0.2557    8.9033   11.0000   11.0000 
3295.0404    8.5000    4.0285 -181.8592  184.2284   65.2352   12.3319    0.0146    4.9865    4.2733    2.1021    0.2557    8.5589   11.0000   11.0000 
3295.1928    8.5000    4.0285 -185.3592  184.2284   65.2352   12.3319    0.0146    4.9865    4.2733 -999.0000    0.2557 -999.0000   11.0000   11.0000 
3295.3452    8.5000    4.0285 -192.1717  184.2284   65.2352   12.3319    0.0146    4.9865    4.2733 -999.0000    0.2557 -999.0000   11.0000   11.0000 
