~VERSION INFORMATION
 VERS.                 2.0:   CWLS LOG ASCII STANDARD - VERSION 2.0
 WRAP.                  NO:   SINGLE LINE PER DEPTH STEP
 CREA.                 15/01/2018 11:41:51
#CREATED USING DSPetro VERSION 5000.10.1.3 BY H191660 ON 15/01/2018 11:41:51
~WELL INFORMATION
#MNEM.UNIT       DATA                          DESCRIPTION MNEMONIC
#---------      ---------------------------   --------------------------
 STRT    .M         0.0000                    : START DEPTH
 STOP    .M         3500.0184                 : STOP DEPTH
 STEP    .M         0.1524                    : STEP VALUE
 NULL    .      -999.0000                     : NULL VALUE
 DATE    .      15/01/2018                    : LAS file Creation Date
 WELL .      2612_Pluto-1                : Well Name
 COMP .      Neftex Exploration Insights : Company
 FLD  .      PLUTO                       : Field
 UWI  .      ZAUWL_007298                : Unique Well Identifier (UWI)
 LOC  .                                  : Location
 RWS  .      -999                        : Def_Rw
 WST  .      -999                        : Def_Rwt
 SRVC .                                  : Contractor
~CURVE INFORMATION
#MNEM              UNIT       API CODE   Curve Type Comments
#----------  --------------- ----------  ---------- -----------
 DEPTH      .M                         : Depth       
 BS         .in                        : BitSize     
 CAL_INCH   .inch                      : caliper     Caliper Log - A representation of the measured diameter of a borehole along its depth
 SP_MV1     .mv                        : SP          Spontaneous Potential - Records the electrical potential produced by the interaction of formation water, conductive drilling mud, and certain ion-sele
 GR_API     .API                       : gammaRay    Gamma Ray (API) - Measures the intensity of natural gamma-ray radiation emitted from formations containing radioactive elements, such as K, Th and U
 GRC_API    .API                       : gammaRay    Borehole Corrected Gamma Ray - Log calibrated to account for borehole effects that could disrupt the gamma response
 TH_PPM     .ppm                       : spectral    Thorium Abundance (SGR) - The quantitative elemental abundace of Thorium derived from the Spectral Gamma Ray Log
 K_%        .PC                        : spectral    Potassium Abundance (SGR) - The quantitative elemental abundace of Potassium derived from the Spectral Gamma Ray Log. Also wt_%
 U_PPM      .ppm                       : Spectral    Uranium Abundance (SGR) - The quantitative elemental abundace of Uranium derived from the Spectral Gamma Ray Log
 RES_OHMM   .ohmm                      : deepRes     Unspecified Resistivity Log - No accroynm or method of attainment is specified - units of ohmm
 RHOB_G_CC  .g/cc                      : density     Bulk Density - Measures the density of bulk material, including any void space or other materials contained in the subject volume
 NPHI_v/v   .ratio                     : neutron     Neutron Porosity - Measured with an neutron logging device calibrated to a given matrix (limestone, sandstone and dolomite)
 PEF_B_E    .b/e-                      : PEF         Photoelectric Factor - A log of photoelectric absorption properties. Often expressed in an approximation unit barns/electron (b/e-)
 LITH       .                          : LITH        Lithology Curve
 LITH_v2    .                          : LITH        Lithology Curve
~A  DEPTH     BS     CAL_INCH   SP_MV1    GR_API   GRC_API    TH_PPM     K_%      U_PPM    RES_OHMM RHOB_G_C~  NPHI_v/v  PEF_B_E     LITH    LITH_v2  
# ...
2827.0200    8.5000    8.4689   -2.7109  108.9108  105.1372   11.9419    0.0371    0.4441    0.7417    2.2900    0.3754    4.2335   37.0000    8.0000 
2827.1724    8.5000    8.4689   -1.5859  114.9370  105.9861   12.3043    0.0370    0.4577    0.6785    2.2384    0.3912    4.3297   37.0000    8.0000 
2827.3248    8.5000    8.4802   -0.1484  115.0480  109.2009   12.7124    0.0380    0.5973    0.5553    2.2105    0.4011    4.5301   37.0000    8.0000 
2827.4772    8.5000    8.3597   -1.5234  116.7977  113.1045   13.2409    0.0393    0.4950    0.6760    2.2131    0.4203    4.6100   37.0000    8.0000 
2827.6296    8.5000    8.4576   -2.2734  116.0932  114.4450   13.4851    0.0396    0.2579    0.6945    2.2557    0.4146    4.3888   37.0000    8.0000 
2827.7820    8.5000    8.4463   -2.8984  116.7591  110.0061   12.4656    0.0389    0.5711    0.6762    2.2817    0.4202    4.0218   37.0000    8.0000 
2827.9344    8.5000    8.4199   -3.6484  112.3829  109.1828   12.7143    0.0380    0.5127    0.6988    2.2925    0.4173    3.7268   37.0000    8.0000 
2828.0868    8.5000    8.4350   -3.8359  107.8714  109.3257   12.8507    0.0379    0.4409    0.7033    2.2867    0.4134    3.5995   37.0000    8.0000 
2828.2392    8.5000    8.4802   -3.2109  103.4322  111.6625   13.3040    0.0384    0.0820    0.7090    2.2801    0.3926    3.5798   37.0000    8.0000 
2828.3916    8.5000    8.4727   -2.7734  104.6530  112.9338   13.7136    0.0384   -0.0623    0.7059    2.2712    0.4021    3.6009   37.0000    8.0000 
2828.5440    8.5000    8.4576   -1.7734  102.6554  115.0967   13.8119    0.0394   -0.2650    0.7025    2.2671    0.4133    3.6435   37.0000    8.0000 
2828.6964    8.5000    8.4651   -1.5234  110.7141  113.2166   12.7728    0.0401    0.1991    0.7514    2.2692    0.4164    3.6683   37.0000    8.0000 
2828.8488    8.5000    8.4651   -2.0234  113.6316  113.7879   12.4220    0.0411    0.2647    0.7488    2.2726    0.4047    3.6806   37.0000    8.0000 
2829.0012    8.5000    8.4576   -2.0859  116.7391  116.4519   12.5903    0.0422    0.2118    0.7500    2.2677    0.4207    3.6827   37.0000    8.0000 
2829.1536    8.5000    8.4576   -1.7734  114.2292  113.3813   12.2867    0.0411    0.3066    0.7241    2.2546    0.4158    3.7159   37.0000    8.0000 
2829.3060    8.5000    8.4576   -1.6484  111.2761  114.2630   12.9650    0.0404    0.4372    0.7200    2.2421    0.4255    3.7683   37.0000    8.0000 
2829.4584    8.5000    8.4350   -0.7734  116.1592  115.7216   13.3487    0.0405    0.2146    0.7651    2.2450    0.4291    3.7978   37.0000    8.0000 
2829.6108    8.5000    8.4463   -0.6484  117.2690  119.5227   13.5639    0.0422    0.3798    0.8356    2.2564    0.4336    3.8116   37.0000    8.0000 
2829.7632    8.5000    8.4501   -0.8984  122.6007  120.0051   13.3580    0.0429    0.4713    0.7990    2.2716    0.4210    3.8282   37.0000    8.0000 
2829.9156    8.5000    8.4275   -1.5859  124.2237  117.6433   13.2000    0.0418    0.7337    0.7798    2.2812    0.4007    3.8620   37.0000    8.0000 
2830.0680    8.5000    8.4124   -1.3984  123.8908  115.4481   12.7628    0.0414    0.6878    0.8371    2.2906    0.4065    3.8570   37.0000    8.0000 
2830.2204    8.5000    8.4727   -2.0234  119.7044  115.8227   13.5661    0.0402    0.3433    0.9047    2.3018    0.4054    3.7755   37.0000    8.0000 
2830.3728    8.5000    8.4689   -1.7109  118.3740  117.4821   13.9352    0.0405    0.2185    0.9180    2.3031    0.3807    3.7103   37.0000    8.0000 
2830.5252    8.5000    8.4689   -1.4609  116.3764  118.3871   14.3999    0.0402   -0.2074    0.8565    2.3002    0.3796    3.6941   37.0000    8.0000 
2830.6776    8.5000    8.4802   -0.7109  116.1544  116.2028   14.3759    0.0390    0.0134    0.8389    2.2956    0.3916    3.7464   37.0000    8.0000 
2830.8300    8.5000    8.4802   -1.2109  113.4673  117.6253   14.7416    0.0392    0.0357    0.8525    2.2998    0.4223    3.7868   37.0000    8.0000 
2830.9824    8.5000    8.4689   -1.5234  111.5738  116.7997   13.7121    0.0405    0.3593    0.8497    2.3024    0.4368    3.8121   37.0000    8.0000 
2831.1348    8.5000    8.4802   -1.7109  113.6810  119.4385   14.0954    0.0413    0.4284    0.8234    2.3026    0.4132    3.8198   37.0000    8.0000 
2831.2872    8.5000    8.4727   -1.3359  113.3011  118.1359   13.8894    0.0409    0.1243    0.8295    2.2934    0.3994    3.8363   37.0000    8.0000 
2831.4396    8.5000    8.4689   -2.2734  116.3044  121.5367   14.5315    0.0417    0.1105    0.8146    2.2889    0.4026    3.8842   37.0000    8.0000 
2831.5920    8.5000    8.4802   -2.7109  117.0827  116.4934   13.7288    0.0403    0.1775    0.7461    2.2866    0.4159    3.9602   37.0000    8.0000 
2831.7444    8.5000    8.4802   -2.5234  120.4120  117.0257   14.1848    0.0398    0.2176    0.7383    2.2778    0.4185    4.0393   37.0000    8.0000 
2831.8968    8.5000    8.4124   -2.2734  119.7462  111.9432   12.7987    0.0394    0.7676    0.7620    2.2645    0.3945    4.0700   37.0000    8.0000 
2832.0492    8.5000    8.4124   -2.1484  120.4828  114.4780   13.4110    0.0397    0.6462    0.7468    2.2540    0.3767    4.0196   37.0000    8.0000 
2832.2016    8.5000    8.4124   -3.0234  118.4852  113.6095   13.0378    0.0399    1.1262    0.7038    2.2516    0.3917    3.8986   37.0000    8.0000 
2832.3540    8.5000    8.3747   -3.3359  119.2219  115.1260   13.4633    0.0400    0.7389    0.7060    2.2467    0.3881    3.7867   37.0000    8.0000 
2832.5064    8.5000    8.4350   -4.1484  119.2186  115.7040   13.3965    0.0404    0.7256    0.7053    2.2383    0.4193    3.7299   37.0000    8.0000 
2832.6588    8.5000    8.4011   -4.3984  117.6278  116.5824   13.8635    0.0401    0.6655    0.6922    2.2350    0.4191    3.7438   37.0000    8.0000 
2832.8112    8.5000    8.4576   -4.7109  116.0033  115.8896   13.9850    0.0395    0.9772    0.6766    2.2363    0.4417    3.7581   37.0000    8.0000 
2832.9636    8.5000    8.4689   -4.7734  116.2283  112.9066   13.5239    0.0387    1.4678    0.6881    2.2398    0.4307    3.7213   37.0000    8.0000 
2833.1160    8.5000    8.4576   -4.1484  118.9289  109.1250   12.9439    0.0376    1.8660    0.6873    2.2390    0.4268    3.7160   37.0000    8.0000 
2833.2684    8.5000    8.3069   -3.6484  121.7034  111.8634   13.4323    0.0383    1.8351    0.6747    2.2367    0.4205    3.7756   37.0000    8.0000 
2833.4208    8.5000    8.4501   -4.0234  121.7921  110.7320   12.9631    0.0385    2.1990    0.6846    2.2340    0.4311    3.9076   37.0000    8.0000 
2833.5732    8.5000    8.4350   -3.5234  123.0828  110.8218   13.6713    0.0373    1.7427    0.6965    2.2425    0.4078    3.9557   37.0000    8.0000 
2833.7256    8.5000    8.4463   -3.3359  118.6436  108.5702   13.6962    0.0360    1.8148    0.6665    2.2451    0.4319    3.9098   37.0000    8.0000 
2833.8780    8.5000    8.4275   -3.3984  115.5989  105.1605   13.2219    0.0350    1.6680    0.6889    2.2496    0.4412    3.8080   37.0000    8.0000 
2834.0304    8.5000    8.4124   -4.0234  113.5313  108.3018   14.0038    0.0353    2.1054    0.6931    2.2490    0.4866    3.7373   37.0000    8.0000 
2834.1828    8.5000    8.4237   -4.9609  117.0826  111.3983   14.7112    0.0358    2.0231    0.6985    2.2556    0.4656    3.6859   37.0000    8.0000 
2834.3352    8.5000    8.4350   -5.8359  129.4013  117.7728   15.8074    0.0375    2.1477    0.7095    2.2619    0.4407    3.6753   37.0000    8.0000 
2834.4876    8.5000    8.4350   -5.3984  140.2773  117.4097   15.9671    0.0370    1.9371    0.7050    2.2727    0.4013    3.6440   37.0000    8.0000 
2834.6400    8.5000    8.4576   -5.3984  144.4404  125.0976   17.6619    0.0383    1.6780    0.7166    2.2833    0.4098    3.6151   37.0000    8.0000 
2834.7924    8.5000    8.4463   -4.1484  143.8139  128.4135   18.0935    0.0394    1.3896    0.7280    2.2949    0.4074    3.5540   37.0000    8.0000 
2834.9448    8.5000    8.4425   -2.3984  138.4726  128.3829   17.9287    0.0396    1.2861    0.7437    2.3018    0.4105    3.5286   37.0000    8.0000 
