~VERSION INFORMATION
 VERS.                 2.0:   CWLS LOG ASCII STANDARD - VERSION 2.0
 WRAP.                  NO:   SINGLE LINE PER DEPTH STEP
 CREA.                 19/01/2018 11:53:50
#CREATED USING DSPetro VERSION 5000.10.1.3 BY H191660 ON 19/01/2018 11:53:50
~WELL INFORMATION
#MNEM.UNIT       DATA                          DESCRIPTION MNEMONIC
#---------      ---------------------------   --------------------------
 STRT    .M         0.0000                    : START DEPTH
 STOP    .M         1999.9452                 : STOP DEPTH
 STEP    .M         0.1524                    : STEP VALUE
 NULL    .      -999.0000                     : NULL VALUE
 DATE    .      19/01/2018                    : LAS file Creation Date
 WELL .      2780_Saladin-1              : Well Name
 COMP .      Neftex Exploration Insights : Company
 FLD  .      SALADIN                     : Field
 UWI  .      ZAUWL_006048                : Unique Well Identifier (UWI)
 LOC  .                                  : Location
 RWS  .      -999                        : Def_Rw
 WST  .      -999                        : Def_Rwt
 SRVC .                                  : Contractor
~CURVE INFORMATION
#MNEM              UNIT       API CODE   Curve Type Comments
#----------  --------------- ----------  ---------- -----------
 DEPTH      .M                         : Depth       
 BitSize    .in                        : bitSize     
 CAL_INCH   .inch                      : Caliper     Caliper Log - A representation of the measured diameter of a borehole along its depth
 SP_MV1     .mv                        : SP          Spontaneous Potential - Records the electrical potential produced by the interaction of formation water, conductive drilling mud, and certain ion-sele
 GR_API     .API                       : gammaRay    Gamma Ray (API) - Measures the intensity of natural gamma-ray radiation emitted from formations containing radioactive elements, such as K, Th and U
 CGR_API    .API                       : gammaRay    Corrected / Computed Gamma Ray - Radiation with the Uranium component removed. Also known as a 'carbonate gamma ray'
 SGR_API    .API                       : gammaRay    Spectral Gamma Ray - Total gamma calibrated to API, measured using a spectoral gamma array tool
 LLD_OHMM   .ohmm                      : deepRes     Laterlog Deep Resistivity - Measurement made several feet into the formation; generally considered a measurement of the undisturbed formation
 LLS_OHMM   .ohmm                      : shalRes     Laterlog Shallow Resistivity - one to two feet into the formation; generally considered to measure the formation
 ILD_OHMM   .ohmm                      : deepRes     Deep Induction Resistivity - Measurement made an induction log, made several feet into the formation
 ILM_OHMM   .ohmm                      : medRes      Medium Induction Resistivity - Measurement made approximately two to three feet into the formation
 MSFL_OHMM  .ohmm                      : microRes    Micro-Spherically Focused Log - Measurement involves only the first few inches of the formation immediately adjacent to the borehole
 DT_US_FT   .us/ft                     : sonic       Interval Transit Time: Compressional Wave - Evaluates the time it takes for a compressional wave to traverse a fixed distance
 RHOB_G_CC  .g/cc                      : density     Bulk Density - Measures the density of bulk material, including any void space or other materials contained in the subject volume
 DRHO_G_CC  .g/cc                      : drho        Density Correction - Investigates the correction to the Bulk Density log; used as an indication of hole condition to validate the Bulk Density measure
 NPHI_v/v   .PC                        : Neutron     Neutron Porosity - Measured with an neutron logging device calibrated to a given matrix (limestone, sandstone and dolomite)
 PEF_B_E    .b/e-                      : PEF         Photoelectric Factor - A log of photoelectric absorption properties. Often expressed in an approximation unit barns/electron (b/e-)
 LITH       .                          : LITH        Lithology Curve
 LITH_v2    .                          : LITH        Lithology Curve
~A  DEPTH  BitSize   CAL_INCH   SP_MV1    GR_API   CGR_API   SGR_API   LLD_OHMM  LLS_OHMM  ILD_OHMM  ILM_OHMM MSFL_OHM   DT_US_FT RHOB_G_C  DRHO_G_C   NPHI_v/v  PEF_B_E     LITH    LITH_v2  
# ...
1523.3904    8.5000    8.6290   -1.3227  134.9196 -999.0000  123.5745    2.3919    2.3174    2.1365    2.2162    2.3191   87.9337    2.4098    0.0001   19.9487    2.1399   37.0000   37.0000 
1523.5428    8.5000    8.5754   -0.0550  125.3246 -999.0000  117.7868    1.8843    1.8117    1.8824    1.7250    1.6379   90.0314    2.3693    0.0034   20.1927    2.1145   37.0000   31.0000 
1523.6952    8.5000    8.5285    0.5433  115.6537 -999.0000  112.2525    1.5004    1.4848    1.7018    1.4672    0.9678   91.8141    2.3372    0.0049   21.6527    2.0547   37.0000   31.0000 
1523.8476    8.5000    8.4951    0.6987  104.9595 -999.0000  106.0588    1.2756    1.2730    1.5611    1.3717    0.8579   92.1733    2.2977    0.0044   22.8906    2.0214   31.0000   31.0000 
1524.0000    8.5000    8.4910    0.7835  102.4648 -999.0000  100.9947    1.1838    1.2055    1.5173    1.3873    0.7993   92.0800    2.2850    0.0034   23.0631    2.0098   31.0000   31.0000 
1524.1524    8.5000    8.4860    0.8350  104.4336 -999.0000  100.0046    1.1997    1.1861    1.5033    1.3857    0.9115   90.9394    2.2826    0.0007   23.8370    2.0068   31.0000   31.0000 
1524.3048    8.5000    8.4940    0.9149  116.3731 -999.0000  102.6775    1.3372    1.2645    1.5039    1.4322    0.8122   89.3900    2.2822   -0.0002   24.2934    2.0342   31.0000   31.0000 
1524.4572    8.5000    8.5428    0.8186  125.7990 -999.0000  106.8152    1.7010    1.5616    1.5150    1.6053    0.9840   87.7344    2.3077    0.0022   24.2954    2.0996   37.0000   31.0000 
1524.6096    8.5000    8.6009    0.4583  129.1425 -999.0000  110.2427    1.9231    1.9090    1.5439    1.6740    1.4529   87.0029    2.3381    0.0055   23.0603    2.1662   37.0000   31.0000 
1524.7620    8.5000    8.6266    0.1872  128.6031 -999.0000  110.2674    1.9760    2.0161    1.5838    1.6727    2.0067   87.2517    2.3592    0.0065   21.9769    2.1577   37.0000   31.0000 
1524.9144    8.5000    8.6277    0.2784  123.5732 -999.0000  108.0231    1.9115    1.9557    1.6411    1.6242    1.5821   88.0573    2.3518    0.0049   21.9370    2.1244   37.0000   31.0000 
1525.0668    8.5000    8.6231    0.2663  117.5097 -999.0000  106.4333    1.7653    1.7965    1.7732    1.5879    1.1742   88.9152    2.3346    0.0037   22.2600    2.1370   37.0000   31.0000 
1525.2192    8.5000    8.6238    0.2275  110.6810 -999.0000  106.0451    1.5581    1.6069    1.9057    1.6362    1.0490   89.2151    2.3283    0.0054   22.2762    2.1935   37.0000   31.0000 
1525.3716    8.5000    8.6374    0.1218  109.8216 -999.0000  107.1756    1.5550    1.5864    2.0389    1.7799    1.1508   88.5949    2.3281    0.0061   21.9392    2.2546   37.0000   31.0000 
1525.5240    8.5000    8.6507   -0.1601  110.0636 -999.0000  107.2558    1.7066    1.6509    2.0728    1.8682    1.2948   87.6979    2.3312    0.0057   22.0302    2.2731   37.0000   31.0000 
1525.6764    8.5000    8.6582   -0.6874  111.0021 -999.0000  107.3370    2.1040    1.8199    2.1639    2.0154    1.3758   87.0532    2.3408    0.0034   22.0422    2.2778   37.0000   31.0000 
1525.8288    8.5000    8.6608   -1.1368  114.1663 -999.0000  108.6398    2.4855    2.0744    2.2978    2.3374    1.6300   86.2194    2.3536    0.0012   22.0087    2.3575   37.0000   37.0000 
1525.9812    8.5000    8.6602   -1.4736  119.9936 -999.0000  111.0370    2.9056    2.4086    2.5197    2.6046    1.6968   84.2898    2.3763    0.0025   21.8533    2.4316   37.0000   37.0000 
1526.1336    8.5000    8.6605   -1.8114  118.9693 -999.0000  114.4125    3.4018    3.0312    2.7405    2.8467    2.4131   83.0476    2.4147    0.0018   21.7304    2.4620   37.0000   37.0000 
1526.2860    8.5000    8.6629   -2.0577  115.3035 -999.0000  114.1423    3.8724    3.5253    2.9959    3.0226    4.0554   82.4541    2.4217   -0.0026   21.7311    2.4734   37.0000   37.0000 
1526.4384    8.5000    8.6588   -2.3036  113.1895 -999.0000  112.6077    3.8643    3.6974    3.2538    3.0905    3.0222   82.5404    2.4212   -0.0068   21.4736    2.4658   37.0000   37.0000 
1526.5908    8.5000    8.6570   -2.5079  115.4346 -999.0000  113.2338    3.5432    3.4740    3.3818    3.3394    3.0684   83.0434    2.4160   -0.0070   20.9575    2.4461   37.0000   37.0000 
1526.7432    8.5000    8.6384   -2.6337  124.8527 -999.0000  116.3896    3.4761    3.3109    3.4676    3.4430    2.7467   83.2593    2.4136   -0.0058   20.7565    2.4211   37.0000   37.0000 
1526.8956    8.5000    8.5863   -2.7050  129.1408 -999.0000  123.3722    3.3892    3.2182    3.4643    3.3756    4.3712   83.0336    2.4181   -0.0039   20.6814    2.3532   37.0000   37.0000 
1527.0480    8.5000    8.5640   -2.6553  133.0802 -999.0000  125.0388    3.2627    3.1249    3.4250    3.1978    5.2820   82.7555    2.4283   -0.0014   20.9187    2.3521   37.0000   37.0000 
1527.2004    8.5000    8.5531   -2.5783  134.3594 -999.0000  124.6914    3.0576    2.8940    3.3446    3.0689    3.6024   82.6460    2.4422    0.0004   21.8359    2.7481   37.0000   37.0000 
1527.3528    8.5000    8.5547   -2.4880  132.7779 -999.0000  123.5668    2.9784    2.8323    3.1996    3.0408    2.6014   82.6974    2.4571    0.0013   22.5681    2.7714   37.0000   37.0000 
1527.5052    8.5000    8.5661   -2.2762  130.1777 -999.0000  121.5188    2.8748    2.7697    3.0153    2.9232    2.7880   83.0943    2.4592    0.0028   22.3362    2.6956   37.0000   37.0000 
1527.6576    8.5000    8.5620   -1.8852  128.5009 -999.0000  119.8870    2.5026    2.5637    2.7746    2.6718    4.2498   83.9746    2.4423    0.0054   20.9791    2.4247   37.0000   37.0000 
1527.8100    8.5000    8.5607   -0.9683  126.2143 -999.0000  118.2985    2.0326    2.0765    2.3959    2.2659    2.4125   85.1503    2.4116    0.0063   20.2926    2.2103   37.0000   37.0000 
1527.9624    8.5000    8.5622   -0.0960  118.9285 -999.0000  114.5823    1.6659    1.7624    2.0009    1.9561    1.7851   87.6376    2.3778    0.0064   20.4846    2.0786   37.0000   31.0000 
1528.1148    8.5000    8.5583    0.5491  111.1351 -999.0000  108.9681    1.4414    1.4143    1.8009    1.5429    1.0918   90.7781    2.3366    0.0063   21.2297    1.9933   31.0000   31.0000 
1528.2672    8.5000    8.5347    1.0238  104.6714 -999.0000  101.3617    1.2520    1.2367    1.7019    1.3836    0.9093   92.3015    2.3066    0.0073   22.5091    1.9712   31.0000   31.0000 
1528.4196    8.5000    8.5332    1.3377  101.3174 -999.0000   98.4850    1.2156    1.2179    1.6408    1.3877    0.8401   92.4670    2.2909    0.0081   23.4650    1.9736   31.0000   31.0000 
1528.5720    8.5000    8.5665    1.4224  102.4222 -999.0000   99.5368    1.2463    1.2587    1.5581    1.4317    0.8953   91.4321    2.2846    0.0083   23.7414    1.9960   31.0000   31.0000 
1528.7244    8.5000    8.6152    1.7018  106.9308 -999.0000  101.6500    1.4237    1.3660    1.5129    1.5730    0.9764   89.6667    2.2907    0.0088   23.1087    2.0592   31.0000   31.0000 
1528.8768    8.5000    8.6553    1.7510  113.4550 -999.0000  105.3858    1.6534    1.6378    1.5242    1.6324    1.0100   88.8247    2.3070    0.0102   22.0774    2.1284   31.0000   31.0000 
1529.0292    8.5000    8.6764    1.5882  116.1997 -999.0000  107.4293    1.7922    1.7771    1.5929    1.5741    1.3929   88.8991    2.3344    0.0133   20.3723    2.1662   31.0000   31.0000 
1529.1816    8.5000    8.6794    1.2897  115.8954 -999.0000  107.8573    1.7989    1.7972    1.6809    1.5230    1.7967   89.3979    2.3536    0.0251   20.0060    2.1528   31.0000   31.0000 
1529.3340    8.5000    8.6610    1.0185  114.4953 -999.0000  107.0323    1.7317    1.7266    1.7656    1.5401    1.2387   90.7327    2.3553    0.0298   20.3760    2.0650   37.0000   31.0000 
1529.4864    8.5000    8.6624    0.8270  112.5999 -999.0000  106.1109    1.5612    1.5790    1.9267    1.5675    1.0368   90.9793    2.3464    0.0311   21.7729    2.0486   37.0000   31.0000 
1529.6388    8.5000    8.6719    0.7847  112.9647 -999.0000  107.1217    1.5273    1.5399    2.1192    1.8388    0.8712   89.8854    2.3277    0.0250   22.8563    2.0690   37.0000   31.0000 
