~VERSION INFORMATION
 VERS.                 2.0:   CWLS LOG ASCII STANDARD - VERSION 2.0
 WRAP.                  NO:   SINGLE LINE PER DEPTH STEP
 CREA.                 19/01/2018 11:53:50
#CREATED USING DSPetro VERSION 5000.10.1.3 BY H191660 ON 19/01/2018 11:53:50
~WELL INFORMATION
#MNEM.UNIT       DATA                          DESCRIPTION MNEMONIC
#---------      ---------------------------   --------------------------
 STRT    .M         0.0000                    : START DEPTH
 STOP    .M         1999.9452                 : STOP DEPTH
 STEP    .M         0.1524                    : STEP VALUE
 NULL    .      -999.0000                     : NULL VALUE
 DATE    .      19/01/2018                    : LAS file Creation Date
 WELL .      2780_Saladin-1              : Well Name
 COMP .      Neftex Exploration Insights : Company
 FLD  .      SALADIN                     : Field
 UWI  .      ZAUWL_006048                : Unique Well Identifier (UWI)
 LOC  .                                  : Location
 RWS  .      -999                        : Def_Rw
 WST  .      -999                        : Def_Rwt
 SRVC .                                  : Contractor
~CURVE INFORMATION
#MNEM              UNIT       API CODE   Curve Type Comments
#----------  --------------- ----------  ---------- -----------
 DEPTH      .M                         : Depth       
 BitSize    .in                        : bitSize     
 CAL_INCH   .inch                      : Caliper     Caliper Log - A representation of the measured diameter of a borehole along its depth
 SP_MV1     .mv                        : SP          Spontaneous Potential - Records the electrical potential produced by the interaction of formation water, conductive drilling mud, and certain ion-sele
 GR_API     .API                       : gammaRay    Gamma Ray (API) - Measures the intensity of natural gamma-ray radiation emitted from formations containing radioactive elements, such as K, Th and U
 CGR_API    .API                       : gammaRay    Corrected / Computed Gamma Ray - Radiation with the Uranium component removed. Also known as a 'carbonate gamma ray'
 SGR_API    .API                       : gammaRay    Spectral Gamma Ray - Total gamma calibrated to API, measured using a spectoral gamma array tool
 LLD_OHMM   .ohmm                      : deepRes     Laterlog Deep Resistivity - Measurement made several feet into the formation; generally considered a measurement of the undisturbed formation
 LLS_OHMM   .ohmm                      : shalRes     Laterlog Shallow Resistivity - one to two feet into the formation; generally considered to measure the formation
 ILD_OHMM   .ohmm                      : deepRes     Deep Induction Resistivity - Measurement made an induction log, made several feet into the formation
 ILM_OHMM   .ohmm                      : medRes      Medium Induction Resistivity - Measurement made approximately two to three feet into the formation
 MSFL_OHMM  .ohmm                      : microRes    Micro-Spherically Focused Log - Measurement involves only the first few inches of the formation immediately adjacent to the borehole
 DT_US_FT   .us/ft                     : sonic       Interval Transit Time: Compressional Wave - Evaluates the time it takes for a compressional wave to traverse a fixed distance
 RHOB_G_CC  .g/cc                      : density     Bulk Density - Measures the density of bulk material, including any void space or other materials contained in the subject volume
 DRHO_G_CC  .g/cc                      : drho        Density Correction - Investigates the correction to the Bulk Density log; used as an indication of hole condition to validate the Bulk Density measure
 NPHI_v/v   .PC                        : Neutron     Neutron Porosity - Measured with an neutron logging device calibrated to a given matrix (limestone, sandstone and dolomite)
 PEF_B_E    .b/e-                      : PEF         Photoelectric Factor - A log of photoelectric absorption properties. Often expressed in an approximation unit barns/electron (b/e-)
 LITH       .                          : LITH        Lithology Curve
 LITH_v2    .                          : LITH        Lithology Curve
~A  DEPTH  BitSize   CAL_INCH   SP_MV1    GR_API   CGR_API   SGR_API   LLD_OHMM  LLS_OHMM  ILD_OHMM  ILM_OHMM MSFL_OHM   DT_US_FT RHOB_G_C  DRHO_G_C   NPHI_v/v  PEF_B_E     LITH    LITH_v2  
# ...
1376.1720    8.5000    8.8342   -1.5739  122.7735 -999.0000  118.5757    3.0686    3.2523    2.7441    2.7258    4.4086   93.7075    2.4394   -0.0034   30.4399    3.4355   37.0000   37.0000 
1376.3244    8.5000    8.7877   -1.2589  121.8119 -999.0000  116.6434    3.0976    3.2733    2.7627    2.7281    4.5104   93.6812    2.4367   -0.0037   30.1486    3.3698   37.0000   37.0000 
1376.4768    8.5000    8.7614   -0.9163  120.4865 -999.0000  114.1457    3.1191    3.2863    2.7737    2.7065    4.5396   93.0801    2.4321   -0.0043   29.5230    3.3464   37.0000   37.0000 
1376.6292    8.5000    8.7701   -0.5801  118.1891 -999.0000  111.4278    3.1083    3.2619    2.7923    2.6783    4.3979   91.5290    2.4251   -0.0032   28.7328    3.4368   37.0000   37.0000 
1376.7816    8.5000    8.7748   -0.1969  112.0238 -999.0000  108.5236    3.0721    3.2296    2.7899    2.6768    4.3617   90.0625    2.4261   -0.0033   28.5055    3.8028   37.0000   37.0000 
1376.9340    8.5000    8.7746   -0.0535  110.2525 -999.0000  103.6447    3.0743    3.2366    2.7782    2.7118    4.0532   89.1971    2.4372   -0.0040   28.3409    4.0425   37.0000   37.0000 
1377.0864    8.5000    8.7793    0.2482  110.2263 -999.0000  103.1655    2.8221    2.8562    2.7556    2.7568    3.0575   88.8468    2.4432   -0.0062   28.0239    3.9603   37.0000   37.0000 
1377.2388    8.5000    8.7892    0.5696  112.3420 -999.0000  104.8868    2.8632    2.8399    2.7378    2.7678    3.7846   89.3700    2.4435   -0.0095   27.1400    3.6380   37.0000   37.0000 
1377.3912    8.5000    8.7958    0.6616  114.7957 -999.0000  110.7368    2.8033    2.8414    2.7209    2.7662    3.5918   90.7509    2.4373   -0.0120   26.6825    3.3502   37.0000   37.0000 
1377.5436    8.5000    8.7979    0.6353  114.5673 -999.0000  114.3613    2.7328    2.7837    2.7061    2.7405    3.4830   91.8629    2.4189   -0.0118   26.3962    3.3356   37.0000   37.0000 
1377.6960    8.5000    8.7879    0.8885  115.5895 -999.0000  114.7415    2.6691    2.6922    2.7103    2.6935    3.0011   92.4582    2.4005   -0.0100   26.8275    3.3423   37.0000   37.0000 
1377.8484    8.5000    8.7905    1.0718  115.7745 -999.0000  112.1058    2.6202    2.6481    2.6986    2.6827    2.9041   92.4631    2.3968   -0.0088   27.8071    3.2996   37.0000   37.0000 
1378.0008    8.5000    8.7972    1.1105  114.4890 -999.0000  108.4056    2.6492    2.6128    2.6478    2.6847    3.5382   91.6162    2.3969   -0.0085   28.9428    3.2778   37.0000   37.0000 
1378.1532    8.5000    8.7936    1.0647  114.8415 -999.0000  106.7063    2.6663    2.6522    2.6005    2.6717    2.9131   90.1476    2.4001   -0.0096   29.2499    3.3307   37.0000   37.0000 
1378.3056    8.5000    8.7895    0.9421  117.8251 -999.0000  106.1904    2.7265    2.7252    2.5828    2.6627    2.9803   89.2886    2.4111   -0.0095   28.1294    3.5425   37.0000   37.0000 
1378.4580    8.5000    8.7889    0.8099  120.0550 -999.0000  106.2903    2.8069    2.7754    2.5936    2.6393    3.7157   88.9329    2.4285   -0.0074   26.4375    3.5852   37.0000   37.0000 
1378.6104    8.5000    8.7762    0.7570  119.9167 -999.0000  108.3277    2.8609    2.7903    2.6195    2.6633    4.2189   89.3052    2.4382   -0.0042   25.9025    3.5415   37.0000   37.0000 
1378.7628    8.5000    8.7126    0.6215  118.6407 -999.0000  111.7667    2.8369    2.7798    2.6169    2.7093    3.5278   90.9734    2.4400   -0.0025   25.9634    3.5831   37.0000   37.0000 
1378.9152    8.5000    8.7151    0.3888  117.6548 -999.0000  115.1864    2.7441    2.7643    2.6156    2.7235    3.6691   92.1939    2.4413   -0.0026   27.0311    3.7047   37.0000   37.0000 
1379.0676    8.5000    8.7451    0.1273  118.6066 -999.0000  118.1513    2.7047    2.7212    2.6237    2.7212    3.5512   92.6760    2.4405   -0.0041   28.9014    3.7731   37.0000   37.0000 
1379.2200    8.5000    8.7786    0.0738  120.6108 -999.0000  119.8439    2.7156    2.6921    2.6482    2.6994    3.4851   92.7846    2.4373   -0.0079   29.8411    3.6659   37.0000   37.0000 
1379.3724    8.5000    8.7773    0.1260  125.4464 -999.0000  120.8652    2.7121    2.7403    2.6478    2.6750    3.5812   92.8551    2.4284   -0.0115   30.4613    3.4840   37.0000   37.0000 
1379.5248    8.5000    8.7615    0.4299  130.2917 -999.0000  121.0302    2.7284    2.7685    2.6476    2.6409    2.9796   91.9940    2.4069   -0.0146   30.2160    3.2278   37.0000   37.0000 
1379.6772    8.5000    8.7312    0.4796  132.5461 -999.0000  118.9020    2.7322    2.7489    2.6590    2.6111    3.3413   90.1237    2.4028   -0.0155   29.6788    3.2403   37.0000   37.0000 
1379.8296    8.5000    8.7037    0.9192  129.6506 -999.0000  114.7018    2.7878    2.7531    2.6841    2.6148    3.2585   88.3720    2.4080   -0.0123   29.6087    3.5238   37.0000   37.0000 
1379.9820    8.5000    8.7058    1.4219  124.9008 -999.0000  109.6899    2.8686    2.8209    2.7197    2.6935    2.6437   87.8637    2.4292   -0.0088   29.5819    4.0390   37.0000   37.0000 
1380.1344    8.5000    8.7135    1.7958  114.7924 -999.0000  103.3071    2.8983    2.8589    2.7495    2.7710    2.6523   87.9545    2.4463   -0.0083   29.6454    4.0551   37.0000   37.0000 
1380.2868    8.5000    8.7459    1.8159  111.7017 -999.0000  103.4282    2.8620    2.8634    2.7556    2.7902    4.2431   88.8453    2.4574   -0.0091   30.1072    3.7701   37.0000   37.0000 
1380.4392    8.5000    8.7764    1.7766  112.0870 -999.0000  105.9650    2.8374    2.8124    2.7478    2.7918    3.6931   89.8974    2.4535   -0.0107   30.2722    3.3782   37.0000   37.0000 
1380.5916    8.5000    8.7860    1.8954  112.2712 -999.0000  106.5834    2.7542    2.6672    2.7344    2.7348    3.1692   90.6365    2.4160   -0.0102   29.9509    3.3787   37.0000   37.0000 
1380.7440    8.5000    8.8001    2.2799  111.4050 -999.0000  105.9389    2.6190    2.5798    2.6975    2.7094    3.0132   91.3563    2.4099   -0.0088   28.4233    3.4145   37.0000   37.0000 
1380.8964    8.5000    8.7979    2.4274  109.3628 -999.0000  105.4838    2.6198    2.5942    2.6683    2.6828    2.7142   91.4565    2.4122   -0.0077   27.8537    3.3623   37.0000   37.0000 
1381.0488    8.5000    8.7922    2.3932  110.5185 -999.0000  107.2064    2.6789    2.6166    2.6307    2.6647    3.1790   91.4033    2.4120   -0.0071   28.0171    3.3445   37.0000   37.0000 
1381.2012    8.5000    8.7895    2.3219  114.2935 -999.0000  112.0513    2.6891    2.6351    2.6028    2.6244    3.4214   91.6920    2.4086   -0.0067   28.7341    3.3970   37.0000   37.0000 
1381.3536    8.5000    8.7861    2.3822  116.4993 -999.0000  114.9595    2.6533    2.6015    2.5600    2.5621    3.3975   92.1028    2.4039   -0.0056   29.6117    3.4366   37.0000   37.0000 
1381.5060    8.5000    8.7874    2.5938  116.5045 -999.0000  115.3859    2.5367    2.5242    2.4940    2.4943    3.1957   92.2750    2.3956   -0.0044   29.3239    3.4068   37.0000   37.0000 
1381.6584    8.5000    8.7945    3.0431  116.0734 -999.0000  113.7236    2.3576    2.3412    2.4076    2.4300    2.6917   92.1172    2.3908   -0.0044   28.7261    3.2851   37.0000   37.0000 
1381.8108    8.5000    8.8007    3.0544  115.9475 -999.0000  111.3385    2.2371    2.1434    2.3148    2.3789    1.9732   91.8187    2.3775   -0.0054   27.6355    3.2595   37.0000   37.0000 
1381.9632    8.5000    8.8007    2.8983  114.8676 -999.0000  108.4108    2.2031    2.1444    2.3043    2.3359    1.9428   91.4773    2.3648   -0.0070   27.3707    3.3600   37.0000   37.0000 
1382.1156    8.5000    8.8041    2.7680  110.9958 -999.0000  105.5092    2.2845    2.2087    2.3314    2.3229    2.7082   90.9520    2.3664   -0.0078   27.1220    3.3804   37.0000   37.0000 
1382.2680    8.5000    8.8135    2.6986  111.3200 -999.0000  104.7798    2.4857    2.3755    2.3942    2.4187    2.7453   90.7664    2.3726   -0.0083   26.9056    3.2752   37.0000   37.0000 
1382.4204    8.5000    8.8193    2.7266  113.8253 -999.0000  105.3582    2.5861    2.5022    2.4412    2.4926    3.1116   91.0249    2.3892   -0.0082   27.2600    3.1824   37.0000   37.0000 
