~VERSION INFORMATION
 VERS.                 2.0:   CWLS LOG ASCII STANDARD - VERSION 2.0
 WRAP.                  NO:   SINGLE LINE PER DEPTH STEP
 CREA.                 19/01/2018 11:53:50
#CREATED USING DSPetro VERSION 5000.10.1.3 BY H191660 ON 19/01/2018 11:53:50
~WELL INFORMATION
#MNEM.UNIT       DATA                          DESCRIPTION MNEMONIC
#---------      ---------------------------   --------------------------
 STRT    .M         0.0000                    : START DEPTH
 STOP    .M         1999.9452                 : STOP DEPTH
 STEP    .M         0.1524                    : STEP VALUE
 NULL    .      -999.0000                     : NULL VALUE
 DATE    .      19/01/2018                    : LAS file Creation Date
 WELL .      2780_Saladin-1              : Well Name
 COMP .      Neftex Exploration Insights : Company
 FLD  .      SALADIN                     : Field
 UWI  .      ZAUWL_006048                : Unique Well Identifier (UWI)
 LOC  .                                  : Location
 RWS  .      -999                        : Def_Rw
 WST  .      -999                        : Def_Rwt
 SRVC .                                  : Contractor
~CURVE INFORMATION
#MNEM              UNIT       API CODE   Curve Type Comments
#----------  --------------- ----------  ---------- -----------
 DEPTH      .M                         : Depth       
 BitSize    .in                        : bitSize     
 CAL_INCH   .inch                      : Caliper     Caliper Log - A representation of the measured diameter of a borehole along its depth
 SP_MV1     .mv                        : SP          Spontaneous Potential - Records the electrical potential produced by the interaction of formation water, conductive drilling mud, and certain ion-sele
 GR_API     .API                       : gammaRay    Gamma Ray (API) - Measures the intensity of natural gamma-ray radiation emitted from formations containing radioactive elements, such as K, Th and U
 CGR_API    .API                       : gammaRay    Corrected / Computed Gamma Ray - Radiation with the Uranium component removed. Also known as a 'carbonate gamma ray'
 SGR_API    .API                       : gammaRay    Spectral Gamma Ray - Total gamma calibrated to API, measured using a spectoral gamma array tool
 LLD_OHMM   .ohmm                      : deepRes     Laterlog Deep Resistivity - Measurement made several feet into the formation; generally considered a measurement of the undisturbed formation
 LLS_OHMM   .ohmm                      : shalRes     Laterlog Shallow Resistivity - one to two feet into the formation; generally considered to measure the formation
 ILD_OHMM   .ohmm                      : deepRes     Deep Induction Resistivity - Measurement made an induction log, made several feet into the formation
 ILM_OHMM   .ohmm                      : medRes      Medium Induction Resistivity - Measurement made approximately two to three feet into the formation
 MSFL_OHMM  .ohmm                      : microRes    Micro-Spherically Focused Log - Measurement involves only the first few inches of the formation immediately adjacent to the borehole
 DT_US_FT   .us/ft                     : sonic       Interval Transit Time: Compressional Wave - Evaluates the time it takes for a compressional wave to traverse a fixed distance
 RHOB_G_CC  .g/cc                      : density     Bulk Density - Measures the density of bulk material, including any void space or other materials contained in the subject volume
 DRHO_G_CC  .g/cc                      : drho        Density Correction - Investigates the correction to the Bulk Density log; used as an indication of hole condition to validate the Bulk Density measure
 NPHI_v/v   .PC                        : Neutron     Neutron Porosity - Measured with an neutron logging device calibrated to a given matrix (limestone, sandstone and dolomite)
 PEF_B_E    .b/e-                      : PEF         Photoelectric Factor - A log of photoelectric absorption properties. Often expressed in an approximation unit barns/electron (b/e-)
 LITH       .                          : LITH        Lithology Curve
 LITH_v2    .                          : LITH        Lithology Curve
~A  DEPTH  BitSize   CAL_INCH   SP_MV1    GR_API   CGR_API   SGR_API   LLD_OHMM  LLS_OHMM  ILD_OHMM  ILM_OHMM MSFL_OHM   DT_US_FT RHOB_G_C  DRHO_G_C   NPHI_v/v  PEF_B_E     LITH    LITH_v2  
# ...
1331.3664    8.5000    9.0828   -2.1708  127.3813 -999.0000  121.5889    2.9983    3.1071    2.8093    2.8120    3.1482   90.8235    2.4442    0.0033   27.7647    3.2509   37.0000   37.0000 
1331.5188    8.5000    9.0906   -2.2736  127.0854 -999.0000  121.0533    2.7482    3.0865    2.7788    2.7764    3.5450   90.6644    2.4469    0.0026   27.6482    3.2638   37.0000   37.0000 
1331.6712    8.5000    9.0545   -2.2715  126.2719 -999.0000  117.4545    2.3235    2.8802    2.7059    2.6779    3.6396   90.2479    2.4469    0.0021   27.4368    3.2677   37.0000   37.0000 
1331.8236    8.5000    9.0206   -2.1640  124.3253 -999.0000  115.8008    2.1767    2.4194    2.6695    2.5162    3.5736   90.1223    2.4435    0.0025   26.7191    3.3018   37.0000   37.0000 
1331.9760    8.5000    8.9786   -2.1260  121.5624 -999.0000  116.0909    2.3368    2.3684    2.6700    2.4668    2.3855   90.2963    2.4305    0.0023   26.6609    3.4092   37.0000   37.0000 
1332.1284    8.5000    8.9646   -2.1557  118.5734 -999.0000  119.4883    2.6932    2.4712    2.6933    2.4998    2.3604   90.6834    2.4289    0.0007   27.2420    3.4880   37.0000   37.0000 
1332.2808    8.5000    9.0024   -2.4404  118.9156 -999.0000  124.1837    2.9784    2.7936    2.6638    2.5955    3.3001   91.3536    2.4370   -0.0024   29.3111    3.5399   37.0000   37.0000 
1332.4332    8.5000    9.0566   -2.7988  124.4511 -999.0000  125.9086    3.0362    3.1284    2.6354    2.6435    3.6648   91.8543    2.4557   -0.0060   30.1923    3.5405   37.0000   37.0000 
1332.5856    8.5000    9.0891   -2.9402  130.6827 -999.0000  127.0588    2.9954    3.2129    2.6355    2.6707    3.8205   92.3718    2.4626   -0.0079   29.3574    3.5178   37.0000   37.0000 
1332.7380    8.5000    9.0812   -3.0124  134.1549 -999.0000  129.4630    2.9117    3.2237    2.6778    2.6800    3.7555   92.5855    2.4620   -0.0086   29.2687    3.5105   37.0000   37.0000 
1332.8904    8.5000    9.0122   -3.1789  136.6538 -999.0000  131.5762    2.8594    3.1700    2.7624    2.6800    3.8117   93.1694    2.4570   -0.0073   29.9879    3.5525   37.0000   37.0000 
1333.0428    8.5000    8.9403   -3.5708  137.8243 -999.0000  132.5636    2.8822    3.1515    2.8410    2.7564    4.1137   93.6266    2.4433   -0.0032   30.9616    3.5963   37.0000   37.0000 
1333.1952    8.5000    8.9037   -3.5669  137.1915 -999.0000  132.4731    2.9289    3.1650    2.8902    2.8690    3.5505   93.4765    2.4392   -0.0008   30.7319    3.5957   37.0000   37.0000 
1333.3476    8.5000    8.9407   -3.4260  135.4299 -999.0000  132.1854    2.9643    3.1976    2.9122    2.9052    3.1185   92.7165    2.4409    0.0005   29.8429    3.5359   37.0000   37.0000 
1333.5000    8.5000    8.9640   -3.3360  133.3807 -999.0000  132.4360    2.9901    3.2637    2.8843    2.9193    3.2896   92.1601    2.4432    0.0002   29.4628    3.3785   37.0000   37.0000 
1333.6524    8.5000    9.0138   -3.3879  132.4915 -999.0000  133.2181    3.0097    3.2762    2.8644    2.9222    3.6556   92.0811    2.4424   -0.0009   29.3660    3.2214   37.0000   37.0000 
1333.8048    8.5000    9.0520   -3.6515  132.6613 -999.0000  135.2504    3.0157    3.2744    2.8634    2.9539    4.0193   92.2160    2.4397   -0.0012   29.5135    3.1143   37.0000   37.0000 
1333.9572    8.5000    9.0545   -3.9877  133.1743 -999.0000  136.6664    3.0438    3.2637    2.8630    2.9817    3.2876   93.0241    2.4332    0.0001   29.8864    3.1221   37.0000   37.0000 
1334.1096    8.5000    9.0192   -4.2246  133.7832 -999.0000  136.4642    3.0519    3.2951    2.8649    3.0137    4.0658   93.5262    2.4333    0.0009   29.4847    3.2550   37.0000   37.0000 
1334.2620    8.5000    8.9587   -4.3114  133.7401 -999.0000  135.4235    3.0316    3.3173    2.8782    3.0077    3.9812   93.2670    2.4384    0.0017   29.2630    3.3695   37.0000   37.0000 
1334.4144    8.5000    8.8891   -4.3670  133.2589 -999.0000  135.4849    2.9884    3.2954    2.8929    2.9915    3.9676   92.8046    2.4402    0.0035   29.6181    3.3817   37.0000   37.0000 
1334.5668    8.5000    8.8920   -4.4403  132.8040 -999.0000  135.9426    2.9512    3.2311    2.9090    2.9713    3.3973   92.7836    2.4394    0.0047   30.1017    3.3410   37.0000   37.0000 
1334.7192    8.5000    8.9050   -4.4728  132.5044 -999.0000  135.6144    2.9419    3.1877    2.9021    2.9747    3.7746   92.8840    2.4412    0.0043   30.4145    3.2443   37.0000   37.0000 
1334.8716    8.5000    8.9136   -4.5516  133.2567 -999.0000  135.1648    2.9580    3.1981    2.8884    2.9881    3.9929   93.1759    2.4499    0.0031   30.5434    3.3590   37.0000   37.0000 
1335.0240    8.5000    8.9172   -4.6706  136.3093 -999.0000  134.6494    2.9695    3.2126    2.8694    2.9844    3.7447   93.6463    2.4543    0.0026   30.7517    3.5578   37.0000   37.0000 
1335.1764    8.5000    8.9302   -4.7872  139.1276 -999.0000  133.4207    2.9501    3.2495    2.8338    2.9570    4.0423   94.4824    2.4559    0.0031   30.5529    3.7223   37.0000   37.0000 
1335.3288    8.5000    8.9318   -4.8663  139.2949 -999.0000  131.2582    2.8868    3.2232    2.7797    2.8762    3.7512   95.2673    2.4550    0.0037   30.5473    3.7294   37.0000   37.0000 
1335.4812    8.5000    8.9273   -4.8382  138.3192 -999.0000  129.1095    2.8360    3.1507    2.7572    2.8041    3.7932   95.5311    2.4518    0.0037   30.8678    3.6650   37.0000   37.0000 
1335.6336    8.5000    8.9268   -4.6805  137.2809 -999.0000  128.9746    2.8600    3.0694    2.7555    2.7968    3.6239   95.7645    2.4514    0.0038   31.2574    3.6339   37.0000   37.0000 
1335.7860    8.5000    8.9202   -4.3559  138.3705 -999.0000  129.8324    2.8971    3.0530    2.7554    2.7847    3.6701   95.7483    2.4529    0.0036   31.1570    3.6010   37.0000   37.0000 
1335.9384    8.5000    8.9216   -4.1169  140.6128 -999.0000  130.1875    2.9284    3.0393    2.7590    2.7723    3.6247   95.4888    2.4545    0.0021   30.6597    3.4730   37.0000   37.0000 
1336.0908    8.5000    8.9309   -4.0828  141.0383 -999.0000  128.0549    2.9558    3.0674    2.7484    2.7799    3.7719   94.7072    2.4621    0.0009   29.4033    3.4482   37.0000   37.0000 
1336.2432    8.5000    8.9362   -4.1126  137.5928 -999.0000  121.6957    2.9269    3.0806    2.7427    2.7790    3.6980   93.5617    2.4743    0.0025   29.0189    3.5822   37.0000   37.0000 
1336.3956    8.5000    8.9390   -3.9391  130.6725 -999.0000  114.6211    2.8699    3.0712    2.7227    2.7685    3.3934   91.4990    2.4905    0.0064   28.8972    3.8603   37.0000   37.0000 
1336.5480    8.5000    8.9416   -3.4915  123.6415 -999.0000  109.5322    2.8084    3.0527    2.6714    2.7403    3.6509   90.0490    2.5097    0.0052   28.9225    4.2407   37.0000   37.0000 
1336.7004    8.5000    8.9426   -3.2215  116.5361 -999.0000  106.4247    2.7137    2.9675    2.5892    2.6837    3.7092   89.2831    2.5317    0.0032   28.9649    4.4735   37.0000   23.0000 
1336.8528    8.5000    8.9383   -3.2645  113.8323 -999.0000  106.0573    2.6527    2.9165    2.5500    2.6110    3.5580   89.0990    2.5435    0.0016   29.1302    4.3943   37.0000   23.0000 
1337.0052    8.5000    8.9378   -3.5199  114.3092 -999.0000  109.8182    2.6389    2.8384    2.5468    2.5854    3.0187   89.5776    2.5423    0.0026   29.2284    4.1649   37.0000   23.0000 
1337.1576    8.5000    8.9449   -3.5686  116.0736 -999.0000  112.1425    2.6616    2.8338    2.5404    2.5806    3.1722   90.7893    2.5163    0.0029   29.0743    4.0937   37.0000   37.0000 
1337.3100    8.5000    8.9409   -3.5505  121.1685 -999.0000  112.7502    2.6916    2.8417    2.5178    2.5736    3.1720   92.0837    2.5100    0.0043   29.0693    4.0412   37.0000   37.0000 
1337.4624    8.5000    8.9522   -3.7051  124.1747 -999.0000  112.3417    2.7247    2.8819    2.4716    2.5516    3.2704   92.8921    2.5110    0.0045   29.2904    3.9903   37.0000   37.0000 
1337.6148    8.5000    8.9509   -4.0600  121.8562 -999.0000  111.9587    2.7377    2.9061    2.4377    2.5739    3.2824   93.2885    2.5194    0.0033   29.4824    4.0320   37.0000   23.0000 
