~VERSION INFORMATION
 VERS.                 2.0:   CWLS LOG ASCII STANDARD - VERSION 2.0
 WRAP.                  NO:   SINGLE LINE PER DEPTH STEP
 CREA.                 19/01/2018 11:53:50
#CREATED USING DSPetro VERSION 5000.10.1.3 BY H191660 ON 19/01/2018 11:53:50
~WELL INFORMATION
#MNEM.UNIT       DATA                          DESCRIPTION MNEMONIC
#---------      ---------------------------   --------------------------
 STRT    .M         0.0000                    : START DEPTH
 STOP    .M         1999.9452                 : STOP DEPTH
 STEP    .M         0.1524                    : STEP VALUE
 NULL    .      -999.0000                     : NULL VALUE
 DATE    .      19/01/2018                    : LAS file Creation Date
 WELL .      2780_Saladin-1              : Well Name
 COMP .      Neftex Exploration Insights : Company
 FLD  .      SALADIN                     : Field
 UWI  .      ZAUWL_006048                : Unique Well Identifier (UWI)
 LOC  .                                  : Location
 RWS  .      -999                        : Def_Rw
 WST  .      -999                        : Def_Rwt
 SRVC .                                  : Contractor
~CURVE INFORMATION
#MNEM              UNIT       API CODE   Curve Type Comments
#----------  --------------- ----------  ---------- -----------
 DEPTH      .M                         : Depth       
 BitSize    .in                        : bitSize     
 CAL_INCH   .inch                      : Caliper     Caliper Log - A representation of the measured diameter of a borehole along its depth
 SP_MV1     .mv                        : SP          Spontaneous Potential - Records the electrical potential produced by the interaction of formation water, conductive drilling mud, and certain ion-sele
 GR_API     .API                       : gammaRay    Gamma Ray (API) - Measures the intensity of natural gamma-ray radiation emitted from formations containing radioactive elements, such as K, Th and U
 CGR_API    .API                       : gammaRay    Corrected / Computed Gamma Ray - Radiation with the Uranium component removed. Also known as a 'carbonate gamma ray'
 SGR_API    .API                       : gammaRay    Spectral Gamma Ray - Total gamma calibrated to API, measured using a spectoral gamma array tool
 LLD_OHMM   .ohmm                      : deepRes     Laterlog Deep Resistivity - Measurement made several feet into the formation; generally considered a measurement of the undisturbed formation
 LLS_OHMM   .ohmm                      : shalRes     Laterlog Shallow Resistivity - one to two feet into the formation; generally considered to measure the formation
 ILD_OHMM   .ohmm                      : deepRes     Deep Induction Resistivity - Measurement made an induction log, made several feet into the formation
 ILM_OHMM   .ohmm                      : medRes      Medium Induction Resistivity - Measurement made approximately two to three feet into the formation
 MSFL_OHMM  .ohmm                      : microRes    Micro-Spherically Focused Log - Measurement involves only the first few inches of the formation immediately adjacent to the borehole
 DT_US_FT   .us/ft                     : sonic       Interval Transit Time: Compressional Wave - Evaluates the time it takes for a compressional wave to traverse a fixed distance
 RHOB_G_CC  .g/cc                      : density     Bulk Density - Measures the density of bulk material, including any void space or other materials contained in the subject volume
 DRHO_G_CC  .g/cc                      : drho        Density Correction - Investigates the correction to the Bulk Density log; used as an indication of hole condition to validate the Bulk Density measure
 NPHI_v/v   .PC                        : Neutron     Neutron Porosity - Measured with an neutron logging device calibrated to a given matrix (limestone, sandstone and dolomite)
 PEF_B_E    .b/e-                      : PEF         Photoelectric Factor - A log of photoelectric absorption properties. Often expressed in an approximation unit barns/electron (b/e-)
 LITH       .                          : LITH        Lithology Curve
 LITH_v2    .                          : LITH        Lithology Curve
~A  DEPTH  BitSize   CAL_INCH   SP_MV1    GR_API   CGR_API   SGR_API   LLD_OHMM  LLS_OHMM  ILD_OHMM  ILM_OHMM MSFL_OHM   DT_US_FT RHOB_G_C  DRHO_G_C   NPHI_v/v  PEF_B_E     LITH    LITH_v2  
# ...
1568.1960    8.5000    8.4494    1.9818  118.5500 -999.0000  109.9602    1.3728    1.2353    1.6211    1.6006    0.9083   87.8975    2.3225    0.0048   21.6672    1.9389   31.0000   31.0000 
1568.3484    8.5000    8.3857    2.2133  119.2895 -999.0000  109.8988    1.3445    1.1922    1.6305    1.5842    1.0059   88.0719    2.3147    0.0077   21.3822    1.9124   31.0000   31.0000 
1568.5008    8.5000    8.3336    2.4396  115.8387 -999.0000  109.3259    1.3518    1.1721    1.6359    1.5414    0.8907   88.9841    2.3148    0.0289   21.4187    1.9338   31.0000   31.0000 
1568.6532    8.5000    8.3159    2.5952  108.8324 -999.0000  107.3917    1.3648    1.1822    1.6429    1.4856    0.8467   89.4497    2.3314    0.0656   21.6453    1.9707   31.0000   31.0000 
1568.8056    8.5000    8.3646    2.6482  109.2682 -999.0000  106.4934    1.3533    1.1908    1.6541    1.4788    0.8046   89.2965    2.3563    0.0808   22.6127    2.0153   31.0000   31.0000 
1568.9580    8.5000    8.4011    2.6653  111.8189 -999.0000  105.9850    1.3608    1.1958    1.6731    1.4941    0.7858   88.9981    2.3598    0.0759   23.3442    2.0448   31.0000   37.0000 
1569.1104    8.5000    8.4113    2.6191  114.5827 -999.0000  104.4861    1.3756    1.2039    1.6898    1.5822    0.8362   88.8783    2.3329    0.0446   23.7198    2.0567   31.0000   31.0000 
1569.2628    8.5000    8.3915    2.3111  115.0654 -999.0000  104.1972    1.3929    1.2141    1.7021    1.6530    0.8469   88.9226    2.3075    0.0170   23.4863    2.1319   31.0000   31.0000 
1569.4152    8.5000    8.3438    2.3155  115.6943 -999.0000  105.1676    1.4370    1.2802    1.7077    1.6789    0.9914   88.8010    2.3067    0.0073   22.9354    2.2144   31.0000   31.0000 
1569.5676    8.5000    8.3331    2.4376  121.0722 -999.0000  108.7314    1.5417    1.3589    1.6952    1.6820    1.0004   88.0876    2.3144    0.0148   21.8150    2.2577   31.0000   31.0000 
1569.7200    8.5000    8.3626    2.4610  125.3868 -999.0000  114.0305    1.6345    1.4018    1.7129    1.6588    0.9661   86.9671    2.3311    0.0408   21.9220    2.2651   31.0000   31.0000 
1569.8724    8.5000    8.4149    2.3420  124.0986 -999.0000  116.0081    1.6165    1.4069    1.7350    1.6223    1.1823   86.4290    2.3596    0.0480   22.3739    2.2289   31.0000   37.0000 
1570.0248    8.5000    8.4336    2.3652  120.1858 -999.0000  115.9446    1.5685    1.3882    1.7415    1.6165    1.8102   86.5620    2.3603    0.0458   23.4595    2.1147   31.0000   37.0000 
1570.1772    8.5000    8.4375    2.6267  114.1731 -999.0000  110.6190    1.4446    1.2997    1.7329    1.5839    1.0849   87.4479    2.3329    0.0303   24.0362    2.0172   31.0000   31.0000 
1570.3296    8.5000    8.4153    2.8526  112.9859 -999.0000  104.5934    1.3202    1.1719    1.7109    1.5059    0.7397   88.6521    2.3096    0.0130   23.2439    1.9840   31.0000   31.0000 
1570.4820    8.5000    8.3764    3.0034  113.3075 -999.0000  103.0553    1.2575    1.1077    1.6696    1.4818    0.7871   89.6227    2.2931    0.0079   22.4177    1.9899   31.0000   31.0000 
1570.6344    8.5000    8.3386    2.7282  114.9725 -999.0000  104.7738    1.2813    1.1100    1.6112    1.4801    0.8863   89.9982    2.2907    0.0168   21.6549    1.9686   31.0000   31.0000 
1570.7868    8.5000    8.3222    2.4241  116.0171 -999.0000  104.9480    1.3051    1.1181    1.5595    1.4577    0.9102   89.9495    2.2963    0.0352   21.7841    1.9525   31.0000   31.0000 
1570.9392    8.5000    8.3472    2.5244  116.0944 -999.0000  104.1514    1.2916    1.1187    1.5327    1.3739    0.7572   90.0086    2.3050    0.0464   21.8864    1.9799   31.0000   31.0000 
1571.0916    8.5000    8.3946    2.7101  115.0790 -999.0000  103.8227    1.2952    1.1096    1.5276    1.3482    0.7101   90.1275    2.3101    0.0495   22.3706    2.0200   31.0000   31.0000 
1571.2440    8.5000    8.4410    2.6894  114.2469 -999.0000  105.0168    1.3211    1.1098    1.5561    1.4098    0.7578   89.6861    2.3108    0.0422   22.5901    2.0401   31.0000   31.0000 
1571.3964    8.5000    8.4561    2.4474  114.2401 -999.0000  106.5352    1.3638    1.1559    1.5927    1.4822    0.7722   89.0855    2.3092    0.0231   21.6750    2.0522   31.0000   31.0000 
1571.5488    8.5000    8.4546    2.3777  113.4024 -999.0000  107.6054    1.4204    1.2297    1.6080    1.5541    0.8726   88.9126    2.3055    0.0076   20.9587    2.0392   31.0000   31.0000 
1571.7012    8.5000    8.4205    2.4946  110.4154 -999.0000  107.9647    1.4590    1.2612    1.6090    1.5743    0.9570   88.6420    2.3018    0.0032   20.9969    2.0383   31.0000   31.0000 
1571.8536    8.5000    8.3931    2.6502  110.0267 -999.0000  107.8085    1.4679    1.2687    1.6036    1.5601    0.9639   88.4595    2.3004    0.0077   21.2084    2.0489   31.0000   31.0000 
1572.0060    8.5000    8.4107    2.8349  113.2230 -999.0000  106.4843    1.4500    1.2653    1.5999    1.5096    0.8900   88.3962    2.3012    0.0275   21.7393    2.0534   31.0000   31.0000 
1572.1584    8.5000    8.4342    2.9749  118.9270 -999.0000  104.5755    1.3930    1.2405    1.6039    1.4706    0.8648   88.6146    2.3098    0.0345   22.6012    2.0469   31.0000   31.0000 
1572.3108    8.5000    8.4405    3.0459  119.7424 -999.0000  103.2429    1.3226    1.1867    1.6124    1.4668    0.8138   89.0021    2.3104    0.0300   23.6167    2.0038   31.0000   31.0000 
1572.4632    8.5000    8.4188    3.0444  114.0811 -999.0000  102.1182    1.2590    1.1093    1.6087    1.4510    0.8109   89.4129    2.2987    0.0167   23.9244    1.9332   31.0000   31.0000 
1572.6156    8.5000    8.4112    3.0112  106.0206 -999.0000  101.0909    1.2238    1.0693    1.5901    1.4594    0.7522   89.6178    2.2817    0.0051   23.6960    1.8879   31.0000   31.0000 
1572.7680    8.5000    8.4215    3.0415  103.2120 -999.0000  101.9113    1.2155    1.0711    1.5541    1.4522    0.7758   89.5422    2.2805    0.0037   23.0173    1.9021   31.0000   31.0000 
1572.9204    8.5000    8.4375    3.0367  103.4715 -999.0000  103.1624    1.2256    1.0948    1.4807    1.3946    0.8503   89.5704    2.2835    0.0127   22.2079    1.9342   31.0000   31.0000 
1573.0728    8.5000    8.4560    3.1211  106.4595 -999.0000  103.3756    1.2558    1.1057    1.4400    1.3555    0.8008   89.5820    2.2925    0.0392   22.2375    1.9507   31.0000   31.0000 
1573.2252    8.5000    8.4882    3.1886  110.8114 -999.0000  103.2340    1.2855    1.1143    1.4374    1.3294    0.6929   89.8137    2.3028    0.0420   23.1373    1.9590   31.0000   31.0000 
1573.3776    8.5000    8.5061    3.1056  113.9166 -999.0000  102.7969    1.2975    1.1344    1.4487    1.3377    0.7232   89.8995    2.3048    0.0340   24.3889    1.9727   31.0000   31.0000 
1573.5300    8.5000    8.5155    2.9210  115.3822 -999.0000  102.7141    1.3080    1.1691    1.4988    1.3818    0.7734   89.5158    2.2996    0.0197   24.6617    2.0211   31.0000   31.0000 
1573.6824    8.5000    8.5241    2.6936  115.9328 -999.0000  103.2057    1.3527    1.1969    1.5643    1.4448    0.7798   88.9841    2.2941    0.0019   24.3910    2.0638   31.0000   31.0000 
1573.8348    8.5000    8.5143    2.2559  116.3909 -999.0000  104.3789    1.3802    1.2139    1.5809    1.5034    0.9379   88.8549    2.2933    0.0013   22.5662    2.0712   31.0000   31.0000 
1573.9872    8.5000    8.4639    1.9274  116.0452 -999.0000  106.1790    1.3856    1.2209    1.5748    1.5076    1.0120   88.9438    2.3004    0.0054   21.5155    2.0639   31.0000   31.0000 
1574.1396    8.5000    8.4129    1.8713  116.5729 -999.0000  107.8738    1.3767    1.2167    1.5610    1.4616    0.9863   89.2621    2.3013    0.0135   21.6633    2.0400   31.0000   31.0000 
1574.2920    8.5000    8.3988    1.7925  118.5029 -999.0000  108.5106    1.3531    1.1946    1.5526    1.4147    0.8455   89.4601    2.2991    0.0198   22.4099    2.0006   31.0000   31.0000 
1574.4444    8.5000    8.4098    1.6829  121.7826 -999.0000  108.9462    1.3266    1.1773    1.5608    1.4320    0.7237   89.4976    2.2984    0.0226   23.1583    2.0035   31.0000   31.0000 
