~VERSION INFORMATION
 VERS.                 2.0:   CWLS LOG ASCII STANDARD - VERSION 2.0
 WRAP.                  NO:   SINGLE LINE PER DEPTH STEP
 CREA.                 19/01/2018 11:53:50
#CREATED USING DSPetro VERSION 5000.10.1.3 BY H191660 ON 19/01/2018 11:53:50
~WELL INFORMATION
#MNEM.UNIT       DATA                          DESCRIPTION MNEMONIC
#---------      ---------------------------   --------------------------
 STRT    .M         0.0000                    : START DEPTH
 STOP    .M         1999.9452                 : STOP DEPTH
 STEP    .M         0.1524                    : STEP VALUE
 NULL    .      -999.0000                     : NULL VALUE
 DATE    .      19/01/2018                    : LAS file Creation Date
 WELL .      2780_Saladin-1              : Well Name
 COMP .      Neftex Exploration Insights : Company
 FLD  .      SALADIN                     : Field
 UWI  .      ZAUWL_006048                : Unique Well Identifier (UWI)
 LOC  .                                  : Location
 RWS  .      -999                        : Def_Rw
 WST  .      -999                        : Def_Rwt
 SRVC .                                  : Contractor
~CURVE INFORMATION
#MNEM              UNIT       API CODE   Curve Type Comments
#----------  --------------- ----------  ---------- -----------
 DEPTH      .M                         : Depth       
 BitSize    .in                        : bitSize     
 CAL_INCH   .inch                      : Caliper     Caliper Log - A representation of the measured diameter of a borehole along its depth
 SP_MV1     .mv                        : SP          Spontaneous Potential - Records the electrical potential produced by the interaction of formation water, conductive drilling mud, and certain ion-sele
 GR_API     .API                       : gammaRay    Gamma Ray (API) - Measures the intensity of natural gamma-ray radiation emitted from formations containing radioactive elements, such as K, Th and U
 CGR_API    .API                       : gammaRay    Corrected / Computed Gamma Ray - Radiation with the Uranium component removed. Also known as a 'carbonate gamma ray'
 SGR_API    .API                       : gammaRay    Spectral Gamma Ray - Total gamma calibrated to API, measured using a spectoral gamma array tool
 LLD_OHMM   .ohmm                      : deepRes     Laterlog Deep Resistivity - Measurement made several feet into the formation; generally considered a measurement of the undisturbed formation
 LLS_OHMM   .ohmm                      : shalRes     Laterlog Shallow Resistivity - one to two feet into the formation; generally considered to measure the formation
 ILD_OHMM   .ohmm                      : deepRes     Deep Induction Resistivity - Measurement made an induction log, made several feet into the formation
 ILM_OHMM   .ohmm                      : medRes      Medium Induction Resistivity - Measurement made approximately two to three feet into the formation
 MSFL_OHMM  .ohmm                      : microRes    Micro-Spherically Focused Log - Measurement involves only the first few inches of the formation immediately adjacent to the borehole
 DT_US_FT   .us/ft                     : sonic       Interval Transit Time: Compressional Wave - Evaluates the time it takes for a compressional wave to traverse a fixed distance
 RHOB_G_CC  .g/cc                      : density     Bulk Density - Measures the density of bulk material, including any void space or other materials contained in the subject volume
 DRHO_G_CC  .g/cc                      : drho        Density Correction - Investigates the correction to the Bulk Density log; used as an indication of hole condition to validate the Bulk Density measure
 NPHI_v/v   .PC                        : Neutron     Neutron Porosity - Measured with an neutron logging device calibrated to a given matrix (limestone, sandstone and dolomite)
 PEF_B_E    .b/e-                      : PEF         Photoelectric Factor - A log of photoelectric absorption properties. Often expressed in an approximation unit barns/electron (b/e-)
 LITH       .                          : LITH        Lithology Curve
 LITH_v2    .                          : LITH        Lithology Curve
~A  DEPTH  BitSize   CAL_INCH   SP_MV1    GR_API   CGR_API   SGR_API   LLD_OHMM  LLS_OHMM  ILD_OHMM  ILM_OHMM MSFL_OHM   DT_US_FT RHOB_G_C  DRHO_G_C   NPHI_v/v  PEF_B_E     LITH    LITH_v2  
# ...
1184.1480    8.5000    8.5619    1.3355   62.5722   64.3007   64.2313    0.8413    0.6578    0.6660    0.6731    0.5118   93.2842    2.3271    0.0475   21.7083    1.7906   36.0000   36.0000 
1184.3004    8.5000    8.5727    1.4544   68.6946   64.7064   64.8093    0.8354    0.6527    0.6647    0.6737    0.5068   94.6778    2.3008    0.0502   22.9183    1.6601   36.0000   36.0000 
1184.4528    8.5000    8.5926    1.4410   68.5382   64.7154   63.0036    0.8192    0.6439    0.6608    0.6730    0.4289   94.6659    2.2587    0.0493   24.2499    1.6595   36.0000   36.0000 
1184.6052    8.5000    8.6719    1.4270   65.4208   63.6250   58.6413    0.7959    0.6337    0.6507    0.6680    0.4152   94.7223    2.2485    0.0505   24.7867    1.8806   36.0000   36.0000 
1184.7576    8.5000    8.6770    1.2038   63.1974   62.6844   58.0091    0.7553    0.6150    0.6353    0.6489    0.4499   95.2984    2.2874    0.0499   24.8019    2.0158   36.0000   36.0000 
1184.9100    8.5000    8.6627    0.9995   62.9237   62.8505   57.6000    0.7327    0.5992    0.6137    0.6364    0.5560   96.1072    2.3445    0.0504   24.6521    1.9918   37.0000   36.0000 
1185.0624    8.5000    8.6534    0.8954   63.2323   62.7103   57.5614    0.7370    0.5938    0.6017    0.6349    0.4613  101.0791    2.3607    0.0540   24.7593    1.8232   37.0000   36.0000 
1185.2148    8.5000    8.6108    0.8327   62.8653   62.4552   58.0245    0.7485    0.6009    0.5866    0.6231    0.4090  103.9606    2.3099    0.0574   24.4548    1.6568   37.0000   36.0000 
1185.3672    8.5000    8.5988    0.8433   63.7261   62.5209   58.8418    0.7592    0.6083    0.5792    0.6253    0.4835  102.6489    2.2736    0.0463   24.0305    1.6324   36.0000   36.0000 
1185.5196    8.5000    8.5444    1.0085   66.5148   63.0413   60.7603    0.7703    0.6159    0.5775    0.6331    0.5055   99.4678    2.2352    0.0249   22.7394    1.6752   36.0000   36.0000 
1185.6720    8.5000    8.5029    1.0629   69.6535   62.8243   64.7076    0.7646    0.6187    0.5818    0.6208    0.4371   99.2077    2.2222    0.0182   22.5050    1.7067   36.0000   36.0000 
1185.8244    8.5000    8.5503    1.1967   71.2982   62.0338   69.5253    0.7647    0.6189    0.5929    0.6015    0.5040  101.5296    2.2255    0.0179   22.9307    1.7193   36.0000   36.0000 
1185.9768    8.5000    8.6771    1.3546   74.8575   60.3221   77.0591    0.7762    0.6250    0.6115    0.6120    0.5536  103.4881    2.2381    0.0219   24.0697    1.7210   36.0000   36.0000 
1186.1292    8.5000    8.7293    1.3297   82.7926   58.8855   84.6857    0.8073    0.6421    0.6524    0.6608    0.4367  101.6503    2.2405    0.0284   25.6947    1.7209   36.0000   36.0000 
1186.2816    8.5000    8.7211    1.1980   93.0129   58.0340  100.3027    0.8461    0.6902    0.7132    0.7343    0.4596  100.2935    2.2316    0.0312   26.0603    1.7071   36.0000   36.0000 
1186.4340    8.5000    8.6893    1.2542  109.4920   56.6005  115.4691    0.9474    0.7810    0.8148    0.7999    0.4369   97.7846    2.2303    0.0302   25.3463    1.7008   36.0000   37.0000 
1186.5864    8.5000    8.6541    1.3027  130.1823   54.5331  121.3269    1.1086    0.8807    0.9896    1.0235    0.5096   94.3891    2.2401    0.0247   22.7805    1.7006   36.0000   37.0000 
1186.7388    8.5000    8.6479    1.2525  133.8187   54.2709  120.4552    1.3125    1.1555    1.1490    1.1843    1.0563   91.0759    2.3100   -0.0113   21.4950    1.7064   36.0000   37.0000 
1186.8912    8.5000    8.6492    1.1067  128.6642   53.8342  114.9773    1.7016    1.3829    1.3407    1.3691    0.9330   88.1138    2.3312   -0.0087   19.0274    1.6325   36.0000   37.0000 
1187.0436    8.5000    8.6628    1.0803  122.1965   53.4034  109.6492    1.7923    1.5140    1.4256    1.4555    1.1579   86.6626    2.3453   -0.0055   17.9526    1.6286   36.0000   36.0000 
1187.1960    8.5000    8.6871    1.2029  117.7756   53.1072  101.6839    1.7893    1.4479    1.4143    1.4518    1.6066   86.2732    2.3410   -0.0034   18.0822    1.5794   36.0000   36.0000 
1187.3484    8.5000    8.6729    1.2366  105.6119   54.5376   88.7403    1.6084    1.1934    1.2896    1.2761    1.4664   88.9675    2.3185   -0.0035   19.2688    1.4692   36.0000   36.0000 
1187.5008    8.5000    8.6298    1.2533   89.2195   60.3024   65.8566    1.2554    0.9683    1.1414    1.0087    0.7614   93.8865    2.2552   -0.0054   22.5519    1.3942   36.0000   36.0000 
1187.6532    8.5000    8.5954    1.2517   72.4996   67.7502   56.9860    0.8875    0.7256    0.9788    0.8669    0.3987   98.3660    2.1944   -0.0084   25.7700    1.3566   36.0000   36.0000 
1187.8056    8.5000    8.5834    1.2689   66.9171   76.2487   54.9134    0.6824    0.6102    0.8903    0.7450    0.4037  101.0135    2.1585   -0.0097   28.3329    1.3594   36.0000   36.0000 
1187.9580    8.5000    8.6044    1.2412   64.8889 -999.0000   53.9490    0.6488    0.5569    0.8060    0.7152    0.4345  101.4669    2.1383   -0.0088   28.7626    1.3808   36.0000   36.0000 
1188.1104    8.5000    8.5710    1.1771   61.4623 -999.0000   53.4998    0.6695    0.5680    0.7018    0.6815    0.4066  101.2620    2.1434   -0.0078   27.9718    1.3811   36.0000   36.0000 
1188.2628    8.5000    8.5176    0.9343   56.3853 -999.0000   53.0085    0.6932    0.6008    0.5737    0.6176    0.4270  100.9090    2.1563   -0.0033   26.4083    1.3608   36.0000   36.0000 
1188.4152    8.5000    8.4921    0.7629   53.1033 -999.0000   51.6210    0.6986    0.6084    0.5154    0.5764    0.4573  100.5069    2.1642   -0.0004   25.8428    1.3526   36.0000   36.0000 
1188.5676    8.5000    8.5460    0.7601   52.2977 -999.0000   51.2486    0.6962    0.6026    0.5031    0.5588    0.3947  100.4555    2.1659    0.0005   25.6836    1.3565   36.0000   36.0000 
1188.7200    8.5000    8.5846    0.7202   53.8353 -999.0000   52.1282    0.6922    0.5892    0.5003    0.5556    0.3623  100.6104    2.1623   -0.0048   26.1514    1.3647   36.0000   36.0000 
1188.8724    8.5000    8.6023    0.5885   58.1817 -999.0000   54.1754    0.6794    0.5798    0.5052    0.5639    0.3795  100.7577    2.1567   -0.0100   26.3502    1.3899   36.0000   36.0000 
1189.0248    8.5000    8.5931    0.4562   62.8047 -999.0000   54.6033    0.6498    0.5675    0.5126    0.5750    0.3913  100.6828    2.1569   -0.0115   26.2231    1.4349   36.0000   36.0000 
1189.1772    8.5000    8.5392    0.4695   63.7318 -999.0000   54.3002    0.6360    0.5550    0.5288    0.5761    0.4182  100.4162    2.1596   -0.0114   25.7405    1.4679   36.0000   36.0000 
1189.3296    8.5000    8.4602    0.6290   64.4800 -999.0000   54.5449    0.6376    0.5531    0.5533    0.5760    0.4111   99.3978    2.1630   -0.0105   25.5451    1.4827   36.0000   36.0000 
1189.4820    8.5000    8.4456    0.6920   67.0268 -999.0000   55.5738    0.6497    0.5554    0.5976    0.5839    0.4225   98.6727    2.1698   -0.0073   25.3499    1.5058   36.0000   36.0000 
1189.6344    8.5000    8.4823    0.4809   73.9029 -999.0000   58.5934    0.6955    0.5894    0.6883    0.6376    0.4596   97.1697    2.1879   -0.0042   24.5070    1.5558   36.0000   36.0000 
1189.7868    8.5000    8.5837    0.0926   78.8615 -999.0000   66.6594    0.9417    0.7010    0.7892    0.7739    0.4346   93.7913    2.2544   -0.0034   22.6759    1.6484   36.0000   36.0000 
1189.9392    8.5000    8.6528   -0.0663   83.6057 -999.0000   76.7661    1.2257    0.9345    0.9178    0.8909    0.5618   88.9407    2.3439   -0.0017   20.5748    1.8057   36.0000   36.0000 
1190.0916    8.5000    8.6724   -0.0596   84.5428 -999.0000   78.8165    1.6435    1.2508    1.0031    1.1033    1.6165   87.2468    2.3844    0.0025   19.0890    1.8891   36.0000   36.0000 
1190.2440    8.5000    8.6710    0.0504   82.3828 -999.0000   77.9725    1.6844    1.4008    1.0275    1.1878    1.3410   86.5225    2.3772    0.0047   18.9908    1.8695   36.0000   36.0000 
1190.3964    8.5000    8.6537    0.1161   79.2261 -999.0000   74.5657    1.4449    1.2283    1.0156    1.1009    1.5537   89.2927    2.3300    0.0122   19.3286    1.7260   36.0000   36.0000 
