~VERSION INFORMATION
 VERS.                 2.0:   CWLS LOG ASCII STANDARD - VERSION 2.0
 WRAP.                  NO:   SINGLE LINE PER DEPTH STEP
 CREA.                 19/01/2018 11:53:50
#CREATED USING DSPetro VERSION 5000.10.1.3 BY H191660 ON 19/01/2018 11:53:50
~WELL INFORMATION
#MNEM.UNIT       DATA                          DESCRIPTION MNEMONIC
#---------      ---------------------------   --------------------------
 STRT    .M         0.0000                    : START DEPTH
 STOP    .M         1999.9452                 : STOP DEPTH
 STEP    .M         0.1524                    : STEP VALUE
 NULL    .      -999.0000                     : NULL VALUE
 DATE    .      19/01/2018                    : LAS file Creation Date
 WELL .      2780_Saladin-1              : Well Name
 COMP .      Neftex Exploration Insights : Company
 FLD  .      SALADIN                     : Field
 UWI  .      ZAUWL_006048                : Unique Well Identifier (UWI)
 LOC  .                                  : Location
 RWS  .      -999                        : Def_Rw
 WST  .      -999                        : Def_Rwt
 SRVC .                                  : Contractor
~CURVE INFORMATION
#MNEM              UNIT       API CODE   Curve Type Comments
#----------  --------------- ----------  ---------- -----------
 DEPTH      .M                         : Depth       
 BitSize    .in                        : bitSize     
 CAL_INCH   .inch                      : Caliper     Caliper Log - A representation of the measured diameter of a borehole along its depth
 SP_MV1     .mv                        : SP          Spontaneous Potential - Records the electrical potential produced by the interaction of formation water, conductive drilling mud, and certain ion-sele
 GR_API     .API                       : gammaRay    Gamma Ray (API) - Measures the intensity of natural gamma-ray radiation emitted from formations containing radioactive elements, such as K, Th and U
 CGR_API    .API                       : gammaRay    Corrected / Computed Gamma Ray - Radiation with the Uranium component removed. Also known as a 'carbonate gamma ray'
 SGR_API    .API                       : gammaRay    Spectral Gamma Ray - Total gamma calibrated to API, measured using a spectoral gamma array tool
 LLD_OHMM   .ohmm                      : deepRes     Laterlog Deep Resistivity - Measurement made several feet into the formation; generally considered a measurement of the undisturbed formation
 LLS_OHMM   .ohmm                      : shalRes     Laterlog Shallow Resistivity - one to two feet into the formation; generally considered to measure the formation
 ILD_OHMM   .ohmm                      : deepRes     Deep Induction Resistivity - Measurement made an induction log, made several feet into the formation
 ILM_OHMM   .ohmm                      : medRes      Medium Induction Resistivity - Measurement made approximately two to three feet into the formation
 MSFL_OHMM  .ohmm                      : microRes    Micro-Spherically Focused Log - Measurement involves only the first few inches of the formation immediately adjacent to the borehole
 DT_US_FT   .us/ft                     : sonic       Interval Transit Time: Compressional Wave - Evaluates the time it takes for a compressional wave to traverse a fixed distance
 RHOB_G_CC  .g/cc                      : density     Bulk Density - Measures the density of bulk material, including any void space or other materials contained in the subject volume
 DRHO_G_CC  .g/cc                      : drho        Density Correction - Investigates the correction to the Bulk Density log; used as an indication of hole condition to validate the Bulk Density measure
 NPHI_v/v   .PC                        : Neutron     Neutron Porosity - Measured with an neutron logging device calibrated to a given matrix (limestone, sandstone and dolomite)
 PEF_B_E    .b/e-                      : PEF         Photoelectric Factor - A log of photoelectric absorption properties. Often expressed in an approximation unit barns/electron (b/e-)
 LITH       .                          : LITH        Lithology Curve
 LITH_v2    .                          : LITH        Lithology Curve
~A  DEPTH  BitSize   CAL_INCH   SP_MV1    GR_API   CGR_API   SGR_API   LLD_OHMM  LLS_OHMM  ILD_OHMM  ILM_OHMM MSFL_OHM   DT_US_FT RHOB_G_C  DRHO_G_C   NPHI_v/v  PEF_B_E     LITH    LITH_v2  
# ...
1715.4144    8.5000    8.7922    6.2515  123.2981 -999.0000  114.7342    3.2985    3.3275    3.5005    3.4452    5.3201   81.8609    2.4928    0.0030   20.5780    2.2931   37.0000   37.0000 
1715.5668    8.5000    8.7967    6.6007  121.0936 -999.0000  111.0624    3.1656    3.1817    3.4319    3.2064    3.2835   83.4234    2.4482    0.0015   19.5803    2.2593   37.0000   37.0000 
1715.7192    8.5000    8.7985    6.6340  113.9786 -999.0000  109.9731    3.2423    3.1538    3.3243    3.0451    2.9937   84.7534    2.4070    0.0024   19.5220    2.2803   37.0000   31.0000 
1715.8716    8.5000    8.7982    6.6666  114.6633 -999.0000  109.9026    3.4322    3.2863    3.2371    3.0069    3.0057   85.2677    2.4070    0.0040   19.8906    2.3735   37.0000   31.0000 
1716.0240    8.5000    8.7961    6.6845  117.3448 -999.0000  112.0557    3.6337    3.4869    3.1695    3.0400    4.2292   84.9756    2.4212    0.0050   20.7299    2.3945   37.0000   37.0000 
1716.1764    8.5000    8.7912    6.6490  118.7212 -999.0000  114.8273    3.7278    3.5795    3.1614    3.0497    3.4489   84.9000    2.4261    0.0059   21.1404    2.3904   37.0000   37.0000 
1716.3288    8.5000    8.7891    6.5534  117.3397 -999.0000  116.9713    3.7672    3.6968    3.1813    3.1004    3.6682   85.0509    2.4285    0.0064   21.1393    2.3847   37.0000   37.0000 
1716.4812    8.5000    8.7911    6.2614  116.3583 -999.0000  118.6658    3.8853    3.8207    3.2434    3.1713    4.4230   85.0680    2.4332    0.0064   21.0055    2.4173   37.0000   37.0000 
1716.6336    8.5000    8.8075    5.8035  118.0903 -999.0000  122.4368    4.0589    3.9786    3.3488    3.3084    4.3905   84.5307    2.4391    0.0062   20.9653    2.5015   37.0000   37.0000 
1716.7860    8.5000    8.8399    5.7475  126.1988 -999.0000  125.4452    4.1810    4.1568    3.4370    3.4003    5.4768   83.7316    2.4485    0.0074   21.0623    2.5842   37.0000   37.0000 
1716.9384    8.5000    8.8716    5.7413  131.1719 -999.0000  125.8968    4.2886    4.3672    3.5141    3.4633    4.4056   83.2557    2.4605    0.0121   21.2251    2.6091   37.0000   37.0000 
1717.0908    8.5000    8.8876    5.5068  132.2490 -999.0000  125.2489    4.3285    4.3933    3.5789    3.5131    4.6724   83.0358    2.4735    0.0170   21.5971    2.6048   37.0000   37.0000 
1717.2432    8.5000    8.8875    5.4502  132.2800 -999.0000  123.0842    4.3167    4.2915    3.5958    3.5195    5.0889   82.9410    2.4718    0.0179   21.8160    2.5735   37.0000   37.0000 
1717.3956    8.5000    8.8801    5.5442  132.4115 -999.0000  121.5436    4.1240    4.0658    3.5793    3.5005    5.3531   82.8029    2.4605    0.0145   21.3696    2.5155   37.0000   37.0000 
1717.5480    8.5000    8.8757    5.8804  131.8987 -999.0000  120.4903    3.7908    3.6836    3.5110    3.4580    4.1435   82.6949    2.4428    0.0091   20.5310    2.4754   37.0000   37.0000 
1717.7004    8.5000    8.8682    6.1663  128.7610 -999.0000  118.5135    3.4321    3.3085    3.4104    3.2789    3.6045   82.9332    2.4273    0.0065   20.5266    2.4596   37.0000   37.0000 
1717.8528    8.5000    8.8662    6.3206  122.3507 -999.0000  115.3624    3.2230    3.1289    3.2987    3.0671    3.9207   83.6883    2.4159    0.0068   20.8741    2.4179   37.0000   37.0000 
1718.0052    8.5000    8.8652    6.3641  117.1317 -999.0000  111.6444    3.1083    3.0715    3.2304    2.9672    3.0356   84.8403    2.4024    0.0083   21.2063    2.3876   37.0000   37.0000 
1718.1576    8.5000    8.8616    6.4414  112.4104 -999.0000  110.0914    3.0511    3.0764    3.1645    2.9061    3.0398   85.8567    2.3977    0.0074   20.7645    2.3949   37.0000   31.0000 
1718.3100    8.5000    8.8653    6.6086  112.2917 -999.0000  110.4666    3.0825    3.1000    3.0661    2.8854    3.6693   86.0145    2.3973    0.0069   20.6251    2.4614   37.0000   31.0000 
1718.4624    8.5000    8.8741    6.8558  113.5911 -999.0000  111.1286    3.2327    3.1775    3.0778    2.9034    3.3898   85.9174    2.4005    0.0074   20.7445    2.5528   37.0000   31.0000 
1718.6148    8.5000    8.8851    6.9201  113.4717 -999.0000  109.6957    3.5295    3.4423    3.1205    2.9927    3.3281   85.7421    2.4085    0.0077   20.4137    2.6975   37.0000   31.0000 
1718.7672    8.5000    8.8882    6.8840  111.5404 -999.0000  104.3455    4.1615    4.0922    3.2516    3.2025    3.2709   84.2820    2.4244    0.0075   19.0642    2.8418   37.0000   31.0000 
1718.9196    8.5000    8.8719    6.6753  106.6424 -999.0000  101.5999    4.6412    4.7541    3.4175    3.4492    7.4227   80.9191    2.4499    0.0062   15.9109    2.8479   37.0000   31.0000 
1719.0720    8.5000    8.8461    6.4851  105.2399 -999.0000  101.0886    4.6504    4.7503    3.5177    3.5299    6.4342   78.5989    2.4791    0.0044   14.5065    2.8069   37.0000   31.0000 
1719.2244    8.5000    8.8178    6.5060  107.5246 -999.0000  102.5124    4.4656    4.5708    3.5868    3.5233    5.5997   78.2656    2.4745    0.0052   14.8365    2.6189   37.0000   31.0000 
1719.3768    8.5000    8.8017    6.4670  111.7207 -999.0000  104.9432    3.8560    4.1639    3.7312    3.6061    3.7507   79.8108    2.4541    0.0059   17.0043    2.5262   37.0000   31.0000 
1719.5292    8.5000    8.7986    6.3282  113.0259 -999.0000  110.1459    3.6560    3.6649    3.8849    3.6009    4.2540   82.2889    2.4484    0.0056   19.0892    2.5058   37.0000   37.0000 
1719.6816    8.5000    8.7916    5.9164  114.1031 -999.0000  116.3972    3.8244    3.6239    3.9658    3.5980    5.1993   83.0430    2.4535    0.0063   20.5146    2.4786   37.0000   37.0000 
1719.8340    8.5000    8.7927    5.3583  116.6905 -999.0000  117.4277    4.2566    3.8246    3.9765    3.7000    5.1120   83.0563    2.4670    0.0088   20.6077    2.5496   37.0000   37.0000 
1719.9864    8.5000    8.7978    5.1048  121.0937 -999.0000  117.8710    4.7330    4.4061    3.9423    3.7907    5.4311   82.2998    2.4832    0.0080   20.5161    2.7637   37.0000   37.0000 
1720.1388    8.5000    8.7948    4.7846  124.8038 -999.0000  118.5521    5.0506    4.9910    3.9110    3.8508    6.0283   81.2566    2.4956    0.0068   20.6380    2.9689   37.0000   37.0000 
1720.2912    8.5000    8.7936    4.2309  129.0072 -999.0000  120.1098    5.0575    5.1183    3.9447    3.9200    7.0804   80.5617    2.5001    0.0041   21.1748    2.9168   37.0000   37.0000 
1720.4436    8.5000    8.7962    3.4712  133.5197 -999.0000  122.8559    5.1591    5.1511    4.0803    4.0003    6.3865   80.1415    2.4978   -0.0024   21.9564    2.7713   37.0000   37.0000 
1720.5960    8.5000    8.7966    2.8988  137.7525 -999.0000  125.2760    5.2947    5.1094    4.3018    4.1059    6.6149   80.0774    2.4902   -0.0063   21.9096    2.6831   37.0000   37.0000 
1720.7484    8.5000    8.7962    2.5853  141.3851 -999.0000  126.2517    5.2797    5.1226    4.5102    4.2804    6.7096   80.2281    2.4888   -0.0029   21.8995    2.7107   37.0000   37.0000 
1720.9008    8.5000    8.7980    2.7373  142.9390 -999.0000  128.6266    5.2294    5.1693    4.6409    4.5031    6.6638   80.4209    2.4900   -0.0008   22.0087    2.7610   37.0000   37.0000 
1721.0532    8.5000    8.8029    2.7498  143.7267 -999.0000  130.9900    5.1580    5.1695    4.7409    4.5471    6.1135   80.2200    2.4896   -0.0010   22.8585    2.7534   37.0000   37.0000 
1721.2056    8.5000    8.8067    2.3777  142.6226 -999.0000  131.4022    5.0776    5.0788    4.7494    4.4268    6.0323   80.0692    2.4878   -0.0016   23.5168    2.7222   37.0000   37.0000 
1721.3580    8.5000    8.8106    1.8195  138.7274 -999.0000  131.3384    5.0184    4.9360    4.7148    4.3699    6.0907   79.9934    2.4826   -0.0005   23.3043    2.6523   37.0000   37.0000 
1721.5104    8.5000    8.8145    1.6987  133.8532 -999.0000  132.2812    4.9209    4.7761    4.6065    4.2974    6.1957   80.0183    2.4770    0.0021   22.4141    2.5574   37.0000   37.0000 
1721.6628    8.5000    8.8202    1.9970  133.7544 -999.0000  134.2340    4.8108    4.6766    4.4901    4.2021    5.9557   80.0860    2.4726    0.0035   21.6373    2.5437   37.0000   37.0000 
