~VERSION INFORMATION
 VERS.                 2.0:   CWLS LOG ASCII STANDARD - VERSION 2.0
 WRAP.                  NO:   SINGLE LINE PER DEPTH STEP
 CREA.                 19/01/2018 11:53:50
#CREATED USING DSPetro VERSION 5000.10.1.3 BY H191660 ON 19/01/2018 11:53:50
~WELL INFORMATION
#MNEM.UNIT       DATA                          DESCRIPTION MNEMONIC
#---------      ---------------------------   --------------------------
 STRT    .M         0.0000                    : START DEPTH
 STOP    .M         1999.9452                 : STOP DEPTH
 STEP    .M         0.1524                    : STEP VALUE
 NULL    .      -999.0000                     : NULL VALUE
 DATE    .      19/01/2018                    : LAS file Creation Date
 WELL .      2780_Saladin-1              : Well Name
 COMP .      Neftex Exploration Insights : Company
 FLD  .      SALADIN                     : Field
 UWI  .      ZAUWL_006048                : Unique Well Identifier (UWI)
 LOC  .                                  : Location
 RWS  .      -999                        : Def_Rw
 WST  .      -999                        : Def_Rwt
 SRVC .                                  : Contractor
~CURVE INFORMATION
#MNEM              UNIT       API CODE   Curve Type Comments
#----------  --------------- ----------  ---------- -----------
 DEPTH      .M                         : Depth       
 BitSize    .in                        : bitSize     
 CAL_INCH   .inch                      : Caliper     Caliper Log - A representation of the measured diameter of a borehole along its depth
 SP_MV1     .mv                        : SP          Spontaneous Potential - Records the electrical potential produced by the interaction of formation water, conductive drilling mud, and certain ion-sele
 GR_API     .API                       : gammaRay    Gamma Ray (API) - Measures the intensity of natural gamma-ray radiation emitted from formations containing radioactive elements, such as K, Th and U
 CGR_API    .API                       : gammaRay    Corrected / Computed Gamma Ray - Radiation with the Uranium component removed. Also known as a 'carbonate gamma ray'
 SGR_API    .API                       : gammaRay    Spectral Gamma Ray - Total gamma calibrated to API, measured using a spectoral gamma array tool
 LLD_OHMM   .ohmm                      : deepRes     Laterlog Deep Resistivity - Measurement made several feet into the formation; generally considered a measurement of the undisturbed formation
 LLS_OHMM   .ohmm                      : shalRes     Laterlog Shallow Resistivity - one to two feet into the formation; generally considered to measure the formation
 ILD_OHMM   .ohmm                      : deepRes     Deep Induction Resistivity - Measurement made an induction log, made several feet into the formation
 ILM_OHMM   .ohmm                      : medRes      Medium Induction Resistivity - Measurement made approximately two to three feet into the formation
 MSFL_OHMM  .ohmm                      : microRes    Micro-Spherically Focused Log - Measurement involves only the first few inches of the formation immediately adjacent to the borehole
 DT_US_FT   .us/ft                     : sonic       Interval Transit Time: Compressional Wave - Evaluates the time it takes for a compressional wave to traverse a fixed distance
 RHOB_G_CC  .g/cc                      : density     Bulk Density - Measures the density of bulk material, including any void space or other materials contained in the subject volume
 DRHO_G_CC  .g/cc                      : drho        Density Correction - Investigates the correction to the Bulk Density log; used as an indication of hole condition to validate the Bulk Density measure
 NPHI_v/v   .PC                        : Neutron     Neutron Porosity - Measured with an neutron logging device calibrated to a given matrix (limestone, sandstone and dolomite)
 PEF_B_E    .b/e-                      : PEF         Photoelectric Factor - A log of photoelectric absorption properties. Often expressed in an approximation unit barns/electron (b/e-)
 LITH       .                          : LITH        Lithology Curve
 LITH_v2    .                          : LITH        Lithology Curve
~A  DEPTH  BitSize   CAL_INCH   SP_MV1    GR_API   CGR_API   SGR_API   LLD_OHMM  LLS_OHMM  ILD_OHMM  ILM_OHMM MSFL_OHM   DT_US_FT RHOB_G_C  DRHO_G_C   NPHI_v/v  PEF_B_E     LITH    LITH_v2  
# ...
1139.3424    8.5000    8.4535    0.0832   91.1149   72.8290   76.1114    1.4538    1.0050    0.9371    1.0193    0.7099   98.4332    2.2198    0.0090   25.9408    1.7681   36.0000   31.0000 
1139.4948    8.5000    8.4548    0.1691   91.1185   73.2594   80.4881    1.5466    1.0771    1.0063    1.0765    0.7636   98.1938    2.2409    0.0071   26.0627    2.0474   36.0000   31.0000 
1139.6472    8.5000    8.4714    0.2410   91.5926   73.1632   82.0530    1.6174    1.0902    1.0844    1.1320    0.6605   97.9263    2.2580    0.0068   25.9321    2.1014   36.0000   31.0000 
1139.7996    8.5000    8.5041    0.2324   95.2387   76.5154   83.4095    1.6609    1.0959    1.1546    1.1780    0.6653   97.5865    2.2608    0.0068   25.1031    2.0642   36.0000   31.0000 
1139.9520    8.5000    8.5208   -0.0860  102.6893   80.9074   89.2095    1.6701    1.1099    1.1870    1.1808    0.7683   97.6819    2.2582    0.0077   24.8333    1.9143   36.0000   31.0000 
1140.1044    8.5000    8.5327   -0.3789  105.3319   83.7682   95.8410    1.7156    1.1294    1.1824    1.1684    1.0366   98.2031    2.2560    0.0088   24.7987    1.9091   36.0000   31.0000 
1140.2568    8.5000    8.5287   -0.3866  102.1159   80.7251   99.0583    1.6964    1.1093    1.1443    1.1381    1.1178  100.1518    2.2573    0.0088   25.4391    1.9771   36.0000   37.0000 
1140.4092    8.5000    8.5286   -0.2408   91.2325   73.6992   97.3027    1.6300    1.0562    1.0714    1.0694    0.9034  102.1455    2.2651    0.0033   26.7082    2.1249   37.0000   37.0000 
1140.5616    8.5000    8.5234   -0.0627   77.5909   63.6181   88.0695    1.5210    0.9883    0.9946    0.9808    0.8147  103.8134    2.2673    0.0002   28.3436    2.1817   37.0000   37.0000 
1140.7140    8.5000    8.5115   -0.0105   64.1428   55.3336   75.1608    1.3972    0.9261    0.9242    0.9200    0.6246  103.5898    2.2584    0.0028   29.4484    2.1730   37.0000   37.0000 
1140.8664    8.5000    8.4934   -0.0884   57.9978   53.3794   63.6441    1.2731    0.8543    0.8672    0.8713    0.6973  102.0964    2.2362    0.0083   29.5066    2.1186   37.0000   37.0000 
1141.0188    8.5000    8.4540   -0.1374   57.2156   53.2313   54.9990    1.1684    0.7970    0.8194    0.8272    0.6378  100.9085    2.2300    0.0163   28.5526    2.0092   37.0000   37.0000 
1141.1712    8.5000    8.4481   -0.2848   58.4270   53.2903   50.9218    1.1306    0.7617    0.7893    0.8113    0.4526  100.6697    2.2301    0.0246   27.2985    1.8788   36.0000   36.0000 
1141.3236    8.5000    8.4553   -0.6042   64.6624   54.9224   52.4190    1.1371    0.7632    0.7873    0.8119    0.4961  100.4181    2.2254    0.0229   26.7878    1.7732   36.0000   36.0000 
1141.4760    8.5000    8.4718   -0.8336   65.7414   55.8598   55.5552    1.1624    0.7951    0.7893    0.8361    0.5319  100.5263    2.2034    0.0206   26.9597    1.7081   36.0000   36.0000 
1141.6284    8.5000    8.4717   -1.0348   65.8080   55.5237   56.1114    1.2523    0.8668    0.7992    0.8670    0.5530  100.8047    2.1898    0.0127   27.8090    1.6926   36.0000   36.0000 
1141.7808    8.5000    8.4625   -1.0548   64.4461   55.0950   55.0881    1.3572    0.9193    0.8062    0.8942    0.5840  101.5783    2.1853    0.0119   27.4582    1.6954   36.0000   36.0000 
1141.9332    8.5000    8.4507   -1.0399   61.9047   55.1498   54.7306    1.3754    0.9539    0.8121    0.9018    0.6302  103.7990    2.1944    0.0213   26.5214    1.7060   36.0000   36.0000 
1142.0856    8.5000    8.4437   -0.9278   58.9713   55.7338   56.7405    1.3867    0.9460    0.8063    0.8944    0.6532  105.7701    2.1989    0.0230   25.8714    1.6986   36.0000   36.0000 
1142.2380    8.5000    8.4506   -0.8376   56.2285   55.7866   58.9179    1.3614    0.9159    0.8033    0.8633    0.6652  106.3238    2.1792    0.0199   26.4350    1.6537   36.0000   36.0000 
1142.3904    8.5000    8.4511   -0.8020   55.0217   55.3356   58.0224    1.2632    0.8581    0.8194    0.8235    0.6938  106.3240    2.1684    0.0185   27.8163    1.6166   36.0000   36.0000 
1142.5428    8.5000    8.4549   -0.8163   56.0768   53.3928   54.2169    1.1870    0.8138    0.8538    0.8310    0.5200  105.2109    2.1566    0.0218   27.7077    1.6105   36.0000   36.0000 
1142.6952    8.5000    8.4439   -0.7968   61.5639   51.7220   53.5992    1.1684    0.7915    0.8855    0.8871    0.5154  104.9750    2.1607    0.0316   26.8801    1.6450   36.0000   36.0000 
1142.8476    8.5000    8.4386   -0.8414   73.3346   54.5805   55.0762    1.2150    0.8064    0.8929    0.9355    0.6141  105.5364    2.1743    0.0359   25.5807    1.6550   36.0000   36.0000 
1143.0000    8.5000    8.4317   -1.0207   76.7910   58.9620   59.3782    1.3428    0.8568    0.9125    0.9804    0.5296  105.6119    2.1809    0.0341   25.9336    1.6474   36.0000   36.0000 
1143.1524    8.5000    8.4573   -1.0681   76.5640   61.0844   63.9923    1.4615    0.9358    0.9332    1.0454    0.5546  104.9820    2.1869    0.0311   26.8432    1.6284   36.0000   36.0000 
1143.3048    8.5000    8.4736   -0.9115   70.9224   60.8601   64.7342    1.5208    0.9871    0.9677    1.0587    0.9231  103.1843    2.1854    0.0284   28.3339    1.6283   36.0000   36.0000 
1143.4572    8.5000    8.4743   -0.7505   64.7456   59.2721   64.0215    1.5183    1.0084    0.9876    1.0368    0.7668   99.7203    2.1870    0.0249   28.1047    1.6463   36.0000   36.0000 
1143.6096    8.5000    8.4462   -0.5764   62.4964   58.5336   61.2188    1.4363    1.0083    0.9958    1.0290    0.7273   96.3133    2.2013    0.0179   25.8074    1.7242   36.0000   36.0000 
1143.7620    8.5000    8.4078   -0.5106   64.5328   58.8578   60.2981    1.3620    0.9902    0.9955    1.0233    0.7754   93.2096    2.2193    0.0070   23.8334    1.8397   36.0000   36.0000 
1143.9144    8.5000    8.4051   -0.4991   71.4534   59.9730   61.6016    1.3556    0.9388    0.9913    1.0123    0.7668   91.9784    2.2609    0.0034   21.7592    1.9420   36.0000   36.0000 
1144.0668    8.5000    8.4177   -0.4454   74.1663   60.8342   65.7555    1.3676    0.9154    0.9754    0.9923    0.6005   92.0237    2.2862    0.0058   21.1461    2.0000   36.0000   36.0000 
1144.2192    8.5000    8.4375   -0.4720   73.5367   60.7929   68.1017    1.3704    0.9224    0.9531    0.9774    0.7744   92.7417    2.3270    0.0170   21.1967    2.0289   36.0000   36.0000 
1144.3716    8.5000    8.4440   -0.6117   71.5527   60.6459   68.5097    1.3608    0.9244    0.9432    0.9672    0.6850   93.8802    2.3332    0.0217   21.4009    1.9219   36.0000   36.0000 
1144.5240    8.5000    8.4478   -0.8774   69.0341   59.2760   67.1598    1.3325    0.9145    0.9396    0.9559    0.7605   94.8809    2.3148    0.0236   22.0556    1.7639   36.0000   36.0000 
1144.6764    8.5000    8.4458   -1.1483   68.0717   56.0527   63.6169    1.3239    0.9121    0.9400    0.9403    0.6831   95.5674    2.2749    0.0164   22.1560    1.6408   36.0000   36.0000 
1144.8288    8.5000    8.4761   -1.3200   68.7132   55.9565   59.2197    1.3329    0.9168    0.9324    0.9565    0.6452   96.0628    2.2372    0.0091   22.0366    1.6612   36.0000   36.0000 
1144.9812    8.5000    8.5009   -1.3270   70.3943   62.9284   60.9750    1.3335    0.9217    0.9092    0.9684    0.7788   96.3538    2.2316    0.0033   21.9486    1.7042   36.0000   36.0000 
1145.1336    8.5000    8.4924   -1.2705   71.4169   69.2567   65.5168    1.3275    0.9146    0.8832    0.9645    0.8019   96.5906    2.2286    0.0028   22.1203    1.6983   36.0000   36.0000 
1145.2860    8.5000    8.4723   -1.2255   69.3961   72.4573   68.4147    1.3100    0.9013    0.8593    0.9341    0.7045   96.4290    2.2183    0.0049   22.9625    1.6992   36.0000   36.0000 
1145.4384    8.5000    8.4572   -1.2354   63.0396   72.3135   67.5478    1.2797    0.8801    0.8420    0.8964    0.6139   95.3079    2.2080    0.0059   24.1738    1.7203   27.0000   27.0000 
1145.5908    8.5000    8.4497   -1.1947   56.9863   66.6923   63.7997    1.2461    0.8387    0.8367    0.8665    0.7516   94.2928    2.2059    0.0049   24.4314    1.7468   27.0000   27.0000 
