~VERSION INFORMATION
 VERS.                 2.0:   CWLS LOG ASCII STANDARD - VERSION 2.0
 WRAP.                  NO:   SINGLE LINE PER DEPTH STEP
 CREA.                 19/01/2018 11:53:50
#CREATED USING DSPetro VERSION 5000.10.1.3 BY H191660 ON 19/01/2018 11:53:50
~WELL INFORMATION
#MNEM.UNIT       DATA                          DESCRIPTION MNEMONIC
#---------      ---------------------------   --------------------------
 STRT    .M         0.0000                    : START DEPTH
 STOP    .M         1999.9452                 : STOP DEPTH
 STEP    .M         0.1524                    : STEP VALUE
 NULL    .      -999.0000                     : NULL VALUE
 DATE    .      19/01/2018                    : LAS file Creation Date
 WELL .      2780_Saladin-1              : Well Name
 COMP .      Neftex Exploration Insights : Company
 FLD  .      SALADIN                     : Field
 UWI  .      ZAUWL_006048                : Unique Well Identifier (UWI)
 LOC  .                                  : Location
 RWS  .      -999                        : Def_Rw
 WST  .      -999                        : Def_Rwt
 SRVC .                                  : Contractor
~CURVE INFORMATION
#MNEM              UNIT       API CODE   Curve Type Comments
#----------  --------------- ----------  ---------- -----------
 DEPTH      .M                         : Depth       
 BitSize    .in                        : bitSize     
 CAL_INCH   .inch                      : Caliper     Caliper Log - A representation of the measured diameter of a borehole along its depth
 SP_MV1     .mv                        : SP          Spontaneous Potential - Records the electrical potential produced by the interaction of formation water, conductive drilling mud, and certain ion-sele
 GR_API     .API                       : gammaRay    Gamma Ray (API) - Measures the intensity of natural gamma-ray radiation emitted from formations containing radioactive elements, such as K, Th and U
 CGR_API    .API                       : gammaRay    Corrected / Computed Gamma Ray - Radiation with the Uranium component removed. Also known as a 'carbonate gamma ray'
 SGR_API    .API                       : gammaRay    Spectral Gamma Ray - Total gamma calibrated to API, measured using a spectoral gamma array tool
 LLD_OHMM   .ohmm                      : deepRes     Laterlog Deep Resistivity - Measurement made several feet into the formation; generally considered a measurement of the undisturbed formation
 LLS_OHMM   .ohmm                      : shalRes     Laterlog Shallow Resistivity - one to two feet into the formation; generally considered to measure the formation
 ILD_OHMM   .ohmm                      : deepRes     Deep Induction Resistivity - Measurement made an induction log, made several feet into the formation
 ILM_OHMM   .ohmm                      : medRes      Medium Induction Resistivity - Measurement made approximately two to three feet into the formation
 MSFL_OHMM  .ohmm                      : microRes    Micro-Spherically Focused Log - Measurement involves only the first few inches of the formation immediately adjacent to the borehole
 DT_US_FT   .us/ft                     : sonic       Interval Transit Time: Compressional Wave - Evaluates the time it takes for a compressional wave to traverse a fixed distance
 RHOB_G_CC  .g/cc                      : density     Bulk Density - Measures the density of bulk material, including any void space or other materials contained in the subject volume
 DRHO_G_CC  .g/cc                      : drho        Density Correction - Investigates the correction to the Bulk Density log; used as an indication of hole condition to validate the Bulk Density measure
 NPHI_v/v   .PC                        : Neutron     Neutron Porosity - Measured with an neutron logging device calibrated to a given matrix (limestone, sandstone and dolomite)
 PEF_B_E    .b/e-                      : PEF         Photoelectric Factor - A log of photoelectric absorption properties. Often expressed in an approximation unit barns/electron (b/e-)
 LITH       .                          : LITH        Lithology Curve
 LITH_v2    .                          : LITH        Lithology Curve
~A  DEPTH  BitSize   CAL_INCH   SP_MV1    GR_API   CGR_API   SGR_API   LLD_OHMM  LLS_OHMM  ILD_OHMM  ILM_OHMM MSFL_OHM   DT_US_FT RHOB_G_C  DRHO_G_C   NPHI_v/v  PEF_B_E     LITH    LITH_v2  
# ...
1664.2080    8.5000    8.7910    2.0955  142.6455 -999.0000  130.3212    3.7156    3.8328    3.2155    3.1725    4.9429   86.4844    2.4764    0.0044   24.2389    2.6675   37.0000   37.0000 
1664.3604    8.5000    8.7907    2.0260  138.7346 -999.0000  128.1986    3.7976    3.8930    3.1208    3.1633    4.6440   86.3582    2.4795    0.0021   24.6908    2.6936   37.0000   37.0000 
1664.5128    8.5000    8.7942    2.1307  132.1796 -999.0000  128.6289    3.8002    3.8992    3.1272    3.1537    4.5656   86.6322    2.4786    0.0006   24.4864    2.6991   37.0000   37.0000 
1664.6652    8.5000    8.7940    2.1877  128.6046 -999.0000  132.3453    3.7499    3.8643    3.1399    3.1224    4.9107   87.2201    2.4752   -0.0011   23.8260    2.6607   37.0000   37.0000 
1664.8176    8.5000    8.7951    2.0527  128.9345 -999.0000  135.3633    3.7587    3.9004    3.1794    3.0791    5.2893   87.3176    2.4721   -0.0045   22.7053    2.6568   37.0000   37.0000 
1664.9700    8.5000    8.7984    1.9140  133.0324 -999.0000  135.8786    3.7709    3.9252    3.1878    3.0635    5.1619   87.0218    2.4754   -0.0054   22.6659    2.8227   37.0000   37.0000 
1665.1224    8.5000    8.8011    1.9685  135.3176 -999.0000  132.0651    3.8245    3.9620    3.1741    3.0953    4.7914   86.2398    2.4849   -0.0053   23.0605    2.9967   37.0000   37.0000 
1665.2748    8.5000    8.8008    2.0567  135.8741 -999.0000  127.0566    3.8496    3.9643    3.1285    3.1148    5.3493   86.0111    2.5024   -0.0074   24.3517    3.0300   37.0000   37.0000 
1665.4272    8.5000    8.8028    1.8488  134.1698 -999.0000  126.2805    3.8415    3.9643    3.1168    3.1185    5.8343   86.1643    2.5088   -0.0096   25.2115    2.9231   37.0000   37.0000 
1665.5796    8.5000    8.8043    1.6662  130.8178 -999.0000  126.4821    3.7947    3.9365    3.1157    3.1020    4.9524   86.7064    2.5025   -0.0095   25.0525    2.7661   37.0000   37.0000 
1665.7320    8.5000    8.8039    1.7095  128.3073 -999.0000  126.5564    3.7014    3.8873    3.0995    3.0813    4.6583   87.5893    2.4858   -0.0052   24.2292    2.6596   37.0000   37.0000 
1665.8844    8.5000    8.8036    1.9590  127.6220 -999.0000  125.6829    3.5073    3.7877    3.0833    3.0616    4.6970   87.7713    2.4711   -0.0020   23.2381    2.6119   37.0000   37.0000 
1666.0368    8.5000    8.8023    2.0390  125.9805 -999.0000  122.9220    3.4592    3.6527    3.0460    3.0166    4.6096   87.7663    2.4542   -0.0019   22.9250    2.5933   37.0000   37.0000 
1666.1892    8.5000    8.7990    1.9413  123.4438 -999.0000  122.4751    3.4363    3.6309    3.0635    3.0179    3.7215   87.6698    2.4427   -0.0033   22.6639    2.6006   37.0000   37.0000 
1666.3416    8.5000    8.8013    1.7285  124.2098 -999.0000  125.6730    3.4764    3.6860    3.1073    3.0767    4.5160   87.5615    2.4431   -0.0067   22.5739    2.6902   37.0000   37.0000 
1666.4940    8.5000    8.8024    1.4657  133.0070 -999.0000  129.6122    3.6059    3.8052    3.1227    3.1358    4.6940   87.6238    2.4494   -0.0130   22.6403    2.8666   37.0000   37.0000 
1666.6464    8.5000    8.8020    1.2064  141.5307 -999.0000  130.7192    3.7557    3.9172    3.1354    3.1602    4.8658   87.8291    2.4599   -0.0143   22.8974    2.9435   37.0000   37.0000 
1666.7988    8.5000    8.8017    0.9089  146.5518 -999.0000  130.9621    3.8074    3.9721    3.1394    3.1382    4.8368   88.0153    2.4694   -0.0156   23.5816    2.9720   37.0000   37.0000 
1666.9512    8.5000    8.8014    0.6444  146.5837 -999.0000  130.9113    3.8215    3.9844    3.1401    3.1155    4.9132   87.9016    2.4732   -0.0110   24.2749    2.9518   37.0000   37.0000 
1667.1036    8.5000    8.8011    0.4764  143.9022 -999.0000  131.3055    3.8015    4.0091    3.1487    3.1189    4.9141   87.3953    2.4743   -0.0082   24.2135    2.8861   37.0000   37.0000 
1667.2560    8.5000    8.8029    0.2701  138.7108 -999.0000  130.9703    3.8369    3.9944    3.1892    3.1697    4.9988   87.1615    2.4737   -0.0078   23.9605    2.7918   37.0000   37.0000 
1667.4084    8.5000    8.8045    0.0833  136.4357 -999.0000  129.9049    3.9221    4.0424    3.2720    3.2494    5.0852   87.1457    2.4738   -0.0053   23.8927    2.7118   37.0000   37.0000 
1667.5608    8.5000    8.8042    0.0361  134.7774 -999.0000  128.4445    4.0287    4.1311    3.4019    3.3742    4.8089   86.8479    2.4766   -0.0012   24.0138    2.6973   37.0000   37.0000 
1667.7132    8.5000    8.8039    0.1128  133.6970 -999.0000  126.0377    4.1190    4.3630    3.5362    3.4425    4.6714   85.7990    2.4844    0.0046   23.9027    2.7518   37.0000   37.0000 
1667.8656    8.5000    8.8036    0.0522  130.2190 -999.0000  119.1441    4.3856    4.5748    3.6193    3.5264    4.9810   84.0535    2.4897    0.0074   23.1017    2.8008   37.0000   37.0000 
1668.0180    8.5000    8.8011   -0.1986  125.4769 -999.0000  111.7191    4.6911    4.7264    3.6798    3.6077    5.7973   82.5159    2.4856    0.0076   21.2619    2.7774   37.0000   37.0000 
1668.1704    8.5000    8.7955   -0.2625  122.4958 -999.0000  108.8898    4.7464    4.7983    3.7177    3.6508    5.4376   82.0836    2.4763    0.0069   20.8414    2.7223   37.0000   37.0000 
1668.3228    8.5000    8.7946   -0.1787  121.9846 -999.0000  111.3759    4.6992    4.7936    3.7262    3.6716    6.1081   82.0658    2.4679    0.0040   21.0165    2.7205   37.0000   37.0000 
1668.4752    8.5000    8.7944   -0.0544  124.5402 -999.0000  118.0640    4.4231    4.6982    3.7093    3.6547    4.6994   82.6168    2.4642    0.0019   22.1802    2.7023   37.0000   37.0000 
1668.6276    8.5000    8.7925   -0.1160  130.9445 -999.0000  124.7938    4.1704    4.4901    3.6501    3.6199    4.9535   83.6015    2.4651    0.0013   24.0286    2.6417   37.0000   37.0000 
1668.7800    8.5000    8.7872   -0.3331  135.8592 -999.0000  130.9659    4.0461    4.3335    3.5659    3.5820    5.1269   85.0686    2.4738    0.0008   24.6172    2.5897   37.0000   37.0000 
1668.9324    8.5000    8.7858   -0.6119  139.5817 -999.0000  137.2141    3.9945    4.2005    3.5143    3.5414    5.1612   85.7890    2.4830   -0.0005   24.4029    2.6131   37.0000   37.0000 
1669.0848    8.5000    8.7880   -0.6662  143.0811 -999.0000  137.0228    3.9925    4.1445    3.4899    3.4341    5.3884   85.7767    2.5017   -0.0026   24.1784    2.8274   37.0000   37.0000 
1669.2372    8.5000    8.7888   -0.6577  143.1444 -999.0000  135.2622    3.9818    4.1434    3.4376    3.3574    5.3126   85.6717    2.5218   -0.0032   24.5844    2.9365   37.0000   37.0000 
1669.3896    8.5000    8.7886   -0.6657  139.9857 -999.0000  133.8990    3.9800    4.1603    3.3765    3.3133    6.4643   85.6493    2.5284   -0.0008   25.8592    2.9177   37.0000   37.0000 
1669.5420    8.5000    8.7877   -0.8426  138.6768 -999.0000  133.2573    3.9870    4.1847    3.3356    3.2999    6.1859   85.8567    2.5223    0.0017   25.9916    2.8299   37.0000   37.0000 
1669.6944    8.5000    8.7845   -1.1050  141.6790 -999.0000  133.0432    3.9874    4.2138    3.3285    3.2854    5.6973   86.3791    2.5064    0.0021   25.2969    2.6645   37.0000   37.0000 
1669.8468    8.5000    8.7835   -1.1775  147.3984 -999.0000  134.0969    4.0157    4.2171    3.3608    3.2858    5.3630   87.0832    2.4903    0.0019   24.6878    2.7441   37.0000   37.0000 
1669.9992    8.5000    8.7832   -1.1535  147.8206 -999.0000  134.4086    4.0109    4.2213    3.3966    3.3233    4.8937   87.1770    2.4927    0.0013   24.4555    2.9562   37.0000   37.0000 
1670.1516    8.5000    8.7830   -1.0336  142.3078 -999.0000  134.2884    4.0206    4.2215    3.4179    3.3578    4.9209   87.0833    2.4934    0.0008   25.0440    2.9987   37.0000   37.0000 
1670.3040    8.5000    8.7825   -1.0491  140.0738 -999.0000  135.0995    4.0428    4.2033    3.4234    3.3620    5.4719   87.0489    2.4899    0.0000   25.5558    2.9391   37.0000   37.0000 
1670.4564    8.5000    8.7796   -1.1044  140.9194 -999.0000  136.8067    4.0711    4.2097    3.4195    3.3323    5.9299   87.3958    2.4842   -0.0012   25.5517    2.8420   37.0000   37.0000 
