~VERSION INFORMATION
 VERS.                 2.0:   CWLS LOG ASCII STANDARD - VERSION 2.0
 WRAP.                  NO:   SINGLE LINE PER DEPTH STEP
 CREA.                 19/01/2018 11:53:50
#CREATED USING DSPetro VERSION 5000.10.1.3 BY H191660 ON 19/01/2018 11:53:50
~WELL INFORMATION
#MNEM.UNIT       DATA                          DESCRIPTION MNEMONIC
#---------      ---------------------------   --------------------------
 STRT    .M         0.0000                    : START DEPTH
 STOP    .M         1999.9452                 : STOP DEPTH
 STEP    .M         0.1524                    : STEP VALUE
 NULL    .      -999.0000                     : NULL VALUE
 DATE    .      19/01/2018                    : LAS file Creation Date
 WELL .      2780_Saladin-1              : Well Name
 COMP .      Neftex Exploration Insights : Company
 FLD  .      SALADIN                     : Field
 UWI  .      ZAUWL_006048                : Unique Well Identifier (UWI)
 LOC  .                                  : Location
 RWS  .      -999                        : Def_Rw
 WST  .      -999                        : Def_Rwt
 SRVC .                                  : Contractor
~CURVE INFORMATION
#MNEM              UNIT       API CODE   Curve Type Comments
#----------  --------------- ----------  ---------- -----------
 DEPTH      .M                         : Depth       
 BitSize    .in                        : bitSize     
 CAL_INCH   .inch                      : Caliper     Caliper Log - A representation of the measured diameter of a borehole along its depth
 SP_MV1     .mv                        : SP          Spontaneous Potential - Records the electrical potential produced by the interaction of formation water, conductive drilling mud, and certain ion-sele
 GR_API     .API                       : gammaRay    Gamma Ray (API) - Measures the intensity of natural gamma-ray radiation emitted from formations containing radioactive elements, such as K, Th and U
 CGR_API    .API                       : gammaRay    Corrected / Computed Gamma Ray - Radiation with the Uranium component removed. Also known as a 'carbonate gamma ray'
 SGR_API    .API                       : gammaRay    Spectral Gamma Ray - Total gamma calibrated to API, measured using a spectoral gamma array tool
 LLD_OHMM   .ohmm                      : deepRes     Laterlog Deep Resistivity - Measurement made several feet into the formation; generally considered a measurement of the undisturbed formation
 LLS_OHMM   .ohmm                      : shalRes     Laterlog Shallow Resistivity - one to two feet into the formation; generally considered to measure the formation
 ILD_OHMM   .ohmm                      : deepRes     Deep Induction Resistivity - Measurement made an induction log, made several feet into the formation
 ILM_OHMM   .ohmm                      : medRes      Medium Induction Resistivity - Measurement made approximately two to three feet into the formation
 MSFL_OHMM  .ohmm                      : microRes    Micro-Spherically Focused Log - Measurement involves only the first few inches of the formation immediately adjacent to the borehole
 DT_US_FT   .us/ft                     : sonic       Interval Transit Time: Compressional Wave - Evaluates the time it takes for a compressional wave to traverse a fixed distance
 RHOB_G_CC  .g/cc                      : density     Bulk Density - Measures the density of bulk material, including any void space or other materials contained in the subject volume
 DRHO_G_CC  .g/cc                      : drho        Density Correction - Investigates the correction to the Bulk Density log; used as an indication of hole condition to validate the Bulk Density measure
 NPHI_v/v   .PC                        : Neutron     Neutron Porosity - Measured with an neutron logging device calibrated to a given matrix (limestone, sandstone and dolomite)
 PEF_B_E    .b/e-                      : PEF         Photoelectric Factor - A log of photoelectric absorption properties. Often expressed in an approximation unit barns/electron (b/e-)
 LITH       .                          : LITH        Lithology Curve
 LITH_v2    .                          : LITH        Lithology Curve
~A  DEPTH  BitSize   CAL_INCH   SP_MV1    GR_API   CGR_API   SGR_API   LLD_OHMM  LLS_OHMM  ILD_OHMM  ILM_OHMM MSFL_OHM   DT_US_FT RHOB_G_C  DRHO_G_C   NPHI_v/v  PEF_B_E     LITH    LITH_v2  
# ...
1472.1840    8.5000    8.5647    3.4740  109.2048 -999.0000  102.6870    1.5882    1.5306    1.6686    1.5363    1.2669   90.4732    2.3469    0.0229   21.9752    2.1828   37.0000   31.0000 
1472.3364    8.5000    8.5455    3.6283  103.6750 -999.0000  102.9335    1.3318    1.2936    1.7406    1.5157    1.0272   88.3984    2.3203    0.0090   22.8130    2.2177   37.0000   31.0000 
1472.4888    8.5000    8.5377    3.5420  101.5201 -999.0000  102.2253    1.3485    1.1843    1.7519    1.5748    1.0712   83.6721    2.3199    0.0032   22.7228    2.4334   37.0000   31.0000 
1472.6412    8.5000    8.5460    3.2674  100.4619 -999.0000  100.0389    1.6102    1.3315    1.7194    1.7705    1.0367   77.8212    2.3821    0.0045   21.2707    2.9668   37.0000   37.0000 
1472.7936    8.5000    8.5501    2.9518   96.9550 -999.0000   92.0515    2.3588    1.7840    1.6949    1.8818    1.1188   71.7095    2.4358    0.0082   16.3652    3.4333   37.0000   37.0000 
1472.9460    8.5000    8.5641    2.6676   94.1545 -999.0000   90.0415    3.1595    2.7642    1.7229    1.9677    6.1283   72.2149    2.4897    0.0109   13.6648    3.3532   37.0000   37.0000 
1473.0984    8.5000    8.6171    2.3000   96.9416 -999.0000   91.2491    3.4419    3.1302    1.8075    1.9351   23.9014   76.9684    2.4954    0.0112   13.5824    3.1235   37.0000   37.0000 
1473.2508    8.5000    8.6734    1.7248  103.5295 -999.0000   96.5463    3.1682    3.0590    2.1065    1.8807   15.6131   81.0874    2.4735    0.0149   15.7544    2.6181   37.0000   31.0000 
1473.4032    8.5000    8.6892    1.0976  112.7116 -999.0000  110.4482    2.4414    2.3548    2.4507    2.2193    7.3124   85.5327    2.4435    0.0181   18.2960    2.4457   37.0000   31.0000 
1473.5556    8.5000    8.6686    0.2572  124.4034 -999.0000  118.4774    2.3447    2.1734    2.6818    2.5954    1.4684   85.1951    2.4373    0.0164   20.3656    2.5251   37.0000   37.0000 
1473.7080    8.5000    8.6583   -0.4953  131.4607 -999.0000  123.5878    3.3462    2.7130    2.9339    2.9102    2.1587   85.4685    2.4551    0.0124   22.6469    2.5855   37.0000   37.0000 
1473.8604    8.5000    8.6620   -0.8406  135.3149 -999.0000  128.4481    3.8522    3.5821    3.0204    2.9850    4.1537   85.4642    2.4607    0.0067   23.8809    2.6126   37.0000   37.0000 
1474.0128    8.5000    8.6555   -0.8794  133.3656 -999.0000  128.4216    3.9142    3.7489    3.1023    3.1619    4.3472   84.8882    2.4582    0.0016   24.5400    2.6254   37.0000   37.0000 
1474.1652    8.5000    8.6493   -0.4256  129.2133 -999.0000  124.3434    3.7213    3.4146    3.2313    3.3204    4.5759   82.4982    2.4482    0.0009   23.6276    2.7376   37.0000   37.0000 
1474.3176    8.5000    8.6426    0.2056  118.9312 -999.0000  115.2242    3.9721    3.6233    3.2904    3.3993    2.4050   79.4490    2.4453    0.0009   20.5754    2.8979   37.0000   37.0000 
1474.4700    8.5000    8.6172    0.9279  109.2167 -999.0000  104.4747    4.0458    3.8125    3.2425    3.4069    2.2334   78.0264    2.4644    0.0020   17.8108    2.9530   37.0000   37.0000 
1474.6224    8.5000    8.5751    1.2380  104.0444 -999.0000   97.1787    3.6877    3.5370    2.9834    3.1235    3.3623   78.1511    2.4781    0.0053   15.3723    2.8207   37.0000   37.0000 
1474.7748    8.5000    8.5642    1.9844   99.6640 -999.0000   96.0759    2.6702    2.7751    2.5698    2.6690   19.7735   80.7552    2.4740    0.0124   14.7083    2.5707   37.0000   31.0000 
1474.9272    8.5000    8.5587    2.6856  101.2042 -999.0000   98.8373    1.9799    2.3496    2.2069    2.1401    2.8576   86.5537    2.4281    0.0237   16.2500    2.3068   37.0000   31.0000 
1475.0796    8.5000    8.5501    3.1182  110.0450 -999.0000  103.5319    1.6100    1.8404    1.9994    1.7074    0.9851   92.4865    2.3825    0.0324   20.3806    2.2028   37.0000   31.0000 
1475.2320    8.5000    8.5493    3.2977  115.5600 -999.0000  105.6201    1.4466    1.5026    1.8648    1.5677    1.0310   92.6585    2.3471    0.0315   22.6149    2.1549   37.0000   31.0000 
1475.3844    8.5000    8.5703    3.3499  117.1478 -999.0000  105.0245    1.3654    1.3379    1.7618    1.5366    0.9847   91.5501    2.3158    0.0206   23.4128    2.1704   37.0000   31.0000 
1475.5368    8.5000    8.5783    3.2232  117.8459 -999.0000  104.3815    1.3924    1.3271    1.6278    1.5552    0.9887   89.6906    2.3098    0.0110   23.2872    2.2480   31.0000   31.0000 
1475.6892    8.5000    8.5778    3.0319  116.8157 -999.0000  105.8024    1.5355    1.3872    1.5460    1.5830    1.0775   88.9304    2.3168    0.0112   22.8203    2.3072   31.0000   31.0000 
1475.8416    8.5000    8.5807    2.8160  114.4704 -999.0000  108.1194    1.6924    1.5464    1.5374    1.5729    1.1614   88.7944    2.3264    0.0125   22.6774    2.3176   31.0000   31.0000 
1475.9940    8.5000    8.5808    2.7705  115.2141 -999.0000  108.3696    1.7883    1.6457    1.5740    1.5455    1.1654   88.9870    2.3345    0.0126   22.8116    2.3614   31.0000   31.0000 
1476.1464    8.5000    8.5803    2.8515  118.0886 -999.0000  107.3527    1.7870    1.6711    1.6072    1.5528    1.4301   89.4157    2.3366    0.0119   22.8207    2.3912   31.0000   31.0000 
1476.2988    8.5000    8.5764    2.9380  119.2690 -999.0000  106.6256    1.7332    1.6639    1.6138    1.5429    1.3472   90.1717    2.3356    0.0097   22.5060    2.3854   31.0000   31.0000 
1476.4512    8.5000    8.5706    3.0079  117.3323 -999.0000  107.5859    1.5981    1.5660    1.6041    1.4673    1.2299   91.1354    2.3287    0.0070   21.9161    2.3356   31.0000   31.0000 
1476.6036    8.5000    8.5624    3.0440  114.1315 -999.0000  107.8655    1.4369    1.4271    1.5583    1.3955    1.2193   91.8801    2.3131    0.0051   21.8692    2.2313   31.0000   31.0000 
1476.7560    8.5000    8.5530    3.0315  112.9031 -999.0000  107.6432    1.3510    1.3068    1.5580    1.3792    1.0266   91.6267    2.3002    0.0030   22.1345    2.1636   31.0000   31.0000 
1476.9084    8.5000    8.5423    2.9875  113.3148 -999.0000  107.1880    1.3826    1.3051    1.5587    1.3829    0.9383   90.7106    2.2984    0.0020   22.4816    2.1575   31.0000   31.0000 
1477.0608    8.5000    8.5395    2.8231  115.1761 -999.0000  106.2185    1.4497    1.3148    1.5447    1.4305    1.0658   90.3699    2.3045    0.0031   22.1460    2.1876   31.0000   31.0000 
1477.2132    8.5000    8.5735    2.6166  118.1427 -999.0000  104.9173    1.5134    1.3587    1.5265    1.4708    1.1649   90.3500    2.3181    0.0039   22.0188    2.2296   31.0000   31.0000 
1477.3656    8.5000    8.6073    2.2297  119.9308 -999.0000  105.4063    1.5522    1.4607    1.5501    1.4804    1.1140   90.3452    2.3253    0.0048   22.5683    2.3013   31.0000   31.0000 
1477.5180    8.5000    8.6305    1.6879  120.0768 -999.0000  107.7935    1.6673    1.5994    1.6385    1.5925    1.0620   89.8141    2.3286    0.0040   23.0480    2.3819   31.0000   31.0000 
1477.6704    8.5000    8.6510    1.6006  120.6960 -999.0000  111.2272    1.7800    1.6799    1.7145    1.7118    1.0881   89.2673    2.3404    0.0033   22.8755    2.4216   31.0000   31.0000 
1477.8228    8.5000    8.6581    1.5773  120.8005 -999.0000  111.8031    1.8539    1.7575    1.7295    1.7615    1.2738   88.8056    2.3491    0.0044   21.7508    2.4136   31.0000   31.0000 
1477.9752    8.5000    8.6505    1.4999  120.4083 -999.0000  111.8755    1.9193    1.8195    1.7171    1.7033    1.5952   88.9852    2.3500    0.0070   21.4277    2.3490   31.0000   31.0000 
1478.1276    8.5000    8.6395    1.3960  117.1906 -999.0000  109.7272    1.8934    1.7748    1.7228    1.6083    1.2998   90.5587    2.3445    0.0094   21.2934    2.2733   31.0000   31.0000 
1478.2800    8.5000    8.6376    1.2804  110.6158 -999.0000  105.5414    1.6418    1.6262    1.7885    1.5914    1.2503   92.6127    2.3239    0.0118   22.2671    2.2245   31.0000   31.0000 
1478.4324    8.5000    8.6372    1.0950  109.5626 -999.0000  105.4689    1.5353    1.4709    1.9590    1.6103    0.8876   92.6986    2.3180    0.0125   23.6896    2.2350   31.0000   31.0000 
