~VERSION INFORMATION
 VERS.                 2.0:   CWLS LOG ASCII STANDARD - VERSION 2.0
 WRAP.                  NO:   SINGLE LINE PER DEPTH STEP
 CREA.                 19/01/2018 11:53:50
#CREATED USING DSPetro VERSION 5000.10.1.3 BY H191660 ON 19/01/2018 11:53:50
~WELL INFORMATION
#MNEM.UNIT       DATA                          DESCRIPTION MNEMONIC
#---------      ---------------------------   --------------------------
 STRT    .M         0.0000                    : START DEPTH
 STOP    .M         1999.9452                 : STOP DEPTH
 STEP    .M         0.1524                    : STEP VALUE
 NULL    .      -999.0000                     : NULL VALUE
 DATE    .      19/01/2018                    : LAS file Creation Date
 WELL .      2780_Saladin-1              : Well Name
 COMP .      Neftex Exploration Insights : Company
 FLD  .      SALADIN                     : Field
 UWI  .      ZAUWL_006048                : Unique Well Identifier (UWI)
 LOC  .                                  : Location
 RWS  .      -999                        : Def_Rw
 WST  .      -999                        : Def_Rwt
 SRVC .                                  : Contractor
~CURVE INFORMATION
#MNEM              UNIT       API CODE   Curve Type Comments
#----------  --------------- ----------  ---------- -----------
 DEPTH      .M                         : Depth       
 BitSize    .in                        : bitSize     
 CAL_INCH   .inch                      : Caliper     Caliper Log - A representation of the measured diameter of a borehole along its depth
 SP_MV1     .mv                        : SP          Spontaneous Potential - Records the electrical potential produced by the interaction of formation water, conductive drilling mud, and certain ion-sele
 GR_API     .API                       : gammaRay    Gamma Ray (API) - Measures the intensity of natural gamma-ray radiation emitted from formations containing radioactive elements, such as K, Th and U
 CGR_API    .API                       : gammaRay    Corrected / Computed Gamma Ray - Radiation with the Uranium component removed. Also known as a 'carbonate gamma ray'
 SGR_API    .API                       : gammaRay    Spectral Gamma Ray - Total gamma calibrated to API, measured using a spectoral gamma array tool
 LLD_OHMM   .ohmm                      : deepRes     Laterlog Deep Resistivity - Measurement made several feet into the formation; generally considered a measurement of the undisturbed formation
 LLS_OHMM   .ohmm                      : shalRes     Laterlog Shallow Resistivity - one to two feet into the formation; generally considered to measure the formation
 ILD_OHMM   .ohmm                      : deepRes     Deep Induction Resistivity - Measurement made an induction log, made several feet into the formation
 ILM_OHMM   .ohmm                      : medRes      Medium Induction Resistivity - Measurement made approximately two to three feet into the formation
 MSFL_OHMM  .ohmm                      : microRes    Micro-Spherically Focused Log - Measurement involves only the first few inches of the formation immediately adjacent to the borehole
 DT_US_FT   .us/ft                     : sonic       Interval Transit Time: Compressional Wave - Evaluates the time it takes for a compressional wave to traverse a fixed distance
 RHOB_G_CC  .g/cc                      : density     Bulk Density - Measures the density of bulk material, including any void space or other materials contained in the subject volume
 DRHO_G_CC  .g/cc                      : drho        Density Correction - Investigates the correction to the Bulk Density log; used as an indication of hole condition to validate the Bulk Density measure
 NPHI_v/v   .PC                        : Neutron     Neutron Porosity - Measured with an neutron logging device calibrated to a given matrix (limestone, sandstone and dolomite)
 PEF_B_E    .b/e-                      : PEF         Photoelectric Factor - A log of photoelectric absorption properties. Often expressed in an approximation unit barns/electron (b/e-)
 LITH       .                          : LITH        Lithology Curve
 LITH_v2    .                          : LITH        Lithology Curve
~A  DEPTH  BitSize   CAL_INCH   SP_MV1    GR_API   CGR_API   SGR_API   LLD_OHMM  LLS_OHMM  ILD_OHMM  ILM_OHMM MSFL_OHM   DT_US_FT RHOB_G_C  DRHO_G_C   NPHI_v/v  PEF_B_E     LITH    LITH_v2  
# ...
1088.1360   12.2500 -999.0000   -0.7531  122.8244   68.6251   72.0076 -999.0000 -999.0000    1.2013    1.2076 -999.0000  119.7245 -999.0000 -999.0000 -999.0000 -999.0000 -999.0000 -999.0000 
1088.2884   12.2500 -999.0000   -0.4669  124.9476   68.4737   73.8075 -999.0000 -999.0000    1.2078    1.2271 -999.0000  119.8883 -999.0000 -999.0000 -999.0000 -999.0000 -999.0000 -999.0000 
1088.4408   12.2500 -999.0000   -0.2169  123.9581   68.2523   74.6054 -999.0000 -999.0000    1.2172    1.2446 -999.0000  118.9419 -999.0000 -999.0000 -999.0000 -999.0000 -999.0000 -999.0000 
1088.5932   12.2500 -999.0000    0.0155  124.6455   68.0846   75.3555 -999.0000 -999.0000    1.2240    1.2541 -999.0000  118.3477 -999.0000 -999.0000 -999.0000 -999.0000 -999.0000 -999.0000 
1088.7456   12.2500 -999.0000    0.0533  125.2030   67.9731   75.6089 -999.0000 -999.0000    1.2217    1.2556 -999.0000  117.6036 -999.0000 -999.0000 -999.0000 -999.0000 -999.0000 -999.0000 
1088.8980   12.2500 -999.0000    0.0194  125.0589   68.4083   76.6462 -999.0000 -999.0000    1.2169    1.2523 -999.0000  117.4818 -999.0000 -999.0000 -999.0000 -999.0000   37.0000   37.0000 
1089.0504   12.2500 -999.0000   -0.1705  124.4405   67.8566   77.5202 -999.0000 -999.0000    1.2182    1.2338 -999.0000  118.0345 -999.0000 -999.0000 -999.0000 -999.0000   37.0000   37.0000 
1089.2028   12.2500 -999.0000   -0.2205  120.7445   67.1763   77.6822 -999.0000 -999.0000    1.2265    1.2208 -999.0000  119.9687 -999.0000 -999.0000 -999.0000 -999.0000   37.0000   37.0000 
1089.3552   12.2500 -999.0000   -0.1081  117.3867   67.0998   78.0178 -999.0000 -999.0000    1.2309    1.2204 -999.0000  119.8564 -999.0000 -999.0000 -999.0000 -999.0000   37.0000   37.0000 
1089.5076   12.2500 -999.0000    0.0766  117.7843   67.1924   77.7871 -999.0000 -999.0000    1.2306    1.2268 -999.0000  119.4021 -999.0000 -999.0000 -999.0000 -999.0000   37.0000   37.0000 
1089.6600   12.2500 -999.0000    0.1391  119.2804   66.8856   76.7482 -999.0000 -999.0000    1.2233    1.2221 -999.0000  118.2431 -999.0000 -999.0000 -999.0000 -999.0000   37.0000   37.0000 
1089.8124   12.2500 -999.0000    0.0866  119.6133   66.4374   76.3906 -999.0000 -999.0000    1.2033    1.2133 -999.0000  118.3582 -999.0000 -999.0000 -999.0000 -999.0000   37.0000   37.0000 
1089.9648   12.2500 -999.0000   -0.0713  117.3790   66.0910   76.7346 -999.0000 -999.0000    1.1912    1.2022 -999.0000  117.5934 -999.0000 -999.0000 -999.0000 -999.0000   37.0000   37.0000 
1090.1172   12.2500 -999.0000   -0.1598  108.6738   65.4799   77.1056 -999.0000 -999.0000    1.1906    1.1959 -999.0000  118.8259 -999.0000 -999.0000 -999.0000 -999.0000   37.0000   37.0000 
1090.2696   12.2500 -999.0000   -0.2232  101.5748   64.1631   76.7595 -999.0000 -999.0000    1.1962    1.1957 -999.0000  118.8845 -999.0000 -999.0000 -999.0000 -999.0000   37.0000   37.0000 
1090.4220   12.2500 -999.0000   -0.2478   99.4518   61.9294   74.4588 -999.0000 -999.0000    1.2306    1.2069 -999.0000  118.5777 -999.0000 -999.0000 -999.0000 -999.0000   37.0000   37.0000 
1090.5744   12.2500 -999.0000   -0.2131   96.6142   60.2949   70.4923 -999.0000 -999.0000    1.2801    1.2333 -999.0000  117.3677 -999.0000 -999.0000 -999.0000 -999.0000   37.0000   37.0000 
1090.7268   12.2500 -999.0000   -0.1428   91.7298   61.2670   65.7444 -999.0000 -999.0000    1.3490    1.2978 -999.0000  112.7331 -999.0000 -999.0000 -999.0000 -999.0000   37.0000   37.0000 
1090.8792   12.2500 -999.0000   -0.2213   93.9257   62.1650   59.6170 -999.0000 -999.0000    1.3795    1.4162 -999.0000  105.0477 -999.0000 -999.0000 -999.0000 -999.0000   37.0000   37.0000 
1091.0316   12.2500 -999.0000   -0.4954  105.5955   62.1246   58.9132 -999.0000 -999.0000    1.3594    1.4516 -999.0000   94.5073 -999.0000 -999.0000 -999.0000 -999.0000   37.0000   37.0000 
1091.1840   12.2500 -999.0000   -0.9767  108.6120   69.3664   62.9753 -999.0000 -999.0000    1.3301    1.4421 -999.0000   89.1251 -999.0000 -999.0000 -999.0000 -999.0000   37.0000   37.0000 
1091.3364   12.2500 -999.0000   -1.3491  111.9380   84.8495   74.4308 -999.0000 -999.0000    1.3017    1.3902 -999.0000   91.9872 -999.0000 -999.0000 -999.0000 -999.0000   37.0000   37.0000 
1091.4888   12.2500 -999.0000   28.4133  113.8420   93.7395   88.4527 -999.0000 -999.0000    1.2695    1.2843 -999.0000  102.6560 -999.0000    0.0116 -999.0000 -999.0000   37.0000   37.0000 
1091.6412   12.2500 -999.0000   -9.8456  116.5938   96.5868  100.9236 -999.0000 -999.0000    1.2277    1.1952    1.0519  106.9650    1.9319    0.0171   34.7114    1.5962   37.0000   11.0000 
1091.7936   12.2500   12.1692   -8.6071  117.5543   99.0571  107.6433 -999.0000 -999.0000    1.1905    1.1483    0.7373  108.9990    1.6847    0.0103   38.7773    1.2766   37.0000   11.0000 
1091.9460   12.2500   14.0142   -7.4732  118.8547   98.4151  107.7771 -999.0000 -999.0000    1.1557    1.0909    0.1973  110.9990    1.5214   -0.0038   43.2921    1.1669   37.0000   11.0000 
1092.0984   12.2500   14.5530   -6.9421  118.5496   98.4617  107.8193 -999.0000 -999.0000    1.0735    0.8162    0.1983  111.9990    1.4571   -0.0084   46.2765    1.3312   37.0000   11.0000 
1092.2508   12.2500   14.1661   -6.1590  117.8208   98.2766  108.2855    1.3630    1.2243    0.8461    0.9753    0.1994  112.9990    1.5524   -0.0107   45.1317    1.8270   37.0000   11.0000 
1092.4032   12.2500   12.9961   -5.3302  119.0293   98.1927  108.2376    1.6361    1.4039    0.8537    0.8925    0.2683  113.9230    1.9505    0.0166   44.2109    2.2025   37.0000   11.0000 
1092.5556   12.2500   13.2402   -4.7984  117.7870   97.8380  107.6042    1.8692    1.5583    0.9572    0.7542    1.3661  114.3636    1.9711    0.0406   41.2402    2.0754   37.0000   11.0000 
1092.7080   12.2500   13.6440   -4.3216  114.3072   97.0797  106.4504    1.9533    1.5875    1.0239    0.7750    1.0921  115.7296    1.9659    0.0502   40.3538    1.8480   37.0000   11.0000 
1092.8604   12.2500   14.4469   -3.8034  111.7539   96.1693  104.3754    2.0163    1.5825    0.9966    0.9031    0.2194  118.5228    1.8396    0.0339   41.0538    1.7123   37.0000   11.0000 
1093.0128   12.2500   15.1610   -3.2550  113.3867   96.3153  101.8860    1.9893    1.5070    1.0080    0.8812    0.1984  118.5845    1.7791    0.0094   42.3058    1.6440   37.0000   11.0000 
1093.1652   12.2500   15.5008   -2.8128  115.2606   97.1222   99.6240    1.8483    1.4018    1.0087    0.7409    0.3373  118.9704    1.6758   -0.0092   43.9526    1.4164   37.0000   11.0000 
1093.3176   12.2500   16.3224   -2.4664  116.0423   97.2358   98.9956    1.8000    1.3358    0.9791    0.6506    0.2244  121.2103    1.5646    0.0005   43.8664    1.1127   37.0000   11.0000 
1093.4700   12.2500   17.9138   -2.1312  116.6048   97.0788   99.0604    1.7265    1.2919    1.0025    0.7349    0.2004  120.8254    1.4502    0.0169   44.2071    1.0063   37.0000   11.0000 
1093.6224   12.2500   18.1261   -1.8456  117.4284   96.9562  100.6904    1.7137    1.2769    1.1040    1.1257    0.1999  120.6234    1.3504    0.0215   46.7501    1.0686   37.0000   11.0000 
1093.7748   12.2500   17.1311   -1.6594  118.8224   96.8926  103.3362    1.7615    1.3063    1.3779    1.6940    0.2006  119.4884    1.4682    0.0101   47.5718    1.3492   37.0000   11.0000 
1093.9272   12.2500   16.0550   -1.6010  118.6845   97.2508  105.9813    1.9925    1.4106    1.4791    2.1740    0.2024  115.0946    1.8426    0.0086   45.7786    1.9274   37.0000   11.0000 
1094.0796   12.2500   15.5729   -1.5620  116.7487   98.3741  107.9857    2.1675    1.6144    1.5354    2.3505    0.4470  111.3939    2.0353    0.0169   44.1608    2.4020   37.0000   37.0000 
1094.2320   12.2500   14.5444   -1.2790  119.1837   98.7307  109.2562    2.3530    1.7781    1.4973    1.9253    0.5457  108.8222    2.2494    0.0284   40.7504    2.7110   37.0000   37.0000 
1094.3844   12.2500   13.1753   -0.7753  122.5347   98.8639  109.5709    2.4652    1.8760    1.4050    1.3029    0.9950  110.9922    2.2780    0.0468   36.6061    2.5786   37.0000   37.0000 
