~VERSION INFORMATION
 VERS.                 2.0:   CWLS LOG ASCII STANDARD - VERSION 2.0
 WRAP.                  NO:   SINGLE LINE PER DEPTH STEP
 CREA.                 19/01/2018 11:53:50
#CREATED USING DSPetro VERSION 5000.10.1.3 BY H191660 ON 19/01/2018 11:53:50
~WELL INFORMATION
#MNEM.UNIT       DATA                          DESCRIPTION MNEMONIC
#---------      ---------------------------   --------------------------
 STRT    .M         0.0000                    : START DEPTH
 STOP    .M         1999.9452                 : STOP DEPTH
 STEP    .M         0.1524                    : STEP VALUE
 NULL    .      -999.0000                     : NULL VALUE
 DATE    .      19/01/2018                    : LAS file Creation Date
 WELL .      2780_Saladin-1              : Well Name
 COMP .      Neftex Exploration Insights : Company
 FLD  .      SALADIN                     : Field
 UWI  .      ZAUWL_006048                : Unique Well Identifier (UWI)
 LOC  .                                  : Location
 RWS  .      -999                        : Def_Rw
 WST  .      -999                        : Def_Rwt
 SRVC .                                  : Contractor
~CURVE INFORMATION
#MNEM              UNIT       API CODE   Curve Type Comments
#----------  --------------- ----------  ---------- -----------
 DEPTH      .M                         : Depth       
 BitSize    .in                        : bitSize     
 CAL_INCH   .inch                      : Caliper     Caliper Log - A representation of the measured diameter of a borehole along its depth
 SP_MV1     .mv                        : SP          Spontaneous Potential - Records the electrical potential produced by the interaction of formation water, conductive drilling mud, and certain ion-sele
 GR_API     .API                       : gammaRay    Gamma Ray (API) - Measures the intensity of natural gamma-ray radiation emitted from formations containing radioactive elements, such as K, Th and U
 CGR_API    .API                       : gammaRay    Corrected / Computed Gamma Ray - Radiation with the Uranium component removed. Also known as a 'carbonate gamma ray'
 SGR_API    .API                       : gammaRay    Spectral Gamma Ray - Total gamma calibrated to API, measured using a spectoral gamma array tool
 LLD_OHMM   .ohmm                      : deepRes     Laterlog Deep Resistivity - Measurement made several feet into the formation; generally considered a measurement of the undisturbed formation
 LLS_OHMM   .ohmm                      : shalRes     Laterlog Shallow Resistivity - one to two feet into the formation; generally considered to measure the formation
 ILD_OHMM   .ohmm                      : deepRes     Deep Induction Resistivity - Measurement made an induction log, made several feet into the formation
 ILM_OHMM   .ohmm                      : medRes      Medium Induction Resistivity - Measurement made approximately two to three feet into the formation
 MSFL_OHMM  .ohmm                      : microRes    Micro-Spherically Focused Log - Measurement involves only the first few inches of the formation immediately adjacent to the borehole
 DT_US_FT   .us/ft                     : sonic       Interval Transit Time: Compressional Wave - Evaluates the time it takes for a compressional wave to traverse a fixed distance
 RHOB_G_CC  .g/cc                      : density     Bulk Density - Measures the density of bulk material, including any void space or other materials contained in the subject volume
 DRHO_G_CC  .g/cc                      : drho        Density Correction - Investigates the correction to the Bulk Density log; used as an indication of hole condition to validate the Bulk Density measure
 NPHI_v/v   .PC                        : Neutron     Neutron Porosity - Measured with an neutron logging device calibrated to a given matrix (limestone, sandstone and dolomite)
 PEF_B_E    .b/e-                      : PEF         Photoelectric Factor - A log of photoelectric absorption properties. Often expressed in an approximation unit barns/electron (b/e-)
 LITH       .                          : LITH        Lithology Curve
 LITH_v2    .                          : LITH        Lithology Curve
~A  DEPTH  BitSize   CAL_INCH   SP_MV1    GR_API   CGR_API   SGR_API   LLD_OHMM  LLS_OHMM  ILD_OHMM  ILM_OHMM MSFL_OHM   DT_US_FT RHOB_G_C  DRHO_G_C   NPHI_v/v  PEF_B_E     LITH    LITH_v2  
# ...
1760.2200    8.5000    8.7139   10.6860  124.8652 -999.0000  112.5627    3.2889    3.0251    2.8423    2.8202    3.8579   83.6420    2.4194    0.0082   20.7349    2.3816   37.0000   37.0000 
1760.3724    8.5000    8.7217   10.3183  126.2650 -999.0000  115.7037    3.3239    3.0590    2.8630    2.8948    3.9221   83.3051    2.4269    0.0081   20.2894    2.5496   37.0000   37.0000 
1760.5248    8.5000    8.7249    9.7957  126.6862 -999.0000  117.3484    3.3808    3.0904    2.8958    2.9457    3.2671   83.2492    2.4356    0.0086   20.3377    2.5709   37.0000   37.0000 
1760.6772    8.5000    8.7306    9.5510  125.7146 -999.0000  118.2575    3.4082    3.0933    2.9580    2.9893    3.9707   82.9200    2.4366    0.0091   20.5941    2.4915   37.0000   37.0000 
1760.8296    8.5000    8.7377    9.5515  122.5944 -999.0000  118.5624    3.4003    3.0902    3.0280    3.0423    4.0837   83.0755    2.4341    0.0087   20.4683    2.3893   37.0000   37.0000 
1760.9820    8.5000    8.7391    9.7402  118.3851 -999.0000  116.3936    3.3824    3.1009    3.0877    3.1135    3.8564   83.5007    2.4267    0.0055   20.4394    2.4021   37.0000   37.0000 
1761.1344    8.5000    8.7374    9.7980  121.5784 -999.0000  114.5018    3.3890    3.1205    3.1352    3.1736    3.7521   83.7877    2.4242    0.0051   20.5956    2.4067   37.0000   37.0000 
1761.2868    8.5000    8.7300    9.6741  123.9323 -999.0000  114.9232    3.4406    3.1644    3.1509    3.1846    4.0583   83.9706    2.4252    0.0064   20.8332    2.3930   37.0000   37.0000 
1761.4392    8.5000    8.7215    9.7859  125.6124 -999.0000  115.8472    3.4707    3.1866    3.1506    3.1839    4.1010   83.9385    2.4285    0.0087   21.0494    2.3564   37.0000   37.0000 
1761.5916    8.5000    8.7140   10.1897  124.1832 -999.0000  115.9922    3.4898    3.1650    3.1558    3.1712    3.7966   83.6799    2.4332    0.0119   21.2006    2.2997   37.0000   37.0000 
1761.7440    8.5000    8.7081   10.5442  118.5359 -999.0000  115.4089    3.4690    3.1031    3.1544    3.1375    3.5988   83.3984    2.4390    0.0147   21.4417    2.2674   37.0000   37.0000 
1761.8964    8.5000    8.7100   10.7447  117.5607 -999.0000  114.0148    3.3553    2.9996    3.1120    3.1133    4.2197   83.2855    2.4420    0.0147   21.6195    2.3046   37.0000   37.0000 
1762.0488    8.5000    8.7145   10.7688  118.3726 -999.0000  112.1650    3.2270    2.8369    3.0524    3.0700    3.6632   83.4085    2.4414    0.0145   21.7200    2.3676   37.0000   37.0000 
1762.2012    8.5000    8.7085   10.9067  121.1266 -999.0000  110.6500    3.0442    2.7197    2.9865    3.0137    2.7176   84.0054    2.4365    0.0143   21.6231    2.4027   37.0000   37.0000 
1762.3536    8.5000    8.7062   11.1414  121.1147 -999.0000  110.0660    2.9287    2.6694    2.9260    2.9235    3.1774   85.0992    2.4237    0.0141   21.5853    2.4176   37.0000   37.0000 
1762.5060    8.5000    8.7086   11.1783  120.1885 -999.0000  109.1581    2.8693    2.6619    2.8635    2.8475    2.8817   85.6640    2.4132    0.0142   21.6485    2.4186   37.0000   37.0000 
1762.6584    8.5000    8.7039   11.0053  120.0305 -999.0000  109.4301    2.8903    2.7154    2.8193    2.7798    2.6451   85.6687    2.4061    0.0130   21.8129    2.4318   37.0000   37.0000 
1762.8108    8.5000    8.6983   10.9229  121.6404 -999.0000  112.6046    2.9730    2.7828    2.7979    2.7418    2.7943   85.4908    2.4015    0.0115   21.8261    2.4220   37.0000   37.0000 
1762.9632    8.5000    8.6953   10.9394  124.5697 -999.0000  116.1459    3.0944    2.9124    2.7970    2.7534    2.7627   85.2844    2.3992    0.0078   21.7828    2.3658   37.0000   37.0000 
1763.1156    8.5000    8.6884   10.8396  125.4377 -999.0000  118.3306    3.2123    3.0053    2.8090    2.7913    2.2641   85.0626    2.4009    0.0054   21.3971    2.3076   37.0000   37.0000 
1763.2680    8.5000    8.6865   10.6591  129.2012 -999.0000  120.7303    3.3582    3.0505    2.8654    2.8782    3.0416   84.9023    2.4062    0.0038   21.1260    2.3193   37.0000   37.0000 
1763.4204    8.5000    8.6889   10.4662  133.2664 -999.0000  121.6082    3.4854    3.1318    2.9348    2.9930    2.8282   84.7133    2.4200    0.0033   21.1223    2.4221   37.0000   37.0000 
1763.5728    8.5000    8.6886   10.4113  134.5022 -999.0000  120.5140    3.5877    3.2631    3.0227    3.1258    3.1288   84.1270    2.4344    0.0048   20.9607    2.7024   37.0000   37.0000 
1763.7252    8.5000    8.6879   10.3036  133.5565 -999.0000  117.3431    3.6587    3.4123    3.1104    3.2061    3.9139   82.8502    2.4553    0.0031   20.8814    2.9696   37.0000   37.0000 
1763.8776    8.5000    8.6873   10.0092  127.7732 -999.0000  116.9248    3.6768    3.5185    3.2080    3.2690    6.2234   82.0037    2.4794    0.0026   21.0113    3.1111   37.0000   37.0000 
1764.0300    8.5000    8.6940    9.6979  124.3244 -999.0000  118.0671    3.7010    3.5578    3.2622    3.3001    4.2744   81.3906    2.4885    0.0045   21.2681    2.9028   37.0000   37.0000 
1764.1824    8.5000    8.6988    9.6269  124.8753 -999.0000  121.5063    3.6867    3.5075    3.2922    3.3079    3.9625   81.4028    2.4785    0.0080   21.3091    2.6291   37.0000   37.0000 
1764.3348    8.5000    8.7072    9.7310  127.6766 -999.0000  123.4869    3.6108    3.4328    3.3097    3.3107    2.9137   82.1921    2.4452    0.0082   21.2445    2.4276   37.0000   37.0000 
1764.4872    8.5000    8.7122    9.8081  130.2480 -999.0000  124.2834    3.5834    3.4355    3.3109    3.3300    3.8950   83.2064    2.4253    0.0058   21.0518    2.3532   37.0000   37.0000 
1764.6396    8.5000    8.6915    9.7383  130.0154 -999.0000  124.0619    3.6166    3.4683    3.3080    3.3404    3.8396   83.4570    2.4227    0.0043   21.0170    2.3350   37.0000   37.0000 
1764.7920    8.5000    8.6460    9.4793  127.0966 -999.0000  123.1758    3.6629    3.5105    3.3181    3.3563    3.7275   83.1337    2.4321    0.0039   21.1858    2.3458   37.0000   37.0000 
1764.9444    8.5000    8.6392    9.5581  124.6080 -999.0000  121.0226    3.6398    3.5095    3.3124    3.3644    3.7961   82.7203    2.4362    0.0060   21.1469    2.3859   37.0000   37.0000 
1765.0968    8.5000    8.6443    9.5966  123.9946 -999.0000  117.4404    3.5244    3.4315    3.2867    3.3646    3.7152   82.6438    2.4377    0.0059   20.8722    2.4621   37.0000   37.0000 
1765.2492    8.5000    8.6499    9.4235  122.0033 -999.0000  115.2457    3.3578    3.3067    3.2341    3.3326    3.8013   82.7596    2.4367    0.0060   20.6144    2.5004   37.0000   37.0000 
1765.4016    8.5000    8.6492    9.5674  120.7457 -999.0000  114.3911    3.2027    3.1769    3.1736    3.2702    3.5785   83.2826    2.4276    0.0060   20.6137    2.5060   37.0000   37.0000 
1765.5540    8.5000    8.6439    9.3863  121.7648 -999.0000  114.5219    3.1175    3.1248    3.0847    3.0873    2.8388   83.9911    2.4111    0.0059   20.7560    2.5606   37.0000   37.0000 
1765.7064    8.5000    8.6357    9.1591  122.7147 -999.0000  116.1861    3.0397    3.0444    2.9646    2.9766    2.9571   85.0745    2.4004    0.0065   21.1997    2.8367   37.0000   37.0000 
1765.8588    8.5000    8.6276    8.9627  121.9333 -999.0000  117.0116    2.9835    2.9781    2.9533    2.9220    3.2989   85.7072    2.3983    0.0069   21.8265    2.9849   37.0000   37.0000 
1766.0112    8.5000    8.6280    8.7552  117.4619 -999.0000  115.9492    3.0087    2.9632    2.9659    2.9091    2.7381   85.8033    2.3973    0.0069   21.9786    3.1371   37.0000   37.0000 
1766.1636    8.5000    8.6298    8.3268  112.2548 -999.0000  113.9905    3.0992    3.0091    3.0060    2.9448    2.7005   85.6248    2.3979    0.0042   21.8129    3.0470   37.0000   37.0000 
1766.3160    8.5000    8.6317    7.6292  111.9282 -999.0000  113.5516    3.2517    3.1667    3.0872    3.0106    2.6557   85.1736    2.4003    0.0002   21.3830    2.8034   37.0000   37.0000 
1766.4684    8.5000    8.6329    6.8966  114.1480 -999.0000  114.6235    3.6348    3.4957    3.2386    3.1204    3.9629   84.2670    2.4079    0.0010   20.5790    2.6915   37.0000   37.0000 
