~VERSION INFORMATION
 VERS.                 2.0:   CWLS LOG ASCII STANDARD - VERSION 2.0
 WRAP.                  NO:   SINGLE LINE PER DEPTH STEP
 CREA.                 19/01/2018 11:53:50
#CREATED USING DSPetro VERSION 5000.10.1.3 BY H191660 ON 19/01/2018 11:53:50
~WELL INFORMATION
#MNEM.UNIT       DATA                          DESCRIPTION MNEMONIC
#---------      ---------------------------   --------------------------
 STRT    .M         0.0000                    : START DEPTH
 STOP    .M         1999.9452                 : STOP DEPTH
 STEP    .M         0.1524                    : STEP VALUE
 NULL    .      -999.0000                     : NULL VALUE
 DATE    .      19/01/2018                    : LAS file Creation Date
 WELL .      2780_Saladin-1              : Well Name
 COMP .      Neftex Exploration Insights : Company
 FLD  .      SALADIN                     : Field
 UWI  .      ZAUWL_006048                : Unique Well Identifier (UWI)
 LOC  .                                  : Location
 RWS  .      -999                        : Def_Rw
 WST  .      -999                        : Def_Rwt
 SRVC .                                  : Contractor
~CURVE INFORMATION
#MNEM              UNIT       API CODE   Curve Type Comments
#----------  --------------- ----------  ---------- -----------
 DEPTH      .M                         : Depth       
 BitSize    .in                        : bitSize     
 CAL_INCH   .inch                      : Caliper     Caliper Log - A representation of the measured diameter of a borehole along its depth
 SP_MV1     .mv                        : SP          Spontaneous Potential - Records the electrical potential produced by the interaction of formation water, conductive drilling mud, and certain ion-sele
 GR_API     .API                       : gammaRay    Gamma Ray (API) - Measures the intensity of natural gamma-ray radiation emitted from formations containing radioactive elements, such as K, Th and U
 CGR_API    .API                       : gammaRay    Corrected / Computed Gamma Ray - Radiation with the Uranium component removed. Also known as a 'carbonate gamma ray'
 SGR_API    .API                       : gammaRay    Spectral Gamma Ray - Total gamma calibrated to API, measured using a spectoral gamma array tool
 LLD_OHMM   .ohmm                      : deepRes     Laterlog Deep Resistivity - Measurement made several feet into the formation; generally considered a measurement of the undisturbed formation
 LLS_OHMM   .ohmm                      : shalRes     Laterlog Shallow Resistivity - one to two feet into the formation; generally considered to measure the formation
 ILD_OHMM   .ohmm                      : deepRes     Deep Induction Resistivity - Measurement made an induction log, made several feet into the formation
 ILM_OHMM   .ohmm                      : medRes      Medium Induction Resistivity - Measurement made approximately two to three feet into the formation
 MSFL_OHMM  .ohmm                      : microRes    Micro-Spherically Focused Log - Measurement involves only the first few inches of the formation immediately adjacent to the borehole
 DT_US_FT   .us/ft                     : sonic       Interval Transit Time: Compressional Wave - Evaluates the time it takes for a compressional wave to traverse a fixed distance
 RHOB_G_CC  .g/cc                      : density     Bulk Density - Measures the density of bulk material, including any void space or other materials contained in the subject volume
 DRHO_G_CC  .g/cc                      : drho        Density Correction - Investigates the correction to the Bulk Density log; used as an indication of hole condition to validate the Bulk Density measure
 NPHI_v/v   .PC                        : Neutron     Neutron Porosity - Measured with an neutron logging device calibrated to a given matrix (limestone, sandstone and dolomite)
 PEF_B_E    .b/e-                      : PEF         Photoelectric Factor - A log of photoelectric absorption properties. Often expressed in an approximation unit barns/electron (b/e-)
 LITH       .                          : LITH        Lithology Curve
 LITH_v2    .                          : LITH        Lithology Curve
~A  DEPTH  BitSize   CAL_INCH   SP_MV1    GR_API   CGR_API   SGR_API   LLD_OHMM  LLS_OHMM  ILD_OHMM  ILM_OHMM MSFL_OHM   DT_US_FT RHOB_G_C  DRHO_G_C   NPHI_v/v  PEF_B_E     LITH    LITH_v2  
# ...
1235.3544    8.5000    8.4739    9.2832   75.1533 -999.0000   67.6485    0.6704    0.5778    0.6106    0.5704    0.5294  104.5067    2.1809    0.0104   26.0580    1.6017   36.0000   36.0000 
1235.5068    8.5000    8.4638    9.3054   73.8266 -999.0000   66.7390    0.6682    0.5710    0.6080    0.5780    0.4985  104.3941    2.1812    0.0210   26.2048    1.6029   36.0000   36.0000 
1235.6592    8.5000    8.4480    9.2976   73.6706 -999.0000   65.4535    0.6348    0.5622    0.6135    0.5904    0.3992  103.7056    2.1884    0.0265   26.7242    1.6347   36.0000   36.0000 
1235.8116    8.5000    8.4506    9.3619   73.2473 -999.0000   64.6779    0.6214    0.5447    0.6179    0.5962    0.4021  102.5950    2.1912    0.0259   27.4152    1.6654   36.0000   36.0000 
1235.9640    8.5000    8.4554    9.4201   73.6597 -999.0000   64.8627    0.6279    0.5522    0.6283    0.5984    0.4721  101.1828    2.1886    0.0141   27.4761    1.6626   36.0000   36.0000 
1236.1164    8.5000    8.4552    9.4319   76.3249 -999.0000   65.7091    0.6534    0.5767    0.6465    0.6242    0.4783   99.3525    2.1918    0.0069   27.1224    1.6869   36.0000   36.0000 
1236.2688    8.5000    8.4584    9.4363   80.2528 -999.0000   67.7065    0.7377    0.6062    0.6740    0.6645    0.4582   98.3454    2.2081    0.0055   26.1626    1.7756   36.0000   36.0000 
1236.4212    8.5000    8.4583    9.4249   84.2673 -999.0000   74.4493    0.8190    0.6722    0.7170    0.6928    0.5208   98.1704    2.2416    0.0098   25.2969    1.8825   36.0000   36.0000 
1236.5736    8.5000    8.4647    9.3105   85.4948 -999.0000   79.5509    0.8591    0.7364    0.7384    0.7421    0.5724   98.2068    2.2615    0.0177   25.3911    1.9105   36.0000   36.0000 
1236.7260    8.5000    8.4817    9.1656   84.9387 -999.0000   81.7524    0.8662    0.8002    0.7935    0.7656    0.8036   98.0874    2.2861    0.0274   25.9433    1.8727   37.0000   36.0000 
1236.8784    8.5000    8.4814    8.9313   82.0982 -999.0000   80.5519    0.8621    0.8008    0.8690    0.7792    0.8157   97.5375    2.2894    0.0345   26.2251    1.7200   37.0000   36.0000 
1237.0308    8.5000    8.4809    8.7674   80.9033 -999.0000   80.8394    0.8763    0.7999    0.9471    0.8377    0.5776   96.8753    2.2859    0.0354   26.0916    1.7593   37.0000   36.0000 
1237.1832    8.5000    8.4808    8.7161   84.4371 -999.0000   84.9820    0.9164    0.8099    0.9846    0.9173    0.4877   96.4504    2.2838    0.0292   25.7728    1.8543   37.0000   36.0000 
1237.3356    8.5000    8.4911    8.6774   96.9571 -999.0000   92.1344    0.9870    0.8722    0.9996    0.9412    0.7385   96.4106    2.2891    0.0141   25.5236    2.1048   37.0000   37.0000 
1237.4880    8.5000    8.4921    8.5923  102.5779 -999.0000   95.5472    0.9852    0.9193    0.9946    0.9443    0.7480   96.5853    2.3015    0.0065   25.6571    2.1600   37.0000   37.0000 
1237.6404    8.5000    8.4913    8.3972  102.7987 -999.0000   96.0414    0.9729    0.9094    1.0032    0.9234    0.9041   97.2561    2.3021    0.0047   26.4725    2.1499   37.0000   37.0000 
1237.7928    8.5000    8.4853    8.0588  100.4159 -999.0000   95.5982    0.8924    0.8728    1.0951    0.9264    0.6801   97.2533    2.2910    0.0066   26.8354    2.0914   37.0000   37.0000 
1237.9452    8.5000    8.4769    7.7227   98.4468 -999.0000   92.7513    0.8886    0.8504    1.1815    0.9659    0.7771   97.1783    2.2764    0.0108   26.7215    1.9939   37.0000   37.0000 
1238.0976    8.5000    8.4681    7.5624   99.2571 -999.0000   93.5627    1.0076    0.8917    1.2091    1.0640    0.5616   96.6106    2.2777    0.0171   26.3755    2.0032   37.0000   37.0000 
1238.2500    8.5000    8.4622    7.4063  102.4257 -999.0000   95.4666    1.2042    0.9662    1.2106    1.2169    0.5334   95.5396    2.2892    0.0222   25.9941    2.0938   37.0000   37.0000 
1238.4024    8.5000    8.4619    7.1535  108.8201 -999.0000  105.8618    1.2673    1.1310    1.1953    1.2212    0.7809   95.3681    2.3291    0.0213   25.9124    2.3235   37.0000   37.0000 
1238.5548    8.5000    8.4589    6.7223  113.6037 -999.0000  111.6244    1.2655    1.1803    1.1973    1.1754    1.1245   95.7165    2.3563    0.0094   25.7424    2.5000   37.0000   37.0000 
1238.7072    8.5000    8.4601    6.2947  112.0805 -999.0000  110.4996    1.1594    1.1484    1.2150    1.1183    1.1813   96.2738    2.3513    0.0039   25.6608    2.4991   37.0000   37.0000 
1238.8596    8.5000    8.4644    6.2609  104.8291 -999.0000  104.5924    1.0604    1.0938    1.2679    1.0984    0.8544   96.4218    2.3364    0.0057   25.7531    2.4245   37.0000   37.0000 
1239.0120    8.5000    8.4604    6.2306  100.3765 -999.0000   99.5083    1.0479    1.0131    1.3154    1.1705    0.6995   96.3499    2.3240    0.0192   25.9930    2.2498   37.0000   37.0000 
1239.1644    8.5000    8.4672    6.1356  101.0343 -999.0000   96.8795    1.0880    0.9851    1.3134    1.1995    0.8330   95.7952    2.3241    0.0267   26.2647    2.2166   37.0000   37.0000 
1239.3168    8.5000    8.4641    5.9159  105.4892 -999.0000   96.7091    1.0964    1.0238    1.2742    1.1723    0.6543   95.6426    2.3240    0.0275   26.3502    2.1833   37.0000   37.0000 
1239.4692    8.5000    8.4546    5.4704  106.4556 -999.0000   97.0598    1.0853    1.0690    1.2356    1.1450    0.7159   95.8709    2.3192    0.0167   26.1680    2.1533   37.0000   37.0000 
1239.6216    8.5000    8.4470    5.2507  107.1254 -999.0000   97.9974    1.1033    1.0836    1.2201    1.0862    0.8576   96.0785    2.3133    0.0049   25.8658    2.1447   37.0000   37.0000 
1239.7740    8.5000    8.4467    5.2147  105.4975 -999.0000   98.9285    1.1493    1.0918    1.2357    1.0864    0.7661   95.9923    2.3123    0.0038   25.4730    2.1900   37.0000   37.0000 
1239.9264    8.5000    8.4443    5.1374  103.8373 -999.0000  101.4193    1.2133    1.1439    1.2644    1.1822    0.8122   95.2197    2.3144    0.0074   24.9693    2.2551   37.0000   37.0000 
1240.0788    8.5000    8.4401    4.8354  104.7841 -999.0000  104.7533    1.2318    1.1716    1.3263    1.2628    0.9747   94.2613    2.3257    0.0137   24.6356    2.2954   37.0000   37.0000 
1240.2312    8.5000    8.4380    4.6030  106.5235 -999.0000  105.8272    1.2318    1.1974    1.3642    1.2652    0.8864   93.8960    2.3394    0.0232   24.8763    2.2905   37.0000   37.0000 
1240.3836    8.5000    8.4413    4.6992  106.9093 -999.0000  106.1331    1.2318    1.2118    1.3889    1.2828    0.9504   93.6067    2.3467    0.0253   25.5220    2.3334   37.0000   37.0000 
1240.5360    8.5000    8.4301    4.7323  106.1683 -999.0000  106.0479    1.2374    1.1927    1.4448    1.3194    0.7443   92.5322    2.3465    0.0223   25.9998    2.3978   37.0000   37.0000 
1240.6884    8.5000    8.4319    4.6686  103.5005 -999.0000  105.4569    1.2753    1.1948    1.5220    1.3311    0.7143   91.2462    2.3439    0.0138   25.6175    2.4407   37.0000   37.0000 
1240.8408    8.5000    8.4270    4.5967  102.0672 -999.0000  103.6106    1.3405    1.2625    1.5555    1.3641    0.8367   90.2023    2.3436    0.0115   24.6637    2.4666   37.0000   37.0000 
1240.9932    8.5000    8.4275    4.5853  103.2270 -999.0000  100.3460    1.3826    1.3278    1.6102    1.3902    0.9521   89.6958    2.3520    0.0129   24.4423    2.7231   37.0000   37.0000 
1241.1456    8.5000    8.4300    4.9737  105.9347 -999.0000   95.0853    1.3910    1.3646    1.6563    1.4361    0.9642   89.7888    2.3741    0.0196   24.5707    2.8908   37.0000   37.0000 
1241.2980    8.5000    8.4311    5.1725  110.9897 -999.0000   95.9021    1.3788    1.3804    1.6692    1.5182    0.9645   90.6435    2.3929    0.0298   25.3301    2.8993   37.0000   37.0000 
1241.4504    8.5000    8.4349    5.0168  115.6337 -999.0000   98.9249    1.3826    1.3727    1.6728    1.5918    0.9726   91.9694    2.3918    0.0292   26.1863    2.5307   37.0000   37.0000 
1241.6028    8.5000    8.4345    4.9013  121.2830 -999.0000  103.4658    1.3968    1.3719    1.6590    1.5960    1.0259   93.0328    2.3772    0.0187   25.8012    2.2022   37.0000   37.0000 
