~VERSION INFORMATION
 VERS.                 2.0:   CWLS LOG ASCII STANDARD - VERSION 2.0
 WRAP.                  NO:   SINGLE LINE PER DEPTH STEP
 CREA.                 19/01/2018 11:53:50
#CREATED USING DSPetro VERSION 5000.10.1.3 BY H191660 ON 19/01/2018 11:53:50
~WELL INFORMATION
#MNEM.UNIT       DATA                          DESCRIPTION MNEMONIC
#---------      ---------------------------   --------------------------
 STRT    .M         0.0000                    : START DEPTH
 STOP    .M         1999.9452                 : STOP DEPTH
 STEP    .M         0.1524                    : STEP VALUE
 NULL    .      -999.0000                     : NULL VALUE
 DATE    .      19/01/2018                    : LAS file Creation Date
 WELL .      2780_Saladin-1              : Well Name
 COMP .      Neftex Exploration Insights : Company
 FLD  .      SALADIN                     : Field
 UWI  .      ZAUWL_006048                : Unique Well Identifier (UWI)
 LOC  .                                  : Location
 RWS  .      -999                        : Def_Rw
 WST  .      -999                        : Def_Rwt
 SRVC .                                  : Contractor
~CURVE INFORMATION
#MNEM              UNIT       API CODE   Curve Type Comments
#----------  --------------- ----------  ---------- -----------
 DEPTH      .M                         : Depth       
 BitSize    .in                        : bitSize     
 CAL_INCH   .inch                      : Caliper     Caliper Log - A representation of the measured diameter of a borehole along its depth
 SP_MV1     .mv                        : SP          Spontaneous Potential - Records the electrical potential produced by the interaction of formation water, conductive drilling mud, and certain ion-sele
 GR_API     .API                       : gammaRay    Gamma Ray (API) - Measures the intensity of natural gamma-ray radiation emitted from formations containing radioactive elements, such as K, Th and U
 CGR_API    .API                       : gammaRay    Corrected / Computed Gamma Ray - Radiation with the Uranium component removed. Also known as a 'carbonate gamma ray'
 SGR_API    .API                       : gammaRay    Spectral Gamma Ray - Total gamma calibrated to API, measured using a spectoral gamma array tool
 LLD_OHMM   .ohmm                      : deepRes     Laterlog Deep Resistivity - Measurement made several feet into the formation; generally considered a measurement of the undisturbed formation
 LLS_OHMM   .ohmm                      : shalRes     Laterlog Shallow Resistivity - one to two feet into the formation; generally considered to measure the formation
 ILD_OHMM   .ohmm                      : deepRes     Deep Induction Resistivity - Measurement made an induction log, made several feet into the formation
 ILM_OHMM   .ohmm                      : medRes      Medium Induction Resistivity - Measurement made approximately two to three feet into the formation
 MSFL_OHMM  .ohmm                      : microRes    Micro-Spherically Focused Log - Measurement involves only the first few inches of the formation immediately adjacent to the borehole
 DT_US_FT   .us/ft                     : sonic       Interval Transit Time: Compressional Wave - Evaluates the time it takes for a compressional wave to traverse a fixed distance
 RHOB_G_CC  .g/cc                      : density     Bulk Density - Measures the density of bulk material, including any void space or other materials contained in the subject volume
 DRHO_G_CC  .g/cc                      : drho        Density Correction - Investigates the correction to the Bulk Density log; used as an indication of hole condition to validate the Bulk Density measure
 NPHI_v/v   .PC                        : Neutron     Neutron Porosity - Measured with an neutron logging device calibrated to a given matrix (limestone, sandstone and dolomite)
 PEF_B_E    .b/e-                      : PEF         Photoelectric Factor - A log of photoelectric absorption properties. Often expressed in an approximation unit barns/electron (b/e-)
 LITH       .                          : LITH        Lithology Curve
 LITH_v2    .                          : LITH        Lithology Curve
~A  DEPTH  BitSize   CAL_INCH   SP_MV1    GR_API   CGR_API   SGR_API   LLD_OHMM  LLS_OHMM  ILD_OHMM  ILM_OHMM MSFL_OHM   DT_US_FT RHOB_G_C  DRHO_G_C   NPHI_v/v  PEF_B_E     LITH    LITH_v2  
# ...
1811.4264    8.5000    8.5510    2.9430  139.1086 -999.0000 -999.0000    5.6562    6.0999    5.2319    5.4949    7.1733   77.9221    2.5724    0.0125   22.1434    2.7304   37.0000   37.0000 
1811.5788    8.5000    8.5321    2.6320  138.5188 -999.0000 -999.0000    5.6836    6.1699    5.2373    5.5225    7.0035   79.2330    2.5388    0.0135   22.3503    2.9899   37.0000   37.0000 
1811.7312    8.5000    8.5302    2.2315  137.1365 -999.0000 -999.0000    5.6572    6.1278    5.2218    5.4286    7.1590   79.7434    2.5346    0.0200   22.4268    3.0112   37.0000   37.0000 
1811.8836    8.5000    8.5288    1.7785  134.7679 -999.0000 -999.0000    5.5490    6.0414    5.2555    5.3676   12.6793   79.4141    2.5460    0.0232   22.3940    2.9212   37.0000   37.0000 
1812.0360    8.5000    8.5274    1.5225  133.7018 -999.0000 -999.0000    5.4314    5.8784    5.3294    5.4610    7.7630   79.1459    2.5599    0.0254   22.3127    2.6845   37.0000   37.0000 
1812.1884    8.5000    8.5292    1.3606  136.2139 -999.0000 -999.0000    5.4964    5.8853    5.3842    5.4991    7.1301   79.2402    2.5584    0.0214   22.0541    2.5744   37.0000   37.0000 
1812.3408    8.5000    8.5338    0.7109  142.1486 -999.0000 -999.0000    5.7466    6.3460    5.4093    5.4749    8.4072   79.9117    2.5398    0.0172   21.6553    2.5926   37.0000   37.0000 
1812.4932    8.5000    8.5371   -0.0196  150.3889 -999.0000 -999.0000    6.0260    6.6871    5.4085    5.4641    7.7648   80.2205    2.5341    0.0157   21.4245    2.7239   37.0000   37.0000 
1812.6456    8.5000    8.5378   -0.4197  149.8318 -999.0000 -999.0000    6.1308    6.8092    5.3981    5.5559    7.8287   79.7694    2.5440    0.0169   21.3306    3.1164   37.0000   37.0000 
1812.7980    8.5000    8.5320   -0.7107  146.9478 -999.0000 -999.0000    6.1695    6.7597    5.4470    5.6508   11.6694   78.4146    2.5846    0.0277   21.1312    3.2247   37.0000   37.0000 
1812.9504    8.5000    8.5228   -1.1835  140.6073 -999.0000 -999.0000    6.0523    6.6995    5.4677    5.6914    8.0736   77.1932    2.6177    0.0405   21.1632    3.0716   37.0000   37.0000 
1813.1028    8.5000 -999.0000   -1.2927  137.3749 -999.0000 -999.0000    5.8881    6.5610    5.4873    5.7019    7.7324   76.8225    2.6442    0.0403   21.1118    2.8471   37.0000   37.0000 
1813.2552    8.5000 -999.0000   -1.3867  137.0986 -999.0000 -999.0000    5.8299    6.4135    5.5522    5.7213    7.9841   77.2253    2.6323    0.0290   21.0012    2.9018   37.0000   37.0000 
1813.4076    8.5000 -999.0000   -1.2692  142.3062 -999.0000 -999.0000    5.9254    6.3903    5.5975    5.7042    8.2967   78.3901    2.5867    0.0133   20.8945    2.9304   37.0000   37.0000 
1813.5600    8.5000 -999.0000   -1.1304  147.8917 -999.0000 -999.0000    5.9631    6.5522    5.5872    5.6498    8.2461   79.8333    2.5660    0.0105   21.0985    2.9117   37.0000   37.0000 
1813.7124    8.5000 -999.0000   -1.0423  150.2086 -999.0000 -999.0000    5.9586    6.6911    5.5735    5.4993    8.0902   79.9352    2.5729    0.0155   21.5698    2.8505   37.0000   37.0000 
1813.8648    8.5000 -999.0000   -0.9994  149.6915 -999.0000 -999.0000    5.9047    6.7201    5.5623    5.2278    7.8365   79.5660    2.6143    0.0331 -999.0000    2.8816   37.0000   37.0000 
1814.0172    8.5000 -999.0000   -0.9580  146.9208 -999.0000 -999.0000    5.8014    6.6481    5.5270    5.1032    8.3122   78.9515    2.6277    0.0352 -999.0000    2.9233   37.0000   37.0000 
1814.1696    8.5000 -999.0000   -0.8396  146.3677 -999.0000 -999.0000    5.8016    6.5015    5.5219    5.1676    9.8326   78.6331    2.6328    0.0305 -999.0000    2.9162   37.0000   37.0000 
1814.3220    8.5000 -999.0000   -0.7054  151.7728 -999.0000 -999.0000    5.8130    6.4335    5.5564    5.3858    8.4018   78.7798    2.6200    0.0252 -999.0000    2.8793   37.0000   37.0000 
1814.4744    8.5000 -999.0000   -0.5001  154.9846 -999.0000 -999.0000    5.7990    6.4744    5.5667    5.5198    7.7502   79.4548    2.5851    0.0254 -999.0000    2.7478   37.0000   37.0000 
1814.6268    8.5000 -999.0000   -0.3636  153.0078 -999.0000 -999.0000    5.8871    6.5450    5.5584    5.4841    8.1461   80.0190    2.5652    0.0267 -999.0000    2.6552   37.0000   37.0000 
1814.7792    8.5000 -999.0000   -0.2325  148.3369 -999.0000 -999.0000    6.0885    6.6499    5.5542    5.2419    7.8085   80.2501    2.5445    0.0280 -999.0000    2.8338   37.0000   37.0000 
1814.9316    8.5000 -999.0000   -0.1544  142.6398 -999.0000 -999.0000    6.1032    6.7647    5.5403    5.0458    7.7179   80.2205    2.5470    0.0276 -999.0000    3.2486   37.0000   37.0000 
1815.0840    8.5000 -999.0000   -0.0330  138.6157 -999.0000 -999.0000    6.0694    6.7549    5.5255    5.0283    8.2474   79.4645    2.5603    0.0227 -999.0000    3.4726   37.0000   37.0000 
1815.2364    8.5000 -999.0000    0.0676  141.0928 -999.0000 -999.0000    5.8570    6.6321    5.5478    5.1900   10.6168   78.5768    2.5914    0.0179 -999.0000    3.3882   37.0000   37.0000 
1815.3888    8.5000 -999.0000    0.2005  150.9921 -999.0000 -999.0000    5.7629    6.4912    5.5490    5.4484    8.2421   78.2615    2.6083    0.0168 -999.0000    2.9829   37.0000   37.0000 
1815.5412    8.5000 -999.0000    0.3388  150.5975 -999.0000 -999.0000    5.7544    6.4263    5.5332    5.4809    8.4949   78.4172    2.6033    0.0175 -999.0000    2.7784 -999.0000 -999.0000 
1815.6936    8.5000 -999.0000    0.5763  148.7559 -999.0000 -999.0000    5.8104    6.4158    5.5167    5.4114    8.6712   78.8442    2.5879    0.0192 -999.0000    2.6995 -999.0000 -999.0000 
1815.8460    8.5000 -999.0000    0.8884  144.3221 -999.0000 -999.0000    5.8838    6.3961    5.4758    5.3625    8.0063   79.3143    2.5873    0.0186 -999.0000    2.6863 -999.0000 -999.0000 
1815.9984    8.5000 -999.0000    1.2724 -999.0000 -999.0000 -999.0000    5.9132    6.3912    5.4419    5.1969    7.7358   79.6243    2.5849    0.0189 -999.0000    2.6775 -999.0000 -999.0000 
1816.1508    8.5000 -999.0000    1.6077 -999.0000 -999.0000 -999.0000    5.9369    6.3742    5.4393    5.0635    7.7972   79.7405    2.5730    0.0196 -999.0000    2.6451 -999.0000 -999.0000 
1816.3032    8.5000 -999.0000    1.9010 -999.0000 -999.0000 -999.0000    5.9224    6.3653    5.4699    5.1151    7.9102   79.6810    2.5518    0.0152 -999.0000    2.6576 -999.0000 -999.0000 
1816.4556    8.5000 -999.0000    2.1931 -999.0000 -999.0000 -999.0000    5.9020    6.3402    5.5444    5.2748    7.8054   79.8745    2.5398    0.0110 -999.0000    2.6621 -999.0000 -999.0000 
1816.6080    8.5000 -999.0000    2.4522 -999.0000 -999.0000 -999.0000    5.9044    6.2742    5.5816    5.5648    7.9929   80.2718    2.5368    0.0089 -999.0000    2.6515 -999.0000 -999.0000 
1816.7604    8.5000 -999.0000    2.7717 -999.0000 -999.0000 -999.0000    5.9610    6.2923    5.6022    5.6207    7.9830   80.4311    2.5350    0.0095 -999.0000    2.6478 -999.0000 -999.0000 
1816.9128    8.5000 -999.0000    3.2782 -999.0000 -999.0000 -999.0000    6.0290    6.3238    5.5735    5.5804    7.9657   80.2565    2.5320    0.0104 -999.0000    2.7040 -999.0000 -999.0000 
1817.0652    8.5000 -999.0000    4.0651 -999.0000 -999.0000 -999.0000    6.0048    6.2937    5.5556    5.4304    7.3850   80.1666    2.5292    0.0126 -999.0000    2.8017 -999.0000 -999.0000 
1817.2176    8.5000 -999.0000    4.7209 -999.0000 -999.0000 -999.0000    5.9320    6.2235    5.5445    5.2166    7.7505   80.1304    2.5308    0.0175 -999.0000    2.8448 -999.0000 -999.0000 
1817.3700    8.5000 -999.0000    5.1755 -999.0000 -999.0000 -999.0000    5.8688    6.1001    5.5803    5.0612    6.5719   80.0906    2.5289    0.0176 -999.0000    2.8406 -999.0000 -999.0000 
1817.5224    8.5000 -999.0000    5.8300 -999.0000 -999.0000 -999.0000    5.8573    6.0222    5.6948    5.1240    7.0088   79.6350    2.5244    0.0157 -999.0000    2.8205 -999.0000 -999.0000 
1817.6748    8.5000 -999.0000    6.7006 -999.0000 -999.0000 -999.0000    5.9188    6.0240    5.7726    5.4441    7.1622   79.4246 -999.0000    0.0146 -999.0000    2.7976 -999.0000 -999.0000 
