~VERSION INFORMATION
 VERS.                 2.0:   CWLS LOG ASCII STANDARD - VERSION 2.0
 WRAP.                  NO:   SINGLE LINE PER DEPTH STEP
 CREA.                 19/01/2018 11:53:50
#CREATED USING DSPetro VERSION 5000.10.1.3 BY H191660 ON 19/01/2018 11:53:50
~WELL INFORMATION
#MNEM.UNIT       DATA                          DESCRIPTION MNEMONIC
#---------      ---------------------------   --------------------------
 STRT    .M         0.0000                    : START DEPTH
 STOP    .M         1999.9452                 : STOP DEPTH
 STEP    .M         0.1524                    : STEP VALUE
 NULL    .      -999.0000                     : NULL VALUE
 DATE    .      19/01/2018                    : LAS file Creation Date
 WELL .      2780_Saladin-1              : Well Name
 COMP .      Neftex Exploration Insights : Company
 FLD  .      SALADIN                     : Field
 UWI  .      ZAUWL_006048                : Unique Well Identifier (UWI)
 LOC  .                                  : Location
 RWS  .      -999                        : Def_Rw
 WST  .      -999                        : Def_Rwt
 SRVC .                                  : Contractor
~CURVE INFORMATION
#MNEM              UNIT       API CODE   Curve Type Comments
#----------  --------------- ----------  ---------- -----------
 DEPTH      .M                         : Depth       
 BitSize    .in                        : bitSize     
 CAL_INCH   .inch                      : Caliper     Caliper Log - A representation of the measured diameter of a borehole along its depth
 SP_MV1     .mv                        : SP          Spontaneous Potential - Records the electrical potential produced by the interaction of formation water, conductive drilling mud, and certain ion-sele
 GR_API     .API                       : gammaRay    Gamma Ray (API) - Measures the intensity of natural gamma-ray radiation emitted from formations containing radioactive elements, such as K, Th and U
 CGR_API    .API                       : gammaRay    Corrected / Computed Gamma Ray - Radiation with the Uranium component removed. Also known as a 'carbonate gamma ray'
 SGR_API    .API                       : gammaRay    Spectral Gamma Ray - Total gamma calibrated to API, measured using a spectoral gamma array tool
 LLD_OHMM   .ohmm                      : deepRes     Laterlog Deep Resistivity - Measurement made several feet into the formation; generally considered a measurement of the undisturbed formation
 LLS_OHMM   .ohmm                      : shalRes     Laterlog Shallow Resistivity - one to two feet into the formation; generally considered to measure the formation
 ILD_OHMM   .ohmm                      : deepRes     Deep Induction Resistivity - Measurement made an induction log, made several feet into the formation
 ILM_OHMM   .ohmm                      : medRes      Medium Induction Resistivity - Measurement made approximately two to three feet into the formation
 MSFL_OHMM  .ohmm                      : microRes    Micro-Spherically Focused Log - Measurement involves only the first few inches of the formation immediately adjacent to the borehole
 DT_US_FT   .us/ft                     : sonic       Interval Transit Time: Compressional Wave - Evaluates the time it takes for a compressional wave to traverse a fixed distance
 RHOB_G_CC  .g/cc                      : density     Bulk Density - Measures the density of bulk material, including any void space or other materials contained in the subject volume
 DRHO_G_CC  .g/cc                      : drho        Density Correction - Investigates the correction to the Bulk Density log; used as an indication of hole condition to validate the Bulk Density measure
 NPHI_v/v   .PC                        : Neutron     Neutron Porosity - Measured with an neutron logging device calibrated to a given matrix (limestone, sandstone and dolomite)
 PEF_B_E    .b/e-                      : PEF         Photoelectric Factor - A log of photoelectric absorption properties. Often expressed in an approximation unit barns/electron (b/e-)
 LITH       .                          : LITH        Lithology Curve
 LITH_v2    .                          : LITH        Lithology Curve
~A  DEPTH  BitSize   CAL_INCH   SP_MV1    GR_API   CGR_API   SGR_API   LLD_OHMM  LLS_OHMM  ILD_OHMM  ILM_OHMM MSFL_OHM   DT_US_FT RHOB_G_C  DRHO_G_C   NPHI_v/v  PEF_B_E     LITH    LITH_v2  
# ...
1280.1600    8.5000    8.8215    2.1156   92.1489 -999.0000   92.7658    2.0086    1.8682    2.4119    2.1987    1.3675   83.6414    2.5461    0.0114   24.5890    3.3267   36.0000   23.0000 
1280.3124    8.5000    8.8092    1.8327   97.5313 -999.0000   96.2297    2.0729    1.9007    2.3714    2.1944    1.6528   85.7908    2.5178    0.0103   24.2506    3.2621   36.0000   23.0000 
1280.4648    8.5000    8.8376    1.5649  102.1481 -999.0000   98.3395    2.0432    1.9187    2.2974    2.1717    1.4621   86.8666    2.4872    0.0041   24.2037    3.2395   36.0000   37.0000 
1280.6172    8.5000    8.8748    1.3913  103.8746 -999.0000   99.4262    2.0557    1.9196    2.1817    2.1276    1.4795   87.2529    2.4653    0.0001   24.1577    3.1062   36.0000   37.0000 
1280.7696    8.5000    8.9043    1.2784  104.1541 -999.0000  100.8064    2.0146    1.9085    2.1570    2.1056    2.1400   87.6207    2.4472   -0.0004   23.9783    2.8633   36.0000   37.0000 
1280.9220    8.5000    8.9080    1.2344  104.6347 -999.0000  102.0317    1.9277    1.8329    2.0772    2.0182    1.3935   88.5986    2.4322    0.0038   23.6028    2.7175   36.0000   37.0000 
1281.0744    8.5000    8.9077    1.2689  105.1190 -999.0000  102.7568    1.8000    1.7176    2.0071    1.8995    1.2777   90.9625    2.4019    0.0071   23.1393    2.6118   36.0000   37.0000 
1281.2268    8.5000    8.8951    1.3864  104.7972 -999.0000  102.2211    1.7316    1.6192    1.9777    1.8302    1.3752   91.9882    2.3784    0.0071   23.0503    2.6350   36.0000   37.0000 
1281.3792    8.5000    8.8372    1.6287  103.0173 -999.0000  100.0867    1.6806    1.5869    1.9773    1.8070    1.2008   91.6204    2.3733    0.0026   23.2486    2.7455   36.0000   37.0000 
1281.5316    8.5000    8.7279    2.1997  100.5989 -999.0000   96.1369    1.6988    1.5733    1.9406    1.8033    1.1177   90.9675    2.3741   -0.0005   23.6832    2.9563   36.0000   37.0000 
1281.6840    8.5000    8.6925    2.5278  100.8735 -999.0000   92.7706    1.7133    1.5734    1.8778    1.7861    1.1062   89.9097    2.3920   -0.0018   24.4672    3.0305   36.0000   37.0000 
1281.8364    8.5000    8.6896    2.7017  100.9026 -999.0000   91.9669    1.6570    1.5735    1.7622    1.7493    1.1933   89.6421    2.4071    0.0004   25.6911    3.0348   36.0000   37.0000 
1281.9888    8.5000    8.7036    2.8905  100.3516 -999.0000   89.4981    1.5359    1.5553    1.6841    1.6713    1.1425   90.7554    2.4076    0.0031   26.5131    2.9964   36.0000   37.0000 
1282.1412    8.5000    8.7050    3.3754   99.3959 -999.0000   87.5596    1.3876    1.4345    1.6615    1.5042    1.0352   92.6978    2.4023    0.0044   26.9796    2.9433   36.0000   37.0000 
1282.2936    8.5000    8.6932    3.8892   95.6259 -999.0000   86.8153    1.3189    1.2767    1.6517    1.3909    1.0702   93.1652    2.3827    0.0051   27.2493    2.9526   36.0000   37.0000 
1282.4460    8.5000    8.6601    4.1784   93.7548 -999.0000   85.6843    1.2770    1.1860    1.6381    1.3590    0.9651   91.9019    2.3642    0.0072   27.2925    3.0247   36.0000   37.0000 
1282.5984    8.5000    8.6165    4.3605   91.9719 -999.0000   83.7438    1.3147    1.1780    1.6098    1.3632    0.8061   89.7640    2.3703    0.0125   27.2140    3.2112   36.0000   37.0000 
1282.7508    8.5000    8.5935    4.4336   87.5389 -999.0000   83.2552    1.3377    1.1992    1.5631    1.3831    0.8070   88.2939    2.4039    0.0167   27.1097    3.1439   36.0000   37.0000 
1282.9032    8.5000    8.5946    4.4079   85.4198 -999.0000   83.8882    1.3360    1.2259    1.4725    1.3707    1.0999   88.1136    2.4151    0.0166   26.8645    2.9794   36.0000   37.0000 
1283.0556    8.5000    8.6154    4.1823   87.1800 -999.0000   84.7361    1.3160    1.2263    1.4006    1.3247    1.3755   90.4840    2.4093    0.0133   26.4837    2.6757   36.0000   37.0000 
1283.2080    8.5000    8.6502    4.1062   93.0839 -999.0000   85.7762    1.2458    1.1622    1.3733    1.2491    0.7766   93.6541    2.3817    0.0102   25.8305    2.5360   36.0000   37.0000 
1283.3604    8.5000    8.6448    4.1547   96.5801 -999.0000   87.5779    1.2016    1.0840    1.3638    1.2307    0.7604   94.7768    2.3473    0.0104   25.1617    2.4578   36.0000   37.0000 
1283.5128    8.5000    8.6164    4.2186   96.7495 -999.0000   89.4237    1.2003    1.0881    1.3815    1.2457    0.8906   93.9587    2.3381    0.0148   24.8317    2.5468   36.0000   37.0000 
1283.6652    8.5000    8.5902    4.2794   93.4587 -999.0000   89.8852    1.2396    1.1129    1.3857    1.2697    0.9178   91.8283    2.3431    0.0213   24.4655    2.7379   36.0000   37.0000 
1283.8176    8.5000    8.5852    4.1575   90.6847 -999.0000   88.8621    1.3058    1.1477    1.3686    1.2855    0.8216   89.6680    2.3645    0.0317   24.3167    3.0544   36.0000   37.0000 
1283.9700    8.5000    8.6030    3.9073   91.2802 -999.0000   88.6970    1.3060    1.1678    1.3626    1.2896    0.8864   89.0966    2.4030    0.0350   25.0181    3.1552   36.0000   37.0000 
1284.1224    8.5000    8.6447    3.8731   91.9606 -999.0000   89.2726    1.2841    1.1642    1.3687    1.2803    0.8725   90.6284    2.4180    0.0254   26.3568    3.0865   36.0000   37.0000 
1284.2748    8.5000    8.6918    3.8864   92.1807 -999.0000   89.2783    1.2357    1.1485    1.3846    1.2796    0.9821   91.4567    2.4073    0.0132   27.0839    2.9425   36.0000   37.0000 
1284.4272    8.5000    8.6944    3.8892   91.7728 -999.0000   88.5998    1.2378    1.1418    1.4574    1.2901    0.9506   91.0162    2.3963    0.0028   26.5704    3.0241   36.0000   37.0000 
1284.5796    8.5000    8.6562    3.9421   89.7349 -999.0000   86.4161    1.3339    1.1750    1.5186    1.3817    0.9068   88.2874    2.4113    0.0027   26.2919    3.4251   36.0000   37.0000 
1284.7320    8.5000    8.5957    4.0701   87.4855 -999.0000   83.0849    1.4413    1.2503    1.5432    1.4824    0.9151   85.5270    2.4566    0.0057   26.6648    3.7516   36.0000   23.0000 
1284.8844    8.5000    8.5849    4.2846   88.0722 -999.0000   83.2116    1.4994    1.2906    1.5370    1.4961    0.9970   84.7905    2.4793    0.0112   26.9904    3.2672   36.0000   23.0000 
1285.0368    8.5000    8.6259    4.5218   90.3509 -999.0000   85.3709    1.4753    1.3082    1.4968    1.4073    1.2275   85.9868    2.4612    0.0138   26.9417    2.9344   36.0000   37.0000 
1285.1892    8.5000    8.6790    4.6414   94.6390 -999.0000   86.5313    1.3420    1.2398    1.4552    1.3129    0.9764   89.7505    2.4074    0.0112   26.2214    2.5937   36.0000   37.0000 
1285.3416    8.5000    8.7014    4.6462   94.9821 -999.0000   86.3544    1.2116    1.1289    1.4536    1.2686    0.8297   92.7482    2.3716    0.0089   24.7843    2.5640   36.0000   37.0000 
1285.4940    8.5000    8.6765    4.5038   93.9746 -999.0000   85.5418    1.1794    1.0841    1.4519    1.2383    0.8198   93.5908    2.3371    0.0072   24.6683    2.6073   36.0000   37.0000 
1285.6464    8.5000    8.6417    4.5870   93.5135 -999.0000   83.8790    1.1759    1.0842    1.4323    1.2426    0.8616   92.7269    2.3271    0.0068   24.6456    2.7242   36.0000   37.0000 
1285.7988    8.5000    8.6318    4.6655   92.1617 -999.0000   81.6769    1.2053    1.0925    1.3932    1.2661    0.8479   91.3149    2.3340    0.0079   24.5732    2.8729   36.0000   37.0000 
1285.9512    8.5000    8.6269    4.6359   89.0795 -999.0000   79.6726    1.2797    1.1266    1.3854    1.2987    0.8651   89.9287    2.3588    0.0200   24.6087    3.1891   36.0000   37.0000 
1286.1036    8.5000    8.6261    4.5177   85.0120 -999.0000   76.4757    1.3493    1.1924    1.3905    1.3117    0.8308   87.3459    2.4025    0.0254   25.0494    3.5200   36.0000   37.0000 
1286.2560    8.5000    8.6372    4.3818   81.9106 -999.0000   75.4611    1.4332    1.2489    1.4245    1.3689    0.8019   85.7184    2.4456    0.0210   26.1449    4.0768   36.0000   23.0000 
1286.4084    8.5000    8.6488    4.2067   81.0897 -999.0000   75.6039    1.4781    1.3101    1.4906    1.4547    0.8590   85.4238    2.4625    0.0116   27.3232    4.0948   36.0000   23.0000 
