~VERSION INFORMATION
 VERS.                 2.0:   CWLS LOG ASCII STANDARD - VERSION 2.0
 WRAP.                  NO:   SINGLE LINE PER DEPTH STEP
 CREA.                 19/01/2018 11:53:50
#CREATED USING DSPetro VERSION 5000.10.1.3 BY H191660 ON 19/01/2018 11:53:50
~WELL INFORMATION
#MNEM.UNIT       DATA                          DESCRIPTION MNEMONIC
#---------      ---------------------------   --------------------------
 STRT    .M         0.0000                    : START DEPTH
 STOP    .M         1999.9452                 : STOP DEPTH
 STEP    .M         0.1524                    : STEP VALUE
 NULL    .      -999.0000                     : NULL VALUE
 DATE    .      19/01/2018                    : LAS file Creation Date
 WELL .      2780_Saladin-1              : Well Name
 COMP .      Neftex Exploration Insights : Company
 FLD  .      SALADIN                     : Field
 UWI  .      ZAUWL_006048                : Unique Well Identifier (UWI)
 LOC  .                                  : Location
 RWS  .      -999                        : Def_Rw
 WST  .      -999                        : Def_Rwt
 SRVC .                                  : Contractor
~CURVE INFORMATION
#MNEM              UNIT       API CODE   Curve Type Comments
#----------  --------------- ----------  ---------- -----------
 DEPTH      .M                         : Depth       
 BitSize    .in                        : bitSize     
 CAL_INCH   .inch                      : Caliper     Caliper Log - A representation of the measured diameter of a borehole along its depth
 SP_MV1     .mv                        : SP          Spontaneous Potential - Records the electrical potential produced by the interaction of formation water, conductive drilling mud, and certain ion-sele
 GR_API     .API                       : gammaRay    Gamma Ray (API) - Measures the intensity of natural gamma-ray radiation emitted from formations containing radioactive elements, such as K, Th and U
 CGR_API    .API                       : gammaRay    Corrected / Computed Gamma Ray - Radiation with the Uranium component removed. Also known as a 'carbonate gamma ray'
 SGR_API    .API                       : gammaRay    Spectral Gamma Ray - Total gamma calibrated to API, measured using a spectoral gamma array tool
 LLD_OHMM   .ohmm                      : deepRes     Laterlog Deep Resistivity - Measurement made several feet into the formation; generally considered a measurement of the undisturbed formation
 LLS_OHMM   .ohmm                      : shalRes     Laterlog Shallow Resistivity - one to two feet into the formation; generally considered to measure the formation
 ILD_OHMM   .ohmm                      : deepRes     Deep Induction Resistivity - Measurement made an induction log, made several feet into the formation
 ILM_OHMM   .ohmm                      : medRes      Medium Induction Resistivity - Measurement made approximately two to three feet into the formation
 MSFL_OHMM  .ohmm                      : microRes    Micro-Spherically Focused Log - Measurement involves only the first few inches of the formation immediately adjacent to the borehole
 DT_US_FT   .us/ft                     : sonic       Interval Transit Time: Compressional Wave - Evaluates the time it takes for a compressional wave to traverse a fixed distance
 RHOB_G_CC  .g/cc                      : density     Bulk Density - Measures the density of bulk material, including any void space or other materials contained in the subject volume
 DRHO_G_CC  .g/cc                      : drho        Density Correction - Investigates the correction to the Bulk Density log; used as an indication of hole condition to validate the Bulk Density measure
 NPHI_v/v   .PC                        : Neutron     Neutron Porosity - Measured with an neutron logging device calibrated to a given matrix (limestone, sandstone and dolomite)
 PEF_B_E    .b/e-                      : PEF         Photoelectric Factor - A log of photoelectric absorption properties. Often expressed in an approximation unit barns/electron (b/e-)
 LITH       .                          : LITH        Lithology Curve
 LITH_v2    .                          : LITH        Lithology Curve
~A  DEPTH  BitSize   CAL_INCH   SP_MV1    GR_API   CGR_API   SGR_API   LLD_OHMM  LLS_OHMM  ILD_OHMM  ILM_OHMM MSFL_OHM   DT_US_FT RHOB_G_C  DRHO_G_C   NPHI_v/v  PEF_B_E     LITH    LITH_v2  
# ...
1427.3784    8.5000    9.0310   -0.9242  101.7493 -999.0000  102.5128    2.8365    2.8438    2.4178    2.5124    5.3797   86.0170    2.5057    0.0205   27.8695    3.1531   37.0000   23.0000 
1427.5308    8.5000    9.0183   -0.8929  106.4938 -999.0000  109.6182    2.5408    2.7248    2.3844    2.4504    3.4402   87.8820    2.4464    0.0062   27.6037    3.0202   37.0000   37.0000 
1427.6832    8.5000    9.0070   -0.8740  116.3990 -999.0000  113.5975    2.3174    2.4604    2.3788    2.4392    2.7962   90.4302    2.4086    0.0004   27.1233    3.0523   37.0000   37.0000 
1427.8356    8.5000    9.0001   -0.8649  125.8069 -999.0000  119.9580    2.2957    2.4012    2.3569    2.4272    2.9351   92.3046    2.3881    0.0016   26.4928    3.2433   37.0000   37.0000 
1427.9880    8.5000    8.9967   -0.8715  134.7847 -999.0000  125.6404    2.2546    2.3731    2.3416    2.4101    2.9271   92.3637    2.3876    0.0052   27.5874    3.5543   37.0000   37.0000 
1428.1404    8.5000    8.9930   -0.7959  140.1699 -999.0000  131.4302    2.2152    2.2881    2.3187    2.3808    2.6916   92.4730    2.3870    0.0065   29.1026    3.6630   37.0000   37.0000 
1428.2928    8.5000    8.9891   -0.6642  141.3528 -999.0000  139.9818    2.2615    2.2763    2.3524    2.3626    2.3921   91.9739    2.3844    0.0062   31.6596    3.4965   37.0000   37.0000 
1428.4452    8.5000    8.9756   -0.6205  134.7268 -999.0000  138.2673    2.5042    2.5701    2.4703    2.3652    2.5667   89.5546    2.3780    0.0027   31.4613    3.2259   37.0000   37.0000 
1428.5976    8.5000    8.9218   -0.6215  125.4175 -999.0000  124.6213    2.8568    2.8974    2.6131    2.6032    2.2052   86.1997    2.3874   -0.0004   30.4583    3.3006   37.0000   37.0000 
1428.7500    8.5000    8.9024   -0.6522  113.5621 -999.0000  108.9169    3.3085    3.2545    2.6423    2.9224    3.8840   84.2821    2.4194   -0.0008   27.3041    3.3397   37.0000   37.0000 
1428.9024    8.5000    8.9047   -0.7992  104.0493 -999.0000  100.3148    3.2607    3.3597    2.6431    3.0147    6.1732   83.4203    2.4342    0.0006   23.5537    3.3319   37.0000   37.0000 
1429.0548    8.5000    8.9663   -0.9393  103.6656 -999.0000   99.4231    2.9152    3.0689    2.6298    2.9024    4.0650   84.4370    2.4276    0.0015   23.1618    3.1766   37.0000   37.0000 
1429.2072    8.5000    9.0431   -1.0121  106.4915 -999.0000  101.9375    2.4753    2.5884    2.6068    2.6854    2.5759   86.2813    2.4075    0.0015   24.0332    3.0649   37.0000   37.0000 
1429.3596    8.5000    9.0889   -0.9752  110.9364 -999.0000  103.1484    2.2158    2.2663    2.5773    2.4354    2.5250   91.1834    2.3774    0.0025   25.8202    3.0228   37.0000   37.0000 
1429.5120    8.5000    9.1083   -0.9126  114.4073 -999.0000  103.5466    2.1561    2.1713    2.5441    2.3393    2.5989   93.5727    2.3672    0.0038   26.8630    3.0206   37.0000   37.0000 
1429.6644    8.5000    9.1122   -0.9854  115.4346 -999.0000  104.1450    2.1550    2.1786    2.4807    2.3020    2.0157   93.6980    2.3592    0.0042   27.0257    2.9952   37.0000   37.0000 
1429.8168    8.5000    9.1084   -1.2283  115.5950 -999.0000  107.4549    2.1957    2.2249    2.4338    2.2717    1.7474   93.1145    2.3599    0.0039   27.2331    3.0090   37.0000   37.0000 
1429.9692    8.5000    9.0977   -1.5866  113.2036 -999.0000  112.5038    2.4099    2.3807    2.3879    2.2998    2.6043   92.2227    2.3656    0.0050   27.3470    3.0616   37.0000   37.0000 
1430.1216    8.5000    9.0862   -1.9907  112.0016 -999.0000  113.0132    2.8101    2.6583    2.3756    2.3546    3.1642   90.4540    2.3808    0.0056   27.0545    3.1922   37.0000   37.0000 
1430.2740    8.5000    9.0839   -2.4094  112.7742 -999.0000  112.7152    2.9206    2.7962    2.3807    2.3875    3.6110   87.9833    2.4024    0.0035   26.7033    3.3696   37.0000   37.0000 
1430.4264    8.5000    9.0865   -2.5015  114.5948 -999.0000  111.4326    2.8954    2.8199    2.4370    2.4020    3.5957   86.5316    2.4178    0.0006   27.0401    3.3963   37.0000   37.0000 
1430.5788    8.5000    9.0862   -2.6986  115.2908 -999.0000  111.4033    2.8489    2.8056    2.5101    2.4303    3.8318   86.1774    2.4221    0.0010   28.4254    3.2680   37.0000   37.0000 
1430.7312    8.5000    9.0858   -3.0458  114.7670 -999.0000  112.3945    2.7473    2.7443    2.5014    2.4577    3.6952   87.0896    2.4169    0.0012   29.8372    3.0591   37.0000   37.0000 
1430.8836    8.5000    9.0894   -3.1614  115.4040 -999.0000  113.3425    2.5930    2.6147    2.5219    2.4654    3.2197   88.7945    2.3854    0.0005   29.1158    2.9825   37.0000   37.0000 
1431.0360    8.5000    9.0765   -3.1016  118.9333 -999.0000  113.8123    2.4745    2.5063    2.6288    2.4454    2.7644   91.9565    2.3779   -0.0019   28.3471    2.9920   37.0000   37.0000 
1431.1884    8.5000    9.0815   -3.1538  121.1270 -999.0000  115.0193    2.4366    2.3892    2.6466    2.4254    3.4201   92.9450    2.3706   -0.0030   27.7781    3.0464   37.0000   37.0000 
1431.3408    8.5000    9.1188   -3.3176  121.7063 -999.0000  115.5090    2.4111    2.2629    2.6042    2.3783    3.3379   93.0834    2.3614   -0.0020   28.7982    3.1610   37.0000   37.0000 
1431.4932    8.5000    9.1742   -3.5336  121.9732 -999.0000  114.6692    2.3788    2.2711    2.5117    2.3263    2.4885   93.3593    2.3548   -0.0015   29.8964    3.1609   37.0000   37.0000 
1431.6456    8.5000    9.1877   -3.8945  123.7856 -999.0000  114.9776    2.3163    2.2102    2.3248    2.2043    2.1459   94.3182    2.3603   -0.0017   30.0248    3.0522   37.0000   37.0000 
1431.7980    8.5000    9.2049   -4.6072  131.2391 -999.0000  119.1964    2.1500    1.9526    2.0275    1.9482    2.9349   96.0388    2.3302   -0.0020   29.8645    2.4503   37.0000   37.0000 
1431.9504    8.5000    9.3738   -5.1202  138.4565 -999.0000  128.1387    1.7844    1.7485    1.5737    1.6855    3.0448   98.9142    2.2261   -0.0031   30.5690    2.0676   10.0000   10.0000 
1432.1028    8.5000    9.6817   -5.1991  147.1464 -999.0000  139.2451    1.4354    1.5347    1.5251    1.2180    0.7541  104.7499    1.9740   -0.0050   35.4706    2.0232   10.0000   10.0000 
1432.2552    8.5000    9.9093   -4.9993  142.4563 -999.0000  143.6523    1.3778    1.3851    1.5923    1.1044    0.2719  107.9966    1.9502   -0.0069   40.5053    2.1054   10.0000   10.0000 
1432.4076    8.5000    9.3876   -4.5596  135.2168 -999.0000  137.8588    1.4662    1.3965    1.6182    1.4799    0.2209  106.3239    1.9546   -0.0082   41.3395    2.5304   10.0000   10.0000 
1432.5600    8.5000    9.1439   -3.8136  127.6065 -999.0000  128.7670    1.6972    1.5624    1.6311    2.0680    2.1217  102.1232    2.1224   -0.0088   38.7604    2.7879   10.0000   10.0000 
1432.7124    8.5000    9.0574   -2.9855  120.7245 -999.0000  117.6504    1.9613    1.8470    1.6264    2.3207    2.1977   95.3825    2.2349   -0.0087   32.7253    2.8280   10.0000   10.0000 
1432.8648    8.5000    9.0582   -1.9296  108.2911 -999.0000  108.1127    2.1867    2.0570    1.5462    2.1107    1.9396   93.5532    2.2870   -0.0066   29.0920    2.8393   37.0000   37.0000 
1433.0172    8.5000    9.0760   -0.8256  103.6718 -999.0000  104.1948    2.3170    2.1662    1.6349    1.9881    2.3032   93.4242    2.3273   -0.0036   27.3912    2.8183   37.0000   37.0000 
1433.1696    8.5000    9.0805   -0.2068  103.6736 -999.0000  104.0461    2.4686    2.3193    2.0419    2.0380    2.7123   93.4851    2.3336   -0.0013   26.9966    2.7899   37.0000   37.0000 
1433.3220    8.5000    9.0782   -0.0583  105.5068 -999.0000  102.6207    2.5473    2.3903    2.2959    2.2588    2.7074   93.5856    2.3447    0.0003   26.1533    2.7806   37.0000   37.0000 
1433.4744    8.5000    9.0501    0.0228  107.6639 -999.0000  100.6965    2.5368    2.3617    2.4546    2.4261    3.6998   94.2249    2.3501   -0.0005   25.4241    2.7489   37.0000   37.0000 
1433.6268    8.5000    8.9834    0.2707  109.3159 -999.0000   99.9094    2.4595    2.2840    2.4805    2.5149    3.2452   94.1847    2.3452    0.0002   24.9692    2.6925   37.0000   37.0000 
