~VERSION INFORMATION
 VERS.                 2.0:   CWLS LOG ASCII STANDARD - VERSION 2.0
 WRAP.                  NO:   SINGLE LINE PER DEPTH STEP
 CREA.                 19/01/2018 11:53:50
#CREATED USING DSPetro VERSION 5000.10.1.3 BY H191660 ON 19/01/2018 11:53:50
~WELL INFORMATION
#MNEM.UNIT       DATA                          DESCRIPTION MNEMONIC
#---------      ---------------------------   --------------------------
 STRT    .M         0.0000                    : START DEPTH
 STOP    .M         1999.9452                 : STOP DEPTH
 STEP    .M         0.1524                    : STEP VALUE
 NULL    .      -999.0000                     : NULL VALUE
 DATE    .      19/01/2018                    : LAS file Creation Date
 WELL .      2780_Saladin-1              : Well Name
 COMP .      Neftex Exploration Insights : Company
 FLD  .      SALADIN                     : Field
 UWI  .      ZAUWL_006048                : Unique Well Identifier (UWI)
 LOC  .                                  : Location
 RWS  .      -999                        : Def_Rw
 WST  .      -999                        : Def_Rwt
 SRVC .                                  : Contractor
~CURVE INFORMATION
#MNEM              UNIT       API CODE   Curve Type Comments
#----------  --------------- ----------  ---------- -----------
 DEPTH      .M                         : Depth       
 BitSize    .in                        : bitSize     
 CAL_INCH   .inch                      : Caliper     Caliper Log - A representation of the measured diameter of a borehole along its depth
 SP_MV1     .mv                        : SP          Spontaneous Potential - Records the electrical potential produced by the interaction of formation water, conductive drilling mud, and certain ion-sele
 GR_API     .API                       : gammaRay    Gamma Ray (API) - Measures the intensity of natural gamma-ray radiation emitted from formations containing radioactive elements, such as K, Th and U
 CGR_API    .API                       : gammaRay    Corrected / Computed Gamma Ray - Radiation with the Uranium component removed. Also known as a 'carbonate gamma ray'
 SGR_API    .API                       : gammaRay    Spectral Gamma Ray - Total gamma calibrated to API, measured using a spectoral gamma array tool
 LLD_OHMM   .ohmm                      : deepRes     Laterlog Deep Resistivity - Measurement made several feet into the formation; generally considered a measurement of the undisturbed formation
 LLS_OHMM   .ohmm                      : shalRes     Laterlog Shallow Resistivity - one to two feet into the formation; generally considered to measure the formation
 ILD_OHMM   .ohmm                      : deepRes     Deep Induction Resistivity - Measurement made an induction log, made several feet into the formation
 ILM_OHMM   .ohmm                      : medRes      Medium Induction Resistivity - Measurement made approximately two to three feet into the formation
 MSFL_OHMM  .ohmm                      : microRes    Micro-Spherically Focused Log - Measurement involves only the first few inches of the formation immediately adjacent to the borehole
 DT_US_FT   .us/ft                     : sonic       Interval Transit Time: Compressional Wave - Evaluates the time it takes for a compressional wave to traverse a fixed distance
 RHOB_G_CC  .g/cc                      : density     Bulk Density - Measures the density of bulk material, including any void space or other materials contained in the subject volume
 DRHO_G_CC  .g/cc                      : drho        Density Correction - Investigates the correction to the Bulk Density log; used as an indication of hole condition to validate the Bulk Density measure
 NPHI_v/v   .PC                        : Neutron     Neutron Porosity - Measured with an neutron logging device calibrated to a given matrix (limestone, sandstone and dolomite)
 PEF_B_E    .b/e-                      : PEF         Photoelectric Factor - A log of photoelectric absorption properties. Often expressed in an approximation unit barns/electron (b/e-)
 LITH       .                          : LITH        Lithology Curve
 LITH_v2    .                          : LITH        Lithology Curve
~A  DEPTH  BitSize   CAL_INCH   SP_MV1    GR_API   CGR_API   SGR_API   LLD_OHMM  LLS_OHMM  ILD_OHMM  ILM_OHMM MSFL_OHM   DT_US_FT RHOB_G_C  DRHO_G_C   NPHI_v/v  PEF_B_E     LITH    LITH_v2  
# ...
1619.4024    8.5000    8.4175    8.6627   89.9913 -999.0000   85.7169    1.0510    0.9021    1.1163    1.1685    0.7810   97.2497    2.2407    0.0042   28.0565    2.5829   31.0000   31.0000 
1619.5548    8.5000    8.3784    8.8603   91.3684 -999.0000   85.2853    1.0928    0.9391    1.1124    1.1756    0.7596   97.0758    2.2410    0.0034   27.3517    2.5903   31.0000   31.0000 
1619.7072    8.5000    8.3699    9.1070   91.0323 -999.0000   85.5678    1.1347    0.9571    1.1043    1.1637    0.7691   97.0265    2.2436    0.0004   27.4615    2.5813   31.0000   31.0000 
1619.8596    8.5000    8.3754    9.2281   92.4545 -999.0000   87.1589    1.1340    0.9583    1.0985    1.1515    0.7660   97.1947    2.2441   -0.0029   27.6558    2.5415   31.0000   31.0000 
1620.0120    8.5000    8.3842    9.1632   94.7011 -999.0000   89.2239    1.1118    0.9475    1.0939    1.1308    0.8083   97.5218    2.2433   -0.0053   27.7938    2.4876   31.0000   31.0000 
1620.1644    8.5000    8.3969    8.9326   95.6810 -999.0000   90.6003    1.0763    0.9233    1.1005    1.1075    0.8077   97.8229    2.2415   -0.0002   27.8513    2.4630   31.0000   31.0000 
1620.3168    8.5000    8.4002    8.7533   97.6823 -999.0000   90.8568    1.0372    0.8982    1.1115    1.0603    0.7249   99.0256    2.2403    0.0041   28.1552    2.4550   31.0000   31.0000 
1620.4692    8.5000    8.4001    8.8300   99.1870 -999.0000   89.9275    1.0323    0.9033    1.1073    1.0632    0.6711   99.4856    2.2354    0.0041   28.9593    2.4868   31.0000   31.0000 
1620.6216    8.5000    8.3931    8.9111   99.7870 -999.0000   88.6316    1.0456    0.9154    1.0938    1.1062    0.6658   99.2629    2.2326    0.0020   28.9610    2.6376   31.0000   31.0000 
1620.7740    8.5000    8.3819    9.0007   99.9426 -999.0000   89.0801    1.0878    0.9470    1.0771    1.1535    0.6963   97.6635    2.2383    0.0005   27.8658    2.7284   31.0000   31.0000 
1620.9264    8.5000    8.3775    8.9558   99.7635 -999.0000   91.7841    1.1335    0.9904    1.0877    1.1572    0.9234   95.1190    2.2542    0.0016   26.7875    2.7246   31.0000   31.0000 
1621.0788    8.5000    8.3700    8.6829   98.8106 -999.0000   93.0623    1.1279    1.0042    1.1201    1.1274    1.4012   94.5665    2.2716    0.0040   26.6239    2.6878   31.0000   31.0000 
1621.2312    8.5000    8.3598    8.7478   97.2941 -999.0000   93.3888    1.1143    1.0069    1.1814    1.1206    0.9050   94.2511    2.2755    0.0039   26.8552    2.6832   31.0000   31.0000 
1621.3836    8.5000    8.3603    9.0747   96.8280 -999.0000   93.6991    1.1242    0.9968    1.2469    1.1468    0.7402   93.7960    2.2706    0.0021   27.9321    2.7626   31.0000   31.0000 
1621.5360    8.5000    8.3624    9.1525   95.9536 -999.0000   93.5221    1.1661    0.9942    1.3338    1.2354    0.8126   91.6712    2.2611   -0.0011   27.7502    2.8016   31.0000   31.0000 
1621.6884    8.5000    8.3622    9.1404   93.6090 -999.0000   92.4997    1.2476    1.1021    1.4523    1.3208    0.8125   89.4030    2.2592   -0.0030   26.8669    2.8120   31.0000   31.0000 
1621.8408    8.5000    8.3619    9.1381   91.7447 -999.0000   91.4981    1.4136    1.2675    1.5598    1.4901    0.8559   88.8037    2.2653   -0.0030   26.8168    2.8669   31.0000   31.0000 
1621.9932    8.5000    8.3619    9.7971   94.5911 -999.0000   91.0839    1.6275    1.3848    1.6295    1.6788    0.8961   88.8669    2.2801   -0.0019   27.1662    2.9763   31.0000   31.0000 
1622.1456    8.5000    8.3665   10.0263   98.2364 -999.0000   91.0504    1.6872    1.3992    1.6606    1.7574    0.9428   88.6025    2.3022   -0.0009   27.7424    2.9923   31.0000   31.0000 
1622.2980    8.5000    8.3728    9.8903  100.1430 -999.0000   91.4152    1.6378    1.3747    1.6510    1.7341    0.9434   88.1560    2.3133    0.0002   27.9036    2.9329   31.0000   31.0000 
1622.4504    8.5000    8.3800    9.6988   98.3898 -999.0000   92.3622    1.4842    1.2706    1.6269    1.5808    0.9559   88.3016    2.3121    0.0018   27.6974    2.7741   31.0000   31.0000 
1622.6028    8.5000    8.3808    9.7317   97.0171 -999.0000   92.6449    1.3163    1.1243    1.5923    1.4645    0.8836   89.5567    2.3079    0.0022   27.5200    2.5806   31.0000   31.0000 
1622.7552    8.5000    8.3805   10.1243   97.3799 -999.0000   92.3718    1.2135    1.0698    1.5319    1.3669    0.8785   90.8038    2.2906    0.0018   27.5482    2.4555   31.0000   31.0000 
1622.9076    8.5000    8.3846   10.3419   96.9886 -999.0000   90.9896    1.1706    1.0314    1.4625    1.3060    0.7527   92.9278    2.2789   -0.0009   27.5399    2.4433   31.0000   31.0000 
1623.0600    8.5000    8.3954   10.4353   94.0040 -999.0000   88.5080    1.1857    1.0181    1.4162    1.3046    0.7693   93.9052    2.2734   -0.0009   27.0156    2.4655   31.0000   31.0000 
1623.2124    8.5000    8.4027   10.1121   89.8460 -999.0000   83.9702    1.2799    1.0760    1.3889    1.3570    0.8438   94.2226    2.2794    0.0026   26.6851    2.5707   31.0000   31.0000 
1623.3648    8.5000    8.4110    9.7902   90.4341 -999.0000   82.4071    1.3842    1.1608    1.3755    1.4164    0.9349   94.1687    2.3026    0.0021   26.9966    2.6516   31.0000   31.0000 
1623.5172    8.5000    8.4221    9.9393   91.3878 -999.0000   82.5594    1.4440    1.2217    1.3707    1.4318    0.9556   93.2289    2.3119    0.0008   27.2732    2.6502   31.0000   31.0000 
1623.6696    8.5000    8.4380   10.0132   91.3550 -999.0000   84.2731    1.4481    1.2206    1.3750    1.4187    1.0331   92.2325    2.3165   -0.0003   27.2909    2.6685   31.0000   31.0000 
1623.8220    8.5000    8.4501    9.9095   91.9719 -999.0000   85.4551    1.4353    1.2037    1.4054    1.4232    0.9739   91.6872    2.3184   -0.0026   27.1435    2.7288   31.0000   31.0000 
1623.9744    8.5000    8.4544    9.6415   94.3924 -999.0000   86.8888    1.4229    1.1919    1.4712    1.4500    0.9306   91.3612    2.3179   -0.0037   27.3727    2.7960   31.0000   31.0000 
1624.1268    8.5000    8.4457    9.5529   96.8686 -999.0000   91.1509    1.4211    1.1850    1.5686    1.4547    0.9308   90.7578    2.3164   -0.0039   27.7331    2.7903   31.0000   31.0000 
1624.2792    8.5000    8.4267    9.5913   98.9630 -999.0000   94.0797    1.4236    1.1868    1.6229    1.4466    0.9310   90.7502    2.3146   -0.0030   27.2685    2.7506   31.0000   31.0000 
1624.4316    8.5000    8.4137    9.7538   99.5024 -999.0000   94.5549    1.4030    1.1928    1.6479    1.4534    0.8925   91.0894    2.3129   -0.0023   26.4780    2.7088   31.0000   31.0000 
1624.5840    8.5000    8.4126    9.8489  100.0669 -999.0000   94.6784    1.4130    1.2108    1.7011    1.4675    0.8465   91.1123    2.3135   -0.0003   26.4975    2.7307   31.0000   31.0000 
1624.7364    8.5000    8.4517    9.9065  101.5478 -999.0000   96.5726    1.4790    1.2684    1.7124    1.5110    0.8492   90.2235    2.3179    0.0065   26.7620    2.7938   31.0000   31.0000 
1624.8888    8.5000    8.5073   10.2169  104.1024 -999.0000   97.7566    1.5656    1.3279    1.6988    1.5564    0.8285   89.4653    2.3254    0.0128   26.5293    2.8932   31.0000   31.0000 
1625.0412    8.5000    8.5436   10.4841  106.7796 -999.0000   97.4559    1.6033    1.3519    1.6524    1.5658    0.9152   89.3244    2.3363    0.0180   25.8602    2.9094   31.0000   31.0000 
1625.1936    8.5000    8.5546   10.7381  107.5181 -999.0000   95.6653    1.5823    1.3157    1.5825    1.5305    0.9051   89.4685    2.3367    0.0178   24.8429    2.8770   31.0000   31.0000 
1625.3460    8.5000    8.5568   10.8645  106.9468 -999.0000   93.4347    1.4350    1.2015    1.4945    1.4156    0.8928   90.3791    2.3243    0.0140   24.1433    2.6520   31.0000   31.0000 
1625.4984    8.5000    8.5565   10.8070  102.7901 -999.0000   91.6950    1.2887    1.0558    1.4378    1.2759    0.7745   92.4460    2.3046    0.0051   23.9737    2.4956   31.0000   31.0000 
1625.6508    8.5000    8.5455   10.8299  101.1545 -999.0000   92.6642    1.1475    0.9698    1.4012    1.2006    0.7256   94.6888    2.2897   -0.0038   24.5991    2.4704   31.0000   31.0000 
