~VERSION INFORMATION
 VERS.                 2.0:   CWLS LOG ASCII STANDARD - VERSION 2.0
 WRAP.                  NO:   SINGLE LINE PER DEPTH STEP
 CREA.                 08/02/2018 12:32:10
#CREATED USING DSPetro VERSION 5000.10.1.3 BY H191660 ON 08/02/2018 12:32:10
~WELL INFORMATION
#MNEM.UNIT       DATA                          DESCRIPTION MNEMONIC
#---------      ---------------------------   --------------------------
 STRT    .FT        12485.9921                : START DEPTH
 STOP    .FT        17557.9921                : STOP DEPTH
 STEP    .FT        0.5000                    : STEP VALUE
 NULL    .      -999.0000                     : NULL VALUE
 DATE    .      08/02/2018                    : LAS file Creation Date
 WELL  .      UNIVERSITY_20-27           : Well Name
 COMP  .      Chesapeake Operating, Inc. : Company
 FLD   .      Haley                      : Field
 STATE .      Texas                      : State
 COUNT .      USA                        : Country
 API   .      42-495-33261               : API Number
 UWI   .      508                        : Unique Well Identifier (UWI)
 LOC   .      1320' FSL & 1320' FEL      : Location
 TOWN  .      20                         : Township
 SCT   .      27                         : Section
 RANG  .      University Lands           : Range
 PDAT  .      Ground Level               : Permanent Datum
 EPDAT .      2777.000000                : Reference Elevation
 LGMEA .      Kelly Bushing              : Log Measured from
 DRMEA .      Kelly Bushing              : Drill Measured From
 APDAT .      25.000000                  : Elevation Above Permanent Datum
 KB    .      2802.00000                 : KB Elevation
 GL    .      2777.00000                 : GL Elevation
 RWS   .      -999                       : Def_Rw
 WST   .      -999                       : Def_Rwt
 CNTY  .      Winkler                    : County
 SRVC  .      Schlumberger               : Contractor
~CURVE INFORMATION
#MNEM              UNIT       API CODE   Curve Type Comments
#----------  --------------- ----------  ---------- -----------
 DEPTH      .FT                        : Depth       
 BS         .inch                      : BitSize     
 CAL_INCH   .inch                      :             Caliper Log - A representation of the measured diameter of a borehole along its depth
 GR         .GAPI                      : GammaRay    Gamma-Ray {F11.4}
 SRES       .ohmm                      :             20" array induction, one foot resistivity
 MRES       .ohm.m                     :             30" array induction, one foot resistivity
 DRES       .ohmm                      :             90" array induction, one foot resistivity log - units of ohmm
 DT_US_FT   .us/ft                     :             Interval Transit Time: Compressional Wave - Evaluates the time it takes for a compressional wave to traverse a fixed distance
 NPHI_v/v   .ratio                     :             Neutron Porosity - Measured with an neutron logging device calibrated to a given matrix (limestone, sandstone and dolomite)
 RHOB_G_CC  .g/cc                      :             Bulk Density - Measures the density of bulk material, including any void space or other materials contained in the subject volume
 HDRA       .G/C3                      : Drho        HRDD Density Correction {F11.4}
 PEF_B_E    .b/e-                      : PEF         Photoelectric Factor - A log of photoelectric absorption properties. Often expressed in an approximation unit barns/electron (b/e-)
 LITH       .                          : LITH        Lithology Curve
~A  DEPTH     BS     CAL_INCH     GR       SRES      MRES      DRES    DT_US_FT  NPHI_v/v RHOB_G_C~    HDRA    PEF_B_E     LITH   
# ...
17182.9921    6.5000    6.4847 -999.0000    3.0893    2.9941    3.0899 -999.0000    0.1989    2.5379 -999.0000    4.0653   37.0000 
17183.4921    6.5000    6.4718 -999.0000    3.0045    3.1275    2.8899 -999.0000    0.1812    2.5350 -999.0000    4.3920   37.0000 
17183.9921    6.5000    6.4718 -999.0000    3.4572    3.7238    3.3890 -999.0000    0.1740    2.5161 -999.0000    4.5451   37.0000 
17184.4921    6.5000    6.4718 -999.0000    4.1356    4.3844    4.1756 -999.0000    0.1714    2.5199 -999.0000    4.3839   37.0000 
17184.9921    6.5000    6.4718 -999.0000    4.4388    4.5355    5.1444 -999.0000    0.1822    2.5292 -999.0000    4.4764   37.0000 
17185.4921    6.5000    6.4653 -999.0000    3.8973    3.6973    3.6177 -999.0000    0.1896    2.5377 -999.0000    4.2988   37.0000 
17185.9921    6.5000    6.4718 -999.0000    3.4524    3.3272    3.2655 -999.0000    0.2062    2.5344 -999.0000    4.3391   37.0000 
17186.4921    6.5000    6.4847 -999.0000    3.1061    3.0258    2.9842 -999.0000    0.2078    2.5462 -999.0000    4.3268   37.0000 
17186.9921    6.5000    6.4782 -999.0000    2.8392    2.8192    2.7313 -999.0000    0.2205    2.5390 -999.0000    4.4792   37.0000 
17187.4921    6.5000    6.4653 -999.0000    2.7187    2.5402    2.5270 -999.0000    0.2315    2.5317 -999.0000    4.8719   37.0000 
17187.9921    6.5000    6.5040 -999.0000    2.4064    2.5110    2.5283 -999.0000    0.2407    2.5028 -999.0000    4.5781   37.0000 
17188.4921    6.5000    6.4653 -999.0000    2.3596    2.3587    2.3421 -999.0000    0.2644    2.4939 -999.0000    4.3703   37.0000 
17188.9921    6.5000    6.4718 -999.0000    2.1938    2.0382    2.0271 -999.0000    0.2750    2.4836 -999.0000    4.2439   37.0000 
17189.4921    6.5000    6.4718 -999.0000    1.8566    1.8588    1.9003 -999.0000    0.2745    2.4861 -999.0000    4.4628   37.0000 
17189.9921    6.5000    6.4782 -999.0000    2.0229    2.0770    1.9845 -999.0000    0.2588    2.5028 -999.0000    4.3731   37.0000 
17190.4921    6.5000    6.4653 -999.0000    2.4419    2.7400    2.5197 -999.0000    0.2277    2.5440 -999.0000    4.2119   37.0000 
17190.9921    6.5000    6.4847 -999.0000    2.6358    2.9142    2.7711 -999.0000    0.1832    2.5839 -999.0000    4.2709   37.0000 
17191.4921    6.5000    6.4718 -999.0000    3.4097    4.0614    4.0210 -999.0000    0.1469    2.6073 -999.0000    4.3429   22.0000 
17191.9921    6.5000    6.4782 -999.0000    5.3565    7.5302    7.3848 -999.0000    0.1309    2.6083 -999.0000    4.4056   22.0000 
17192.4921    6.5000    6.4718 -999.0000    7.9125    9.9010   10.7401 -999.0000    0.1365    2.5982 -999.0000    4.1432   22.0000 
17192.9921    6.5000    6.4847 -999.0000    8.5921    9.6607   12.0332 -999.0000    0.1484    2.5929 -999.0000    4.4210   22.0000 
17193.4921    6.5000    6.4718 -999.0000    8.3588    6.8187    9.8160 -999.0000    0.1657    2.5872 -999.0000    4.5266   37.0000 
17193.9921    6.5000    6.5040 -999.0000    4.7886    5.3488    5.7077 -999.0000    0.1940    2.5462 -999.0000    4.2052   37.0000 
17194.4921    6.5000    6.4718 -999.0000    3.4868    2.9089    2.8314 -999.0000    0.2380    2.4984 -999.0000    4.1257   37.0000 
17194.9921    6.5000    6.4653 -999.0000    2.2227    2.0248    1.9959 -999.0000    0.2792    2.4692 -999.0000    3.9535   37.0000 
17195.4921    6.5000    6.4911 -999.0000    1.8398    1.7202    1.6888 -999.0000    0.2900    2.4981 -999.0000    4.1990   37.0000 
17195.9921    6.5000    6.4847 -999.0000    1.8722    1.9320    1.8723 -999.0000    0.2702    2.5530 -999.0000    4.2577   37.0000 
17196.4921    6.5000    6.4653 -999.0000    2.0929    2.2557    2.2374 -999.0000    0.2392    2.6000 -999.0000    4.5109   37.0000 
17196.9921    6.5000    6.4976 -999.0000    2.5409    2.8553    2.7940 -999.0000    0.2123    2.6025 -999.0000    4.5343   37.0000 
17197.4921    6.5000    6.4718 -999.0000    3.2044    3.6959    3.5917 -999.0000    0.1821    2.5965 -999.0000    4.5644   37.0000 
17197.9921    6.5000    6.4976 -999.0000    3.8749    4.4026    4.1878 -999.0000    0.1585    2.5965 -999.0000    4.2194   22.0000 
17198.4921    6.5000    6.4782 -999.0000    4.6220    5.2550    5.1849 -999.0000    0.1374    2.6111 -999.0000    4.3099   22.0000 
17198.9921    6.5000    6.4911 -999.0000    5.5997    7.3580    8.3633 -999.0000    0.1576    2.6048 -999.0000    4.0660   22.0000 
17199.4921    6.5000    6.4718 -999.0000    8.7836   10.2876   11.2467 -999.0000    0.1917    2.6033 -999.0000    4.2052   37.0000 
17199.9921    6.5000    6.4911 -999.0000    6.3072    7.0512    7.1896 -999.0000    0.2377    2.5904 -999.0000    3.9972   37.0000 
17200.4921    6.5000    6.4782 -999.0000    4.6348    4.5583    4.5039 -999.0000    0.2317    2.5553 -999.0000    3.9641   37.0000 
17200.9921    6.5000    6.4847 -999.0000    2.9368    2.6889    2.8785 -999.0000    0.2305    2.5186 -999.0000    3.8880   37.0000 
17201.4921    6.5000    6.4911 -999.0000    3.1263    3.0548    2.8963 -999.0000    0.2233    2.4922 -999.0000    3.8420   37.0000 
17201.9921    6.5000    6.4976 -999.0000    3.5081    3.7278    3.6585 -999.0000    0.2242    2.4975 -999.0000    3.9411   37.0000 
17202.4921    6.5000    6.4782 -999.0000    3.5386    3.5369    3.4900 -999.0000    0.2193    2.4873 -999.0000    3.9922   37.0000 
17202.9921    6.5000    6.4976 -999.0000    3.3561    3.5124    3.4357 -999.0000    0.2188    2.4757 -999.0000    4.3561   37.0000 
17203.4921    6.5000    6.5040 -999.0000    3.2043    3.0696    2.9816 -999.0000    0.2373    2.4459 -999.0000    4.0902   37.0000 
17203.9921    6.5000    6.5105 -999.0000    2.9974    2.8472    2.7839 -999.0000    0.2600    2.4419 -999.0000    4.1059   37.0000 
17204.4921    6.5000    6.5169 -999.0000    2.5893    2.5724    2.5218 -999.0000    0.2600    2.4407 -999.0000    4.0923   37.0000 
17204.9921    6.5000    6.5363 -999.0000    2.8207    3.0014    3.0603 -999.0000    0.2471    2.4493 -999.0000    4.3945   37.0000 
17205.4921    6.5000    6.5363 -999.0000    2.7361    4.1381    4.0146 -999.0000    0.2353    2.4556 -999.0000    4.2785   37.0000 
17205.9921    6.5000    6.4782 -999.0000    4.4608    5.1734    5.4396 -999.0000    0.2390    2.4573 -999.0000    4.1445   37.0000 
17206.4921    6.5000    6.4739 -999.0000    3.3642    3.1192    3.3204 -999.0000    0.2553    2.4537 -999.0000    4.2258   37.0000 
17206.9921    6.5000    6.4911 -999.0000    2.9337    2.7279    2.7263 -999.0000    0.2764    2.4621 -999.0000    4.5855   37.0000 
17207.4921    6.5000    6.4653 -999.0000    2.8061    2.4907    2.9570 -999.0000    0.2930    2.4738 -999.0000    4.5314   37.0000 
17207.9921    6.5000    6.5040 -999.0000    2.3230    2.5933    2.9120 -999.0000    0.3048    2.4812 -999.0000    4.4562   37.0000 
17208.4921    6.5000    6.4524 -999.0000    2.6800    3.9719    4.2701 -999.0000    0.2891    2.4874 -999.0000    4.4027   37.0000 
17208.9921    6.5000    6.4589 -999.0000    3.8250    4.3729    4.5374 -999.0000    0.2685    2.5034 -999.0000    4.7748   37.0000 
17209.4921    6.5000    6.4718 -999.0000    4.8620    8.1711    7.7777 -999.0000    0.2439    2.5085 -999.0000    4.9123   37.0000 
17209.9921    6.5000    6.4718 -999.0000    7.9467    8.1699    7.2022 -999.0000    0.2154    2.4943 -999.0000    4.6913   37.0000 
17210.4921    6.5000    6.4653 -999.0000    9.0181    7.2043    5.3921 -999.0000    0.1769    2.4871 -999.0000    4.5250   37.0000 
17210.9921    6.5000    6.4847 -999.0000    8.4719    7.1003    4.0553 -999.0000    0.1676    2.4868 -999.0000    4.1913   22.0000 
17211.4921    6.5000    6.4653 -999.0000    6.4614    6.8195    5.3171 -999.0000    0.1741    2.4912 -999.0000    4.1505   37.0000 
17211.9921    6.5000    6.4718 -999.0000    5.4929    4.8712    3.6606 -999.0000    0.1962    2.4825 -999.0000    4.0099   37.0000 
17212.4921    6.5000    6.4847 -999.0000    4.6763    4.4126    3.3868 -999.0000    0.2112    2.4722 -999.0000    4.2881   37.0000 
17212.9921    6.5000    6.4847 -999.0000    4.6185    4.7105    5.4933 -999.0000    0.2323    2.4513 -999.0000    4.5212   37.0000 
