~VERSION INFORMATION
 VERS.                 2.0:   CWLS LOG ASCII STANDARD - VERSION 2.0
 WRAP.                  NO:   SINGLE LINE PER DEPTH STEP
 CREA.                 08/02/2018 12:32:10
#CREATED USING DSPetro VERSION 5000.10.1.3 BY H191660 ON 08/02/2018 12:32:10
~WELL INFORMATION
#MNEM.UNIT       DATA                          DESCRIPTION MNEMONIC
#---------      ---------------------------   --------------------------
 STRT    .FT        12485.9921                : START DEPTH
 STOP    .FT        17557.9921                : STOP DEPTH
 STEP    .FT        0.5000                    : STEP VALUE
 NULL    .      -999.0000                     : NULL VALUE
 DATE    .      08/02/2018                    : LAS file Creation Date
 WELL  .      UNIVERSITY_20-27           : Well Name
 COMP  .      Chesapeake Operating, Inc. : Company
 FLD   .      Haley                      : Field
 STATE .      Texas                      : State
 COUNT .      USA                        : Country
 API   .      42-495-33261               : API Number
 UWI   .      508                        : Unique Well Identifier (UWI)
 LOC   .      1320' FSL & 1320' FEL      : Location
 TOWN  .      20                         : Township
 SCT   .      27                         : Section
 RANG  .      University Lands           : Range
 PDAT  .      Ground Level               : Permanent Datum
 EPDAT .      2777.000000                : Reference Elevation
 LGMEA .      Kelly Bushing              : Log Measured from
 DRMEA .      Kelly Bushing              : Drill Measured From
 APDAT .      25.000000                  : Elevation Above Permanent Datum
 KB    .      2802.00000                 : KB Elevation
 GL    .      2777.00000                 : GL Elevation
 RWS   .      -999                       : Def_Rw
 WST   .      -999                       : Def_Rwt
 CNTY  .      Winkler                    : County
 SRVC  .      Schlumberger               : Contractor
~CURVE INFORMATION
#MNEM              UNIT       API CODE   Curve Type Comments
#----------  --------------- ----------  ---------- -----------
 DEPTH      .FT                        : Depth       
 BS         .inch                      : BitSize     
 CAL_INCH   .inch                      :             Caliper Log - A representation of the measured diameter of a borehole along its depth
 GR         .GAPI                      : GammaRay    Gamma-Ray {F11.4}
 SRES       .ohmm                      :             20" array induction, one foot resistivity
 MRES       .ohm.m                     :             30" array induction, one foot resistivity
 DRES       .ohmm                      :             90" array induction, one foot resistivity log - units of ohmm
 DT_US_FT   .us/ft                     :             Interval Transit Time: Compressional Wave - Evaluates the time it takes for a compressional wave to traverse a fixed distance
 NPHI_v/v   .ratio                     :             Neutron Porosity - Measured with an neutron logging device calibrated to a given matrix (limestone, sandstone and dolomite)
 RHOB_G_CC  .g/cc                      :             Bulk Density - Measures the density of bulk material, including any void space or other materials contained in the subject volume
 HDRA       .G/C3                      : Drho        HRDD Density Correction {F11.4}
 PEF_B_E    .b/e-                      : PEF         Photoelectric Factor - A log of photoelectric absorption properties. Often expressed in an approximation unit barns/electron (b/e-)
 LITH       .                          : LITH        Lithology Curve
~A  DEPTH     BS     CAL_INCH     GR       SRES      MRES      DRES    DT_US_FT  NPHI_v/v RHOB_G_C~    HDRA    PEF_B_E     LITH   
# ...
16847.4921    6.5000    6.5169 -999.0000    2.5543    2.5868    2.6205 -999.0000    0.1600    2.5838 -999.0000    3.8742   37.0000 
16847.9921    6.5000    6.5234 -999.0000    2.7632    2.7646    2.7379 -999.0000    0.1612    2.5957 -999.0000    4.0134   37.0000 
16848.4921    6.5000    6.5040 -999.0000    2.7655    2.7943    2.6490 -999.0000    0.1670    2.6016 -999.0000    4.1486   37.0000 
16848.9921    6.5000    6.5234 -999.0000    2.6011    2.5758    2.5505 -999.0000    0.1822    2.5940 -999.0000    4.0644   37.0000 
16849.4921    6.5000    6.5105 -999.0000    2.4563    2.4469    2.4747 -999.0000    0.1914    2.5859 -999.0000    3.8577   37.0000 
16849.9921    6.5000    6.5105 -999.0000    2.3355    2.3280    2.3208 -999.0000    0.2027    2.5852 -999.0000    3.6234   37.0000 
16850.4921    6.5000    6.5169 -999.0000    2.2528    2.2530    2.2617 -999.0000    0.2036    2.5910 -999.0000    3.7290   37.0000 
16850.9921    6.5000    6.5169 -999.0000    2.2543    2.2287    2.2287 -999.0000    0.1979    2.5867 -999.0000    3.7920   37.0000 
16851.4921    6.5000    6.5234 -999.0000    2.1702    2.2113    2.2269 -999.0000    0.1892    2.5860 -999.0000    3.8400   37.0000 
16851.9921    6.5000    6.4976 -999.0000    2.3548    2.5050    2.4793 -999.0000    0.1778    2.5977 -999.0000    3.8563   37.0000 
16852.4921    6.5000    6.5040 -999.0000    2.5810    2.7506    2.7149 -999.0000    0.1605    2.6102 -999.0000    3.8898   37.0000 
16852.9921    6.5000    6.5169 -999.0000    2.7831    2.9524    2.9114 -999.0000    0.1446    2.6224 -999.0000    3.6943   37.0000 
16853.4921    6.5000    6.4911 -999.0000    3.0448    3.4304    3.4295 -999.0000    0.1413    2.6330 -999.0000    3.7803   37.0000 
16853.9921    6.5000    6.5040 -999.0000    3.3337    3.5301    3.5195 -999.0000    0.1446    2.6295 -999.0000    3.7109   37.0000 
16854.4921    6.5000    6.5105 -999.0000    3.3304    3.3394    3.2761 -999.0000    0.1449    2.6301 -999.0000    3.9574   37.0000 
16854.9921    6.5000    6.5040 -999.0000    3.5515    3.5225    3.5520 -999.0000    0.1345    2.6286 -999.0000    3.8034   37.0000 
16855.4921    6.5000    6.5118 -999.0000    3.8146    3.9494    3.9474 -999.0000    0.1425    2.6435 -999.0000    4.0147   37.0000 
16855.9921    6.5000    6.5040 -999.0000    3.6189    3.5954    3.6445 -999.0000    0.1545    2.6447 -999.0000    3.9634   37.0000 
16856.4921    6.5000    6.5105 -999.0000    3.1120    3.1037    3.1776 -999.0000    0.1639    2.6335 -999.0000    4.2580   37.0000 
16856.9921    6.5000    6.4911 -999.0000    2.6707    2.7548    2.8643 -999.0000    0.1662    2.6144 -999.0000    4.0901   37.0000 
16857.4921    6.5000    6.5298 -999.0000    2.8877    2.9781    3.1428 -999.0000    0.1574    2.6142 -999.0000    3.9856   37.0000 
16857.9921    6.5000    6.5105 -999.0000    3.1623    3.2432    3.3435 -999.0000    0.1561    2.6215 -999.0000    4.0472   37.0000 
16858.4921    6.5000    6.5105 -999.0000    3.4291    3.6132    3.6574 -999.0000    0.1586    2.6298 -999.0000    4.0031   37.0000 
16858.9921    6.5000    6.5105 -999.0000    3.5949    3.7249    3.7683 -999.0000    0.1572    2.6225 -999.0000    3.8386   37.0000 
16859.4921    6.5000    6.5169 -999.0000    3.8757    4.0061    3.9709 -999.0000    0.1419    2.6224 -999.0000    3.6817   22.0000 
16859.9921    6.5000    6.5234 -999.0000    4.1433    4.9287    4.8243 -999.0000    0.1337    2.6377 -999.0000    3.8078   37.0000 
16860.4921    6.5000    6.5105 -999.0000    5.4005    5.5990    5.4416 -999.0000    0.1329    2.6584 -999.0000    4.4200   37.0000 
16860.9921    6.5000    6.5040 -999.0000    5.1373    5.0402    5.0398 -999.0000    0.1455    2.6644 -999.0000    4.4168   37.0000 
16861.4921    6.5000    6.5298 -999.0000    4.0585    3.8560    3.8145 -999.0000    0.1563    2.6529 -999.0000    4.2063   37.0000 
16861.9921    6.5000    6.5040 -999.0000    3.4430    3.1756    3.1601 -999.0000    0.1585    2.6314 -999.0000    3.9907   37.0000 
16862.4921    6.5000    6.5105 -999.0000    2.8263    2.7245    2.7711 -999.0000    0.1553    2.6172 -999.0000    3.7530   37.0000 
16862.9921    6.5000    6.5169 -999.0000    2.9321    2.9777    2.8827 -999.0000    0.1600    2.6218 -999.0000    3.9450   37.0000 
16863.4921    6.5000    6.5040 -999.0000    3.0844    3.2265    3.1789 -999.0000    0.1532    2.6272 -999.0000    3.9429   37.0000 
16863.9921    6.5000    6.4911 -999.0000    3.1326    3.2252    3.1785 -999.0000    0.1533    2.6241 -999.0000    4.1092   37.0000 
16864.4921    6.5000    6.5169 -999.0000    3.1775    3.3326    3.3004 -999.0000    0.1527    2.6199 -999.0000    3.8359   37.0000 
16864.9921    6.5000    6.5040 -999.0000    3.2842    3.3360    3.3053 -999.0000    0.1578    2.6167 -999.0000    3.8953   37.0000 
16865.4921    6.5000    6.5040 -999.0000    3.2966    3.3300    3.3050 -999.0000    0.1600    2.6162 -999.0000    3.8056   37.0000 
16865.9921    6.5000    6.5040 -999.0000    3.3168    3.2936    3.2497 -999.0000    0.1607    2.6234 -999.0000    3.9100   37.0000 
16866.4921    6.5000    6.5169 -999.0000    3.1591    3.0716    3.1264 -999.0000    0.1699    2.6189 -999.0000    3.9809   37.0000 
16866.9921    6.5000    6.5105 -999.0000    2.9600    2.9144    2.9088 -999.0000    0.1795    2.6137 -999.0000    3.9939   37.0000 
16867.4921    6.5000    6.5169 -999.0000    2.7526    2.7129    2.6956 -999.0000    0.1862    2.6093 -999.0000    4.1880   37.0000 
16867.9921    6.5000    6.5105 -999.0000    2.6051    2.4810    2.4225 -999.0000    0.1772    2.6073 -999.0000    3.9230   37.0000 
16868.4921    6.5000    6.5234 -999.0000    2.3650    2.3345    2.3374 -999.0000    0.1664    2.6065 -999.0000    4.0166   37.0000 
16868.9921    6.5000    6.4911 -999.0000    2.4490    2.5138    2.5235 -999.0000    0.1581    2.5934 -999.0000    3.9251   37.0000 
16869.4921    6.5000    6.5169 -999.0000    2.5927    2.6401    2.6226 -999.0000    0.1545    2.5951 -999.0000    4.0012   37.0000 
16869.9921    6.5000    6.5169 -999.0000    2.6616    2.6431    2.6026 -999.0000    0.1574    2.5846 -999.0000    3.8453   37.0000 
16870.4921    6.5000    6.4976 -999.0000    2.5923    2.7247    2.6681 -999.0000    0.1765    2.5924 -999.0000    3.8135   37.0000 
16870.9921    6.5000    6.4976 -999.0000    2.6110    2.6320    2.6770 -999.0000    0.1965    2.5959 -999.0000    3.8312   37.0000 
16871.4921    6.5000    6.5234 -999.0000    2.4155    2.3461    2.3536 -999.0000    0.2068    2.6011 -999.0000    3.8702   37.0000 
16871.9921    6.5000    6.5169 -999.0000    2.1559    2.1450    2.1482 -999.0000    0.1967    2.5840 -999.0000    3.9591   37.0000 
16872.4921    6.5000    6.5234 -999.0000    2.3989    2.5420    2.6097 -999.0000    0.1649    2.5754 -999.0000    3.9096   37.0000 
16872.9921    6.5000    6.5040 -999.0000    2.8432    3.1035    3.0661 -999.0000    0.1381    2.5804 -999.0000    3.8651   37.0000 
16873.4921    6.5000    6.5105 -999.0000    3.1116    3.3227    3.2029 -999.0000    0.1174    2.5896 -999.0000    3.6459   22.0000 
16873.9921    6.5000    6.4976 -999.0000    3.7799    4.0404    3.8641 -999.0000    0.0991    2.6103 -999.0000    3.5122   22.0000 
16874.4921    6.5000    6.5234 -999.0000    4.7334    5.0695    5.0470 -999.0000    0.0875    2.6281 -999.0000    3.8256   22.0000 
16874.9921    6.5000    6.5105 -999.0000    6.7741    7.6030    6.9005 -999.0000    0.0799    2.6427 -999.0000    4.1387   22.0000 
16875.4921    6.5000    6.5234 -999.0000    8.6778    8.9228    7.5966 -999.0000    0.0776    2.6560 -999.0000    5.1041   22.0000 
16875.9921    6.5000    6.5040 -999.0000    9.8334    9.4959    8.9839 -999.0000    0.0781    2.6648 -999.0000    4.7977   22.0000 
16876.4921    6.5000    6.5169 -999.0000    9.1514    8.8101    8.7149 -999.0000    0.0802    2.6838 -999.0000    4.7249   22.0000 
16876.9921    6.5000    6.5040 -999.0000    8.4552    8.1866    8.2285 -999.0000    0.0857    2.6925 -999.0000    4.1798   37.0000 
16877.4921    6.5000    6.5234 -999.0000    7.5368    7.2959    7.2812 -999.0000    0.0949    2.7162 -999.0000    4.5847   12.0000 
