~VERSION INFORMATION
 VERS.                 2.0:   CWLS LOG ASCII STANDARD - VERSION 2.0
 WRAP.                  NO:   SINGLE LINE PER DEPTH STEP
 CREA.                 08/02/2018 12:32:10
#CREATED USING DSPetro VERSION 5000.10.1.3 BY H191660 ON 08/02/2018 12:32:10
~WELL INFORMATION
#MNEM.UNIT       DATA                          DESCRIPTION MNEMONIC
#---------      ---------------------------   --------------------------
 STRT    .FT        12485.9921                : START DEPTH
 STOP    .FT        17557.9921                : STOP DEPTH
 STEP    .FT        0.5000                    : STEP VALUE
 NULL    .      -999.0000                     : NULL VALUE
 DATE    .      08/02/2018                    : LAS file Creation Date
 WELL  .      UNIVERSITY_20-27           : Well Name
 COMP  .      Chesapeake Operating, Inc. : Company
 FLD   .      Haley                      : Field
 STATE .      Texas                      : State
 COUNT .      USA                        : Country
 API   .      42-495-33261               : API Number
 UWI   .      508                        : Unique Well Identifier (UWI)
 LOC   .      1320' FSL & 1320' FEL      : Location
 TOWN  .      20                         : Township
 SCT   .      27                         : Section
 RANG  .      University Lands           : Range
 PDAT  .      Ground Level               : Permanent Datum
 EPDAT .      2777.000000                : Reference Elevation
 LGMEA .      Kelly Bushing              : Log Measured from
 DRMEA .      Kelly Bushing              : Drill Measured From
 APDAT .      25.000000                  : Elevation Above Permanent Datum
 KB    .      2802.00000                 : KB Elevation
 GL    .      2777.00000                 : GL Elevation
 RWS   .      -999                       : Def_Rw
 WST   .      -999                       : Def_Rwt
 CNTY  .      Winkler                    : County
 SRVC  .      Schlumberger               : Contractor
~CURVE INFORMATION
#MNEM              UNIT       API CODE   Curve Type Comments
#----------  --------------- ----------  ---------- -----------
 DEPTH      .FT                        : Depth       
 BS         .inch                      : BitSize     
 CAL_INCH   .inch                      :             Caliper Log - A representation of the measured diameter of a borehole along its depth
 GR         .GAPI                      : GammaRay    Gamma-Ray {F11.4}
 SRES       .ohmm                      :             20" array induction, one foot resistivity
 MRES       .ohm.m                     :             30" array induction, one foot resistivity
 DRES       .ohmm                      :             90" array induction, one foot resistivity log - units of ohmm
 DT_US_FT   .us/ft                     :             Interval Transit Time: Compressional Wave - Evaluates the time it takes for a compressional wave to traverse a fixed distance
 NPHI_v/v   .ratio                     :             Neutron Porosity - Measured with an neutron logging device calibrated to a given matrix (limestone, sandstone and dolomite)
 RHOB_G_CC  .g/cc                      :             Bulk Density - Measures the density of bulk material, including any void space or other materials contained in the subject volume
 HDRA       .G/C3                      : Drho        HRDD Density Correction {F11.4}
 PEF_B_E    .b/e-                      : PEF         Photoelectric Factor - A log of photoelectric absorption properties. Often expressed in an approximation unit barns/electron (b/e-)
 LITH       .                          : LITH        Lithology Curve
~A  DEPTH     BS     CAL_INCH     GR       SRES      MRES      DRES    DT_US_FT  NPHI_v/v RHOB_G_C~    HDRA    PEF_B_E     LITH   
# ...
14163.4921    8.5000    8.3791 -999.0000    6.2489    5.7394    4.9273 -999.0000    0.0857    2.6777 -999.0000    7.2049   18.0000 
14163.9921    8.5000    8.3743 -999.0000    5.6698    6.8428    5.3171 -999.0000    0.0906    2.7068 -999.0000    7.3117   18.0000 
14164.4921    8.5000    8.3730 -999.0000    6.1743    7.0949    7.3340 -999.0000    0.1235    2.6733 -999.0000    5.8820   22.0000 
14164.9921    8.5000    8.3852 -999.0000    4.8756    5.0938    5.0484 -999.0000    0.1563    2.6256 -999.0000    4.7563   37.0000 
14165.4921    8.5000    8.3609 -999.0000    4.5720    4.4547    4.2177 -999.0000    0.1548    2.6030 -999.0000    4.1491   37.0000 
14165.9921    8.5000    8.3694 -999.0000    4.5657    4.7843    4.7898 -999.0000    0.1616    2.6029 -999.0000    4.1490   37.0000 
14166.4921    8.5000    8.3670 -999.0000    4.2164    4.2151    4.4192 -999.0000    0.1715    2.5973 -999.0000    4.1632   37.0000 
14166.9921    8.5000    8.3791 -999.0000    4.0323    4.1196    4.2002 -999.0000    0.1673    2.5951 -999.0000    4.4043   37.0000 
14167.4921    8.5000    8.3645 -999.0000    4.4467    4.6202    4.6210 -999.0000    0.1554    2.5935 -999.0000    4.6014   37.0000 
14167.9921    8.5000    8.3791 -999.0000    4.8403    5.1188    5.0413 -999.0000    0.1463    2.5893 -999.0000    4.9301   37.0000 
14168.4921    8.5000    8.3670 -999.0000    4.6929    4.6066    4.4058 -999.0000    0.1444    2.5884 -999.0000    4.5043   37.0000 
14168.9921    8.5000    8.3791 -999.0000    4.5722    4.5884    4.6608 -999.0000    0.1456    2.5879 -999.0000    4.2886   37.0000 
14169.4921    8.5000    8.3730 -999.0000    4.2690    4.1849    4.1328 -999.0000    0.1520    2.5898 -999.0000    4.0359   37.0000 
14169.9921    8.5000    8.3791 -999.0000    4.1751    4.3261    4.0586 -999.0000    0.1553    2.5866 -999.0000    3.9421   37.0000 
14170.4921    8.5000    8.3730 -999.0000    4.2154    4.0793    3.6736 -999.0000    0.1636    2.5857 -999.0000    4.0812   37.0000 
14170.9921    8.5000    8.3645 -999.0000    3.8463    3.8652    3.8875 -999.0000    0.1526    2.5830 -999.0000    4.1012   37.0000 
14171.4921    8.5000    8.3791 -999.0000    4.6432    4.8291    4.8814 -999.0000    0.1355    2.5959 -999.0000    4.1100   37.0000 
14171.9921    8.5000    8.3730 -999.0000    4.3941    4.9076    5.1093 -999.0000    0.1325    2.6014 -999.0000    4.1643   37.0000 
14172.4921    8.5000    8.3840 -999.0000    4.2688    3.9875    3.7850 -999.0000    0.1436    2.6015 -999.0000    4.1269   37.0000 
14172.9921    8.5000    8.3609 -999.0000    3.9571    3.8431    3.9535 -999.0000    0.1620    2.5893 -999.0000    4.2041   37.0000 
14173.4921    8.5000    8.3730 -999.0000    3.7419    3.7246    3.7648 -999.0000    0.1771    2.5917 -999.0000    4.3302   37.0000 
14173.9921    8.5000    8.3694 -999.0000    3.8493    3.5150    3.6032 -999.0000    0.1746    2.5928 -999.0000    4.5161   37.0000 
14174.4921    8.5000    8.3852 -999.0000    3.7553    3.9679    4.7919 -999.0000    0.1599    2.5956 -999.0000    4.6041   37.0000 
14174.9921    8.5000    8.3670 -999.0000    4.0372    4.2648    4.5629 -999.0000    0.1368    2.6005 -999.0000    4.1054   37.0000 
14175.4921    8.5000    8.3852 -999.0000    4.3750    4.5260    4.5677 -999.0000    0.1230    2.6177 -999.0000    4.3287   37.0000 
14175.9921    8.5000    8.3694 -999.0000    4.6800    5.0165    5.0958 -999.0000    0.1346    2.6175 -999.0000    4.5113   37.0000 
14176.4921    8.5000    8.3670 -999.0000    4.9263    4.7775    5.0513 -999.0000    0.1503    2.6087 -999.0000    4.7223   37.0000 
14176.9921    8.5000    8.3730 -999.0000    4.5729    4.2705    3.9364 -999.0000    0.1618    2.5950 -999.0000    4.7893   37.0000 
14177.4921    8.5000    8.3645 -999.0000    4.7119    4.6355    4.3438 -999.0000    0.1533    2.5878 -999.0000    4.2573   37.0000 
14177.9921    8.5000    8.3730 -999.0000    4.7946    4.6625    4.4144 -999.0000    0.1531    2.5962 -999.0000    4.2765   37.0000 
14178.4921    8.5000    8.3609 -999.0000    4.1185    3.9579    3.8348 -999.0000    0.1598    2.5999 -999.0000    3.9473   37.0000 
14178.9921    8.5000    8.3791 -999.0000    4.0308    4.1064    3.8831 -999.0000    0.1583    2.5970 -999.0000    4.0650   37.0000 
14179.4921    8.5000    8.3743 -999.0000    3.9184    3.9247    3.6658 -999.0000    0.1612    2.5953 -999.0000    4.0170   37.0000 
14179.9921    8.5000    8.3913 -999.0000    3.6022    3.6017    3.5595 -999.0000    0.1597    2.5960 -999.0000    3.8598   37.0000 
14180.4921    8.5000    8.3730 -999.0000    3.7096    3.9051    3.8992 -999.0000    0.1601    2.6051 -999.0000    3.9335   37.0000 
14180.9921    8.5000    8.3791 -999.0000    4.1942    4.5037    4.5845 -999.0000    0.1582    2.6077 -999.0000    3.9912   37.0000 
14181.4921    8.5000    8.3670 -999.0000    5.0516    5.5595    5.6999 -999.0000    0.1592    2.5989 -999.0000    4.1386   37.0000 
14181.9921    8.5000    8.3791 -999.0000    4.9214    5.1534    5.3535 -999.0000    0.1572    2.5925 -999.0000    4.1014   37.0000 
14182.4921    8.5000    8.3791 -999.0000    5.1516    5.7639    5.7324 -999.0000    0.1554    2.5910 -999.0000    4.4846   37.0000 
14182.9921    8.5000    8.3730 -999.0000    5.8377    5.4595    5.5150 -999.0000    0.1377    2.6042 -999.0000    4.6706   22.0000 
14183.4921    8.5000    8.3670 -999.0000    5.7524    6.3613    7.0369 -999.0000    0.1327    2.6150 -999.0000    4.7109   22.0000 
14183.9921    8.5000    8.3743 -999.0000    5.8794    5.8222    6.5293 -999.0000    0.1370    2.6013 -999.0000    4.1732   37.0000 
14184.4921    8.5000    8.3791 -999.0000    4.8134    4.4827    4.4833 -999.0000    0.1546    2.5828 -999.0000    3.8905   37.0000 
14184.9921    8.5000    8.3730 -999.0000    4.2171    3.9487    3.5866 -999.0000    0.1601    2.5717 -999.0000    3.9898   37.0000 
14185.4921    8.5000    8.3791 -999.0000    3.9622    3.8647    3.3600 -999.0000    0.1645    2.5686 -999.0000    3.9747   37.0000 
14185.9921    8.5000    8.3645 -999.0000    3.7979    3.6141    3.8086 -999.0000    0.1655    2.5702 -999.0000    3.7722   37.0000 
14186.4921    8.5000    8.3791 -999.0000    3.7431    3.6505    3.5452 -999.0000    0.1640    2.5715 -999.0000    3.8893   37.0000 
14186.9921    8.5000    8.3670 -999.0000    3.5722    4.1049    3.9803 -999.0000    0.1723    2.5697 -999.0000    3.8636   37.0000 
14187.4921    8.5000    8.3852 -999.0000    3.9970    3.6251    3.4528 -999.0000    0.1696    2.6035 -999.0000    4.7310   37.0000 
14187.9921    8.5000    8.3743 -999.0000    3.5994    3.6208    3.6386 -999.0000    0.1625    2.6045 -999.0000    4.6590   37.0000 
14188.4921    8.5000    8.3791 -999.0000    4.7415    5.5683    6.4354 -999.0000    0.1359    2.6249 -999.0000    5.7651   37.0000 
14188.9921    8.5000    8.3609 -999.0000    6.5391    7.8349    7.9518 -999.0000    0.1110    2.5881 -999.0000    5.4550   22.0000 
14189.4921    8.5000    8.3645 -999.0000    5.8996    7.7019    7.9732 -999.0000    0.1111    2.5891 -999.0000    4.8185   22.0000 
14189.9921    8.5000    8.3730 -999.0000    5.9054    5.6867    5.7525 -999.0000    0.1371    2.5808 -999.0000    4.3065   37.0000 
14190.4921    8.5000    8.3852 -999.0000    4.9900    4.5082    4.5768 -999.0000    0.1675    2.5909 -999.0000    4.2408   37.0000 
14190.9921    8.5000    8.3743 -999.0000    3.8625    3.8010    3.8508 -999.0000    0.1776    2.5747 -999.0000    4.4475   37.0000 
14191.4921    8.5000    8.3609 -999.0000    3.8576    4.0577    4.2245 -999.0000    0.1832    2.5729 -999.0000    4.1701   37.0000 
14191.9921    8.5000    8.3730 -999.0000    3.9774    4.0593    4.0620 -999.0000    0.1826    2.5830 -999.0000    4.0337   37.0000 
14192.4921    8.5000    8.3694 -999.0000    3.6412    3.7122    3.7232 -999.0000    0.1686    2.5932 -999.0000    3.8704   37.0000 
14192.9921    8.5000    8.3852 -999.0000    3.4896    3.5267    3.5042 -999.0000    0.1608    2.5986 -999.0000    4.0908   37.0000 
14193.4921    8.5000    8.3670 -999.0000    3.9116    4.1451    4.0901 -999.0000    0.1556    2.5936 -999.0000    3.9323   37.0000 
