~VERSION INFORMATION
 VERS.                 2.0:   CWLS LOG ASCII STANDARD - VERSION 2.0
 WRAP.                  NO:   SINGLE LINE PER DEPTH STEP
 CREA.                 08/02/2018 12:32:10
#CREATED USING DSPetro VERSION 5000.10.1.3 BY H191660 ON 08/02/2018 12:32:10
~WELL INFORMATION
#MNEM.UNIT       DATA                          DESCRIPTION MNEMONIC
#---------      ---------------------------   --------------------------
 STRT    .FT        12485.9921                : START DEPTH
 STOP    .FT        17557.9921                : STOP DEPTH
 STEP    .FT        0.5000                    : STEP VALUE
 NULL    .      -999.0000                     : NULL VALUE
 DATE    .      08/02/2018                    : LAS file Creation Date
 WELL  .      UNIVERSITY_20-27           : Well Name
 COMP  .      Chesapeake Operating, Inc. : Company
 FLD   .      Haley                      : Field
 STATE .      Texas                      : State
 COUNT .      USA                        : Country
 API   .      42-495-33261               : API Number
 UWI   .      508                        : Unique Well Identifier (UWI)
 LOC   .      1320' FSL & 1320' FEL      : Location
 TOWN  .      20                         : Township
 SCT   .      27                         : Section
 RANG  .      University Lands           : Range
 PDAT  .      Ground Level               : Permanent Datum
 EPDAT .      2777.000000                : Reference Elevation
 LGMEA .      Kelly Bushing              : Log Measured from
 DRMEA .      Kelly Bushing              : Drill Measured From
 APDAT .      25.000000                  : Elevation Above Permanent Datum
 KB    .      2802.00000                 : KB Elevation
 GL    .      2777.00000                 : GL Elevation
 RWS   .      -999                       : Def_Rw
 WST   .      -999                       : Def_Rwt
 CNTY  .      Winkler                    : County
 SRVC  .      Schlumberger               : Contractor
~CURVE INFORMATION
#MNEM              UNIT       API CODE   Curve Type Comments
#----------  --------------- ----------  ---------- -----------
 DEPTH      .FT                        : Depth       
 BS         .inch                      : BitSize     
 CAL_INCH   .inch                      :             Caliper Log - A representation of the measured diameter of a borehole along its depth
 GR         .GAPI                      : GammaRay    Gamma-Ray {F11.4}
 SRES       .ohmm                      :             20" array induction, one foot resistivity
 MRES       .ohm.m                     :             30" array induction, one foot resistivity
 DRES       .ohmm                      :             90" array induction, one foot resistivity log - units of ohmm
 DT_US_FT   .us/ft                     :             Interval Transit Time: Compressional Wave - Evaluates the time it takes for a compressional wave to traverse a fixed distance
 NPHI_v/v   .ratio                     :             Neutron Porosity - Measured with an neutron logging device calibrated to a given matrix (limestone, sandstone and dolomite)
 RHOB_G_CC  .g/cc                      :             Bulk Density - Measures the density of bulk material, including any void space or other materials contained in the subject volume
 HDRA       .G/C3                      : Drho        HRDD Density Correction {F11.4}
 PEF_B_E    .b/e-                      : PEF         Photoelectric Factor - A log of photoelectric absorption properties. Often expressed in an approximation unit barns/electron (b/e-)
 LITH       .                          : LITH        Lithology Curve
~A  DEPTH     BS     CAL_INCH     GR       SRES      MRES      DRES    DT_US_FT  NPHI_v/v RHOB_G_C~    HDRA    PEF_B_E     LITH   
# ...
13827.9921    8.5000    8.3791 -999.0000    3.8578    3.8009    3.7817 -999.0000    0.1839    2.5417 -999.0000    4.3724   37.0000 
13828.4921    8.5000    8.4095 -999.0000    3.9491    4.0067    4.3925 -999.0000    0.1840    2.5510 -999.0000    4.0828   37.0000 
13828.9921    8.5000    8.4156 -999.0000    4.0491    3.9538    4.5334 -999.0000    0.1746    2.5549 -999.0000    4.3971   37.0000 
13829.4921    8.5000    8.4217 -999.0000    3.8718    3.9895    4.4174 -999.0000    0.1786    2.5580 -999.0000    4.5187   37.0000 
13829.9921    8.5000    8.4217 -999.0000    4.2511    4.4230    5.3037 -999.0000    0.1759    2.5569 -999.0000    4.7034   37.0000 
13830.4921    8.5000    8.4132 -999.0000    4.5005    4.8753    4.6714 -999.0000    0.1786    2.5648 -999.0000    4.4428   37.0000 
13830.9921    8.5000    8.3548 -999.0000    4.7562    5.8844    5.3903 -999.0000    0.1791    2.5700 -999.0000    4.1979   37.0000 
13831.4921    8.5000    8.3670 -999.0000    5.4474    5.0706    4.1166 -999.0000    0.1681    2.5766 -999.0000    3.9930   37.0000 
13831.9921    8.5000    8.3609 -999.0000    6.1492    6.7234    7.1777 -999.0000    0.1325    2.5773 -999.0000    4.0610   37.0000 
13832.4921    8.5000    8.3670 -999.0000    6.8490    6.7446    6.4402 -999.0000    0.1043    2.5879 -999.0000    4.1918   22.0000 
13832.9921    8.5000    8.3597 -999.0000    6.4694    6.2219    5.3140 -999.0000    0.1043    2.6012 -999.0000    4.3007   22.0000 
13833.4921    8.5000    8.3609 -999.0000    4.8329    3.9510    3.4144 -999.0000    0.1328    2.6089 -999.0000    4.3335   37.0000 
13833.9921    8.5000    8.3791 -999.0000    4.8174    4.4492    3.7713 -999.0000    0.1668    2.5895 -999.0000    4.3250   37.0000 
13834.4921    8.5000    8.4338 -999.0000    4.5288    4.5340    4.1662 -999.0000    0.1511    2.5721 -999.0000    4.3239   37.0000 
13834.9921    8.5000    8.4217 -999.0000    4.4706    3.5893    3.0958 -999.0000    0.1327    2.5807 -999.0000    4.6787   37.0000 
13835.4921    8.5000    8.3743 -999.0000    4.0744    4.1122    4.1877 -999.0000    0.1330    2.5947 -999.0000    4.6745   37.0000 
13835.9921    8.5000    8.3670 -999.0000    4.0081    4.2869    4.5267 -999.0000    0.1588    2.5920 -999.0000    4.6689   37.0000 
13836.4921    8.5000    8.3730 -999.0000    3.5419    3.4418    3.5191 -999.0000    0.1832    2.5757 -999.0000    4.3569   37.0000 
13836.9921    8.5000    8.3730 -999.0000    3.9773    3.9448    4.0769 -999.0000    0.1900    2.5585 -999.0000    4.4166   37.0000 
13837.4921    8.5000    8.3694 -999.0000    4.4713    4.5974    5.0697 -999.0000    0.1823    2.5626 -999.0000    4.0768   37.0000 
13837.9921    8.5000    8.3852 -999.0000    5.2518    4.4493    4.5222 -999.0000    0.1550    2.5730 -999.0000    4.0397   37.0000 
13838.4921    8.5000    8.3670 -999.0000    5.0509    5.4691    4.9560 -999.0000    0.1336    2.5909 -999.0000    3.7939   37.0000 
13838.9921    8.5000    8.3852 -999.0000    5.6117    6.4641    6.7549 -999.0000    0.1300    2.6019 -999.0000    3.9904   22.0000 
13839.4921    8.5000    8.3670 -999.0000    5.2754    5.5587    6.3910 -999.0000    0.1384    2.5978 -999.0000    4.1511   37.0000 
13839.9921    8.5000    8.3937 -999.0000    5.7551    5.3795    5.8936 -999.0000    0.1291    2.5939 -999.0000    4.6866   37.0000 
13840.4921    8.5000    8.3730 -999.0000    5.6430    6.1434    5.7240 -999.0000    0.1279    2.6046 -999.0000    4.9298   37.0000 
13840.9921    8.5000    8.3791 -999.0000    6.6162    7.4361    6.9115 -999.0000    0.1374    2.6038 -999.0000    4.5053   37.0000 
13841.4921    8.5000    8.3670 -999.0000    4.8781    4.2053    3.9412 -999.0000    0.1770    2.5870 -999.0000    4.3636   37.0000 
13841.9921    8.5000    8.3840 -999.0000    3.7577    3.4887    3.6179 -999.0000    0.1859    2.5566 -999.0000    3.9441   37.0000 
13842.4921    8.5000    8.3609 -999.0000    3.6183    3.5141    3.6092 -999.0000    0.1805    2.5567 -999.0000    4.1075   37.0000 
13842.9921    8.5000    8.3791 -999.0000    3.7247    3.8388    3.7389 -999.0000    0.1549    2.5498 -999.0000    3.8733   37.0000 
13843.4921    8.5000    8.3730 -999.0000    4.2129    4.4975    4.2747 -999.0000    0.1495    2.5735 -999.0000    3.9024   37.0000 
13843.9921    8.5000    8.3670 -999.0000    4.9806    5.0126    4.5416 -999.0000    0.1530    2.5739 -999.0000    3.8478   37.0000 
13844.4921    8.5000    8.3791 -999.0000    4.8921    4.8605    4.4170 -999.0000    0.1724    2.5745 -999.0000    3.9953   37.0000 
13844.9921    8.5000    8.3852 -999.0000    6.4149    6.1339    5.5040 -999.0000    0.1661    2.5609 -999.0000    4.3684   37.0000 
13845.4921    8.5000    8.4095 -999.0000    6.6348    7.3127    6.2861 -999.0000    0.1607    2.5566 -999.0000    4.7652   22.0000 
13845.9921    8.5000    8.3791 -999.0000    7.9248    7.8501    6.2532 -999.0000    0.1591    2.5471 -999.0000    4.6945   22.0000 
13846.4921    8.5000    8.3670 -999.0000    7.5383    6.5030    5.5657 -999.0000    0.1711    2.5516 -999.0000    4.4999   37.0000 
13846.9921    8.5000    8.3645 -999.0000    9.8798    7.5397    6.2906 -999.0000    0.1676    2.5546 -999.0000    4.2845   37.0000 
13847.4921    8.5000    8.3852 -999.0000    6.9677    6.1538    5.1315 -999.0000    0.1738    2.5644 -999.0000    4.3381   37.0000 
13847.9921    8.5000    8.3609 -999.0000    4.6656    4.3435    3.9771 -999.0000    0.1777    2.5637 -999.0000    3.9710   37.0000 
13848.4921    8.5000    8.3791 -999.0000    4.0319    3.7887    3.6896 -999.0000    0.1865    2.5687 -999.0000    3.7633   37.0000 
13848.9921    8.5000    8.3743 -999.0000    3.8108    3.8537    3.5724 -999.0000    0.1922    2.5575 -999.0000    3.7229   37.0000 
13849.4921    8.5000    8.3791 -999.0000    3.5560    3.5401    3.4322 -999.0000    0.1921    2.5604 -999.0000    3.6958   37.0000 
13849.9921    8.5000    8.3670 -999.0000    3.5108    3.6111    3.5474 -999.0000    0.1880    2.5602 -999.0000    3.9047   37.0000 
13850.4921    8.5000    8.3730 -999.0000    3.3457    3.5521    3.4245 -999.0000    0.1765    2.5639 -999.0000    3.8652   37.0000 
13850.9921    8.5000    8.3597 -999.0000    3.4785    3.6251    3.4754 -999.0000    0.1521    2.5711 -999.0000    4.3225   37.0000 
13851.4921    8.5000    8.3548 -999.0000    4.3205    4.6352    4.3830 -999.0000    0.1284    2.5711 -999.0000    4.1725   37.0000 
13851.9921    8.5000    8.4338 -999.0000    6.3911    6.1101    5.7064 -999.0000    0.1247    2.5716 -999.0000    4.2830   22.0000 
13852.4921    8.5000    8.5007 -999.0000    4.9599    4.4666    4.2776 -999.0000    0.1477    2.5563 -999.0000    4.0868   37.0000 
13852.9921    8.5000    8.4643 -999.0000    3.7767    3.5950    3.4499 -999.0000    0.1803    2.5525 -999.0000    4.1108   37.0000 
13853.4921    8.5000    8.4618 -999.0000    3.6516    3.7422    3.5978 -999.0000    0.1857    2.5523 -999.0000    3.7843   37.0000 
13853.9921    8.5000    8.4643 -999.0000    3.6013    3.9151    3.6615 -999.0000    0.1820    2.5566 -999.0000    3.7328   37.0000 
13854.4921    8.5000    8.4460 -999.0000    3.5192    3.8495    3.6762 -999.0000    0.1847    2.5579 -999.0000    3.7603   37.0000 
13854.9921    8.5000    8.4643 -999.0000    3.4687    3.9637    4.1526 -999.0000    0.1726    2.5685 -999.0000    3.9655   37.0000 
13855.4921    8.5000    8.4521 -999.0000    3.9377    4.6691    5.3687 -999.0000    0.1580    2.5762 -999.0000    4.3227   37.0000 
13855.9921    8.5000    8.4618 -999.0000    5.3418    6.4827    7.7967 -999.0000    0.1459    2.5797 -999.0000    4.2818   37.0000 
13856.4921    8.5000    8.3913 -999.0000    8.4707   11.0784   18.7706 -999.0000    0.1452    2.5829 -999.0000    4.2719   22.0000 
13856.9921    8.5000    8.3791 -999.0000   13.8570   16.5529   21.6014 -999.0000    0.1497    2.5760 -999.0000    4.0683   22.0000 
13857.4921    8.5000    8.3730 -999.0000   14.0922   10.8943   10.8594 -999.0000    0.1619    2.5682 -999.0000    4.0073   37.0000 
13857.9921    8.5000    8.3694 -999.0000    7.1727    6.5297    5.5431 -999.0000    0.1744    2.5677 -999.0000    4.0201   37.0000 
