~VERSION INFORMATION
 VERS.                 2.0:   CWLS LOG ASCII STANDARD - VERSION 2.0
 WRAP.                  NO:   SINGLE LINE PER DEPTH STEP
 CREA.                 08/02/2018 12:32:10
#CREATED USING DSPetro VERSION 5000.10.1.3 BY H191660 ON 08/02/2018 12:32:10
~WELL INFORMATION
#MNEM.UNIT       DATA                          DESCRIPTION MNEMONIC
#---------      ---------------------------   --------------------------
 STRT    .FT        12485.9921                : START DEPTH
 STOP    .FT        17557.9921                : STOP DEPTH
 STEP    .FT        0.5000                    : STEP VALUE
 NULL    .      -999.0000                     : NULL VALUE
 DATE    .      08/02/2018                    : LAS file Creation Date
 WELL  .      UNIVERSITY_20-27           : Well Name
 COMP  .      Chesapeake Operating, Inc. : Company
 FLD   .      Haley                      : Field
 STATE .      Texas                      : State
 COUNT .      USA                        : Country
 API   .      42-495-33261               : API Number
 UWI   .      508                        : Unique Well Identifier (UWI)
 LOC   .      1320' FSL & 1320' FEL      : Location
 TOWN  .      20                         : Township
 SCT   .      27                         : Section
 RANG  .      University Lands           : Range
 PDAT  .      Ground Level               : Permanent Datum
 EPDAT .      2777.000000                : Reference Elevation
 LGMEA .      Kelly Bushing              : Log Measured from
 DRMEA .      Kelly Bushing              : Drill Measured From
 APDAT .      25.000000                  : Elevation Above Permanent Datum
 KB    .      2802.00000                 : KB Elevation
 GL    .      2777.00000                 : GL Elevation
 RWS   .      -999                       : Def_Rw
 WST   .      -999                       : Def_Rwt
 CNTY  .      Winkler                    : County
 SRVC  .      Schlumberger               : Contractor
~CURVE INFORMATION
#MNEM              UNIT       API CODE   Curve Type Comments
#----------  --------------- ----------  ---------- -----------
 DEPTH      .FT                        : Depth       
 BS         .inch                      : BitSize     
 CAL_INCH   .inch                      :             Caliper Log - A representation of the measured diameter of a borehole along its depth
 GR         .GAPI                      : GammaRay    Gamma-Ray {F11.4}
 SRES       .ohmm                      :             20" array induction, one foot resistivity
 MRES       .ohm.m                     :             30" array induction, one foot resistivity
 DRES       .ohmm                      :             90" array induction, one foot resistivity log - units of ohmm
 DT_US_FT   .us/ft                     :             Interval Transit Time: Compressional Wave - Evaluates the time it takes for a compressional wave to traverse a fixed distance
 NPHI_v/v   .ratio                     :             Neutron Porosity - Measured with an neutron logging device calibrated to a given matrix (limestone, sandstone and dolomite)
 RHOB_G_CC  .g/cc                      :             Bulk Density - Measures the density of bulk material, including any void space or other materials contained in the subject volume
 HDRA       .G/C3                      : Drho        HRDD Density Correction {F11.4}
 PEF_B_E    .b/e-                      : PEF         Photoelectric Factor - A log of photoelectric absorption properties. Often expressed in an approximation unit barns/electron (b/e-)
 LITH       .                          : LITH        Lithology Curve
~A  DEPTH     BS     CAL_INCH     GR       SRES      MRES      DRES    DT_US_FT  NPHI_v/v RHOB_G_C~    HDRA    PEF_B_E     LITH   
# ...
12821.4921    8.5000    8.3791 -999.0000   38.2866   33.7644   31.5237 -999.0000    0.0481    2.6594 -999.0000    6.1985   18.0000 
12821.9921    8.5000    8.3791 -999.0000   19.1345   24.3580   20.2377 -999.0000    0.1099    2.5728 -999.0000    5.0398   22.0000 
12822.4921    8.5000    8.3791 -999.0000    9.0943    8.3431    8.1200 -999.0000    0.1842    2.5071 -999.0000    4.2276   37.0000 
12822.9921    8.5000    8.3730 -999.0000    6.7841    6.8221    7.2030 -999.0000    0.1832    2.4605 -999.0000    4.0019   37.0000 
12823.4921    8.5000    8.3974 -999.0000    5.5238    5.8297    6.6965 -999.0000    0.1450    2.4549 -999.0000    3.6634   37.0000 
12823.9921    8.5000    8.3852 -999.0000    5.8702    6.3849    7.1779 -999.0000    0.1364    2.4606 -999.0000    3.7174   37.0000 
12824.4921    8.5000    8.3852 -999.0000    7.4516    8.1300    8.4916 -999.0000    0.1663    2.4833 -999.0000    3.7348   37.0000 
12824.9921    8.5000    8.4034 -999.0000    7.3868    7.6430    6.9194 -999.0000    0.1942    2.4858 -999.0000    4.4456   37.0000 
12825.4921    8.5000    8.4217 -999.0000    5.9966    5.7813    5.4155 -999.0000    0.1400    2.5214 -999.0000    5.2705   37.0000 
12825.9921    8.5000    8.3974 -999.0000   11.5580   11.9038   11.8082 -999.0000    0.0795    2.5869 -999.0000    7.1904   22.0000 
12826.4921    8.5000    8.3974 -999.0000   17.7490   24.7091   23.3140 -999.0000    0.0628    2.6558 -999.0000    9.2056   18.0000 
12826.9921    8.5000    8.3670 -999.0000   23.6163   25.8622   25.5886 -999.0000    0.0634    2.6595 -999.0000    7.8092   18.0000 
12827.4921    8.5000    8.3791 -999.0000   24.0892   25.2947   25.3163 -999.0000    0.0663    2.6455 -999.0000    5.5628   18.0000 
12827.9921    8.5000    8.3852 -999.0000   26.5683   25.0949   20.1207 -999.0000    0.0543    2.6387 -999.0000    5.0060   18.0000 
12828.4921    8.5000    8.3791 -999.0000   26.4708   30.6372   29.0875 -999.0000    0.0468    2.6114 -999.0000    4.7779   18.0000 
12828.9921    8.5000    8.3913 -999.0000   41.5376   54.4315   49.5368 -999.0000    0.0422    2.5871 -999.0000    5.2745   18.0000 
12829.4921    8.5000    8.3791 -999.0000   59.4919   80.6461   76.5936 -999.0000    0.0458    2.6085 -999.0000    4.9338   18.0000 
12829.9921    8.5000    8.3852 -999.0000   83.1866  121.4387  117.7936 -999.0000    0.0428    2.6571 -999.0000    5.2460   18.0000 
12830.4921    8.5000    8.3670 -999.0000   81.3690   90.9944   78.6128 -999.0000    0.0441    2.6892 -999.0000    5.0617   18.0000 
12830.9921    8.5000    8.3730 -999.0000   85.3330   90.6432   74.5775 -999.0000    0.0414    2.6839 -999.0000    5.1335   18.0000 
12831.4921    8.5000    8.3670 -999.0000   83.5506   85.7800   64.9392 -999.0000    0.0376    2.6717 -999.0000    5.5754   18.0000 
12831.9921    8.5000    8.3743 -999.0000   77.4273   76.0682   54.9823 -999.0000    0.0398    2.6759 -999.0000    6.6802   18.0000 
12832.4921    8.5000    8.3670 -999.0000   71.9071   70.8377   53.8969 -999.0000    0.0390    2.6748 -999.0000    7.4269   18.0000 
12832.9921    8.5000    8.3730 -999.0000   66.4256   67.2131   53.7923 -999.0000    0.0362    2.6904 -999.0000    7.0934   18.0000 
12833.4921    8.5000    8.3670 -999.0000   62.3505   62.9239   50.4271 -999.0000    0.0376    2.6813 -999.0000    5.9271   18.0000 
12833.9921    8.5000    8.3852 -999.0000   63.9929   67.1630   58.2690 -999.0000    0.0465    2.6929 -999.0000    6.0520   18.0000 
12834.4921    8.5000    8.3670 -999.0000   61.1687   54.3790   49.8199 -999.0000    0.0484    2.6835 -999.0000    5.8381   18.0000 
12834.9921    8.5000    8.3791 -999.0000   55.1251   61.2551   57.7086 -999.0000    0.0545    2.6932 -999.0000    6.4437   18.0000 
12835.4921    8.5000    8.3743 -999.0000   59.3566   65.8130   52.1432 -999.0000    0.0534    2.6760 -999.0000    5.7372   18.0000 
12835.9921    8.5000    8.3913 -999.0000   61.1647   65.5509   59.5495 -999.0000    0.0582    2.6842 -999.0000    5.8180   18.0000 
12836.4921    8.5000    8.3730 -999.0000   56.3547   61.5602   65.3017 -999.0000    0.0572    2.6803 -999.0000    5.8473   18.0000 
12836.9921    8.5000    8.3791 -999.0000   48.7516   52.7488   59.9090 -999.0000    0.0550    2.6936 -999.0000    6.6449   18.0000 
12837.4921    8.5000    8.3730 -999.0000   49.5644   65.2924   63.0118 -999.0000    0.0491    2.6809 -999.0000    6.9226   18.0000 
12837.9921    8.5000    8.3913 -999.0000   56.5373   65.3531   55.9278 -999.0000    0.0411    2.6839 -999.0000    6.8393   18.0000 
12838.4921    8.5000    8.3743 -999.0000   60.2085   69.6079   47.3903 -999.0000    0.0367    2.6780 -999.0000    6.1296   18.0000 
12838.9921    8.5000    8.3913 -999.0000   77.2485  108.1920   59.6808 -999.0000    0.0327    2.7024 -999.0000    5.8566   18.0000 
12839.4921    8.5000    8.3730 -999.0000   99.3110  143.2253   90.4204 -999.0000    0.0316    2.7150 -999.0000    5.5473   18.0000 
12839.9921    8.5000    8.3791 -999.0000  127.5984  225.9772  148.0876 -999.0000    0.0281    2.7395 -999.0000    5.7078   18.0000 
12840.4921    8.5000    8.3791 -999.0000  150.6944  326.5432  180.1996 -999.0000    0.0285    2.7392 -999.0000    5.2861   18.0000 
12840.9921    8.5000    8.3791 -999.0000  108.3306  212.0778   72.5582 -999.0000    0.0285    2.7426 -999.0000    5.4450   18.0000 
12841.4921    8.5000    8.3852 -999.0000  127.2973  203.2297   39.3647 -999.0000    0.0275    2.7338 -999.0000    5.7740   18.0000 
12841.9921    8.5000    8.3888 -999.0000  108.2307  128.7693   27.1226 -999.0000    0.0271    2.7252 -999.0000    6.4596   18.0000 
12842.4921    8.5000    8.3974 -999.0000   68.1515   52.1502   25.6341 -999.0000    0.0311    2.7068 -999.0000    6.6259   18.0000 
12842.9921    8.5000    8.3913 -999.0000   55.5041   32.3435   22.3158 -999.0000    0.0478    2.6917 -999.0000    6.2722   18.0000 
12843.4921    8.5000    8.3974 -999.0000   20.1949   16.2024   18.7959 -999.0000    0.0925    2.6401 -999.0000    5.5204   22.0000 
12843.9921    8.5000    8.4034 -999.0000    7.7386    6.6942   12.6969 -999.0000    0.1765    2.5758 -999.0000    4.1954   37.0000 
12844.4921    8.5000    8.4278 -999.0000    4.4214    3.7779    4.8265 -999.0000    0.2474    2.4985 -999.0000    3.5894   37.0000 
12844.9921    8.5000    8.4338 -999.0000    4.0212    4.0794    4.3852 -999.0000    0.2332    2.4752 -999.0000    3.3124   37.0000 
12845.4921    8.5000    8.4424 -999.0000    3.9566    3.9594    3.8111 -999.0000    0.2132    2.4650 -999.0000    3.4568   37.0000 
12845.9921    8.5000    8.4399 -999.0000    3.7191    3.7409    3.6452 -999.0000    0.2094    2.4715 -999.0000    3.5379   37.0000 
12846.4921    8.5000    8.4460 -999.0000    3.5153    3.5068    3.4161 -999.0000    0.2077    2.4577 -999.0000    3.4245   37.0000 
12846.9921    8.5000    8.3913 -999.0000    3.4968    3.5646    3.5726 -999.0000    0.2142    2.4616 -999.0000    3.3822   37.0000 
12847.4921    8.5000    8.4156 -999.0000    3.5130    3.6630    3.7253 -999.0000    0.2164    2.4607 -999.0000    3.1817   37.0000 
12847.9921    8.5000    8.3974 -999.0000    3.2377    3.2166    3.2858 -999.0000    0.2161    2.4761 -999.0000    3.4547   37.0000 
12848.4921    8.5000    8.4156 -999.0000    3.3516    3.4582    3.4513 -999.0000    0.2008    2.4796 -999.0000    3.4475   37.0000 
12848.9921    8.5000    8.3840 -999.0000    3.3856    3.5141    3.5345 -999.0000    0.2001    2.4956 -999.0000    3.5963   37.0000 
12849.4921    8.5000    8.3913 -999.0000    3.6182    3.7788    3.8334 -999.0000    0.2038    2.4960 -999.0000    3.7022   37.0000 
12849.9921    8.5000    8.3974 -999.0000    3.9381    4.1072    4.1828 -999.0000    0.2079    2.4916 -999.0000    3.6472   37.0000 
12850.4921    8.5000    8.3974 -999.0000    3.8671    4.1852    4.3588 -999.0000    0.2057    2.4846 -999.0000    3.7715   37.0000 
12850.9921    8.5000    8.3852 -999.0000    3.5989    3.8575    3.9288 -999.0000    0.1897    2.4847 -999.0000    3.4353   37.0000 
12851.4921    8.5000    8.3974 -999.0000    3.8956    4.6479    4.6009 -999.0000    0.1892    2.4992 -999.0000    3.5269   37.0000 
