~VERSION INFORMATION
 VERS.                 2.0:   CWLS LOG ASCII STANDARD - VERSION 2.0
 WRAP.                  NO:   SINGLE LINE PER DEPTH STEP
 CREA.                 08/02/2018 12:32:10
#CREATED USING DSPetro VERSION 5000.10.1.3 BY H191660 ON 08/02/2018 12:32:10
~WELL INFORMATION
#MNEM.UNIT       DATA                          DESCRIPTION MNEMONIC
#---------      ---------------------------   --------------------------
 STRT    .FT        12485.9921                : START DEPTH
 STOP    .FT        17557.9921                : STOP DEPTH
 STEP    .FT        0.5000                    : STEP VALUE
 NULL    .      -999.0000                     : NULL VALUE
 DATE    .      08/02/2018                    : LAS file Creation Date
 WELL  .      UNIVERSITY_20-27           : Well Name
 COMP  .      Chesapeake Operating, Inc. : Company
 FLD   .      Haley                      : Field
 STATE .      Texas                      : State
 COUNT .      USA                        : Country
 API   .      42-495-33261               : API Number
 UWI   .      508                        : Unique Well Identifier (UWI)
 LOC   .      1320' FSL & 1320' FEL      : Location
 TOWN  .      20                         : Township
 SCT   .      27                         : Section
 RANG  .      University Lands           : Range
 PDAT  .      Ground Level               : Permanent Datum
 EPDAT .      2777.000000                : Reference Elevation
 LGMEA .      Kelly Bushing              : Log Measured from
 DRMEA .      Kelly Bushing              : Drill Measured From
 APDAT .      25.000000                  : Elevation Above Permanent Datum
 KB    .      2802.00000                 : KB Elevation
 GL    .      2777.00000                 : GL Elevation
 RWS   .      -999                       : Def_Rw
 WST   .      -999                       : Def_Rwt
 CNTY  .      Winkler                    : County
 SRVC  .      Schlumberger               : Contractor
~CURVE INFORMATION
#MNEM              UNIT       API CODE   Curve Type Comments
#----------  --------------- ----------  ---------- -----------
 DEPTH      .FT                        : Depth       
 BS         .inch                      : BitSize     
 CAL_INCH   .inch                      :             Caliper Log - A representation of the measured diameter of a borehole along its depth
 GR         .GAPI                      : GammaRay    Gamma-Ray {F11.4}
 SRES       .ohmm                      :             20" array induction, one foot resistivity
 MRES       .ohm.m                     :             30" array induction, one foot resistivity
 DRES       .ohmm                      :             90" array induction, one foot resistivity log - units of ohmm
 DT_US_FT   .us/ft                     :             Interval Transit Time: Compressional Wave - Evaluates the time it takes for a compressional wave to traverse a fixed distance
 NPHI_v/v   .ratio                     :             Neutron Porosity - Measured with an neutron logging device calibrated to a given matrix (limestone, sandstone and dolomite)
 RHOB_G_CC  .g/cc                      :             Bulk Density - Measures the density of bulk material, including any void space or other materials contained in the subject volume
 HDRA       .G/C3                      : Drho        HRDD Density Correction {F11.4}
 PEF_B_E    .b/e-                      : PEF         Photoelectric Factor - A log of photoelectric absorption properties. Often expressed in an approximation unit barns/electron (b/e-)
 LITH       .                          : LITH        Lithology Curve
~A  DEPTH     BS     CAL_INCH     GR       SRES      MRES      DRES    DT_US_FT  NPHI_v/v RHOB_G_C~    HDRA    PEF_B_E     LITH   
# ...
16511.9921    6.5000    6.4310 -999.0000    1.2995    1.3599    1.4319 -999.0000    0.1727    2.5385 -999.0000    3.7536   37.0000 
16512.4921    6.5000    6.4395 -999.0000    1.1611    1.2353    1.2883 -999.0000    0.1414    2.5408 -999.0000    3.7882   37.0000 
16512.9921    6.5000    6.4460 -999.0000    1.1902    1.3040    1.4158 -999.0000    0.0777    2.5406 -999.0000    3.6898   37.0000 
16513.4921    6.5000    6.4395 -999.0000    1.9840    2.5757    2.4820 -999.0000    0.0318    2.5403 -999.0000    3.6539   37.0000 
16513.9921    6.5000    6.4395 -999.0000    4.2534    6.7480    6.9512 -999.0000    0.0156    2.5384 -999.0000    3.5183   37.0000 
16514.4921    6.5000    6.4524 -999.0000   12.9180   17.6856   19.1796 -999.0000    0.0125    2.5678 -999.0000    3.5838   37.0000 
16514.9921    6.5000    6.4331 -999.0000   42.2813   40.4973   45.4720 -999.0000    0.0136    2.6307 -999.0000    3.9081   22.0000 
16515.4921    6.5000    6.4138 -999.0000   42.8736   68.6674   59.6585 -999.0000    0.0167    2.7175 -999.0000    4.2834   18.0000 
16515.9921    6.5000    6.4073 -999.0000   39.9925   72.2934   48.4471 -999.0000    0.0224    2.7813 -999.0000    4.4669   18.0000 
16516.4921    6.5000    6.4460 -999.0000   41.4278   52.8513   40.4841 -999.0000    0.0257    2.8127 -999.0000    4.1232   18.0000 
16516.9921    6.5000    6.4202 -999.0000   41.7446   87.9854   92.1867 -999.0000    0.0276    2.7993 -999.0000    4.5775   18.0000 
16517.4921    6.5000    6.4202 -999.0000   44.9252   92.3842  137.1504 -999.0000    0.0291    2.7544 -999.0000    3.8939   18.0000 
16517.9921    6.5000    6.4073 -999.0000   44.2832   94.1869  160.2307 -999.0000    0.0312    2.7211 -999.0000    3.8375   18.0000 
16518.4921    6.5000    6.4202 -999.0000   37.0738   67.0736  106.8805 -999.0000    0.0311    2.6789 -999.0000    3.4749   22.0000 
16518.9921    6.5000    6.4202 -999.0000   31.6483   41.7130   51.9455 -999.0000    0.0335    2.6571 -999.0000    3.4197   22.0000 
16519.4921    6.5000    6.4395 -999.0000   21.3821   26.0407   29.3754 -999.0000    0.0383    2.6386 -999.0000    3.2637   22.0000 
16519.9921    6.5000    6.4589 -999.0000   16.5545   13.3687   14.0827 -999.0000    0.0737    2.6393 -999.0000    3.1038   22.0000 
16520.4921    6.5000    6.4460 -999.0000    6.5183    5.6854    5.6009 -999.0000    0.1144    2.6466 -999.0000    3.2632   37.0000 
16520.9921    6.5000    6.4331 -999.0000    3.5875    3.2230    3.6189 -999.0000    0.1466    2.6488 -999.0000    3.4351   37.0000 
16521.4921    6.5000    6.4395 -999.0000    3.1132    2.7803    2.9829 -999.0000    0.1331    2.6051 -999.0000    3.4632   37.0000 
16521.9921    6.5000    6.4589 -999.0000    2.7365    2.7372    2.8731 -999.0000    0.1330    2.5401 -999.0000    3.2772   37.0000 
16522.4921    6.5000    6.4331 -999.0000    2.7284    2.8485    2.8835 -999.0000    0.1325    2.5046 -999.0000    3.1036   37.0000 
16522.9921    6.5000    6.4460 -999.0000    2.7014    2.7428    2.8147 -999.0000    0.1335    2.5086 -999.0000    3.0767   37.0000 
16523.4921    6.5000    6.4395 -999.0000    2.7332    2.8012    2.9190 -999.0000    0.1366    2.5158 -999.0000    2.9892   37.0000 
16523.9921    6.5000    6.4524 -999.0000    2.7344    2.7801    2.9097 -999.0000    0.1376    2.5143 -999.0000    3.0293   37.0000 
16524.4921    6.5000    6.4395 -999.0000    2.6970    2.7907    2.8359 -999.0000    0.1329    2.5166 -999.0000    3.0627   37.0000 
16524.9921    6.5000    6.4331 -999.0000    2.7181    2.7815    2.8621 -999.0000    0.1271    2.5175 -999.0000    3.2310   37.0000 
16525.4921    6.5000    6.4460 -999.0000    2.7769    2.9924    3.0546 -999.0000    0.1300    2.5155 -999.0000    3.2297   37.0000 
16525.9921    6.5000    6.4331 -999.0000    3.0400    3.0942    3.1313 -999.0000    0.1204    2.5136 -999.0000    3.4214   37.0000 
16526.4921    6.5000    6.4395 -999.0000    3.0679    3.3744    3.2123 -999.0000    0.0962    2.5099 -999.0000    3.5536   37.0000 
16526.9921    6.5000    6.4460 -999.0000    4.0676    5.2063    4.5171 -999.0000    0.0717    2.5080 -999.0000    3.8747   37.0000 
16527.4921    6.5000    6.4524 -999.0000    7.3296    7.8283    7.4214 -999.0000    0.0705    2.5108 -999.0000    3.6405   37.0000 
16527.9921    6.5000    6.4460 -999.0000    6.2025    5.8398    5.0622 -999.0000    0.0981    2.5379 -999.0000    3.7423   37.0000 
16528.4921    6.5000    6.4460 -999.0000    3.7386    3.6031    3.4727 -999.0000    0.1304    2.5839 -999.0000    3.7939   37.0000 
16528.9921    6.5000    6.4524 -999.0000    2.9710    2.7791    2.9146 -999.0000    0.1445    2.6112 -999.0000    4.0151   37.0000 
16529.4921    6.5000    6.4460 -999.0000    2.7995    2.8840    2.8924 -999.0000    0.1427    2.5972 -999.0000    3.7848   37.0000 
16529.9921    6.5000    6.4653 -999.0000    2.6844    2.7718    2.5359 -999.0000    0.1568    2.5676 -999.0000    3.4220   37.0000 
16530.4921    6.5000    6.4653 -999.0000    2.2782    2.4528    2.2727 -999.0000    0.1640    2.5428 -999.0000    3.2663   37.0000 
16530.9921    6.5000    6.4847 -999.0000    2.0948    2.0243    2.1439 -999.0000    0.1678    2.5288 -999.0000    3.2634   37.0000 
16531.4921    6.5000    6.4653 -999.0000    1.7979    1.8321    1.9496 -999.0000    0.1681    2.5243 -999.0000    3.2348   37.0000 
16531.9921    6.5000    6.4718 -999.0000    1.6905    1.7790    1.9247 -999.0000    0.1773    2.5321 -999.0000    3.3053   37.0000 
16532.4921    6.5000    6.4782 -999.0000    1.6043    1.6957    1.8476 -999.0000    0.1967    2.5417 -999.0000    3.3166   37.0000 
16532.9921    6.5000    6.4847 -999.0000    1.5361    1.6123    1.7539 -999.0000    0.1929    2.5428 -999.0000    3.4922   37.0000 
16533.4921    6.5000    6.4718 -999.0000    1.5376    1.5009    1.6381 -999.0000    0.1783    2.5413 -999.0000    3.6535   37.0000 
16533.9921    6.5000    6.4847 -999.0000    1.5226    1.5636    1.7979 -999.0000    0.1647    2.5301 -999.0000    3.4893   37.0000 
16534.4921    6.5000    6.5040 -999.0000    1.6533    1.6920    1.7001 -999.0000    0.1662    2.5259 -999.0000    3.5102   37.0000 
16534.9921    6.5000    6.4847 -999.0000    1.7926    1.8930    1.7734 -999.0000    0.1813    2.5166 -999.0000    3.3809   37.0000 
16535.4921    6.5000    6.4705 -999.0000    2.0093    2.0029    1.8822 -999.0000    0.1917    2.5048 -999.0000    3.4473   37.0000 
16535.9921    6.5000    6.4911 -999.0000    1.9321    1.9233    1.9095 -999.0000    0.1772    2.4996 -999.0000    3.2974   37.0000 
16536.4921    6.5000    6.4757 -999.0000    1.8880    1.9195    2.0105 -999.0000    0.1128    2.5103 -999.0000    3.2048   37.0000 
16536.9921    6.5000    6.4782 -999.0000    1.9680    2.0283    2.0986 -999.0000    0.0526    2.5281 -999.0000    3.3384   37.0000 
16537.4921    6.5000    6.4653 -999.0000    2.4338    2.4999    2.3117 -999.0000    0.0239    2.5340 -999.0000    3.5283   37.0000 
16537.9921    6.5000    6.5040 -999.0000    4.1906    4.9244    3.3491 -999.0000    0.0217    2.5385 -999.0000    3.5586   37.0000 
16538.4921    6.5000    6.4653 -999.0000   10.9881    9.8697    5.7204 -999.0000    0.0217    2.5537 -999.0000    3.4221   37.0000 
16538.9921    6.5000    6.4782 -999.0000   21.4843   19.6719   13.1314 -999.0000    0.0142    2.6050 -999.0000    3.5762   37.0000 
16539.4921    6.5000    6.4395 -999.0000   28.0308   20.9556   18.4993 -999.0000    0.0075    2.6652 -999.0000    4.3856   18.0000 
16539.9921    6.5000    6.4524 -999.0000   24.9115   18.8339   11.8512 -999.0000    0.0137    2.7008 -999.0000    5.5797   18.0000 
16540.4921    6.5000    6.4395 -999.0000   36.7727   27.1973   16.5933 -999.0000    0.0226    2.7001 -999.0000    5.6690   18.0000 
16540.9921    6.5000    6.4524 -999.0000   40.2255   38.5971   24.4511 -999.0000    0.0270    2.6940 -999.0000    5.3515   18.0000 
16541.4921    6.5000    6.4524 -999.0000   24.0904   25.0785   19.1811 -999.0000    0.0240    2.7048 -999.0000    5.4893   18.0000 
16541.9921    6.5000    6.4718 -999.0000   12.4411   12.9225   11.6111 -999.0000    0.0263    2.7078 -999.0000    6.0224   18.0000 
