~VERSION INFORMATION
 VERS.                 2.0:   CWLS LOG ASCII STANDARD - VERSION 2.0
 WRAP.                  NO:   SINGLE LINE PER DEPTH STEP
 CREA.                 08/02/2018 12:32:10
#CREATED USING DSPetro VERSION 5000.10.1.3 BY H191660 ON 08/02/2018 12:32:10
~WELL INFORMATION
#MNEM.UNIT       DATA                          DESCRIPTION MNEMONIC
#---------      ---------------------------   --------------------------
 STRT    .FT        12485.9921                : START DEPTH
 STOP    .FT        17557.9921                : STOP DEPTH
 STEP    .FT        0.5000                    : STEP VALUE
 NULL    .      -999.0000                     : NULL VALUE
 DATE    .      08/02/2018                    : LAS file Creation Date
 WELL  .      UNIVERSITY_20-27           : Well Name
 COMP  .      Chesapeake Operating, Inc. : Company
 FLD   .      Haley                      : Field
 STATE .      Texas                      : State
 COUNT .      USA                        : Country
 API   .      42-495-33261               : API Number
 UWI   .      508                        : Unique Well Identifier (UWI)
 LOC   .      1320' FSL & 1320' FEL      : Location
 TOWN  .      20                         : Township
 SCT   .      27                         : Section
 RANG  .      University Lands           : Range
 PDAT  .      Ground Level               : Permanent Datum
 EPDAT .      2777.000000                : Reference Elevation
 LGMEA .      Kelly Bushing              : Log Measured from
 DRMEA .      Kelly Bushing              : Drill Measured From
 APDAT .      25.000000                  : Elevation Above Permanent Datum
 KB    .      2802.00000                 : KB Elevation
 GL    .      2777.00000                 : GL Elevation
 RWS   .      -999                       : Def_Rw
 WST   .      -999                       : Def_Rwt
 CNTY  .      Winkler                    : County
 SRVC  .      Schlumberger               : Contractor
~CURVE INFORMATION
#MNEM              UNIT       API CODE   Curve Type Comments
#----------  --------------- ----------  ---------- -----------
 DEPTH      .FT                        : Depth       
 BS         .inch                      : BitSize     
 CAL_INCH   .inch                      :             Caliper Log - A representation of the measured diameter of a borehole along its depth
 GR         .GAPI                      : GammaRay    Gamma-Ray {F11.4}
 SRES       .ohmm                      :             20" array induction, one foot resistivity
 MRES       .ohm.m                     :             30" array induction, one foot resistivity
 DRES       .ohmm                      :             90" array induction, one foot resistivity log - units of ohmm
 DT_US_FT   .us/ft                     :             Interval Transit Time: Compressional Wave - Evaluates the time it takes for a compressional wave to traverse a fixed distance
 NPHI_v/v   .ratio                     :             Neutron Porosity - Measured with an neutron logging device calibrated to a given matrix (limestone, sandstone and dolomite)
 RHOB_G_CC  .g/cc                      :             Bulk Density - Measures the density of bulk material, including any void space or other materials contained in the subject volume
 HDRA       .G/C3                      : Drho        HRDD Density Correction {F11.4}
 PEF_B_E    .b/e-                      : PEF         Photoelectric Factor - A log of photoelectric absorption properties. Often expressed in an approximation unit barns/electron (b/e-)
 LITH       .                          : LITH        Lithology Curve
~A  DEPTH     BS     CAL_INCH     GR       SRES      MRES      DRES    DT_US_FT  NPHI_v/v RHOB_G_C~    HDRA    PEF_B_E     LITH   
# ...
13492.4921    8.5000    8.4034 -999.0000    3.3229    3.3866    3.2332 -999.0000    0.1618    2.5578 -999.0000    3.8761   37.0000 
13492.9921    8.5000    8.3913 -999.0000    3.4938    3.8106    3.7608 -999.0000    0.1158    2.5659 -999.0000    3.9169   37.0000 
13493.4921    8.5000    8.4083 -999.0000    3.8462    4.7024    4.6093 -999.0000    0.0705    2.6132 -999.0000    4.3904   18.0000 
13493.9921    8.5000    8.3670 -999.0000    5.0575    8.0416    7.9596 -999.0000    0.0642    2.6740 -999.0000    5.7146   18.0000 
13494.4921    8.5000    8.3730 -999.0000   12.9619   15.5147   13.4325 -999.0000    0.0997    2.7175 -999.0000    7.7699   12.0000 
13494.9921    8.5000    8.3730 -999.0000   10.7802    9.4214    7.8618 -999.0000    0.1740    2.6729 -999.0000    7.2566   12.0000 
13495.4921    8.5000    8.3743 -999.0000    6.8483    6.2222    5.6827 -999.0000    0.1966    2.5971 -999.0000    5.0434   37.0000 
13495.9921    8.5000    8.3730 -999.0000    4.5257    4.4807    4.3090 -999.0000    0.1829    2.5539 -999.0000    4.2396   37.0000 
13496.4921    8.5000    8.3791 -999.0000    4.6070    4.3725    4.4540 -999.0000    0.1696    2.5424 -999.0000    4.0688   37.0000 
13496.9921    8.5000    8.3791 -999.0000    6.4603    6.2217    5.5880 -999.0000    0.1694    2.5510 -999.0000    4.1754   37.0000 
13497.4921    8.5000    8.3645 -999.0000    8.4073    8.3041    6.1592 -999.0000    0.1668    2.5634 -999.0000    3.8269   37.0000 
13497.9921    8.5000    8.3730 -999.0000    8.0532    7.3826    5.8765 -999.0000    0.1765    2.5785 -999.0000    3.6115   37.0000 
13498.4921    8.5000    8.3609 -999.0000    7.2642    6.0895    5.4303 -999.0000    0.1811    2.5645 -999.0000    4.0598   37.0000 
13498.9921    8.5000    8.3852 -999.0000    6.2065    5.3424    4.7501 -999.0000    0.1788    2.5639 -999.0000    4.4431   37.0000 
13499.4921    8.5000    8.3670 -999.0000    6.1797    5.4073    4.4401 -999.0000    0.1641    2.5781 -999.0000    5.3155   37.0000 
13499.9921    8.5000    8.3840 -999.0000    6.2658    5.3401    4.2790 -999.0000    0.1518    2.5850 -999.0000    4.9228   37.0000 
13500.4921    8.5000    8.3730 -999.0000    5.9416    5.3547    4.1095 -999.0000    0.1512    2.5757 -999.0000    4.7057   37.0000 
13500.9921    8.5000    8.3730 -999.0000    7.0079    6.4982    4.9105 -999.0000    0.1559    2.5549 -999.0000    3.9849   37.0000 
13501.4921    8.5000    8.3730 -999.0000    8.4646    7.9881    5.8940 -999.0000    0.1660    2.5610 -999.0000    4.0107   37.0000 
13501.9921    8.5000    8.3791 -999.0000    9.2973    7.8195    5.9738 -999.0000    0.1748    2.5580 -999.0000    3.9529   37.0000 
13502.4921    8.5000    8.3694 -999.0000    9.0531    9.5322    7.2424 -999.0000    0.1867    2.5569 -999.0000    3.7888   37.0000 
13502.9921    8.5000    8.3852 -999.0000   11.0643   10.3093    7.5137 -999.0000    0.1564    2.5573 -999.0000    3.6046   37.0000 
13503.4921    8.5000    8.3670 -999.0000    9.7843    9.1320    6.8946 -999.0000    0.1350    2.5770 -999.0000    3.7721   37.0000 
13503.9921    8.5000    8.3791 -999.0000    7.7473    7.4974    5.8334 -999.0000    0.1248    2.6003 -999.0000    4.3201   37.0000 
13504.4921    8.5000    8.3791 -999.0000    7.1603    7.5556    5.5816 -999.0000    0.1465    2.6003 -999.0000    4.4375   37.0000 
13504.9921    8.5000    8.3670 -999.0000    7.1551    6.9909    5.6170 -999.0000    0.1707    2.5739 -999.0000    4.0986   37.0000 
13505.4921    8.5000    8.3730 -999.0000    7.1043    7.2407    6.0798 -999.0000    0.1789    2.5510 -999.0000    3.7185   37.0000 
13505.9921    8.5000    8.3670 -999.0000    7.3827    8.0724    7.0732 -999.0000    0.1872    2.5415 -999.0000    3.6508   37.0000 
13506.4921    8.5000    8.3730 -999.0000    6.4975    6.6851    6.0994 -999.0000    0.1951    2.5390 -999.0000    3.5881   37.0000 
13506.9921    8.5000    8.3694 -999.0000    6.0893    6.4348    6.1358 -999.0000    0.1865    2.5285 -999.0000    3.4386   37.0000 
13507.4921    8.5000    8.3791 -999.0000    5.9528    6.1189    5.9563 -999.0000    0.1779    2.5360 -999.0000    3.6275   37.0000 
13507.9921    8.5000    8.3670 -999.0000    6.0669    6.2120    5.8422 -999.0000    0.1670    2.5408 -999.0000    3.7779   37.0000 
13508.4921    8.5000    8.3791 -999.0000    5.7740    6.1849    5.7853 -999.0000    0.1664    2.5508 -999.0000    4.1373   37.0000 
13508.9921    8.5000    8.3743 -999.0000    5.6613    5.5903    5.3563 -999.0000    0.1625    2.5567 -999.0000    4.1480   37.0000 
13509.4921    8.5000    8.3791 -999.0000    5.1400    4.8589    4.6265 -999.0000    0.1709    2.5517 -999.0000    3.8165   37.0000 
13509.9921    8.5000    8.3670 -999.0000    4.9392    4.8552    4.2138 -999.0000    0.1631    2.5608 -999.0000    3.6951   37.0000 
13510.4921    8.5000    8.3791 -999.0000    4.5200    4.4553    4.0316 -999.0000    0.1618    2.5693 -999.0000    3.4689   37.0000 
13510.9921    8.5000    8.3730 -999.0000    4.6676    4.9278    4.6893 -999.0000    0.1208    2.6046 -999.0000    3.8080   37.0000 
13511.4921    8.5000    8.3791 -999.0000    5.5557    5.8231    5.4914 -999.0000    0.0732    2.6445 -999.0000    4.4152   18.0000 
13511.9921    8.5000    8.3609 -999.0000    7.7835    8.6584    7.5419 -999.0000    0.0613    2.6683 -999.0000    6.3274   18.0000 
13512.4921    8.5000    8.3730 -999.0000    9.4149   10.8207    7.8041 -999.0000    0.0966    2.6417 -999.0000    5.9105   22.0000 
13512.9921    8.5000    8.3670 -999.0000    5.5537    5.2263    4.6371 -999.0000    0.1581    2.5841 -999.0000    5.1281   37.0000 
13513.4921    8.5000    8.3645 -999.0000    8.6044    9.3377    6.3007 -999.0000    0.1844    2.5294 -999.0000    4.1027   37.0000 
13513.9921    8.5000    8.3791 -999.0000   12.9555   17.4582   13.1466 -999.0000    0.1664    2.5166 -999.0000    4.0761   37.0000 
13514.4921    8.5000    8.3730 -999.0000   16.1989   25.6585   17.3901 -999.0000    0.1705    2.5109 -999.0000    4.0148   37.0000 
13514.9921    8.5000    8.3730 -999.0000   35.2340   36.2841   23.4141 -999.0000    0.1732    2.5095 -999.0000    3.7749   37.0000 
13515.4921    8.5000    8.3743 -999.0000   40.4523   41.9188   21.4964 -999.0000    0.1770    2.5125 -999.0000    3.8095   37.0000 
13515.9921    8.5000    8.3791 -999.0000   22.4312   19.0930   12.3358 -999.0000    0.1652    2.5172 -999.0000    3.3892   37.0000 
13516.4921    8.5000    8.3670 -999.0000   13.4468   11.0106    9.5583 -999.0000    0.1030    2.5543 -999.0000    3.8526   37.0000 
13516.9921    8.5000    8.3730 -999.0000   11.4956   11.2022   12.7369 -999.0000    0.0571    2.6165 -999.0000    4.2786   18.0000 
13517.4921    8.5000    8.3548 -999.0000   15.1131   12.4778   11.6766 -999.0000    0.0504    2.7128 -999.0000    7.0537   18.0000 
13517.9921    8.5000    8.3645 -999.0000   17.2019   14.1592   10.7987 -999.0000    0.0830    2.7366 -999.0000    6.9619   12.0000 
13518.4921    8.5000    8.3730 -999.0000   13.6197   10.2847    5.8845 -999.0000    0.1352    2.6921 -999.0000    6.6648   12.0000 
13518.9921    8.5000    8.4034 -999.0000    7.4176    6.1385    4.8299 -999.0000    0.1597    2.6062 -999.0000    5.1634   37.0000 
13519.4921    8.5000    8.3913 -999.0000    6.8941    5.1069    4.6208 -999.0000    0.1678    2.5561 -999.0000    4.9799   37.0000 
13519.9921    8.5000    8.3743 -999.0000    5.5544    5.5226    5.8748 -999.0000    0.1640    2.5294 -999.0000    4.3721   37.0000 
13520.4921    8.5000    8.3670 -999.0000    5.3649    4.5016    4.2401 -999.0000    0.1485    2.5297 -999.0000    4.3465   37.0000 
13520.9921    8.5000    8.3852 -999.0000    5.2342    5.0869    5.6892 -999.0000    0.1437    2.5389 -999.0000    4.3485   37.0000 
13521.4921    8.5000    8.3670 -999.0000    5.8832    6.2851    7.4132 -999.0000    0.1513    2.5443 -999.0000    4.3175   37.0000 
13521.9921    8.5000    8.3852 -999.0000    5.2713    5.4274    5.4558 -999.0000    0.1662    2.5353 -999.0000    4.1285   37.0000 
13522.4921    8.5000    8.3694 -999.0000    4.7007    4.5257    4.5022 -999.0000    0.1675    2.5215 -999.0000    3.6109   37.0000 
