~VERSION INFORMATION
 VERS.                 2.0:   CWLS LOG ASCII STANDARD - VERSION 2.0
 WRAP.                  NO:   SINGLE LINE PER DEPTH STEP
 CREA.                 08/02/2018 12:32:10
#CREATED USING DSPetro VERSION 5000.10.1.3 BY H191660 ON 08/02/2018 12:32:10
~WELL INFORMATION
#MNEM.UNIT       DATA                          DESCRIPTION MNEMONIC
#---------      ---------------------------   --------------------------
 STRT    .FT        12485.9921                : START DEPTH
 STOP    .FT        17557.9921                : STOP DEPTH
 STEP    .FT        0.5000                    : STEP VALUE
 NULL    .      -999.0000                     : NULL VALUE
 DATE    .      08/02/2018                    : LAS file Creation Date
 WELL  .      UNIVERSITY_20-27           : Well Name
 COMP  .      Chesapeake Operating, Inc. : Company
 FLD   .      Haley                      : Field
 STATE .      Texas                      : State
 COUNT .      USA                        : Country
 API   .      42-495-33261               : API Number
 UWI   .      508                        : Unique Well Identifier (UWI)
 LOC   .      1320' FSL & 1320' FEL      : Location
 TOWN  .      20                         : Township
 SCT   .      27                         : Section
 RANG  .      University Lands           : Range
 PDAT  .      Ground Level               : Permanent Datum
 EPDAT .      2777.000000                : Reference Elevation
 LGMEA .      Kelly Bushing              : Log Measured from
 DRMEA .      Kelly Bushing              : Drill Measured From
 APDAT .      25.000000                  : Elevation Above Permanent Datum
 KB    .      2802.00000                 : KB Elevation
 GL    .      2777.00000                 : GL Elevation
 RWS   .      -999                       : Def_Rw
 WST   .      -999                       : Def_Rwt
 CNTY  .      Winkler                    : County
 SRVC  .      Schlumberger               : Contractor
~CURVE INFORMATION
#MNEM              UNIT       API CODE   Curve Type Comments
#----------  --------------- ----------  ---------- -----------
 DEPTH      .FT                        : Depth       
 BS         .inch                      : BitSize     
 CAL_INCH   .inch                      :             Caliper Log - A representation of the measured diameter of a borehole along its depth
 GR         .GAPI                      : GammaRay    Gamma-Ray {F11.4}
 SRES       .ohmm                      :             20" array induction, one foot resistivity
 MRES       .ohm.m                     :             30" array induction, one foot resistivity
 DRES       .ohmm                      :             90" array induction, one foot resistivity log - units of ohmm
 DT_US_FT   .us/ft                     :             Interval Transit Time: Compressional Wave - Evaluates the time it takes for a compressional wave to traverse a fixed distance
 NPHI_v/v   .ratio                     :             Neutron Porosity - Measured with an neutron logging device calibrated to a given matrix (limestone, sandstone and dolomite)
 RHOB_G_CC  .g/cc                      :             Bulk Density - Measures the density of bulk material, including any void space or other materials contained in the subject volume
 HDRA       .G/C3                      : Drho        HRDD Density Correction {F11.4}
 PEF_B_E    .b/e-                      : PEF         Photoelectric Factor - A log of photoelectric absorption properties. Often expressed in an approximation unit barns/electron (b/e-)
 LITH       .                          : LITH        Lithology Curve
~A  DEPTH     BS     CAL_INCH     GR       SRES      MRES      DRES    DT_US_FT  NPHI_v/v RHOB_G_C~    HDRA    PEF_B_E     LITH   
# ...
14834.4921    8.5000    8.3244 -999.0000    4.2366    4.2445    4.2354 -999.0000    0.1591    2.5715 -999.0000    3.7000   37.0000 
14834.9921    8.5000    8.3142 -999.0000    4.0713    4.0038    3.9478 -999.0000    0.1653    2.5693 -999.0000    3.8596   37.0000 
14835.4921    8.5000    8.3305 -999.0000    3.9234    3.8533    3.8548 -999.0000    0.1634    2.5820 -999.0000    3.9441   37.0000 
14835.9921    8.5000    8.3183 -999.0000    3.8236    3.7938    3.6281 -999.0000    0.1578    2.5829 -999.0000    4.1347   37.0000 
14836.4921    8.5000    8.3142 -999.0000    3.6157    3.6659    3.4298 -999.0000    0.1557    2.5871 -999.0000    4.1800   37.0000 
14836.9921    8.5000    8.3305 -999.0000    3.7769    3.7081    3.3539 -999.0000    0.1542    2.5885 -999.0000    4.0149   37.0000 
14837.4921    8.5000    8.3142 -999.0000    5.1218    5.6457    4.9965 -999.0000    0.1589    2.6002 -999.0000    3.6865   22.0000 
14837.9921    8.5000    8.3183 -999.0000    6.2970    7.8788    6.6462 -999.0000    0.1560    2.6045 -999.0000    3.7479   22.0000 
14838.4921    8.5000    8.3061 -999.0000    9.0166   10.6109    8.0922 -999.0000    0.1557    2.6038 -999.0000    3.8908   22.0000 
14838.9921    8.5000    8.3305 -999.0000   10.9120   12.4682    8.7220 -999.0000    0.1505    2.6048 -999.0000    4.2618   22.0000 
14839.4921    8.5000    8.3142 -999.0000   12.0179   11.6426   11.2424 -999.0000    0.1503    2.5961 -999.0000    3.9786   22.0000 
14839.9921    8.5000    8.3224 -999.0000   10.2874    9.1789    9.5510 -999.0000    0.1552    2.5942 -999.0000    3.6763   22.0000 
14840.4921    8.5000    8.3244 -999.0000    9.7691    8.8328    8.0326 -999.0000    0.1576    2.5984 -999.0000    3.6995   22.0000 
14840.9921    8.5000    8.3142 -999.0000    7.9465    7.8760    6.8367 -999.0000    0.1591    2.5999 -999.0000    4.4099   22.0000 
14841.4921    8.5000    8.3244 -999.0000    7.8769    6.7868    5.6049 -999.0000    0.1557    2.5905 -999.0000    4.8258   37.0000 
14841.9921    8.5000    8.3142 -999.0000    5.8925    4.0426    3.8625 -999.0000    0.1583    2.5786 -999.0000    4.5306   37.0000 
14842.4921    8.5000    8.3244 -999.0000    3.7268    3.4683    3.5600 -999.0000    0.1480    2.5790 -999.0000    3.7993   37.0000 
14842.9921    8.5000    8.3061 -999.0000    3.8233    3.8849    3.8411 -999.0000    0.1515    2.5870 -999.0000    3.9137   37.0000 
14843.4921    8.5000    8.3183 -999.0000    3.9249    4.0723    3.7518 -999.0000    0.1530    2.5940 -999.0000    4.0754   37.0000 
14843.9921    8.5000    8.3061 -999.0000    3.9265    4.2542    4.2906 -999.0000    0.1639    2.5983 -999.0000    4.2510   37.0000 
14844.4921    8.5000    8.3061 -999.0000    3.9214    4.1101    4.4625 -999.0000    0.1696    2.5857 -999.0000    3.8980   37.0000 
14844.9921    8.5000    8.3244 -999.0000    3.4541    3.4897    3.4735 -999.0000    0.1868    2.5838 -999.0000    3.7533   37.0000 
14845.4921    8.5000    8.3142 -999.0000    3.1496    3.2820    3.2617 -999.0000    0.1819    2.5874 -999.0000    4.0304   37.0000 
14845.9921    8.5000    8.3183 -999.0000    3.0228    3.1478    3.1280 -999.0000    0.1737    2.6012 -999.0000    4.4548   37.0000 
14846.4921    8.5000    8.3142 -999.0000    3.6315    3.7456    3.7926 -999.0000    0.1616    2.5996 -999.0000    4.5498   37.0000 
14846.9921    8.5000    8.3244 -999.0000    4.4318    4.3964    4.4299 -999.0000    0.1653    2.5945 -999.0000    4.1285   37.0000 
14847.4921    8.5000    8.3224 -999.0000    4.2695    4.3831    4.4385 -999.0000    0.1734    2.5813 -999.0000    4.0228   37.0000 
14847.9921    8.5000    8.3122 -999.0000    3.8596    3.8132    3.6548 -999.0000    0.1873    2.5826 -999.0000    3.8775   37.0000 
14848.4921    8.5000    8.3386 -999.0000    3.1766    3.2499    3.1284 -999.0000    0.1777    2.5959 -999.0000    4.1712   37.0000 
14848.9921    8.5000    8.3122 -999.0000    3.7048    4.7600    4.6654 -999.0000    0.1625    2.6067 -999.0000    4.6211   37.0000 
14849.4921    8.5000    8.3305 -999.0000    4.6277    5.2380    5.5426 -999.0000    0.1546    2.5982 -999.0000    4.7362   37.0000 
14849.9921    8.5000    8.3142 -999.0000    4.9794    5.3583    5.1780 -999.0000    0.1592    2.5877 -999.0000    4.5746   37.0000 
14850.4921    8.5000    8.3183 -999.0000    5.0637    5.0368    4.6640 -999.0000    0.1672    2.5800 -999.0000    3.9752   37.0000 
14850.9921    8.5000    8.3305 -999.0000    4.7129    4.5526    4.3720 -999.0000    0.1712    2.5885 -999.0000    4.0623   37.0000 
14851.4921    8.5000    8.3122 -999.0000    4.2588    4.1984    3.9744 -999.0000    0.1655    2.5828 -999.0000    3.7986   37.0000 
14851.9921    8.5000    8.3142 -999.0000    3.8687    3.8503    3.8720 -999.0000    0.1693    2.5874 -999.0000    3.8134   37.0000 
14852.4921    8.5000    8.3183 -999.0000    3.6426    3.7106    3.6688 -999.0000    0.1615    2.5884 -999.0000    3.8106   37.0000 
14852.9921    8.5000    8.3305 -999.0000    3.6191    3.7230    3.6408 -999.0000    0.1580    2.5883 -999.0000    3.7933   37.0000 
14853.4921    8.5000    8.3061 -999.0000    3.8892    4.1116    4.1494 -999.0000    0.1564    2.5974 -999.0000    3.4472   37.0000 
14853.9921    8.5000    8.3386 -999.0000    4.1420    4.2758    4.0434 -999.0000    0.1575    2.6040 -999.0000    3.3632   37.0000 
14854.4921    8.5000    8.3061 -999.0000    4.3405    4.5198    4.5920 -999.0000    0.1538    2.6209 -999.0000    3.6170   37.0000 
14854.9921    8.5000    8.3224 -999.0000    4.7137    4.6083    4.5983 -999.0000    0.1594    2.6141 -999.0000    4.0670   37.0000 
14855.4921    8.5000    8.3224 -999.0000    5.7629    6.0957    6.0692 -999.0000    0.1624    2.6268 -999.0000    4.1703   37.0000 
14855.9921    8.5000    8.3183 -999.0000    4.9878    4.8510    4.6486 -999.0000    0.1722    2.6190 -999.0000    4.1159   37.0000 
14856.4921    8.5000    8.3386 -999.0000    4.4615    4.2747    4.1034 -999.0000    0.1644    2.6156 -999.0000    4.1404   37.0000 
14856.9921    8.5000    8.3122 -999.0000    4.3833    4.3000    4.2163 -999.0000    0.1543    2.6044 -999.0000    3.8732   37.0000 
14857.4921    8.5000    8.3386 -999.0000    4.3580    4.3642    4.3592 -999.0000    0.1460    2.6075 -999.0000    3.7862   37.0000 
14857.9921    8.5000    8.3122 -999.0000    4.5449    4.7458    4.7427 -999.0000    0.1489    2.6158 -999.0000    3.4020   37.0000 
14858.4921    8.5000    8.3142 -999.0000    4.5211    4.6541    4.6823 -999.0000    0.1513    2.6236 -999.0000    3.6445   37.0000 
14858.9921    8.5000    8.3183 -999.0000    4.8895    5.1151    5.0627 -999.0000    0.1554    2.6102 -999.0000    3.8325   37.0000 
14859.4921    8.5000    8.3142 -999.0000    5.1975    5.3453    5.2335 -999.0000    0.1454    2.5998 -999.0000    4.3012   37.0000 
14859.9921    8.5000    8.3224 -999.0000    5.4179    5.4049    5.3662 -999.0000    0.1435    2.6082 -999.0000    4.3743   37.0000 
14860.4921    8.5000    8.3122 -999.0000    6.4900    6.1777    6.0350 -999.0000    0.1543    2.6199 -999.0000    4.3096   37.0000 
14860.9921    8.5000    8.3224 -999.0000    5.6379    5.5629    5.3722 -999.0000    0.1725    2.6128 -999.0000    3.9176   37.0000 
14861.4921    8.5000    8.3305 -999.0000    4.5501    4.4469    4.4305 -999.0000    0.1702    2.6040 -999.0000    3.8015   37.0000 
14861.9921    8.5000    8.3224 -999.0000    4.6791    4.6977    4.5918 -999.0000    0.1655    2.6050 -999.0000    3.4955   37.0000 
14862.4921    8.5000    8.3244 -999.0000    4.7006    4.8471    4.5977 -999.0000    0.1517    2.6162 -999.0000    3.9565   37.0000 
14862.9921    8.5000    8.3061 -999.0000    4.6581    4.6498    4.7756 -999.0000    0.1426    2.6169 -999.0000    4.1827   37.0000 
14863.4921    8.5000    8.3305 -999.0000    5.1334    5.3951    5.2878 -999.0000    0.1492    2.6415 -999.0000    5.1492   37.0000 
14863.9921    8.5000    8.3061 -999.0000    5.8971    6.1680    5.7399 -999.0000    0.1604    2.6676 -999.0000    4.6983   37.0000 
14864.4921    8.5000    8.3305 -999.0000    5.1863    5.1623    5.0866 -999.0000    0.1702    2.6508 -999.0000    4.6858   37.0000 
