~VERSION INFORMATION
 VERS.                 2.0:   CWLS LOG ASCII STANDARD - VERSION 2.0
 WRAP.                  NO:   SINGLE LINE PER DEPTH STEP
 CREA.                 08/02/2018 12:32:10
#CREATED USING DSPetro VERSION 5000.10.1.3 BY H191660 ON 08/02/2018 12:32:10
~WELL INFORMATION
#MNEM.UNIT       DATA                          DESCRIPTION MNEMONIC
#---------      ---------------------------   --------------------------
 STRT    .FT        12485.9921                : START DEPTH
 STOP    .FT        17557.9921                : STOP DEPTH
 STEP    .FT        0.5000                    : STEP VALUE
 NULL    .      -999.0000                     : NULL VALUE
 DATE    .      08/02/2018                    : LAS file Creation Date
 WELL  .      UNIVERSITY_20-27           : Well Name
 COMP  .      Chesapeake Operating, Inc. : Company
 FLD   .      Haley                      : Field
 STATE .      Texas                      : State
 COUNT .      USA                        : Country
 API   .      42-495-33261               : API Number
 UWI   .      508                        : Unique Well Identifier (UWI)
 LOC   .      1320' FSL & 1320' FEL      : Location
 TOWN  .      20                         : Township
 SCT   .      27                         : Section
 RANG  .      University Lands           : Range
 PDAT  .      Ground Level               : Permanent Datum
 EPDAT .      2777.000000                : Reference Elevation
 LGMEA .      Kelly Bushing              : Log Measured from
 DRMEA .      Kelly Bushing              : Drill Measured From
 APDAT .      25.000000                  : Elevation Above Permanent Datum
 KB    .      2802.00000                 : KB Elevation
 GL    .      2777.00000                 : GL Elevation
 RWS   .      -999                       : Def_Rw
 WST   .      -999                       : Def_Rwt
 CNTY  .      Winkler                    : County
 SRVC  .      Schlumberger               : Contractor
~CURVE INFORMATION
#MNEM              UNIT       API CODE   Curve Type Comments
#----------  --------------- ----------  ---------- -----------
 DEPTH      .FT                        : Depth       
 BS         .inch                      : BitSize     
 CAL_INCH   .inch                      :             Caliper Log - A representation of the measured diameter of a borehole along its depth
 GR         .GAPI                      : GammaRay    Gamma-Ray {F11.4}
 SRES       .ohmm                      :             20" array induction, one foot resistivity
 MRES       .ohm.m                     :             30" array induction, one foot resistivity
 DRES       .ohmm                      :             90" array induction, one foot resistivity log - units of ohmm
 DT_US_FT   .us/ft                     :             Interval Transit Time: Compressional Wave - Evaluates the time it takes for a compressional wave to traverse a fixed distance
 NPHI_v/v   .ratio                     :             Neutron Porosity - Measured with an neutron logging device calibrated to a given matrix (limestone, sandstone and dolomite)
 RHOB_G_CC  .g/cc                      :             Bulk Density - Measures the density of bulk material, including any void space or other materials contained in the subject volume
 HDRA       .G/C3                      : Drho        HRDD Density Correction {F11.4}
 PEF_B_E    .b/e-                      : PEF         Photoelectric Factor - A log of photoelectric absorption properties. Often expressed in an approximation unit barns/electron (b/e-)
 LITH       .                          : LITH        Lithology Curve
~A  DEPTH     BS     CAL_INCH     GR       SRES      MRES      DRES    DT_US_FT  NPHI_v/v RHOB_G_C~    HDRA    PEF_B_E     LITH   
# ...
15505.4921    8.5000    8.3061 -999.0000    5.1568    5.3936    6.3290 -999.0000    0.1594    2.5871 -999.0000    4.0097   37.0000 
15505.9921    8.5000    8.2818 -999.0000    6.3282    5.7821    6.2223 -999.0000    0.1388    2.5929 -999.0000    4.1622   37.0000 
15506.4921    8.5000    8.3001 -999.0000    6.8586    8.3480    7.7087 -999.0000    0.1184    2.5993 -999.0000    4.3423   37.0000 
15506.9921    8.5000    8.2879 -999.0000    9.7122   10.8601    7.8666 -999.0000    0.1086    2.6124 -999.0000    4.5269   37.0000 
15507.4921    8.5000    8.2940 -999.0000   11.2120    9.8402    8.5573 -999.0000    0.1204    2.6398 -999.0000    4.2429   37.0000 
15507.9921    8.5000    8.2879 -999.0000   11.6751   10.2058    9.5175 -999.0000    0.1216    2.6510 -999.0000    4.3022   37.0000 
15508.4921    8.5000    8.2940 -999.0000   10.3309    9.7136    9.0048 -999.0000    0.1290    2.6447 -999.0000    3.9527   37.0000 
15508.9921    8.5000    8.2757 -999.0000    8.3073    7.7909    7.2679 -999.0000    0.1310    2.6293 -999.0000    4.0989   37.0000 
15509.4921    8.5000    8.3001 -999.0000    7.5170    7.4024    6.9079 -999.0000    0.1281    2.6344 -999.0000    3.9358   37.0000 
15509.9921    8.5000    8.2879 -999.0000    7.6366    7.6497    7.0536 -999.0000    0.1230    2.6389 -999.0000    4.1219   37.0000 
15510.4921    8.5000    8.2980 -999.0000    7.8044    7.8018    7.1340 -999.0000    0.1195    2.6349 -999.0000    4.0375   37.0000 
15510.9921    8.5000    8.2879 -999.0000    7.4567    7.4634    7.3815 -999.0000    0.1218    2.6211 -999.0000    4.3266   37.0000 
15511.4921    8.5000    8.2940 -999.0000    6.9109    6.8590    7.1904 -999.0000    0.1254    2.6108 -999.0000    4.1503   37.0000 
15511.9921    8.5000    8.2879 -999.0000    6.2548    6.2808    6.5298 -999.0000    0.1247    2.6073 -999.0000    4.4384   37.0000 
15512.4921    8.5000    8.3061 -999.0000    6.6953    6.8646    6.9026 -999.0000    0.1252    2.6078 -999.0000    4.4675   37.0000 
15512.9921    8.5000    8.2940 -999.0000    7.0992    7.1562    7.0328 -999.0000    0.1253    2.6051 -999.0000    4.5648   37.0000 
15513.4921    8.5000    8.3061 -999.0000    6.9856    7.0147    6.7292 -999.0000    0.1302    2.5954 -999.0000    4.4847   37.0000 
15513.9921    8.5000    8.2940 -999.0000    6.8772    6.8437    6.5629 -999.0000    0.1311    2.5873 -999.0000    4.0287   37.0000 
15514.4921    8.5000    8.3001 -999.0000    6.7370    6.7561    6.5292 -999.0000    0.1225    2.5863 -999.0000    3.8999   37.0000 
15514.9921    8.5000    8.2818 -999.0000    6.5804    6.5716    6.4298 -999.0000    0.1272    2.6001 -999.0000    3.6219   37.0000 
15515.4921    8.5000    8.3001 -999.0000    6.6466    6.7605    6.7720 -999.0000    0.1266    2.6097 -999.0000    3.7365   37.0000 
15515.9921    8.5000    8.2899 -999.0000    7.2143    7.2471    7.2920 -999.0000    0.1243    2.6076 -999.0000    3.7996   37.0000 
15516.4921    8.5000    8.3001 -999.0000    7.8454    7.7673    7.9042 -999.0000    0.1178    2.5954 -999.0000    3.9823   37.0000 
15516.9921    8.5000    8.2879 -999.0000    8.1083    8.0375    7.9175 -999.0000    0.1142    2.5984 -999.0000    3.9460   37.0000 
15517.4921    8.5000    8.2879 -999.0000    8.3595    8.3792    8.0325 -999.0000    0.1130    2.6029 -999.0000    4.1396   37.0000 
15517.9921    8.5000    8.2879 -999.0000    8.5992    8.8312    8.7157 -999.0000    0.1106    2.6050 -999.0000    4.2290   37.0000 
15518.4921    8.5000    8.3001 -999.0000    9.2531    9.0303    9.4435 -999.0000    0.1097    2.6067 -999.0000    4.1990   37.0000 
15518.9921    8.5000    8.2940 -999.0000    9.6300    9.9443   11.1569 -999.0000    0.1103    2.6066 -999.0000    3.9558   37.0000 
15519.4921    8.5000    8.2940 -999.0000   11.2899   11.6734   13.0654 -999.0000    0.1129    2.6215 -999.0000    4.0673   37.0000 
15519.9921    8.5000    8.2940 -999.0000   10.9490   10.6064   11.5807 -999.0000    0.1202    2.6319 -999.0000    3.8323   37.0000 
15520.4921    8.5000    8.2879 -999.0000   10.1359    9.2195    8.6733 -999.0000    0.1246    2.6399 -999.0000    4.1293   37.0000 
15520.9921    8.5000    8.2879 -999.0000    9.8488    8.3902    7.6760 -999.0000    0.1291    2.6079 -999.0000    3.9466   37.0000 
15521.4921    8.5000    8.3001 -999.0000    8.3903    7.3408    6.8564 -999.0000    0.1246    2.5820 -999.0000    4.1659   37.0000 
15521.9921    8.5000    8.2818 -999.0000    8.2532    6.9601    6.5247 -999.0000    0.1254    2.5635 -999.0000    3.8539   37.0000 
15522.4921    8.5000    8.3001 -999.0000    7.3193    7.0673    6.5022 -999.0000    0.1205    2.5743 -999.0000    3.7058   37.0000 
15522.9921    8.5000    8.2940 -999.0000    6.7750    6.4168    5.9350 -999.0000    0.1193    2.5926 -999.0000    3.8153   37.0000 
15523.4921    8.5000    8.2940 -999.0000    6.6572    6.5509    6.1029 -999.0000    0.1192    2.5969 -999.0000    3.8388   37.0000 
15523.9921    8.5000    8.3001 -999.0000    6.8822    6.9690    6.6043 -999.0000    0.1197    2.6040 -999.0000    3.8823   37.0000 
15524.4921    8.5000    8.2879 -999.0000    7.1191    7.0390    6.7799 -999.0000    0.1268    2.6077 -999.0000    4.0235   37.0000 
15524.9921    8.5000    8.2940 -999.0000    7.1867    7.0426    7.0709 -999.0000    0.1270    2.6037 -999.0000    4.2784   37.0000 
15525.4921    8.5000    8.2879 -999.0000    7.5772    7.5212    8.0209 -999.0000    0.1266    2.5912 -999.0000    4.3439   37.0000 
15525.9921    8.5000    8.2940 -999.0000    7.9533    7.9597    9.0500 -999.0000    0.1193    2.5895 -999.0000    4.1409   37.0000 
15526.4921    8.5000    8.2757 -999.0000    8.1016    7.9192    7.9800 -999.0000    0.1174    2.5867 -999.0000    3.9931   37.0000 
15526.9921    8.5000    8.2940 -999.0000    8.1188    8.0091    7.6550 -999.0000    0.1128    2.5959 -999.0000    3.7280   37.0000 
15527.4921    8.5000    8.2737 -999.0000    8.4036    7.7517    6.9802 -999.0000    0.1141    2.6076 -999.0000    3.7008   37.0000 
15527.9921    8.5000    8.3001 -999.0000    8.3636    8.2659    7.5826 -999.0000    0.1219    2.6171 -999.0000    3.7810   37.0000 
15528.4921    8.5000    8.2757 -999.0000    8.4010    8.6689    7.6825 -999.0000    0.1196    2.6178 -999.0000    4.1176   37.0000 
15528.9921    8.5000    8.3001 -999.0000    7.7385    7.6495    7.4851 -999.0000    0.1255    2.6039 -999.0000    3.9611   37.0000 
15529.4921    8.5000    8.2879 -999.0000    7.3021    7.4370    7.2706 -999.0000    0.1267    2.6023 -999.0000    3.9349   37.0000 
15529.9921    8.5000    8.2940 -999.0000    7.0822    7.1052    7.1233 -999.0000    0.1214    2.5963 -999.0000    3.7263   37.0000 
15530.4921    8.5000    8.2879 -999.0000    6.9350    6.8686    6.7272 -999.0000    0.1131    2.5931 -999.0000    3.8384   37.0000 
15530.9921    8.5000    8.3001 -999.0000    6.9501    6.9141    6.6216 -999.0000    0.1115    2.5924 -999.0000    3.6640   37.0000 
15531.4921    8.5000    8.2940 -999.0000    6.7481    6.9478    6.3988 -999.0000    0.1130    2.5959 -999.0000    3.7842   37.0000 
15531.9921    8.5000    8.2940 -999.0000    6.1243    6.4427    6.3567 -999.0000    0.1153    2.6043 -999.0000    3.9868   37.0000 
15532.4921    8.5000    8.2940 -999.0000    6.5766    6.7879    6.8144 -999.0000    0.1216    2.5993 -999.0000    3.9920   37.0000 
15532.9921    8.5000    8.2940 -999.0000    8.0020    8.1500    8.4324 -999.0000    0.1213    2.5942 -999.0000    3.9807   37.0000 
15533.4921    8.5000    8.2818 -999.0000    8.5905    9.1057    9.8160 -999.0000    0.1217    2.5784 -999.0000    3.8034   37.0000 
15533.9921    8.5000    8.2980 -999.0000    6.6729    6.8721    6.7856 -999.0000    0.1238    2.5714 -999.0000    3.9306   37.0000 
15534.4921    8.5000    8.2818 -999.0000    6.1543    6.0009    5.5901 -999.0000    0.1293    2.5672 -999.0000    3.9822   37.0000 
15534.9921    8.5000    8.2940 -999.0000    6.3322    6.6605    6.3945 -999.0000    0.1279    2.5694 -999.0000    4.0347   37.0000 
15535.4921    8.5000    8.2940 -999.0000    6.3778    6.9339    6.5773 -999.0000    0.1203    2.5741 -999.0000    4.1150   37.0000 
