~VERSION INFORMATION
 VERS.                 2.0:   CWLS LOG ASCII STANDARD - VERSION 2.0
 WRAP.                  NO:   SINGLE LINE PER DEPTH STEP
 CREA.                 08/02/2018 12:32:10
#CREATED USING DSPetro VERSION 5000.10.1.3 BY H191660 ON 08/02/2018 12:32:10
~WELL INFORMATION
#MNEM.UNIT       DATA                          DESCRIPTION MNEMONIC
#---------      ---------------------------   --------------------------
 STRT    .FT        12485.9921                : START DEPTH
 STOP    .FT        17557.9921                : STOP DEPTH
 STEP    .FT        0.5000                    : STEP VALUE
 NULL    .      -999.0000                     : NULL VALUE
 DATE    .      08/02/2018                    : LAS file Creation Date
 WELL  .      UNIVERSITY_20-27           : Well Name
 COMP  .      Chesapeake Operating, Inc. : Company
 FLD   .      Haley                      : Field
 STATE .      Texas                      : State
 COUNT .      USA                        : Country
 API   .      42-495-33261               : API Number
 UWI   .      508                        : Unique Well Identifier (UWI)
 LOC   .      1320' FSL & 1320' FEL      : Location
 TOWN  .      20                         : Township
 SCT   .      27                         : Section
 RANG  .      University Lands           : Range
 PDAT  .      Ground Level               : Permanent Datum
 EPDAT .      2777.000000                : Reference Elevation
 LGMEA .      Kelly Bushing              : Log Measured from
 DRMEA .      Kelly Bushing              : Drill Measured From
 APDAT .      25.000000                  : Elevation Above Permanent Datum
 KB    .      2802.00000                 : KB Elevation
 GL    .      2777.00000                 : GL Elevation
 RWS   .      -999                       : Def_Rw
 WST   .      -999                       : Def_Rwt
 CNTY  .      Winkler                    : County
 SRVC  .      Schlumberger               : Contractor
~CURVE INFORMATION
#MNEM              UNIT       API CODE   Curve Type Comments
#----------  --------------- ----------  ---------- -----------
 DEPTH      .FT                        : Depth       
 BS         .inch                      : BitSize     
 CAL_INCH   .inch                      :             Caliper Log - A representation of the measured diameter of a borehole along its depth
 GR         .GAPI                      : GammaRay    Gamma-Ray {F11.4}
 SRES       .ohmm                      :             20" array induction, one foot resistivity
 MRES       .ohm.m                     :             30" array induction, one foot resistivity
 DRES       .ohmm                      :             90" array induction, one foot resistivity log - units of ohmm
 DT_US_FT   .us/ft                     :             Interval Transit Time: Compressional Wave - Evaluates the time it takes for a compressional wave to traverse a fixed distance
 NPHI_v/v   .ratio                     :             Neutron Porosity - Measured with an neutron logging device calibrated to a given matrix (limestone, sandstone and dolomite)
 RHOB_G_CC  .g/cc                      :             Bulk Density - Measures the density of bulk material, including any void space or other materials contained in the subject volume
 HDRA       .G/C3                      : Drho        HRDD Density Correction {F11.4}
 PEF_B_E    .b/e-                      : PEF         Photoelectric Factor - A log of photoelectric absorption properties. Often expressed in an approximation unit barns/electron (b/e-)
 LITH       .                          : LITH        Lithology Curve
~A  DEPTH     BS     CAL_INCH     GR       SRES      MRES      DRES    DT_US_FT  NPHI_v/v RHOB_G_C~    HDRA    PEF_B_E     LITH   
# ...
14498.9921    8.5000    8.3670 -999.0000    4.2028    4.2500    4.3088 -999.0000    0.1726    2.5827 -999.0000    4.1760   37.0000 
14499.4921    8.5000    8.3548 -999.0000    4.0885    4.1706    4.2680 -999.0000    0.1625    2.5922 -999.0000    4.1592   37.0000 
14499.9921    8.5000    8.3730 -999.0000    4.2207    4.2989    4.3349 -999.0000    0.1576    2.5885 -999.0000    4.1289   37.0000 
14500.4921    8.5000    8.3791 -999.0000    4.3837    4.6202    4.7370 -999.0000    0.1582    2.5869 -999.0000    4.3439   37.0000 
14500.9921    8.5000    8.3597 -999.0000    4.4207    4.7107    4.4607 -999.0000    0.1612    2.5946 -999.0000    4.3596   37.0000 
14501.4921    8.5000    8.3852 -999.0000    4.8118    4.4311    4.2696 -999.0000    0.1628    2.6069 -999.0000    4.8613   37.0000 
14501.9921    8.5000    8.3670 -999.0000    4.7510    5.0286    4.8086 -999.0000    0.1670    2.6135 -999.0000    4.8500   37.0000 
14502.4921    8.5000    8.3670 -999.0000    5.0690    5.2607    4.9121 -999.0000    0.1681    2.6043 -999.0000    4.9815   37.0000 
14502.9921    8.5000    8.3597 -999.0000    4.7378    4.7057    4.7509 -999.0000    0.1700    2.5994 -999.0000    5.2135   37.0000 
14503.4921    8.5000    8.3548 -999.0000    4.4666    4.4063    4.6948 -999.0000    0.1703    2.6056 -999.0000    5.6464   37.0000 
14503.9921    8.5000    8.3365 -999.0000    4.8173    4.9465    5.0372 -999.0000    0.1684    2.6184 -999.0000    6.0710   37.0000 
14504.4921    8.5000    8.3548 -999.0000    4.9494    5.0455    5.0044 -999.0000    0.1725    2.6225 -999.0000    5.1784   37.0000 
14504.9921    8.5000    8.3487 -999.0000    4.9920    5.1140    5.0280 -999.0000    0.1787    2.6254 -999.0000    4.7185   37.0000 
14505.4921    8.5000    8.3548 -999.0000    5.2503    5.2995    5.1820 -999.0000    0.1744    2.6259 -999.0000    4.5761   37.0000 
14505.9921    8.5000    8.3487 -999.0000    5.3107    5.4733    5.3098 -999.0000    0.1639    2.6173 -999.0000    4.6424   37.0000 
14506.4921    8.5000    8.3548 -999.0000    5.4605    5.3658    5.1726 -999.0000    0.1529    2.5994 -999.0000    4.5350   37.0000 
14506.9921    8.5000    8.3487 -999.0000    5.0602    5.0993    4.8307 -999.0000    0.1616    2.5942 -999.0000    4.4252   37.0000 
14507.4921    8.5000    8.3426 -999.0000    4.6766    4.8095    4.6928 -999.0000    0.1634    2.5886 -999.0000    4.1625   37.0000 
14507.9921    8.5000    8.3597 -999.0000    3.9123    4.0350    3.9830 -999.0000    0.1737    2.5886 -999.0000    3.9943   37.0000 
14508.4921    8.5000    8.3487 -999.0000    4.2453    4.3508    4.4077 -999.0000    0.1737    2.6011 -999.0000    3.7745   37.0000 
14508.9921    8.5000    8.3487 -999.0000    4.7857    4.9800    4.9218 -999.0000    0.1711    2.6211 -999.0000    4.0495   37.0000 
14509.4921    8.5000    8.3402 -999.0000    5.8551    5.8417    5.8027 -999.0000    0.1754    2.6294 -999.0000    4.4904   37.0000 
14509.9921    8.5000    8.3487 -999.0000    5.1296    5.1651    5.1552 -999.0000    0.1801    2.6178 -999.0000    4.7690   37.0000 
14510.4921    8.5000    8.3426 -999.0000    4.4118    4.4038    4.4009 -999.0000    0.1715    2.6031 -999.0000    4.5546   37.0000 
14510.9921    8.5000    8.3548 -999.0000    4.1769    4.1564    4.1263 -999.0000    0.1627    2.5961 -999.0000    4.4842   37.0000 
14511.4921    8.5000    8.3548 -999.0000    4.3236    4.4860    4.4711 -999.0000    0.1652    2.5905 -999.0000    4.5248   37.0000 
14511.9921    8.5000    8.3548 -999.0000    4.5369    4.8704    4.7990 -999.0000    0.1631    2.6049 -999.0000    4.5257   37.0000 
14512.4921    8.5000    8.3426 -999.0000    5.2793    5.2322    5.1857 -999.0000    0.1681    2.6157 -999.0000    4.5538   37.0000 
14512.9921    8.5000    8.3451 -999.0000    4.8536    4.5896    4.5430 -999.0000    0.1716    2.6263 -999.0000    4.3980   37.0000 
14513.4921    8.5000    8.3548 -999.0000    4.4922    4.3649    4.2095 -999.0000    0.1731    2.6065 -999.0000    4.3162   37.0000 
14513.9921    8.5000    8.3487 -999.0000    4.5200    4.5520    4.4945 -999.0000    0.1689    2.5989 -999.0000    4.3879   37.0000 
14514.4921    8.5000    8.3548 -999.0000    4.5862    4.5892    4.5512 -999.0000    0.1669    2.5958 -999.0000    4.4849   37.0000 
14514.9921    8.5000    8.3487 -999.0000    4.5594    4.6774    4.5556 -999.0000    0.1738    2.5912 -999.0000    4.5471   37.0000 
14515.4921    8.5000    8.3426 -999.0000    4.0587    4.1742    4.1970 -999.0000    0.1768    2.5931 -999.0000    4.7303   37.0000 
14515.9921    8.5000    8.3353 -999.0000    4.0070    3.9788    4.1959 -999.0000    0.1782    2.5942 -999.0000    4.5956   37.0000 
14516.4921    8.5000    8.3548 -999.0000    4.7662    4.9340    4.9227 -999.0000    0.1834    2.5923 -999.0000    4.4918   37.0000 
14516.9921    8.5000    8.3426 -999.0000    4.4680    4.6659    4.6381 -999.0000    0.1750    2.5816 -999.0000    4.1336   37.0000 
14517.4921    8.5000    8.3487 -999.0000    4.1097    4.2774    4.3458 -999.0000    0.1795    2.5814 -999.0000    4.5015   37.0000 
14517.9921    8.5000    8.3451 -999.0000    4.3216    4.4817    4.3401 -999.0000    0.1690    2.5872 -999.0000    4.8938   37.0000 
14518.4921    8.5000    8.3487 -999.0000    4.7971    4.9773    4.8893 -999.0000    0.1659    2.6004 -999.0000    5.4476   37.0000 
14518.9921    8.5000    8.3426 -999.0000    5.5863    6.0345    6.1161 -999.0000    0.1730    2.6053 -999.0000    5.4786   37.0000 
14519.4921    8.5000    8.3451 -999.0000    5.1968    5.6968    5.6263 -999.0000    0.1646    2.6101 -999.0000    5.4002   37.0000 
14519.9921    8.5000    8.3670 -999.0000    4.9685    4.7056    4.6320 -999.0000    0.1678    2.6008 -999.0000    4.9384   37.0000 
14520.4921    8.5000    8.3487 -999.0000    4.4061    4.2686    4.4480 -999.0000    0.1710    2.6031 -999.0000    4.7085   37.0000 
14520.9921    8.5000    8.3548 -999.0000    4.2714    4.3841    4.5413 -999.0000    0.1759    2.5941 -999.0000    4.5243   37.0000 
14521.4921    8.5000    8.3426 -999.0000    4.1498    4.3249    4.4583 -999.0000    0.1631    2.6004 -999.0000    4.5395   37.0000 
14521.9921    8.5000    8.3548 -999.0000    4.4939    4.5808    4.7137 -999.0000    0.1518    2.6103 -999.0000    4.6636   37.0000 
14522.4921    8.5000    8.3451 -999.0000    4.9774    5.2721    5.1682 -999.0000    0.1561    2.6231 -999.0000    4.7928   37.0000 
14522.9921    8.5000    8.3487 -999.0000    4.6405    4.6319    4.5515 -999.0000    0.1686    2.6230 -999.0000    4.7337   37.0000 
14523.4921    8.5000    8.3426 -999.0000    4.3186    4.3151    4.2899 -999.0000    0.1729    2.6041 -999.0000    4.2323   37.0000 
14523.9921    8.5000    8.3487 -999.0000    3.9810    3.9295    3.9193 -999.0000    0.1755    2.5947 -999.0000    3.9952   37.0000 
14524.4921    8.5000    8.3402 -999.0000    3.9290    3.8287    3.8709 -999.0000    0.1753    2.5857 -999.0000    3.6243   37.0000 
14524.9921    8.5000    8.3609 -999.0000    3.7475    3.8727    3.8420 -999.0000    0.1825    2.5882 -999.0000    3.7115   37.0000 
14525.4921    8.5000    8.3426 -999.0000    3.9555    4.2675    4.0269 -999.0000    0.1778    2.5830 -999.0000    3.7790   37.0000 
14525.9921    8.5000    8.3402 -999.0000    4.3167    4.4561    4.2021 -999.0000    0.1814    2.5866 -999.0000    4.1403   37.0000 
14526.4921    8.5000    8.3487 -999.0000    4.7108    5.0557    4.8761 -999.0000    0.1769    2.5988 -999.0000    4.2647   37.0000 
14526.9921    8.5000    8.3487 -999.0000    5.1719    5.3912    5.2370 -999.0000    0.1733    2.6124 -999.0000    4.2448   37.0000 
14527.4921    8.5000    8.3451 -999.0000    5.3386    5.6741    5.5506 -999.0000    0.1630    2.6139 -999.0000    4.3249   37.0000 
14527.9921    8.5000    8.3426 -999.0000    5.3912    5.5117    5.5434 -999.0000    0.1566    2.6040 -999.0000    4.2794   37.0000 
14528.4921    8.5000    8.3609 -999.0000    5.3060    5.2890    5.1130 -999.0000    0.1538    2.5877 -999.0000    4.3796   37.0000 
14528.9921    8.5000    8.3487 -999.0000    5.0947    5.0403    4.7978 -999.0000    0.1650    2.5766 -999.0000    4.0763   37.0000 
