~VERSION INFORMATION
 VERS.                 2.0:   CWLS LOG ASCII STANDARD - VERSION 2.0
 WRAP.                  NO:   SINGLE LINE PER DEPTH STEP
 CREA.                 08/02/2018 12:32:10
#CREATED USING DSPetro VERSION 5000.10.1.3 BY H191660 ON 08/02/2018 12:32:10
~WELL INFORMATION
#MNEM.UNIT       DATA                          DESCRIPTION MNEMONIC
#---------      ---------------------------   --------------------------
 STRT    .FT        12485.9921                : START DEPTH
 STOP    .FT        17557.9921                : STOP DEPTH
 STEP    .FT        0.5000                    : STEP VALUE
 NULL    .      -999.0000                     : NULL VALUE
 DATE    .      08/02/2018                    : LAS file Creation Date
 WELL  .      UNIVERSITY_20-27           : Well Name
 COMP  .      Chesapeake Operating, Inc. : Company
 FLD   .      Haley                      : Field
 STATE .      Texas                      : State
 COUNT .      USA                        : Country
 API   .      42-495-33261               : API Number
 UWI   .      508                        : Unique Well Identifier (UWI)
 LOC   .      1320' FSL & 1320' FEL      : Location
 TOWN  .      20                         : Township
 SCT   .      27                         : Section
 RANG  .      University Lands           : Range
 PDAT  .      Ground Level               : Permanent Datum
 EPDAT .      2777.000000                : Reference Elevation
 LGMEA .      Kelly Bushing              : Log Measured from
 DRMEA .      Kelly Bushing              : Drill Measured From
 APDAT .      25.000000                  : Elevation Above Permanent Datum
 KB    .      2802.00000                 : KB Elevation
 GL    .      2777.00000                 : GL Elevation
 RWS   .      -999                       : Def_Rw
 WST   .      -999                       : Def_Rwt
 CNTY  .      Winkler                    : County
 SRVC  .      Schlumberger               : Contractor
~CURVE INFORMATION
#MNEM              UNIT       API CODE   Curve Type Comments
#----------  --------------- ----------  ---------- -----------
 DEPTH      .FT                        : Depth       
 BS         .inch                      : BitSize     
 CAL_INCH   .inch                      :             Caliper Log - A representation of the measured diameter of a borehole along its depth
 GR         .GAPI                      : GammaRay    Gamma-Ray {F11.4}
 SRES       .ohmm                      :             20" array induction, one foot resistivity
 MRES       .ohm.m                     :             30" array induction, one foot resistivity
 DRES       .ohmm                      :             90" array induction, one foot resistivity log - units of ohmm
 DT_US_FT   .us/ft                     :             Interval Transit Time: Compressional Wave - Evaluates the time it takes for a compressional wave to traverse a fixed distance
 NPHI_v/v   .ratio                     :             Neutron Porosity - Measured with an neutron logging device calibrated to a given matrix (limestone, sandstone and dolomite)
 RHOB_G_CC  .g/cc                      :             Bulk Density - Measures the density of bulk material, including any void space or other materials contained in the subject volume
 HDRA       .G/C3                      : Drho        HRDD Density Correction {F11.4}
 PEF_B_E    .b/e-                      : PEF         Photoelectric Factor - A log of photoelectric absorption properties. Often expressed in an approximation unit barns/electron (b/e-)
 LITH       .                          : LITH        Lithology Curve
~A  DEPTH     BS     CAL_INCH     GR       SRES      MRES      DRES    DT_US_FT  NPHI_v/v RHOB_G_C~    HDRA    PEF_B_E     LITH   
# ...
15169.9921    8.5000    8.3305 -999.0000    9.1536   10.9209   13.5883 -999.0000    0.1430    2.5521 -999.0000    3.5803   37.0000 
15170.4921    8.5000    8.3183 -999.0000    9.2488   11.2394   15.3696 -999.0000    0.1444    2.5530 -999.0000    3.8173   37.0000 
15170.9921    8.5000    8.3305 -999.0000    9.0539   10.7734   15.8763 -999.0000    0.1387    2.5364 -999.0000    3.8099   37.0000 
15171.4921    8.5000    8.3122 -999.0000    8.8993   10.7959   15.8218 -999.0000    0.1417    2.5227 -999.0000    3.8772   37.0000 
15171.9921    8.5000    8.3244 -999.0000    8.8656   10.8827   15.6676 -999.0000    0.1409    2.5129 -999.0000    3.4907   37.0000 
15172.4921    8.5000    8.3061 -999.0000    9.0960   11.3394   16.3431 -999.0000    0.1350    2.5282 -999.0000    3.5981   37.0000 
15172.9921    8.5000    8.3244 -999.0000    9.3458   12.1734   17.7052 -999.0000    0.1346    2.5343 -999.0000    3.4718   37.0000 
15173.4921    8.5000    8.3061 -999.0000    9.8825   13.0155   20.9559 -999.0000    0.1405    2.5401 -999.0000    3.7792   37.0000 
15173.9921    8.5000    8.3061 -999.0000    9.9448   13.1814   22.2050 -999.0000    0.1499    2.5386 -999.0000    3.7119   37.0000 
15174.4921    8.5000    8.3183 -999.0000   10.2542   12.9208   21.1648 -999.0000    0.1491    2.5235 -999.0000    3.7489   37.0000 
15174.9921    8.5000    8.3244 -999.0000   10.2846   12.6776   18.5447 -999.0000    0.1517    2.5075 -999.0000    3.6559   37.0000 
15175.4921    8.5000    8.3183 -999.0000    9.2704   10.4392   13.3132 -999.0000    0.1578    2.4931 -999.0000    3.5731   37.0000 
15175.9921    8.5000    8.3224 -999.0000    8.5305    9.2076   10.7715 -999.0000    0.1625    2.4971 -999.0000    3.7553   37.0000 
15176.4921    8.5000    8.3183 -999.0000    7.5335    8.3258    9.6049 -999.0000    0.1573    2.4960 -999.0000    3.9632   37.0000 
15176.9921    8.5000    8.3305 -999.0000    6.9580    7.0583    8.0691 -999.0000    0.1690    2.5063 -999.0000    4.2403   37.0000 
15177.4921    8.5000    8.3122 -999.0000    5.7892    5.7694    6.4960 -999.0000    0.1775    2.5066 -999.0000    4.1709   37.0000 
15177.9921    8.5000    8.3244 -999.0000    4.9002    5.1208    5.7062 -999.0000    0.1680    2.5131 -999.0000    4.0188   37.0000 
15178.4921    8.5000    8.3122 -999.0000    4.5637    4.5376    4.8297 -999.0000    0.1472    2.5085 -999.0000    4.0880   37.0000 
15178.9921    8.5000    8.3244 -999.0000    4.8348    4.7954    5.0130 -999.0000    0.1408    2.5163 -999.0000    4.2658   37.0000 
15179.4921    8.5000    8.3224 -999.0000    6.7889    7.1841    7.3617 -999.0000    0.1507    2.5385 -999.0000    4.5430   37.0000 
15179.9921    8.5000    8.3183 -999.0000    4.8303    4.7949    4.6222 -999.0000    0.1705    2.5711 -999.0000    4.2860   37.0000 
15180.4921    8.5000    8.3183 -999.0000    3.5971    3.4381    3.3358 -999.0000    0.1773    2.5879 -999.0000    4.2842   37.0000 
15180.9921    8.5000    8.3244 -999.0000    3.2956    3.4221    3.3778 -999.0000    0.1645    2.5901 -999.0000    4.1919   37.0000 
15181.4921    8.5000    8.3183 -999.0000    3.7602    3.9536    3.9995 -999.0000    0.1578    2.6036 -999.0000    4.4635   37.0000 
15181.9921    8.5000    8.3183 -999.0000    4.8892    5.3947    5.4523 -999.0000    0.1562    2.6171 -999.0000    4.5230   37.0000 
15182.4921    8.5000    8.3305 -999.0000    5.3871    5.4915    5.4952 -999.0000    0.1606    2.6310 -999.0000    4.5039   37.0000 
15182.9921    8.5000    8.3061 -999.0000    5.0101    4.8506    4.5688 -999.0000    0.1604    2.6225 -999.0000    4.9952   37.0000 
15183.4921    8.5000    8.3305 -999.0000    4.6547    4.5210    4.4956 -999.0000    0.1572    2.6103 -999.0000    4.7620   37.0000 
15183.9921    8.5000    8.3122 -999.0000    4.4509    4.5091    4.4467 -999.0000    0.1544    2.6046 -999.0000    4.6221   37.0000 
15184.4921    8.5000    8.3244 -999.0000    4.8274    4.9711    4.8534 -999.0000    0.1442    2.6152 -999.0000    4.1754   37.0000 
15184.9921    8.5000    8.3183 -999.0000    5.3684    5.3191    5.1500 -999.0000    0.1406    2.6216 -999.0000    4.3512   37.0000 
15185.4921    8.5000    8.3244 -999.0000    5.1458    5.1396    4.8963 -999.0000    0.1473    2.6247 -999.0000    4.5368   37.0000 
15185.9921    8.5000    8.3244 -999.0000    4.8824    4.8647    4.6090 -999.0000    0.1517    2.6179 -999.0000    4.3422   37.0000 
15186.4921    8.5000    8.3305 -999.0000    4.3838    4.5472    4.3600 -999.0000    0.1522    2.6319 -999.0000    4.2597   37.0000 
15186.9921    8.5000    8.3183 -999.0000    4.6262    4.8388    4.6383 -999.0000    0.1474    2.6374 -999.0000    4.2049   37.0000 
15187.4921    8.5000    8.3305 -999.0000    4.6051    5.5227    5.4536 -999.0000    0.1382    2.6369 -999.0000    4.5062   37.0000 
15187.9921    8.5000    8.3305 -999.0000    5.5870    5.6898    5.5130 -999.0000    0.1426    2.6282 -999.0000    4.2984   37.0000 
15188.4921    8.5000    8.3305 -999.0000    4.3688    4.3184    4.1827 -999.0000    0.1532    2.6254 -999.0000    4.2179   37.0000 
15188.9921    8.5000    8.3122 -999.0000    4.0155    3.5528    3.4954 -999.0000    0.1714    2.6174 -999.0000    3.9718   37.0000 
15189.4921    8.5000    8.3305 -999.0000    3.5472    3.6289    3.4174 -999.0000    0.1625    2.6170 -999.0000    4.1737   37.0000 
15189.9921    8.5000    8.3183 -999.0000    3.6855    4.0037    3.8384 -999.0000    0.1636    2.6059 -999.0000    4.2087   37.0000 
15190.4921    8.5000    8.3244 -999.0000    3.8068    3.7288    3.7235 -999.0000    0.1635    2.6082 -999.0000    4.9031   37.0000 
15190.9921    8.5000    8.3183 -999.0000    3.6912    3.7913    4.0421 -999.0000    0.1691    2.6061 -999.0000    4.6299   37.0000 
15191.4921    8.5000    8.3244 -999.0000    4.3415    4.9943    5.5622 -999.0000    0.1629    2.6217 -999.0000    4.5824   37.0000 
15191.9921    8.5000    8.3122 -999.0000    4.6679    5.0371    5.3723 -999.0000    0.1506    2.6208 -999.0000    4.1576   37.0000 
15192.4921    8.5000    8.3244 -999.0000    4.7780    4.8655    5.0562 -999.0000    0.1439    2.6204 -999.0000    4.3783   37.0000 
15192.9921    8.5000    8.3224 -999.0000    4.4670    4.3168    4.3354 -999.0000    0.1628    2.6093 -999.0000    4.5569   37.0000 
15193.4921    8.5000    8.3244 -999.0000    4.1518    4.1399    3.9968 -999.0000    0.1709    2.6127 -999.0000    4.3915   37.0000 
15193.9921    8.5000    8.3183 -999.0000    3.9348    4.0765    3.6987 -999.0000    0.1660    2.6086 -999.0000    4.3645   37.0000 
15194.4921    8.5000    8.3183 -999.0000    4.5599    4.4756    4.1044 -999.0000    0.1528    2.6120 -999.0000    4.5261   37.0000 
15194.9921    8.5000    8.3244 -999.0000    4.8592    6.3435    7.0917 -999.0000    0.1443    2.6096 -999.0000    4.5244   37.0000 
15195.4921    8.5000    8.3305 -999.0000    6.9120    8.2027    8.6142 -999.0000    0.1362    2.6151 -999.0000    4.5661   37.0000 
15195.9921    8.5000    8.3244 -999.0000    6.3818    6.5498    6.7873 -999.0000    0.1433    2.6116 -999.0000    4.5769   37.0000 
15196.4921    8.5000    8.3244 -999.0000    5.7364    5.6138    5.7878 -999.0000    0.1434    2.6129 -999.0000    4.7717   37.0000 
15196.9921    8.5000    8.3183 -999.0000    5.6735    5.7271    5.6923 -999.0000    0.1428    2.6030 -999.0000    4.9029   37.0000 
15197.4921    8.5000    8.3305 -999.0000    5.8890    6.0098    5.9206 -999.0000    0.1407    2.6100 -999.0000    4.9178   37.0000 
15197.9921    8.5000    8.3244 -999.0000    6.1506    6.3148    6.2858 -999.0000    0.1478    2.6062 -999.0000    4.9550   37.0000 
15198.4921    8.5000    8.3305 -999.0000    5.8953    5.8688    5.9615 -999.0000    0.1557    2.6139 -999.0000    4.6615   37.0000 
15198.9921    8.5000    8.3305 -999.0000    5.7226    5.7782    5.8670 -999.0000    0.1611    2.6106 -999.0000    4.6948   37.0000 
15199.4921    8.5000    8.3122 -999.0000    5.7632    5.4102    5.4858 -999.0000    0.1641    2.6166 -999.0000    4.4418   37.0000 
15199.9921    8.5000    8.3244 -999.0000    5.2762    5.3480    5.4181 -999.0000    0.1644    2.6045 -999.0000    4.3952   37.0000 
