~VERSION INFORMATION
 VERS.                 2.0:   CWLS LOG ASCII STANDARD - VERSION 2.0
 WRAP.                  NO:   SINGLE LINE PER DEPTH STEP
 CREA.                 08/02/2018 12:32:10
#CREATED USING DSPetro VERSION 5000.10.1.3 BY H191660 ON 08/02/2018 12:32:10
~WELL INFORMATION
#MNEM.UNIT       DATA                          DESCRIPTION MNEMONIC
#---------      ---------------------------   --------------------------
 STRT    .FT        12485.9921                : START DEPTH
 STOP    .FT        17557.9921                : STOP DEPTH
 STEP    .FT        0.5000                    : STEP VALUE
 NULL    .      -999.0000                     : NULL VALUE
 DATE    .      08/02/2018                    : LAS file Creation Date
 WELL  .      UNIVERSITY_20-27           : Well Name
 COMP  .      Chesapeake Operating, Inc. : Company
 FLD   .      Haley                      : Field
 STATE .      Texas                      : State
 COUNT .      USA                        : Country
 API   .      42-495-33261               : API Number
 UWI   .      508                        : Unique Well Identifier (UWI)
 LOC   .      1320' FSL & 1320' FEL      : Location
 TOWN  .      20                         : Township
 SCT   .      27                         : Section
 RANG  .      University Lands           : Range
 PDAT  .      Ground Level               : Permanent Datum
 EPDAT .      2777.000000                : Reference Elevation
 LGMEA .      Kelly Bushing              : Log Measured from
 DRMEA .      Kelly Bushing              : Drill Measured From
 APDAT .      25.000000                  : Elevation Above Permanent Datum
 KB    .      2802.00000                 : KB Elevation
 GL    .      2777.00000                 : GL Elevation
 RWS   .      -999                       : Def_Rw
 WST   .      -999                       : Def_Rwt
 CNTY  .      Winkler                    : County
 SRVC  .      Schlumberger               : Contractor
~CURVE INFORMATION
#MNEM              UNIT       API CODE   Curve Type Comments
#----------  --------------- ----------  ---------- -----------
 DEPTH      .FT                        : Depth       
 BS         .inch                      : BitSize     
 CAL_INCH   .inch                      :             Caliper Log - A representation of the measured diameter of a borehole along its depth
 GR         .GAPI                      : GammaRay    Gamma-Ray {F11.4}
 SRES       .ohmm                      :             20" array induction, one foot resistivity
 MRES       .ohm.m                     :             30" array induction, one foot resistivity
 DRES       .ohmm                      :             90" array induction, one foot resistivity log - units of ohmm
 DT_US_FT   .us/ft                     :             Interval Transit Time: Compressional Wave - Evaluates the time it takes for a compressional wave to traverse a fixed distance
 NPHI_v/v   .ratio                     :             Neutron Porosity - Measured with an neutron logging device calibrated to a given matrix (limestone, sandstone and dolomite)
 RHOB_G_CC  .g/cc                      :             Bulk Density - Measures the density of bulk material, including any void space or other materials contained in the subject volume
 HDRA       .G/C3                      : Drho        HRDD Density Correction {F11.4}
 PEF_B_E    .b/e-                      : PEF         Photoelectric Factor - A log of photoelectric absorption properties. Often expressed in an approximation unit barns/electron (b/e-)
 LITH       .                          : LITH        Lithology Curve
~A  DEPTH     BS     CAL_INCH     GR       SRES      MRES      DRES    DT_US_FT  NPHI_v/v RHOB_G_C~    HDRA    PEF_B_E     LITH   
# ...
13156.9921    8.5000    8.3974 -999.0000    4.4602    4.3809    4.2885 -999.0000    0.1813    2.5345 -999.0000    4.7461   37.0000 
13157.4921    8.5000    8.3937 -999.0000    4.3087    4.3513    4.2641 -999.0000    0.1803    2.5345 -999.0000    4.5052   37.0000 
13157.9921    8.5000    8.3913 -999.0000    4.1997    4.2633    4.3246 -999.0000    0.1845    2.5353 -999.0000    4.7926   37.0000 
13158.4921    8.5000    8.4034 -999.0000    4.1508    4.2016    4.2447 -999.0000    0.1801    2.5336 -999.0000    3.9022   37.0000 
13158.9921    8.5000    8.3974 -999.0000    4.0767    4.2006    4.2302 -999.0000    0.1861    2.5459 -999.0000    3.8987   37.0000 
13159.4921    8.5000    8.4156 -999.0000    4.2567    4.3773    4.3831 -999.0000    0.1796    2.5315 -999.0000    3.6588   37.0000 
13159.9921    8.5000    8.4034 -999.0000    4.4686    4.6138    4.6134 -999.0000    0.1774    2.5255 -999.0000    3.7371   37.0000 
13160.4921    8.5000    8.4278 -999.0000    4.3345    4.4103    4.3952 -999.0000    0.1805    2.4994 -999.0000    3.4784   37.0000 
13160.9921    8.5000    8.4338 -999.0000    4.2272    4.2871    4.3665 -999.0000    0.1885    2.5021 -999.0000    3.4535   37.0000 
13161.4921    8.5000    8.3974 -999.0000    4.2814    4.3894    4.4499 -999.0000    0.1920    2.4993 -999.0000    3.8887   37.0000 
13161.9921    8.5000    8.3743 -999.0000    4.4775    4.5935    4.6286 -999.0000    0.1972    2.5019 -999.0000    4.1507   37.0000 
13162.4921    8.5000    8.3913 -999.0000    4.4783    4.5043    4.5155 -999.0000    0.1906    2.5057 -999.0000    4.1196   37.0000 
13162.9921    8.5000    8.3913 -999.0000    4.4551    4.5192    4.5484 -999.0000    0.1812    2.5175 -999.0000    4.3894   37.0000 
13163.4921    8.5000    8.3852 -999.0000    5.0065    5.2581    5.2583 -999.0000    0.1744    2.5165 -999.0000    4.4131   37.0000 
13163.9921    8.5000    8.3840 -999.0000    4.6897    4.8735    4.9434 -999.0000    0.1840    2.4998 -999.0000    4.4213   37.0000 
13164.4921    8.5000    8.3913 -999.0000    4.5590    4.9816    5.0428 -999.0000    0.1853    2.4948 -999.0000    3.6220   37.0000 
13164.9921    8.5000    8.4034 -999.0000    4.7716    4.8441    4.9221 -999.0000    0.1906    2.4976 -999.0000    3.4009   37.0000 
13165.4921    8.5000    8.3974 -999.0000    4.8175    4.9739    5.0970 -999.0000    0.1943    2.5142 -999.0000    3.3205   37.0000 
13165.9921    8.5000    8.3913 -999.0000    5.1162    5.3171    5.3701 -999.0000    0.1893    2.5159 -999.0000    3.4478   37.0000 
13166.4921    8.5000    8.3937 -999.0000    4.9306    5.4017    5.4183 -999.0000    0.1879    2.5152 -999.0000    3.4998   37.0000 
13166.9921    8.5000    8.4338 -999.0000    4.4286    5.0039    5.1169 -999.0000    0.1697    2.5167 -999.0000    3.5491   37.0000 
13167.4921    8.5000    8.4095 -999.0000    5.4507    6.4791    6.7536 -999.0000    0.1639    2.5370 -999.0000    3.8248   37.0000 
13167.9921    8.5000    8.3913 -999.0000    6.8981    9.5073   10.1528 -999.0000    0.1523    2.5509 -999.0000    3.8828   37.0000 
13168.4921    8.5000    8.3937 -999.0000    5.7504    5.8707    6.4670 -999.0000    0.1773    2.5766 -999.0000    4.6139   37.0000 
13168.9921    8.5000    8.3730 -999.0000    7.3629    8.2894    9.0301 -999.0000    0.1826    2.5983 -999.0000    4.8722   37.0000 
13169.4921    8.5000    8.3913 -999.0000    7.0431    6.8703    7.0896 -999.0000    0.1833    2.5921 -999.0000    5.4771   37.0000 
13169.9921    8.5000    8.3913 -999.0000    4.9541    4.3063    4.3051 -999.0000    0.1795    2.5600 -999.0000    5.1383   37.0000 
13170.4921    8.5000    8.3974 -999.0000    4.8741    4.9298    4.9943 -999.0000    0.1832    2.5271 -999.0000    4.6201   37.0000 
13170.9921    8.5000    8.4034 -999.0000    4.7383    4.7997    4.7828 -999.0000    0.1898    2.5212 -999.0000    4.3098   37.0000 
13171.4921    8.5000    8.3913 -999.0000    4.2576    4.2350    4.3795 -999.0000    0.2042    2.5227 -999.0000    3.9510   37.0000 
13171.9921    8.5000    8.4034 -999.0000    3.7768    3.9301    3.9896 -999.0000    0.2080    2.5122 -999.0000    3.7620   37.0000 
13172.4921    8.5000    8.3913 -999.0000    3.9966    4.2826    4.3479 -999.0000    0.1893    2.5161 -999.0000    3.6995   37.0000 
13172.9921    8.5000    8.3937 -999.0000    4.6879    4.9161    5.0728 -999.0000    0.1606    2.5280 -999.0000    3.9330   37.0000 
13173.4921    8.5000    8.3852 -999.0000    5.8010    6.5458    6.7782 -999.0000    0.1458    2.5583 -999.0000    4.2996   37.0000 
13173.9921    8.5000    8.3852 -999.0000    6.1358    6.4414    6.6674 -999.0000    0.1594    2.5589 -999.0000    4.4421   37.0000 
13174.4921    8.5000    8.4034 -999.0000    4.9192    5.2633    5.4642 -999.0000    0.1946    2.5263 -999.0000    4.0334   37.0000 
13174.9921    8.5000    8.4278 -999.0000    4.2803    4.8237    4.9085 -999.0000    0.1763    2.5144 -999.0000    3.7762   37.0000 
13175.4921    8.5000    8.4034 -999.0000    5.6486    6.0227    6.0682 -999.0000    0.1307    2.5444 -999.0000    4.0745   37.0000 
13175.9921    8.5000    8.3730 -999.0000    9.4690    9.0993    9.3414 -999.0000    0.1201    2.5934 -999.0000    4.2159   37.0000 
13176.4921    8.5000    8.3913 -999.0000    7.1485    7.3165    7.0502 -999.0000    0.1436    2.5972 -999.0000    4.2984   37.0000 
13176.9921    8.5000    8.3913 -999.0000    5.5837    5.8409    5.8966 -999.0000    0.1772    2.5719 -999.0000    3.7407   37.0000 
13177.4921    8.5000    8.4083 -999.0000    5.0226    5.1738    5.4903 -999.0000    0.1691    2.5370 -999.0000    3.5189   37.0000 
13177.9921    8.5000    8.4034 -999.0000    4.7045    5.0431    5.6784 -999.0000    0.1678    2.5319 -999.0000    3.4283   37.0000 
13178.4921    8.5000    8.3974 -999.0000    4.6236    5.1053    5.3829 -999.0000    0.1880    2.5221 -999.0000    3.8142   37.0000 
13178.9921    8.5000    8.3913 -999.0000    4.4606    4.7487    5.1352 -999.0000    0.1992    2.5149 -999.0000    3.8357   37.0000 
13179.4921    8.5000    8.4034 -999.0000    4.2631    4.5978    5.0616 -999.0000    0.2033    2.5029 -999.0000    4.0038   37.0000 
13179.9921    8.5000    8.4095 -999.0000    4.3506    4.7452    4.9728 -999.0000    0.1906    2.4996 -999.0000    3.7287   37.0000 
13180.4921    8.5000    8.4095 -999.0000    4.3024    4.6606    4.9368 -999.0000    0.1829    2.5083 -999.0000    3.8640   37.0000 
13180.9921    8.5000    8.4034 -999.0000    4.2929    4.5733    4.8732 -999.0000    0.1842    2.5238 -999.0000    4.0668   37.0000 
13181.4921    8.5000    8.4034 -999.0000    4.4059    4.7922    5.1671 -999.0000    0.1804    2.5194 -999.0000    3.8976   37.0000 
13181.9921    8.5000    8.4083 -999.0000    4.0202    4.2344    4.4889 -999.0000    0.1877    2.5292 -999.0000    3.8365   37.0000 
13182.4921    8.5000    8.4156 -999.0000    3.9786    4.3666    4.6154 -999.0000    0.2098    2.5218 -999.0000    3.4356   37.0000 
13182.9921    8.5000    8.4156 -999.0000    3.9977    4.1410    4.3338 -999.0000    0.2222    2.5215 -999.0000    3.4871   37.0000 
13183.4921    8.5000    8.4034 -999.0000    3.7719    3.8542    4.0312 -999.0000    0.2191    2.5104 -999.0000    3.6466   37.0000 
13183.9921    8.5000    8.3986 -999.0000    4.2472    4.4081    4.6045 -999.0000    0.1886    2.5136 -999.0000    4.3754   37.0000 
13184.4921    8.5000    8.3913 -999.0000    4.5634    4.6971    4.8719 -999.0000    0.1796    2.5246 -999.0000    4.6456   37.0000 
13184.9921    8.5000    8.4034 -999.0000    4.5316    4.6568    4.7423 -999.0000    0.1782    2.5258 -999.0000    4.8764   37.0000 
13185.4921    8.5000    8.3852 -999.0000    4.3819    4.2846    4.3891 -999.0000    0.1908    2.5344 -999.0000    5.0086   37.0000 
13185.9921    8.5000    8.3974 -999.0000    4.1512    4.1387    4.1945 -999.0000    0.1811    2.5249 -999.0000    6.1880   37.0000 
13186.4921    8.5000    8.3743 -999.0000    4.0700    4.1505    4.1561 -999.0000    0.1861    2.5244 -999.0000    5.1834   37.0000 
13186.9921    8.5000    8.3974 -999.0000    3.8577    3.8792    3.8795 -999.0000    0.1908    2.5122 -999.0000    4.4201   37.0000 
