~VERSION INFORMATION
 VERS.                 2.0:   CWLS LOG ASCII STANDARD - VERSION 2.0
 WRAP.                  NO:   SINGLE LINE PER DEPTH STEP
 CREA.                 08/02/2018 12:32:10
#CREATED USING DSPetro VERSION 5000.10.1.3 BY H191660 ON 08/02/2018 12:32:10
~WELL INFORMATION
#MNEM.UNIT       DATA                          DESCRIPTION MNEMONIC
#---------      ---------------------------   --------------------------
 STRT    .FT        12485.9921                : START DEPTH
 STOP    .FT        17557.9921                : STOP DEPTH
 STEP    .FT        0.5000                    : STEP VALUE
 NULL    .      -999.0000                     : NULL VALUE
 DATE    .      08/02/2018                    : LAS file Creation Date
 WELL  .      UNIVERSITY_20-27           : Well Name
 COMP  .      Chesapeake Operating, Inc. : Company
 FLD   .      Haley                      : Field
 STATE .      Texas                      : State
 COUNT .      USA                        : Country
 API   .      42-495-33261               : API Number
 UWI   .      508                        : Unique Well Identifier (UWI)
 LOC   .      1320' FSL & 1320' FEL      : Location
 TOWN  .      20                         : Township
 SCT   .      27                         : Section
 RANG  .      University Lands           : Range
 PDAT  .      Ground Level               : Permanent Datum
 EPDAT .      2777.000000                : Reference Elevation
 LGMEA .      Kelly Bushing              : Log Measured from
 DRMEA .      Kelly Bushing              : Drill Measured From
 APDAT .      25.000000                  : Elevation Above Permanent Datum
 KB    .      2802.00000                 : KB Elevation
 GL    .      2777.00000                 : GL Elevation
 RWS   .      -999                       : Def_Rw
 WST   .      -999                       : Def_Rwt
 CNTY  .      Winkler                    : County
 SRVC  .      Schlumberger               : Contractor
~CURVE INFORMATION
#MNEM              UNIT       API CODE   Curve Type Comments
#----------  --------------- ----------  ---------- -----------
 DEPTH      .FT                        : Depth       
 BS         .inch                      : BitSize     
 CAL_INCH   .inch                      :             Caliper Log - A representation of the measured diameter of a borehole along its depth
 GR         .GAPI                      : GammaRay    Gamma-Ray {F11.4}
 SRES       .ohmm                      :             20" array induction, one foot resistivity
 MRES       .ohm.m                     :             30" array induction, one foot resistivity
 DRES       .ohmm                      :             90" array induction, one foot resistivity log - units of ohmm
 DT_US_FT   .us/ft                     :             Interval Transit Time: Compressional Wave - Evaluates the time it takes for a compressional wave to traverse a fixed distance
 NPHI_v/v   .ratio                     :             Neutron Porosity - Measured with an neutron logging device calibrated to a given matrix (limestone, sandstone and dolomite)
 RHOB_G_CC  .g/cc                      :             Bulk Density - Measures the density of bulk material, including any void space or other materials contained in the subject volume
 HDRA       .G/C3                      : Drho        HRDD Density Correction {F11.4}
 PEF_B_E    .b/e-                      : PEF         Photoelectric Factor - A log of photoelectric absorption properties. Often expressed in an approximation unit barns/electron (b/e-)
 LITH       .                          : LITH        Lithology Curve
~A  DEPTH     BS     CAL_INCH     GR       SRES      MRES      DRES    DT_US_FT  NPHI_v/v RHOB_G_C~    HDRA    PEF_B_E     LITH   
# ...
17518.4921    6.5000    6.4331 -999.0000    1.7796    2.0482    2.0605 -999.0000    0.3270    2.5736 -999.0000    4.8579   37.0000 
17518.9921    6.5000    6.4395 -999.0000    1.8972    1.8886    1.9061 -999.0000    0.3448    2.5728 -999.0000    4.8592   37.0000 
17519.4921    6.5000    6.4447 -999.0000    1.9704    1.9555    2.0524 -999.0000    0.3446    2.5786 -999.0000    4.7389   37.0000 
17519.9921    6.5000    6.4395 -999.0000    2.2352    2.3662    2.3597 -999.0000    0.3131    2.5792 -999.0000    4.7031   37.0000 
17520.4921    6.5000    6.4395 -999.0000    2.2003    2.1981    2.1676 -999.0000    0.2911    2.5709 -999.0000    4.6997   37.0000 
17520.9921    6.5000    6.4395 -999.0000    2.1112    2.1395    2.2210 -999.0000    0.3157    2.5598 -999.0000    4.4436   37.0000 
17521.4921    6.5000    6.4524 -999.0000    2.0584    2.0595    2.1971 -999.0000    0.3422    2.5715 -999.0000    4.6912   37.0000 
17521.9921    6.5000    6.4499 -999.0000    1.9732    1.9998    2.0526 -999.0000    0.3465    2.5701 -999.0000    4.5852   37.0000 
17522.4921    6.5000    6.4395 -999.0000    1.8905    1.9142    1.9353 -999.0000    0.3398    2.5786 -999.0000    4.9915   37.0000 
17522.9921    6.5000    6.4460 -999.0000    1.8368    2.0821    2.1605 -999.0000    0.3169    2.5568 -999.0000    4.8974   37.0000 
17523.4921    6.5000    6.4550 -999.0000    1.9273    1.9538    1.9363 -999.0000    0.2979    2.5650 -999.0000    4.9248   37.0000 
17523.9921    6.5000    6.4395 -999.0000    1.8948    1.9692    2.0290 -999.0000    0.2982    2.5580 -999.0000    4.7254   37.0000 
17524.4921    6.5000    6.4589 -999.0000    2.0150    2.0673    2.2196 -999.0000    0.3224    2.5856 -999.0000    4.6146   37.0000 
17524.9921    6.5000    6.4395 -999.0000    2.3064    2.4645    2.5902 -999.0000    0.3223    2.5803 -999.0000    4.6463   37.0000 
17525.4921    6.5000    6.4460 -999.0000    2.5493    2.6368    2.8502 -999.0000    0.3034    2.5812 -999.0000    4.8670   37.0000 
17525.9921    6.5000    6.4447 -999.0000    2.4528    2.4134    2.5666 -999.0000    0.3097    2.5675 -999.0000    4.8751   37.0000 
17526.4921    6.5000    6.4267 -999.0000    2.2661    2.1327    2.1535 -999.0000    0.3169    2.5746 -999.0000    5.2039   37.0000 
17526.9921    6.5000    6.4589 -999.0000    2.0839    1.9616    1.9280 -999.0000    0.3225    2.5683 -999.0000    5.2283   37.0000 
17527.4921    6.5000    6.4460 -999.0000    2.0101    1.8547    1.8516 -999.0000    0.3004    2.5673 -999.0000    5.6046   37.0000 
17527.9921    6.5000    6.4447 -999.0000    1.9017    1.9458    2.0089 -999.0000    0.2926    2.5552 -999.0000    5.0770   37.0000 
17528.4921    6.5000    6.4395 -999.0000    1.8683    1.8500    1.8612 -999.0000    0.3017    2.5627 -999.0000    4.6706   37.0000 
17528.9921    6.5000    6.4589 -999.0000    1.8274    1.7408    1.7576 -999.0000    0.3286    2.5694 -999.0000    4.5410   37.0000 
17529.4921    6.5000    6.4241 -999.0000    1.7093    1.7018    1.7081 -999.0000    0.3332    2.5815 -999.0000    4.6051   37.0000 
17529.9921    6.5000    6.4524 -999.0000    1.8045    1.8451    1.8185 -999.0000    0.3067    2.5840 -999.0000    4.9578   37.0000 
17530.4921    6.5000    6.4331 -999.0000    1.9466    1.9456    1.9113 -999.0000    0.2887    2.5779 -999.0000    5.0473   37.0000 
17530.9921    6.5000    6.4524 -999.0000    2.0985    2.0530    1.9576 -999.0000    0.2988    2.5755 -999.0000    5.0977   37.0000 
17531.4921    6.5000    6.4653 -999.0000    2.1009    2.0201    1.8372 -999.0000    0.3260    2.5707 -999.0000    4.8627   37.0000 
17531.9921    6.5000    6.4395 -999.0000    1.9769    1.8817    1.7292 -999.0000    0.3344    2.5733 -999.0000    4.6139   37.0000 
17532.4921    6.5000    6.4331 -999.0000    1.8504    1.7829    1.6563 -999.0000    0.3439    2.5768 -999.0000    4.9127   37.0000 
17532.9921    6.5000    6.4524 -999.0000    1.7777    1.7097    1.6270 -999.0000    0.3468    2.5733 -999.0000    5.0344   37.0000 
17533.4921    6.5000    6.4395 -999.0000    1.7759    1.7397    1.5391 -999.0000    0.3423    2.5700 -999.0000    4.8000   37.0000 
17533.9921    6.5000    6.4267 -999.0000    1.7454    1.7306    1.5904 -999.0000    0.3412    2.5681 -999.0000    4.4323   37.0000 
17534.4921    6.5000    6.4395 -999.0000    1.7570    1.8305    1.8914 -999.0000    0.3354    2.5738 -999.0000    4.4638   37.0000 
17534.9921    6.5000    6.4267 -999.0000    1.5926    1.5754    1.6594 -999.0000    0.3162    2.5707 -999.0000    4.8692   37.0000 
17535.4921    6.5000    6.4395 -999.0000    1.3527    1.6316    1.1565 -999.0000    0.3022    2.5723 -999.0000    5.2349   37.0000 
17535.9921    6.5000    6.4292 -999.0000    1.2947    2.8254    2.6409 -999.0000    0.2926    2.5753 -999.0000    5.1575   37.0000 
17536.4921    6.5000    6.4460 -999.0000    1.1725    2.0508    1.9354 -999.0000    0.2886    2.5711 -999.0000    4.6930   37.0000 
17536.9921    6.5000    6.4395 -999.0000    1.1325    1.7097    2.3409 -999.0000    0.2976    2.5723 -999.0000    4.5883   37.0000 
17537.4921    6.5000    6.4589 -999.0000    1.0574    2.6441    3.6047 -999.0000    0.2963    2.5765 -999.0000    4.7851   37.0000 
17537.9921    6.5000    6.4395 -999.0000    0.9961    1.6585    2.7686 -999.0000    0.3065    2.5755 -999.0000    5.6387   37.0000 
17538.4921    6.5000    6.4524 -999.0000    0.9841    2.6179    2.2104 -999.0000    0.3010    2.5756 -999.0000    6.2864   37.0000 
17538.9921    6.5000    6.4524 -999.0000    0.9832    1.5274    3.0460 -999.0000    0.3169    2.6081 -999.0000    5.9476   37.0000 
17539.4921    6.5000    6.4460 -999.0000    1.1682    2.3468    2.6701 -999.0000    0.3025    2.6048 -999.0000    5.5266   37.0000 
17539.9921    6.5000    6.4524 -999.0000    1.1150    1.3986    1.4170 -999.0000    0.2869    2.6097 -999.0000    5.1830   37.0000 
17540.4921    6.5000    6.4499 -999.0000    1.7047    3.2572    3.3189 -999.0000    0.2853    2.5798 -999.0000    5.5989   37.0000 
17540.9921    6.5000    6.4524 -999.0000    2.1270    2.8120    5.6070 -999.0000    0.2920    2.5948 -999.0000    5.7126   37.0000 
17541.4921    6.5000    6.4524 -999.0000    2.3084    2.5176    3.0757 -999.0000    0.3121    2.5971 -999.0000    6.3376   37.0000 
17541.9921    6.5000    6.4782 -999.0000    2.3924    2.5429    2.9586 -999.0000    0.3206    2.6031 -999.0000    5.9873   37.0000 
17542.4921    6.5000    6.4847 -999.0000    2.4317    2.4369    2.7462 -999.0000    0.3290    2.5902 -999.0000    6.0260   37.0000 
17542.9921    6.5000    6.4782 -999.0000    2.4640    2.4308    2.7785 -999.0000    0.3377    2.5667 -999.0000    5.4450   37.0000 
17543.4921    6.5000    6.4847 -999.0000    2.4718    2.4157    2.7238 -999.0000    0.3103    2.5424 -999.0000    5.5777   37.0000 
17543.9921    6.5000    6.4757 -999.0000    2.4830    2.4195    2.7063 -999.0000    0.2519    2.5099 -999.0000    5.1761   37.0000 
17544.4921    6.5000    6.4718 -999.0000    2.4860    2.4157    2.7063 -999.0000    0.2203    2.5212 -999.0000    5.1899   37.0000 
17544.9921    6.5000    6.4331 -999.0000    2.4837    2.4119    2.6972 -999.0000    0.2156    2.5443 -999.0000    5.3406   37.0000 
17545.4921    6.5000    6.4395 -999.0000    2.4855    2.4120    2.6892 -999.0000    0.2402    2.5610 -999.0000    6.2269   37.0000 
17545.9921    6.5000    6.4589 -999.0000    2.4865    2.4145    2.6964 -999.0000    0.2671    2.5382 -999.0000    6.4457   37.0000 
17546.4921    6.5000    6.4395 -999.0000    2.4877    2.4118    2.6850 -999.0000    0.2844    2.5140 -999.0000    7.0864   37.0000 
17546.9921    6.5000    6.4602 -999.0000    2.4883    2.4124    2.6782 -999.0000    0.2976    2.5056 -999.0000    6.9378   37.0000 
17547.4921    6.5000    6.4331 -999.0000    2.4895    2.4153    2.6874 -999.0000    0.3052    2.5043 -999.0000    6.6233   37.0000 
17547.9921    6.5000    6.4524 -999.0000    2.4896    2.4122    2.6793 -999.0000    0.3063    2.5041 -999.0000    6.1081   37.0000 
17548.4921    6.5000    6.4524 -999.0000    2.4949    2.4197    2.6866 -999.0000    0.3060    2.5182 -999.0000    5.6972   37.0000 
