~VERSION INFORMATION
 VERS.                 2.0:   CWLS LOG ASCII STANDARD - VERSION 2.0
 WRAP.                  NO:   SINGLE LINE PER DEPTH STEP
 CREA.                 08/02/2018 12:32:10
#CREATED USING DSPetro VERSION 5000.10.1.3 BY H191660 ON 08/02/2018 12:32:10
~WELL INFORMATION
#MNEM.UNIT       DATA                          DESCRIPTION MNEMONIC
#---------      ---------------------------   --------------------------
 STRT    .FT        12485.9921                : START DEPTH
 STOP    .FT        17557.9921                : STOP DEPTH
 STEP    .FT        0.5000                    : STEP VALUE
 NULL    .      -999.0000                     : NULL VALUE
 DATE    .      08/02/2018                    : LAS file Creation Date
 WELL  .      UNIVERSITY_20-27           : Well Name
 COMP  .      Chesapeake Operating, Inc. : Company
 FLD   .      Haley                      : Field
 STATE .      Texas                      : State
 COUNT .      USA                        : Country
 API   .      42-495-33261               : API Number
 UWI   .      508                        : Unique Well Identifier (UWI)
 LOC   .      1320' FSL & 1320' FEL      : Location
 TOWN  .      20                         : Township
 SCT   .      27                         : Section
 RANG  .      University Lands           : Range
 PDAT  .      Ground Level               : Permanent Datum
 EPDAT .      2777.000000                : Reference Elevation
 LGMEA .      Kelly Bushing              : Log Measured from
 DRMEA .      Kelly Bushing              : Drill Measured From
 APDAT .      25.000000                  : Elevation Above Permanent Datum
 KB    .      2802.00000                 : KB Elevation
 GL    .      2777.00000                 : GL Elevation
 RWS   .      -999                       : Def_Rw
 WST   .      -999                       : Def_Rwt
 CNTY  .      Winkler                    : County
 SRVC  .      Schlumberger               : Contractor
~CURVE INFORMATION
#MNEM              UNIT       API CODE   Curve Type Comments
#----------  --------------- ----------  ---------- -----------
 DEPTH      .FT                        : Depth       
 BS         .inch                      : BitSize     
 CAL_INCH   .inch                      :             Caliper Log - A representation of the measured diameter of a borehole along its depth
 GR         .GAPI                      : GammaRay    Gamma-Ray {F11.4}
 SRES       .ohmm                      :             20" array induction, one foot resistivity
 MRES       .ohm.m                     :             30" array induction, one foot resistivity
 DRES       .ohmm                      :             90" array induction, one foot resistivity log - units of ohmm
 DT_US_FT   .us/ft                     :             Interval Transit Time: Compressional Wave - Evaluates the time it takes for a compressional wave to traverse a fixed distance
 NPHI_v/v   .ratio                     :             Neutron Porosity - Measured with an neutron logging device calibrated to a given matrix (limestone, sandstone and dolomite)
 RHOB_G_CC  .g/cc                      :             Bulk Density - Measures the density of bulk material, including any void space or other materials contained in the subject volume
 HDRA       .G/C3                      : Drho        HRDD Density Correction {F11.4}
 PEF_B_E    .b/e-                      : PEF         Photoelectric Factor - A log of photoelectric absorption properties. Often expressed in an approximation unit barns/electron (b/e-)
 LITH       .                          : LITH        Lithology Curve
~A  DEPTH     BS     CAL_INCH     GR       SRES      MRES      DRES    DT_US_FT  NPHI_v/v RHOB_G_C~    HDRA    PEF_B_E     LITH   
12485.9921   12.2500    3.4164   93.2535    4.3480   10.4803   18.7048   83.8004    0.2445    2.0984    0.1963    2.6583   11.0000 
12486.4921   12.2500    3.4164   93.2535    4.3149   10.4131   18.6543   81.6511    0.2445    2.0985    0.1963    2.6587   11.0000 
12486.9921   12.2500    3.4164   93.2535    4.3994   10.5227   18.7382   76.4649    0.2445    2.0985    0.1963    2.6587   11.0000 
12487.4921   12.2500    3.4164   93.2535    4.3890   10.4441   18.6517   78.4262    0.2445    2.0985    0.1963    2.6587   11.0000 
12487.9921   12.2500    3.4164   93.2535    4.7570   10.8122   18.6750   86.8130    0.2445    2.0985    0.1963    2.6587   11.0000 
12488.4921   12.2500    3.4164   93.2535    4.9387   10.9744   18.7277   95.4290    0.2445    2.0985    0.1963    2.6587   11.0000 
12488.9921   12.2500    3.4164   93.2535    5.1334   11.1632   18.7900   94.6656    0.2445    2.0985    0.1963    2.6587   11.0000 
12489.4921   12.2500    3.4164   93.2535    5.0890   11.0785   18.9478   92.2907    0.2445    2.0985    0.1963    2.6587   11.0000 
12489.9921   12.2500    3.4164   93.2535    5.2135   11.2297   19.0123   90.8942    0.2445    2.0985    0.1963    2.6587   11.0000 
12490.4921   12.2500    3.4164   93.2535    5.0634   11.0489   18.9570   88.6594    0.2445    2.0985    0.1963    2.6587   11.0000 
12490.9921   12.2500    3.4164   93.2535    5.1689   11.1319   19.0306   86.3605    0.2445    2.0985    0.1963    2.6587   11.0000 
12491.4921   12.2500    3.4164   93.2535    4.9764   10.9549   18.9725   86.4028    0.2445    2.0985    0.1963    2.6587   11.0000 
12491.9921   12.2500    3.4164   93.2535    4.9501   10.9467   19.0199   86.6363    0.2445    2.0985    0.1963    2.6587   11.0000 
12492.4921   12.2500    3.4164   93.2535    4.8656   10.8761   19.0998   87.6243    0.2445    2.0985    0.1963    2.6587   11.0000 
12492.9921   12.2500    3.4164   93.2535    4.7369   10.7726   19.1422   86.7068    0.2445    2.0985    0.1963    2.6587   11.0000 
12493.4921   12.2500    3.4164   93.2535    4.6235   10.7049   19.1763   85.7590    0.2445    2.0985    0.1963    2.6587   11.0000 
12493.9921   12.2500    3.4164   93.2535    4.4849   10.5481   19.2110   84.6585    0.2445    2.0985    0.1963    2.6587   11.0000 
12494.4921   12.2500    3.4164   93.2535    4.2968   10.4216   19.2900   86.8671    0.2445    2.0985    0.1963    2.6587   11.0000 
12494.9921   12.2500    3.4164   93.2535    4.2966   10.3924   19.2755   87.6088    0.2445    2.0985    0.1963    2.6587   11.0000 
12495.4921   12.2500    3.4164   93.2535    4.2053   10.3033   19.3714   84.4526    0.2445    2.0985    0.1963    2.6587   11.0000 
12495.9921   12.2500    3.4164   93.2535    4.1192   10.2165   19.4200   83.4117    0.2445    2.0985    0.1963    2.6587   11.0000 
12496.4921   12.2500    3.4164   93.2535    4.0641   10.1694   19.4192   83.5377    0.2445    2.0985    0.1963    2.6587   11.0000 
12496.9921   12.2500    3.4164   93.2535    4.0561   10.1705   19.4441   84.8752    0.2445    2.0985    0.1963    2.6587   11.0000 
12497.4921   12.2500    3.4164   93.2535    4.0531   10.1829   19.4690   86.5108    0.2445    2.0985    0.1963    2.6587   11.0000 
12497.9921   12.2500    3.4164   93.2535    4.0565   10.1695   19.4068   88.8019    0.2445    2.0985    0.1963    2.6587   11.0000 
12498.4921   12.2500    3.4164   93.2535    4.0472   10.1529   19.4589   91.1744    0.2445    2.0985    0.1963    2.6587   11.0000 
12498.9921   12.2500    3.4164   93.2535    4.0429   10.1515   19.4456   90.2469    0.2445    2.0985    0.1963    2.6587   11.0000 
12499.4921   12.2500    3.4164   93.2535    4.0528   10.1398   19.4491   89.2686    0.2445    2.0985    0.1963    2.6587   11.0000 
12499.9921   12.2500    3.4164   93.2535    4.0663   10.1949   19.4605   77.4886    0.2445    2.0985    0.1963    2.6587   11.0000 
12500.4921   12.2500    3.4164   93.2535    4.1093   10.2298   19.4720   68.0194    0.2445    2.0985    0.1963    2.6586   11.0000 
12500.9921   12.2500    3.4164   93.2535    4.1365   10.2926   19.4310   79.8043    0.2445    2.0986    0.1963    2.6587   11.0000 
12501.4921   12.2500    3.4164   93.2535    4.1770   10.3423   19.5867   92.6014    0.2445    2.0991    0.1963    2.6589   11.0000 
12501.9921   12.2500    3.4164   93.2535    4.1891   10.3377   19.5017   93.0993    0.2445    2.1012    0.1964    2.6622   11.0000 
12502.4921   12.2500    3.4164   93.2535    4.1865   10.3285   19.5395   93.2643    0.2445    2.1012    0.1985    2.6636   11.0000 
12502.9921   12.2500    3.4164   93.2535    4.1864   10.3285   19.5395   93.7339    0.2445    2.0991    0.1985    2.6570   11.0000 
12503.4921   12.2500    3.4164   93.2535    4.1864   10.3285   19.5395   93.8390    0.2445    2.0985    0.1984    2.6493   11.0000 
12503.9921   12.2500    3.4164   93.2535    4.1864   10.3285   19.5395   93.8544    0.2445    2.0983    0.1962    2.6486   11.0000 
12504.4921   12.2500    3.4164   93.2535    4.1864   10.3285   19.5395   94.0760    0.2445    2.0984    0.1963    2.6433   11.0000 
12504.9921   12.2500    3.4164   93.2535    4.1864   10.3285   19.5395   94.9938    0.2445    2.0984    0.1963    2.6379   11.0000 
12505.4921   12.2500    3.4164   93.2535    4.1864   10.3285   19.5395   96.5170    0.2445    2.0984    0.1963    2.6326   11.0000 
12505.9921   12.2500    3.4164   93.2535    4.1864   10.3285   19.5395   97.1981    0.2445    2.0984    0.1963    2.6272   11.0000 
12506.4921   12.2500    3.4164   93.2535    4.1864   10.3285   19.5395   94.5361    0.2445    2.0985    0.1963    2.6218   11.0000 
12506.9921   12.2500    3.4164   93.2535    4.1864   10.3285   19.5395   80.5459    0.2445    2.0985    0.1964    2.6164   11.0000 
12507.4921   12.2500    3.4164   93.2535    4.1864   10.3285   19.5395   78.1775    0.2445    2.0985    0.1964    2.6110   11.0000 
12507.9921   12.2500    3.4164   93.2535    4.1864   10.3285   19.5395   91.0314    0.2445    2.0985    0.1964    2.6055   11.0000 
12508.4921   12.2500    3.4164   93.2535    4.1864   10.3285   19.5395   84.4673    0.2445    2.0986    0.1964    2.6001   11.0000 
12508.9921   12.2500    3.4164   93.2535    4.1864   10.3285   19.5395   78.2910    0.2445    2.0986    0.1964    2.5946   11.0000 
12509.4921   12.2500    3.4164   93.2535    4.1864   10.3285   19.5395   85.7696    0.2445    2.0986    0.1965    2.5892   11.0000 
12509.9921   12.2500    3.4164   93.2535    4.1864   10.3285   19.5395   85.3329    0.2445    2.0986    0.1965    2.5837   11.0000 
12510.4921   12.2500    3.4164   93.2535    4.1864   10.3285   19.5395   85.6942    0.2445    2.0987    0.1965    2.5782   11.0000 
12510.9921   12.2500    3.4164   93.2535    4.1864   10.3285   19.5395   85.6241    0.2445    2.0987    0.1965    2.5727   11.0000 
12511.4921   12.2500    3.4164   93.2535    4.1864   10.3285   19.5395   85.6703    0.2445    2.0988    0.1967    2.5674   11.0000 
12511.9921   12.2500    3.4164   93.2535    4.1864   10.3285   19.5395   85.6998    0.2445    2.0990    0.1968    2.5621   11.0000 
12512.4921   12.2500    3.4164   93.2535    4.1864   10.3285   19.5395   85.6953    0.2445    2.0991    0.1969    2.5568   11.0000 
12512.9921   12.2500    3.4164   93.2535    4.1864   10.3285   19.5395   85.6923    0.2445    2.0991    0.1970    2.5514   11.0000 
12513.4921   12.2500    3.4164   93.2535    4.1864   10.3285   19.5395   85.7206    0.2445    2.0992    0.1970    2.5458   11.0000 
12513.9921   12.2500    3.4164   93.2535    4.1864   10.3285   19.5395   85.6697    0.2445    2.0992    0.1970    2.5402   11.0000 
12514.4921   12.2500    3.4164   93.2535    4.1864   10.3285   19.5395   85.7520    0.2445    2.0992    0.1970    2.5346   11.0000 
12514.9921   12.2500    3.4164   93.2535    4.1864   10.3285   19.5395   85.6963    0.2445    2.0992    0.1970    2.5290   11.0000 
12515.4921   12.2500    3.4164   93.2535    4.1864   10.3285   19.5395   85.8982    0.2445    2.0992    0.1971    2.5234   11.0000 
12515.9921   12.2500    3.4164   93.2535    4.1864   10.3285   19.5395   85.7066    0.2445    2.0992    0.1971    2.5178   11.0000 
