~VERSION INFORMATION
 VERS.                 2.0:   CWLS LOG ASCII STANDARD - VERSION 2.0
 WRAP.                  NO:   SINGLE LINE PER DEPTH STEP
 CREA.                 08/02/2018 12:32:10
#CREATED USING DSPetro VERSION 5000.10.1.3 BY H191660 ON 08/02/2018 12:32:10
~WELL INFORMATION
#MNEM.UNIT       DATA                          DESCRIPTION MNEMONIC
#---------      ---------------------------   --------------------------
 STRT    .FT        12485.9921                : START DEPTH
 STOP    .FT        17557.9921                : STOP DEPTH
 STEP    .FT        0.5000                    : STEP VALUE
 NULL    .      -999.0000                     : NULL VALUE
 DATE    .      08/02/2018                    : LAS file Creation Date
 WELL  .      UNIVERSITY_20-27           : Well Name
 COMP  .      Chesapeake Operating, Inc. : Company
 FLD   .      Haley                      : Field
 STATE .      Texas                      : State
 COUNT .      USA                        : Country
 API   .      42-495-33261               : API Number
 UWI   .      508                        : Unique Well Identifier (UWI)
 LOC   .      1320' FSL & 1320' FEL      : Location
 TOWN  .      20                         : Township
 SCT   .      27                         : Section
 RANG  .      University Lands           : Range
 PDAT  .      Ground Level               : Permanent Datum
 EPDAT .      2777.000000                : Reference Elevation
 LGMEA .      Kelly Bushing              : Log Measured from
 DRMEA .      Kelly Bushing              : Drill Measured From
 APDAT .      25.000000                  : Elevation Above Permanent Datum
 KB    .      2802.00000                 : KB Elevation
 GL    .      2777.00000                 : GL Elevation
 RWS   .      -999                       : Def_Rw
 WST   .      -999                       : Def_Rwt
 CNTY  .      Winkler                    : County
 SRVC  .      Schlumberger               : Contractor
~CURVE INFORMATION
#MNEM              UNIT       API CODE   Curve Type Comments
#----------  --------------- ----------  ---------- -----------
 DEPTH      .FT                        : Depth       
 BS         .inch                      : BitSize     
 CAL_INCH   .inch                      :             Caliper Log - A representation of the measured diameter of a borehole along its depth
 GR         .GAPI                      : GammaRay    Gamma-Ray {F11.4}
 SRES       .ohmm                      :             20" array induction, one foot resistivity
 MRES       .ohm.m                     :             30" array induction, one foot resistivity
 DRES       .ohmm                      :             90" array induction, one foot resistivity log - units of ohmm
 DT_US_FT   .us/ft                     :             Interval Transit Time: Compressional Wave - Evaluates the time it takes for a compressional wave to traverse a fixed distance
 NPHI_v/v   .ratio                     :             Neutron Porosity - Measured with an neutron logging device calibrated to a given matrix (limestone, sandstone and dolomite)
 RHOB_G_CC  .g/cc                      :             Bulk Density - Measures the density of bulk material, including any void space or other materials contained in the subject volume
 HDRA       .G/C3                      : Drho        HRDD Density Correction {F11.4}
 PEF_B_E    .b/e-                      : PEF         Photoelectric Factor - A log of photoelectric absorption properties. Often expressed in an approximation unit barns/electron (b/e-)
 LITH       .                          : LITH        Lithology Curve
~A  DEPTH     BS     CAL_INCH     GR       SRES      MRES      DRES    DT_US_FT  NPHI_v/v RHOB_G_C~    HDRA    PEF_B_E     LITH   
# ...
15840.9921    6.5000    6.7103 -999.0000   36.1920   33.2020   44.8191 -999.0000    0.0476    2.6606 -999.0000    5.0520   22.0000 
15841.4921    6.5000    6.6717 -999.0000   41.1431   30.9036   30.6472 -999.0000    0.0486    2.6346 -999.0000    4.6143   22.0000 
15841.9921    6.5000    6.5943 -999.0000   22.5807   18.6838   18.6597 -999.0000    0.0476    2.6166 -999.0000    4.4615   22.0000 
15842.4921    6.5000    6.6007 -999.0000    9.7387    7.1552    6.9451 -999.0000    0.0667    2.5920 -999.0000    4.2211   37.0000 
15842.9921    6.5000    6.6007 -999.0000    4.6723    3.6138    3.5442 -999.0000    0.0961    2.5588 -999.0000    3.8430   37.0000 
15843.4921    6.5000    6.6072 -999.0000    2.9711    2.6624    2.6545 -999.0000    0.1302    2.5431 -999.0000    3.6427   37.0000 
15843.9921    6.5000    6.6304 -999.0000    2.1632    2.0408    2.1342 -999.0000    0.1560    2.5291 -999.0000    3.5181   37.0000 
15844.4921    6.5000    6.6588 -999.0000    2.0626    2.1172    2.3769 -999.0000    0.1624    2.5178 -999.0000    3.4367   37.0000 
15844.9921    6.5000    6.6781 -999.0000    2.1033    2.2000    2.3216 -999.0000    0.1724    2.5279 -999.0000    3.4785   37.0000 
15845.4921    6.5000    6.6588 -999.0000    2.2465    2.4083    2.6221 -999.0000    0.1505    2.5416 -999.0000    3.5743   37.0000 
15845.9921    6.5000    6.7103 -999.0000    2.6090    2.8185    3.0748 -999.0000    0.1064    2.5502 -999.0000    3.8343   37.0000 
15846.4921    6.5000    6.6652 -999.0000    3.4735    3.9998    4.3499 -999.0000    0.0846    2.5521 -999.0000    4.1028   37.0000 
15846.9921    6.5000    6.6265 -999.0000    4.1555    4.5467    6.4151 -999.0000    0.0806    2.5700 -999.0000    4.2590   37.0000 
15847.4921    6.5000    6.6523 -999.0000    4.8914    5.4151    7.1677 -999.0000    0.0714    2.5972 -999.0000    4.3655   37.0000 
15847.9921    6.5000    6.7039 -999.0000    5.9325    6.0514    6.0590 -999.0000    0.0486    2.5898 -999.0000    4.1960   37.0000 
15848.4921    6.5000    6.7026 -999.0000    7.9036    8.3800    6.9446 -999.0000    0.0500    2.5713 -999.0000    4.1979   37.0000 
15848.9921    6.5000    6.7813 -999.0000    8.0807    7.0670    6.5228 -999.0000    0.0640    2.5428 -999.0000    4.3182   37.0000 
15849.4921    6.5000    6.7877 -999.0000    7.1945    6.8003    6.7593 -999.0000    0.0872    2.5308 -999.0000    4.3740   37.0000 
15849.9921    6.5000    6.6910 -999.0000    6.4850    5.5907    5.5175 -999.0000    0.1177    2.5044 -999.0000    4.4201   37.0000 
15850.4921    6.5000    6.4847 -999.0000    4.9680    4.2463    4.1554 -999.0000    0.1551    2.4903 -999.0000    4.5117   37.0000 
15850.9921    6.5000    6.5040 -999.0000    4.4459    3.9072    3.8489 -999.0000    0.1661    2.4873 -999.0000    4.4821   37.0000 
15851.4921    6.5000    6.5040 -999.0000    4.1733    3.6960    3.5880 -999.0000    0.1567    2.5076 -999.0000    4.4950   37.0000 
15851.9921    6.5000    6.5169 -999.0000    3.9011    3.5836    3.4262 -999.0000    0.1503    2.5202 -999.0000    4.4424   37.0000 
15852.4921    6.5000    6.5298 -999.0000    3.8463    3.4949    3.2775 -999.0000    0.1534    2.5234 -999.0000    4.8597   37.0000 
15852.9921    6.5000    6.5492 -999.0000    3.3871    3.2120    3.0255 -999.0000    0.1681    2.5397 -999.0000    4.8251   37.0000 
15853.4921    6.5000    6.5492 -999.0000    3.1036    3.0132    2.9360 -999.0000    0.1671    2.5489 -999.0000    4.8605   37.0000 
15853.9921    6.5000    6.5840 -999.0000    2.8719    2.8513    2.8830 -999.0000    0.1718    2.5641 -999.0000    4.7636   37.0000 
15854.4921    6.5000    6.5943 -999.0000    3.1868    3.3580    3.4062 -999.0000    0.1673    2.5753 -999.0000    5.3556   37.0000 
15854.9921    6.5000    6.6136 -999.0000    3.9189    4.2666    3.9709 -999.0000    0.1493    2.5764 -999.0000    5.1720   37.0000 
15855.4921    6.5000    6.6201 -999.0000    5.0769    5.7703    4.8182 -999.0000    0.1141    2.5701 -999.0000    4.8759   22.0000 
15855.9921    6.5000    6.5621 -999.0000    6.2756    7.0076    6.1289 -999.0000    0.0742    2.5729 -999.0000    4.3695   37.0000 
15856.4921    6.5000    6.5169 -999.0000    8.4614   10.4831    8.7612 -999.0000    0.0540    2.6003 -999.0000    4.3706   36.0000 
15856.9921    6.5000    6.4976 -999.0000   13.9872   17.9192   16.8208 -999.0000    0.0463    2.6146 -999.0000    4.4721   36.0000 
15857.4921    6.5000    6.4718 -999.0000   16.8235   18.2082   18.0710 -999.0000    0.0492    2.6231 -999.0000    4.3723   36.0000 
15857.9921    6.5000    6.4976 -999.0000   19.0378   21.1477   23.9294 -999.0000    0.0503    2.6187 -999.0000    4.4133   36.0000 
15858.4921    6.5000    6.4782 -999.0000   21.3400   21.9592   21.9676 -999.0000    0.0442    2.6241 -999.0000    4.2713   36.0000 
15858.9921    6.5000    6.4782 -999.0000   22.9599   24.9672   23.3046 -999.0000    0.0281    2.6274 -999.0000    4.7293   36.0000 
15859.4921    6.5000    6.4963 -999.0000   27.6725   30.2203   26.8423 -999.0000    0.0228    2.6371 -999.0000    4.7415   36.0000 
15859.9921    6.5000    6.4653 -999.0000   28.6206   30.2366   27.3971 -999.0000    0.0249    2.6397 -999.0000    5.3911   36.0000 
15860.4921    6.5000    6.4911 -999.0000   25.1927   25.5705   23.6994 -999.0000    0.0324    2.6425 -999.0000    5.2532   36.0000 
15860.9921    6.5000    6.4782 -999.0000   22.1633   23.7614   23.5938 -999.0000    0.0321    2.6422 -999.0000    5.4992   36.0000 
15861.4921    6.5000    6.4911 -999.0000   21.7182   24.8028   29.0502 -999.0000    0.0263    2.6406 -999.0000    5.0832   36.0000 
15861.9921    6.5000    6.4460 -999.0000   21.5175   23.5536   28.9911 -999.0000    0.0230    2.6087 -999.0000    4.9069   36.0000 
15862.4921    6.5000    6.4589 -999.0000   21.0974   25.5091   40.5245 -999.0000    0.0241    2.5906 -999.0000    4.8888   36.0000 
15862.9921    6.5000    6.4524 -999.0000   16.2294   16.6602   22.5284 -999.0000    0.0266    2.5751 -999.0000    5.0108   36.0000 
15863.4921    6.5000    6.4395 -999.0000   13.0925   11.6510   12.7027 -999.0000    0.0454    2.5741 -999.0000    5.4073   36.0000 
15863.9921    6.5000    6.4331 -999.0000    9.6443    8.6136    8.1915 -999.0000    0.0828    2.5397 -999.0000    6.3997   37.0000 
15864.4921    6.5000    6.4718 -999.0000    8.9794    7.7462    6.9188 -999.0000    0.1242    2.5329 -999.0000    7.6414   37.0000 
15864.9921    6.5000    6.5118 -999.0000    7.3348    7.6411    6.6674 -999.0000    0.1124    2.5226 -999.0000    6.5152   37.0000 
15865.4921    6.5000    6.5169 -999.0000    6.6592    7.4165    7.8792 -999.0000    0.0804    2.5460 -999.0000    4.8476   37.0000 
15865.9921    6.5000    6.5105 -999.0000    6.2607    7.7367    8.3390 -999.0000    0.0638    2.5602 -999.0000    3.9308   37.0000 
15866.4921    6.5000    6.5234 -999.0000    8.4070   12.1959   12.8516 -999.0000    0.0604    2.5759 -999.0000    4.0525   37.0000 
15866.9921    6.5000    6.4911 -999.0000   14.8971   23.9916   24.8378 -999.0000    0.0410    2.5986 -999.0000    4.3742   22.0000 
15867.4921    6.5000    6.4976 -999.0000   18.3803   27.7394   43.1735 -999.0000    0.0215    2.6272 -999.0000    4.8681   22.0000 
15867.9921    6.5000    6.4460 -999.0000   23.3288   34.8387   55.4071 -999.0000    0.0141    2.6434 -999.0000    4.8530   22.0000 
15868.4921    6.5000    6.4718 -999.0000   31.6189   52.3150   66.5934 -999.0000    0.0142    2.6567 -999.0000    4.8435   22.0000 
15868.9921    6.5000    6.4395 -999.0000   32.9201   37.9431   43.8829 -999.0000    0.0209    2.6615 -999.0000    4.7389   22.0000 
15869.4921    6.5000    6.4202 -999.0000   31.1485   35.5015   39.6570 -999.0000    0.0227    2.6696 -999.0000    4.9610   22.0000 
15869.9921    6.5000    6.4344 -999.0000   35.4602   40.8062   40.5078 -999.0000    0.0191    2.6682 -999.0000    5.1018   22.0000 
15870.4921    6.5000    6.4589 -999.0000   37.0762   42.8027   42.6952 -999.0000    0.0142    2.6610 -999.0000    4.9062   22.0000 
15870.9921    6.5000    6.4718 -999.0000   39.3820   41.4259   41.4052 -999.0000    0.0135    2.6569 -999.0000    4.9184   22.0000 
