~VERSION INFORMATION
 VERS.                 2.0:   CWLS LOG ASCII STANDARD - VERSION 2.0
 WRAP.                  NO:   SINGLE LINE PER DEPTH STEP
 CREA.                 08/02/2018 12:32:10
#CREATED USING DSPetro VERSION 5000.10.1.3 BY H191660 ON 08/02/2018 12:32:10
~WELL INFORMATION
#MNEM.UNIT       DATA                          DESCRIPTION MNEMONIC
#---------      ---------------------------   --------------------------
 STRT    .FT        12485.9921                : START DEPTH
 STOP    .FT        17557.9921                : STOP DEPTH
 STEP    .FT        0.5000                    : STEP VALUE
 NULL    .      -999.0000                     : NULL VALUE
 DATE    .      08/02/2018                    : LAS file Creation Date
 WELL  .      UNIVERSITY_20-27           : Well Name
 COMP  .      Chesapeake Operating, Inc. : Company
 FLD   .      Haley                      : Field
 STATE .      Texas                      : State
 COUNT .      USA                        : Country
 API   .      42-495-33261               : API Number
 UWI   .      508                        : Unique Well Identifier (UWI)
 LOC   .      1320' FSL & 1320' FEL      : Location
 TOWN  .      20                         : Township
 SCT   .      27                         : Section
 RANG  .      University Lands           : Range
 PDAT  .      Ground Level               : Permanent Datum
 EPDAT .      2777.000000                : Reference Elevation
 LGMEA .      Kelly Bushing              : Log Measured from
 DRMEA .      Kelly Bushing              : Drill Measured From
 APDAT .      25.000000                  : Elevation Above Permanent Datum
 KB    .      2802.00000                 : KB Elevation
 GL    .      2777.00000                 : GL Elevation
 RWS   .      -999                       : Def_Rw
 WST   .      -999                       : Def_Rwt
 CNTY  .      Winkler                    : County
 SRVC  .      Schlumberger               : Contractor
~CURVE INFORMATION
#MNEM              UNIT       API CODE   Curve Type Comments
#----------  --------------- ----------  ---------- -----------
 DEPTH      .FT                        : Depth       
 BS         .inch                      : BitSize     
 CAL_INCH   .inch                      :             Caliper Log - A representation of the measured diameter of a borehole along its depth
 GR         .GAPI                      : GammaRay    Gamma-Ray {F11.4}
 SRES       .ohmm                      :             20" array induction, one foot resistivity
 MRES       .ohm.m                     :             30" array induction, one foot resistivity
 DRES       .ohmm                      :             90" array induction, one foot resistivity log - units of ohmm
 DT_US_FT   .us/ft                     :             Interval Transit Time: Compressional Wave - Evaluates the time it takes for a compressional wave to traverse a fixed distance
 NPHI_v/v   .ratio                     :             Neutron Porosity - Measured with an neutron logging device calibrated to a given matrix (limestone, sandstone and dolomite)
 RHOB_G_CC  .g/cc                      :             Bulk Density - Measures the density of bulk material, including any void space or other materials contained in the subject volume
 HDRA       .G/C3                      : Drho        HRDD Density Correction {F11.4}
 PEF_B_E    .b/e-                      : PEF         Photoelectric Factor - A log of photoelectric absorption properties. Often expressed in an approximation unit barns/electron (b/e-)
 LITH       .                          : LITH        Lithology Curve
~A  DEPTH     BS     CAL_INCH     GR       SRES      MRES      DRES    DT_US_FT  NPHI_v/v RHOB_G_C~    HDRA    PEF_B_E     LITH   
# ...
16176.4921    6.5000    6.5234 -999.0000    2.5783    2.6705    2.9497 -999.0000    0.0729    2.5418 -999.0000    3.0638   37.0000 
16176.9921    6.5000    6.5363 -999.0000    4.4978    5.3692    5.3969 -999.0000    0.0305    2.5678 -999.0000    3.0946   27.0000 
16177.4921    6.5000    6.5040 -999.0000   11.3271   14.0527   14.9927 -999.0000    0.0093    2.5846 -999.0000    2.9462   27.0000 
16177.9921    6.5000    6.5234 -999.0000   24.9852   53.0331   36.6594 -999.0000    0.0066    2.5855 -999.0000    2.8058   27.0000 
16178.4921    6.5000    6.5363 -999.0000   69.0555   53.6212   47.4005 -999.0000    0.0084    2.5683 -999.0000    3.1379   27.0000 
16178.9921    6.5000    6.5427 -999.0000   36.1349   41.7857   38.5272 -999.0000    0.0144    2.5618 -999.0000    3.1179   27.0000 
16179.4921    6.5000    6.4589 -999.0000   32.0005   20.8895   21.3133 -999.0000    0.0194    2.5718 -999.0000    3.4433   27.0000 
16179.9921    6.5000    6.4189 -999.0000   17.8624   20.5335   21.9752 -999.0000    0.0184    2.5870 -999.0000    3.2323   27.0000 
16180.4921    6.5000    6.4460 -999.0000   31.4257   22.9343   23.4583 -999.0000    0.0070    2.6128 -999.0000    3.5709   27.0000 
16180.9921    6.5000    6.4138 -999.0000   46.1409   20.3259   19.4131 -999.0000    0.0107    2.6339 -999.0000    3.3135   27.0000 
16181.4921    6.5000    6.4073 -999.0000   19.4121    9.4148    8.6202 -999.0000    0.0403    2.6253 -999.0000    3.2865   22.0000 
16181.9921    6.5000    6.4073 -999.0000    4.8002    4.1921    3.8302 -999.0000    0.1118    2.5766 -999.0000    3.2767   37.0000 
16182.4921    6.5000    6.4395 -999.0000    2.1532    1.8892    1.7583 -999.0000    0.1549    2.5385 -999.0000    3.3550   37.0000 
16182.9921    6.5000    6.4395 -999.0000    2.4063    2.3584    2.3188 -999.0000    0.1324    2.5076 -999.0000    3.1081   37.0000 
16183.4921    6.5000    6.4395 -999.0000    2.7703    3.0678    2.9561 -999.0000    0.1039    2.5109 -999.0000    3.0728   37.0000 
16183.9921    6.5000    6.4395 -999.0000    3.1064    3.6767    3.6446 -999.0000    0.0942    2.5281 -999.0000    3.0375   37.0000 
16184.4921    6.5000    6.4331 -999.0000    3.6785    4.1989    4.1143 -999.0000    0.0900    2.5390 -999.0000    3.2966   37.0000 
16184.9921    6.5000    6.4395 -999.0000    3.5577    3.7184    3.6807 -999.0000    0.1034    2.5424 -999.0000    3.3586   37.0000 
16185.4921    6.5000    6.4524 -999.0000    3.7554    4.0691    3.8271 -999.0000    0.1148    2.5359 -999.0000    3.5676   37.0000 
16185.9921    6.5000    6.4602 -999.0000    3.7240    4.2064    4.0422 -999.0000    0.1195    2.5335 -999.0000    3.4668   37.0000 
16186.4921    6.5000    6.4653 -999.0000    4.9413    5.9456    5.6712 -999.0000    0.1122    2.5303 -999.0000    3.3170   37.0000 
16186.9921    6.5000    6.4267 -999.0000    6.7190    8.9218    8.3816 -999.0000    0.0980    2.5398 -999.0000    3.1803   37.0000 
16187.4921    6.5000    6.4718 -999.0000   12.9235   20.0958   17.0213 -999.0000    0.0811    2.5635 -999.0000    3.2359   37.0000 
16187.9921    6.5000    6.4331 -999.0000   20.2052   24.4839   21.8306 -999.0000    0.0731    2.5834 -999.0000    3.5485   37.0000 
16188.4921    6.5000    6.4524 -999.0000   22.7965   20.4827   16.2151 -999.0000    0.0736    2.5819 -999.0000    3.5672   36.0000 
16188.9921    6.5000    6.4524 -999.0000   13.4545   13.7915   10.9360 -999.0000    0.0862    2.5686 -999.0000    3.3340   36.0000 
16189.4921    6.5000    6.4460 -999.0000    8.7066    9.1900    8.0296 -999.0000    0.0983    2.5584 -999.0000    3.1405   37.0000 
16189.9921    6.5000    6.4395 -999.0000    8.0177    8.1464    7.3198 -999.0000    0.0991    2.5502 -999.0000    3.0351   37.0000 
16190.4921    6.5000    6.4718 -999.0000    9.9733   11.8375   10.2489 -999.0000    0.0845    2.5627 -999.0000    3.1879   37.0000 
16190.9921    6.5000    6.4524 -999.0000   13.4039   17.3075   15.7131 -999.0000    0.0755    2.5787 -999.0000    3.2012   37.0000 
16191.4921    6.5000    6.4911 -999.0000   16.1068   18.1567   15.2243 -999.0000    0.0676    2.5914 -999.0000    3.1552   37.0000 
16191.9921    6.5000    6.4653 -999.0000   17.5883   16.3416   15.3288 -999.0000    0.0530    2.6129 -999.0000    3.1513   36.0000 
16192.4921    6.5000    6.4911 -999.0000   22.8076   13.2140   11.5163 -999.0000    0.0529    2.6144 -999.0000    3.0381   36.0000 
16192.9921    6.5000    6.4718 -999.0000    7.5293    7.8896    6.9328 -999.0000    0.0735    2.5954 -999.0000    3.1659   37.0000 
16193.4921    6.5000    6.4911 -999.0000    4.2068    3.6355    3.4176 -999.0000    0.1133    2.5602 -999.0000    3.2044   37.0000 
16193.9921    6.5000    6.4782 -999.0000    3.0818    2.7704    2.7256 -999.0000    0.1170    2.5546 -999.0000    3.4687   37.0000 
16194.4921    6.5000    6.4976 -999.0000    3.3847    3.5822    3.4050 -999.0000    0.0928    2.5741 -999.0000    3.5353   37.0000 
16194.9921    6.5000    6.4911 -999.0000    3.1846    3.0280    2.9271 -999.0000    0.0845    2.5667 -999.0000    3.6881   37.0000 
16195.4921    6.5000    6.4847 -999.0000    3.4624    3.1748    3.1043 -999.0000    0.0924    2.5468 -999.0000    3.6277   37.0000 
16195.9921    6.5000    6.5105 -999.0000    2.7115    2.8731    2.7282 -999.0000    0.1108    2.5272 -999.0000    3.6372   37.0000 
16196.4921    6.5000    6.5169 -999.0000    1.8705    2.0103    1.9420 -999.0000    0.0923    2.5493 -999.0000    3.5063   37.0000 
16196.9921    6.5000    6.4963 -999.0000    2.6819    2.8526    2.7323 -999.0000    0.0340    2.5826 -999.0000    3.3429   27.0000 
16197.4921    6.5000    6.4911 -999.0000    5.7767    5.7959    5.2273 -999.0000    0.0028    2.6090 -999.0000    3.1035   27.0000 
16197.9921    6.5000    6.4847 -999.0000    9.4077   10.0911    8.8593 -999.0000   -0.0022    2.6059 -999.0000    3.0353   27.0000 
16198.4921    6.5000    6.5298 -999.0000    9.5170    7.2991    5.4982 -999.0000    0.0067    2.5969 -999.0000    2.9972   27.0000 
16198.9921    6.5000    6.5427 -999.0000    6.0004    4.6674    4.0940 -999.0000    0.0348    2.5827 -999.0000    3.0888   37.0000 
16199.4921    6.5000    6.5878 -999.0000    3.4746    3.4600    3.4277 -999.0000    0.0891    2.5538 -999.0000    3.1432   37.0000 
16199.9921    6.5000    6.6072 -999.0000    1.6271    1.6997    1.8227 -999.0000    0.1012    2.5395 -999.0000    3.2138   37.0000 
16200.4921    6.5000    6.6201 -999.0000    2.2954    2.3562    2.4043 -999.0000    0.0477    2.5561 -999.0000    3.0664   37.0000 
16200.9921    6.5000    6.5878 -999.0000    5.4279    5.4966    6.6906 -999.0000    0.0094    2.5997 -999.0000    2.8502   27.0000 
16201.4921    6.5000    6.5556 -999.0000   13.1607   25.6695   14.1294 -999.0000    0.0040    2.6200 -999.0000    2.9363   27.0000 
16201.9921    6.5000    6.5492 -999.0000   27.8114   91.5802   36.8212 -999.0000    0.0039    2.6308 -999.0000    3.1018   27.0000 
16202.4921    6.5000    6.5878 -999.0000   42.2190   49.4736   34.0992 -999.0000    0.0078    2.6411 -999.0000    3.2819   27.0000 
16202.9921    6.5000    6.5685 -999.0000   35.6874   29.7393   34.3192 -999.0000    0.0189    2.6470 -999.0000    3.4526   36.0000 
16203.4921    6.5000    6.5556 -999.0000   14.0934   14.3768   12.9207 -999.0000    0.0534    2.6207 -999.0000    3.5474   36.0000 
16203.9921    6.5000    6.4138 -999.0000    8.0674    8.1857    8.1197 -999.0000    0.1045    2.5774 -999.0000    3.9567   37.0000 
16204.4921    6.5000    6.4653 -999.0000    8.6149    7.7567    7.5197 -999.0000    0.1113    2.5367 -999.0000    4.3786   37.0000 
16204.9921    6.5000    6.4782 -999.0000    7.3988    7.6082    7.3136 -999.0000    0.0990    2.4905 -999.0000    4.9777   37.0000 
16205.4921    6.5000    6.4460 -999.0000    7.4682    7.0794    6.1016 -999.0000    0.0870    2.4640 -999.0000    5.6339   37.0000 
16205.9921    6.5000    6.4460 -999.0000    4.0704    3.7239    3.3354 -999.0000    0.0902    2.4626 -999.0000    5.4108   37.0000 
16206.4921    6.5000    6.4460 -999.0000    2.5909    2.4717    2.3791 -999.0000    0.0651    2.5001 -999.0000    5.0019   37.0000 
