~VERSION INFORMATION
 VERS.                 2.0:   CWLS LOG ASCII STANDARD - VERSION 2.0
 WRAP.                  NO:   SINGLE LINE PER DEPTH STEP
 CREA.                 04/06/2018 10:36:36
#CREATED USING DSPetro VERSION 5000.10.1.3 BY H191660 ON 04/06/2018 10:36:36
~WELL INFORMATION
#MNEM.UNIT       DATA                          DESCRIPTION MNEMONIC
#---------      ---------------------------   --------------------------
 STRT    .M         1989.9456                 : START DEPTH
 STOP    .M         2954.9424                 : STOP DEPTH
 STEP    .M         0.1524                    : STEP VALUE
 NULL    .      -999.0000                     : NULL VALUE
 DATE    .      04/06/2018                    : LAS file Creation Date
 WELL .      15_9_11                     : Well Name
 COMP .      Neftex Exploration Insights : Company
 FLD  .      SLEIPNER OST                : Field
 UWI  .      YNOWL_15911                 : Unique Well Identifier (UWI)
 LOC  .                                  : Location
 RWS  .      -999                        : Def_Rw
 WST  .      -999                        : Def_Rwt
 SRVC .                                  : Contractor
~CURVE INFORMATION
#MNEM                     UNIT       API CODE   Curve Type Comments
#----------         --------------- ----------  ---------- -----------
 DEPTH             .M                         : Depth       
 GR_API            .API                       :             Gamma Ray (API) - Measures the intensity of natural gamma-ray radiation emitted from formations containing radioactive elements, such as K, Th and U
 RD_OHMM           .ohmm                      :             Unspecified Deep Resistivity - No accroynm or method of attainment is specified - units of ohmm
 RM_OHMM           .ohm.m                     :             Unspecified Medium Resistivity - No accroynm or method of attainment is specified
 RS_OHMM           .ohmm                      :             Unspecified Shallow Resistivity - No accroynm or method of attainment is specified
 DT_US_FT          .us/ft                     :             Interval Transit Time: Compressional Wave - Evaluates the time it takes for a compressional wave to traverse a fixed distance
 NEUT_P_RATIO      .ratio                     :             Unspecified Neutron Porosity Log - No accroynm or method of attainment is specified
 RHOB_G_CC         .g/cc                      :             Bulk Density - Measures the density of bulk material, including any void space or other materials contained in the subject volume
 LITH_v1_fromPetro .                          : LITH        Lithology Curve
 LITH_v2_fromCompo .                          : LITH        Lithology Curve
~A  DEPTH   GR_API   RD_OHMM   RM_OHMM   RS_OHMM   DT_US_FT NEUT_P_R~ RHOB_G_C~ LITH_v1_~ LITH_v2_~ 
# ...
2185.0176   55.1631    0.7091    0.8487 -999.0000  129.0509    0.3923    2.2634   22.0000   37.0000 
2185.1700   57.3830    0.7194    0.8434 -999.0000  130.0899    0.4135    2.2160   22.0000   37.0000 
2185.3224   59.6030    0.7296    0.8382 -999.0000  131.1288    0.4348    2.1687   22.0000   37.0000 
2185.4748   61.8229    0.7399    0.8329 -999.0000  132.1678    0.4560    2.1213   22.0000   37.0000 
2185.6272   58.9894    0.7524    0.8922 -999.0000  129.3215    0.4343    2.1555   22.0000   37.0000 
2185.7796   56.1560    0.7648    0.9514 -999.0000  126.4751    0.4126    2.1897   22.0000   37.0000 
2185.9320   53.3225    0.7773    1.0107 -999.0000  123.6288    0.3909    2.2239   22.0000   37.0000 
2186.0844   53.8859    0.7894    1.0049 -999.0000  123.2004    0.3882    2.2294   22.0000   37.0000 
2186.2368   54.4494    0.8016    0.9991 -999.0000  122.7720    0.3855    2.2350   22.0000   37.0000 
2186.3892   55.0129    0.8137    0.9932 -999.0000  122.3437    0.3827    2.2406   22.0000   37.0000 
2186.5416   55.5763    0.8258    0.9874 -999.0000  121.9153    0.3800    2.2461   22.0000   37.0000 
2186.6940   53.9432    0.8300    1.0105 -999.0000  121.0893    0.4063    2.2083   22.0000   37.0000 
2186.8464   52.3102    0.8342    1.0336 -999.0000  120.2633    0.4327    2.1705   22.0000   37.0000 
2186.9988   50.6771    0.8384    1.0567 -999.0000  119.4373    0.4590    2.1327   22.0000   37.0000 
2187.1512   50.0771    0.8349    1.0490 -999.0000  118.4805    0.4297    2.1910   22.0000   37.0000 
2187.3036   49.4771    0.8313    1.0414 -999.0000  117.5238    0.4005    2.2492   22.0000   37.0000 
2187.4560   48.8771    0.8278    1.0337 -999.0000  116.5670    0.3712    2.3075   22.0000   37.0000 
2187.6084   55.5512    0.8178    1.0067 -999.0000  117.9226    0.3712    2.2998   37.0000   37.0000 
2187.7608   62.2252    0.8079    0.9797 -999.0000  119.2782    0.3712    2.2922   37.0000   37.0000 
2187.9132   68.8993    0.7979    0.9527 -999.0000  120.6337    0.3712    2.2845   37.0000   37.0000 
2188.0656   75.5733    0.7880    0.9257 -999.0000  121.9893    0.3712    2.2769   37.0000   37.0000 
2188.2180   75.1263    0.7719    0.9541 -999.0000  121.1978    0.3952    2.2669   37.0000   37.0000 
2188.3704   74.6792    0.7558    0.9826 -999.0000  120.4062    0.4193    2.2570   37.0000   37.0000 
2188.5228   74.2322    0.7397    1.0110 -999.0000  119.6147    0.4433    2.2470   37.0000   37.0000 
2188.6752   66.6856    0.7353    0.9657 -999.0000  121.1961    0.4429    2.2624   22.0000   37.0000 
2188.8276   59.1390    0.7309    0.9203 -999.0000  122.7776    0.4426    2.2777   22.0000   37.0000 
2188.9800   51.5924    0.7265    0.8750 -999.0000  124.3590    0.4422    2.2931   22.0000   37.0000 
2189.1324   53.0818    0.7368    0.8977 -999.0000  122.0420    0.4172    2.3040   22.0000   37.0000 
2189.2848   54.5712    0.7471    0.9203 -999.0000  119.7251    0.3923    2.3148   22.0000   37.0000 
2189.4372   56.0606    0.7574    0.9430 -999.0000  117.4081    0.3673    2.3257   22.0000   37.0000 
2189.5896   55.8585    0.7689    0.9686 -999.0000  117.4699    0.3802    2.3113   22.0000   37.0000 
2189.7420   55.6563    0.7804    0.9941 -999.0000  117.5318    0.3931    2.2969   22.0000   37.0000 
2189.8944   55.4542    0.7920    1.0196 -999.0000  117.5936    0.4060    2.2826   22.0000   37.0000 
2190.0468   55.2521    0.8035    1.0452 -999.0000  117.6554    0.4189    2.2682   22.0000   37.0000 
2190.1992   49.8915    0.8084    1.0521 -999.0000  117.7980    0.3895    2.2892   22.0000   37.0000 
2190.3516   44.5309    0.8132    1.0590 -999.0000  117.9405    0.3602    2.3102   22.0000   37.0000 
2190.5040   39.1703    0.8181    1.0659 -999.0000  118.0831    0.3308    2.3312   22.0000   37.0000 
2190.6564   45.5445    0.8119    1.0323 -999.0000  116.4442    0.3720    2.3043   22.0000   37.0000 
2190.8088   51.9186    0.8057    0.9987 -999.0000  114.8054    0.4132    2.2773   22.0000   37.0000 
2190.9612   58.2928    0.7995    0.9651 -999.0000  113.1665    0.4544    2.2504   22.0000   37.0000 
2191.1136   54.7497    0.7946    0.9568 -999.0000  115.8354    0.4299    2.2716   22.0000   37.0000 
2191.2660   51.2066    0.7896    0.9485 -999.0000  118.5043    0.4054    2.2927   22.0000   37.0000 
2191.4184   47.6634    0.7847    0.9402 -999.0000  121.1733    0.3809    2.3138   22.0000   37.0000 
2191.5708   44.1203    0.7798    0.9319 -999.0000  123.8422    0.3564    2.3350   22.0000   37.0000 
2191.7232   43.9652    0.7729    0.9624 -999.0000  122.8247    0.3576    2.3367   22.0000   37.0000 
2191.8756   43.8102    0.7660    0.9928 -999.0000  121.8073    0.3588    2.3384   22.0000   37.0000 
2192.0280   43.6551    0.7591    1.0233 -999.0000  120.7898    0.3600    2.3401   22.0000   37.0000 
2192.1804   47.8280    0.7608    0.9982 -999.0000  121.6932    0.3896    2.3091   22.0000   37.0000 
2192.3328   52.0008    0.7624    0.9730 -999.0000  122.5966    0.4192    2.2780   22.0000   37.0000 
2192.4852   56.1737    0.7641    0.9479 -999.0000  123.5000    0.4488    2.2470   22.0000   37.0000 
2192.6376   50.7801    0.7612    0.9372 -999.0000  122.9887    0.4266    2.2731   22.0000   37.0000 
2192.7900   45.3864    0.7582    0.9266 -999.0000  122.4774    0.4045    2.2992   22.0000   37.0000 
2192.9424   39.9928    0.7553    0.9159 -999.0000  121.9661    0.3823    2.3253   22.0000   37.0000 
2193.0948   41.6384    0.7586    0.9324 -999.0000  122.0098    0.3928    2.3212   22.0000   37.0000 
2193.2472   43.2839    0.7620    0.9489 -999.0000  122.0534    0.4034    2.3172   22.0000   37.0000 
2193.3996   44.9295    0.7653    0.9654 -999.0000  122.0971    0.4139    2.3131   22.0000   37.0000 
2193.5520   46.5750    0.7686    0.9819 -999.0000  122.1407    0.4245    2.3091   22.0000   37.0000 
2193.7044   47.2025    0.7629    0.9918 -999.0000  122.6486    0.4128    2.2919   22.0000   37.0000 
2193.8568   47.8301    0.7571    1.0018 -999.0000  123.1565    0.4011    2.2748   22.0000   37.0000 
2194.0092   48.4576    0.7514    1.0117 -999.0000  123.6644    0.3894    2.2576   22.0000   37.0000 
2194.1616   45.0102    0.7552    0.9840 -999.0000  121.4695    0.3995    2.2748   22.0000   37.0000 
2194.3140   41.5627    0.7591    0.9562 -999.0000  119.2746    0.4095    2.2920   22.0000   37.0000 
2194.4664   38.1153    0.7629    0.9285 -999.0000  117.0797    0.4196    2.3092   22.0000   37.0000 
2194.6188   37.3942    0.7673    0.9523 -999.0000  112.4962    0.4173    2.3426   22.0000   37.0000 
2194.7712   36.6731    0.7717    0.9761 -999.0000  107.9128    0.4150    2.3760   22.0000   37.0000 
2194.9236   35.9520    0.7761    0.9999 -999.0000  103.3293    0.4128    2.4095   12.0000   37.0000 
2195.0760   35.2309    0.7805    1.0237 -999.0000   98.7458    0.4105    2.4429   12.0000   37.0000 
2195.2284   38.3458    0.7924    0.9914 -999.0000  103.1175    0.3898    2.3891   12.0000   37.0000 
2195.3808   41.4607    0.8042    0.9592 -999.0000  107.4893    0.3690    2.3352   22.0000   37.0000 
2195.5332   44.5756    0.8161    0.9269 -999.0000  111.8610    0.3483    2.2814   22.0000   37.0000 
2195.6856   43.1501    0.8261    0.9581 -999.0000  114.4373    0.3496    2.2735   22.0000   37.0000 
2195.8380   41.7247    0.8360    0.9894 -999.0000  117.0135    0.3510    2.2656   22.0000   37.0000 
2195.9904   40.2992    0.8460    1.0206 -999.0000  119.5898    0.3523    2.2577   22.0000   37.0000 
2196.1428   39.5007    0.8450    1.0754 -999.0000  114.1655    0.3738    2.2783   22.0000   37.0000 
2196.2952   38.7023    0.8440    1.1301 -999.0000  108.7412    0.3953    2.2989   22.0000   37.0000 
2196.4476   37.9038    0.8430    1.1849 -999.0000  103.3169    0.4168    2.3195   22.0000   37.0000 
2196.6000   40.2241    0.8322    1.1197 -999.0000  104.3046    0.3983    2.2950   22.0000   37.0000 
2196.7524   42.5443    0.8213    1.0545 -999.0000  105.2924    0.3798    2.2704   22.0000   37.0000 
2196.9048   44.8646    0.8105    0.9892 -999.0000  106.2801    0.3613    2.2458   22.0000   37.0000 
2197.0572   47.1849    0.7997    0.9240 -999.0000  107.2678    0.3428    2.2213   22.0000   37.0000 
