~VERSION INFORMATION
 VERS.                 2.0:   CWLS LOG ASCII STANDARD - VERSION 2.0
 WRAP.                  NO:   SINGLE LINE PER DEPTH STEP
 CREA.                 04/06/2018 10:36:36
#CREATED USING DSPetro VERSION 5000.10.1.3 BY H191660 ON 04/06/2018 10:36:36
~WELL INFORMATION
#MNEM.UNIT       DATA                          DESCRIPTION MNEMONIC
#---------      ---------------------------   --------------------------
 STRT    .M         1989.9456                 : START DEPTH
 STOP    .M         2954.9424                 : STOP DEPTH
 STEP    .M         0.1524                    : STEP VALUE
 NULL    .      -999.0000                     : NULL VALUE
 DATE    .      04/06/2018                    : LAS file Creation Date
 WELL .      15_9_11                     : Well Name
 COMP .      Neftex Exploration Insights : Company
 FLD  .      SLEIPNER OST                : Field
 UWI  .      YNOWL_15911                 : Unique Well Identifier (UWI)
 LOC  .                                  : Location
 RWS  .      -999                        : Def_Rw
 WST  .      -999                        : Def_Rwt
 SRVC .                                  : Contractor
~CURVE INFORMATION
#MNEM                     UNIT       API CODE   Curve Type Comments
#----------         --------------- ----------  ---------- -----------
 DEPTH             .M                         : Depth       
 GR_API            .API                       :             Gamma Ray (API) - Measures the intensity of natural gamma-ray radiation emitted from formations containing radioactive elements, such as K, Th and U
 RD_OHMM           .ohmm                      :             Unspecified Deep Resistivity - No accroynm or method of attainment is specified - units of ohmm
 RM_OHMM           .ohm.m                     :             Unspecified Medium Resistivity - No accroynm or method of attainment is specified
 RS_OHMM           .ohmm                      :             Unspecified Shallow Resistivity - No accroynm or method of attainment is specified
 DT_US_FT          .us/ft                     :             Interval Transit Time: Compressional Wave - Evaluates the time it takes for a compressional wave to traverse a fixed distance
 NEUT_P_RATIO      .ratio                     :             Unspecified Neutron Porosity Log - No accroynm or method of attainment is specified
 RHOB_G_CC         .g/cc                      :             Bulk Density - Measures the density of bulk material, including any void space or other materials contained in the subject volume
 LITH_v1_fromPetro .                          : LITH        Lithology Curve
 LITH_v2_fromCompo .                          : LITH        Lithology Curve
~A  DEPTH   GR_API   RD_OHMM   RM_OHMM   RS_OHMM   DT_US_FT NEUT_P_R~ RHOB_G_C~ LITH_v1_~ LITH_v2_~ 
# ...
2050.9056   55.2311    0.4811    0.5495 -999.0000  158.7741    0.4795    2.0982    9.0000   37.0000 
2051.0580   53.2287    0.4791    0.5379 -999.0000  157.8848    0.4568    2.1039    9.0000   37.0000 
2051.2104   53.9697    0.4813    0.5292 -999.0000  157.8288    0.4457    2.1090    9.0000   37.0000 
2051.3628   54.7107    0.4834    0.5206 -999.0000  157.7729    0.4345    2.1142    9.0000   37.0000 
2051.5152   55.4517    0.4856    0.5119 -999.0000  157.7169    0.4234    2.1193    9.0000   37.0000 
2051.6676   52.1462    0.5113    0.5932 -999.0000  156.7576    0.4692    2.0983    9.0000   37.0000 
2051.8200   48.8408    0.5369    0.6744 -999.0000  155.7983    0.5151    2.0772    9.0000   37.0000 
2051.9724   45.5353    0.5626    0.7557 -999.0000  154.8390    0.5609    2.0562    9.0000   37.0000 
2052.1248   49.4628    0.5825    0.7051 -999.0000  154.0367    0.5609    2.0785    9.0000   37.0000 
2052.2772   53.3903    0.6023    0.6544 -999.0000  153.2345    0.5609    2.1009    9.0000   37.0000 
2052.4296   57.3178    0.6222    0.6038 -999.0000  152.4322    0.5609    2.1232    9.0000   37.0000 
2052.5820   54.7424    0.6047    0.5981 -999.0000  152.3564    0.5457    2.1210    9.0000   37.0000 
2052.7344   52.1670    0.5871    0.5924 -999.0000  152.2805    0.5306    2.1188    9.0000   37.0000 
2052.8868   49.5915    0.5695    0.5866 -999.0000  152.2047    0.5155    2.1165    9.0000   37.0000 
2053.0392   47.0161    0.5520    0.5809 -999.0000  152.1288    0.5003    2.1143    9.0000   37.0000 
2053.1916   50.6073    0.5435    0.5921 -999.0000  152.5181    0.4864    2.1112    9.0000   37.0000 
2053.3440   54.1986    0.5351    0.6033 -999.0000  152.9073    0.4725    2.1081    9.0000   37.0000 
2053.4964   57.7898    0.5266    0.6145 -999.0000  153.2966    0.4586    2.1050    9.0000   37.0000 
2053.6488   56.6692    0.5264    0.6114 -999.0000  153.6915    0.4538    2.1202    9.0000   37.0000 
2053.8012   55.5485    0.5261    0.6082 -999.0000  154.0865    0.4490    2.1355    9.0000   37.0000 
2053.9536   54.4279    0.5259    0.6051 -999.0000  154.4814    0.4442    2.1507    9.0000   37.0000 
2054.1060   56.0644    0.5243    0.6002 -999.0000  154.9021    0.4678    2.1358    9.0000   37.0000 
2054.2584   57.7008    0.5228    0.5953 -999.0000  155.3229    0.4914    2.1210    9.0000   37.0000 
2054.4108   59.3372    0.5213    0.5904 -999.0000  155.7437    0.5150    2.1061    9.0000   37.0000 
2054.5632   60.9737    0.5197    0.5855 -999.0000  156.1644    0.5386    2.0912    9.0000   37.0000 
2054.7156   56.4627    0.5205    0.5828 -999.0000  156.0814    0.5312    2.0836    9.0000   37.0000 
2054.8680   51.9517    0.5213    0.5801 -999.0000  155.9983    0.5239    2.0761    9.0000   37.0000 
2055.0204   47.4407    0.5221    0.5774 -999.0000  155.9153    0.5165    2.0685    9.0000   37.0000 
2055.1728   48.2390    0.5261    0.5871 -999.0000  155.4684    0.5075    2.0674    9.0000   37.0000 
2055.3252   49.0373    0.5302    0.5968 -999.0000  155.0215    0.4984    2.0663    9.0000   37.0000 
2055.4776   49.8356    0.5342    0.6065 -999.0000  154.5746    0.4894    2.0652    9.0000   37.0000 
2055.6300   54.1576    0.5384    0.6107 -999.0000  154.1277    0.4902    2.0739    9.0000   37.0000 
2055.7824   58.4797    0.5425    0.6150 -999.0000  153.6808    0.4909    2.0826    9.0000   37.0000 
2055.9348   62.8017    0.5467    0.6192 -999.0000  153.2339    0.4917    2.0913    9.0000   37.0000 
2056.0872   62.6025    0.5469    0.6180 -999.0000  153.1839    0.5138    2.0986    9.0000   37.0000 
2056.2396   62.4032    0.5472    0.6169 -999.0000  153.1339    0.5360    2.1059    9.0000   37.0000 
2056.3920   62.2039    0.5475    0.6158 -999.0000  153.0839    0.5581    2.1133    9.0000   37.0000 
2056.5444   62.0047    0.5477    0.6146 -999.0000  153.0339    0.5803    2.1206    9.0000   37.0000 
2056.6968   59.3920    0.5460    0.6099 -999.0000  152.8887    0.5436    2.1162    9.0000   37.0000 
2056.8492   56.7794    0.5442    0.6053 -999.0000  152.7435    0.5068    2.1119    9.0000   37.0000 
2057.0016   54.1667    0.5425    0.6006 -999.0000  152.5983    0.4701    2.1075    9.0000   37.0000 
2057.1540   51.7935    0.5416    0.5972 -999.0000  152.0006    0.4894    2.1130    9.0000   37.0000 
2057.3064   49.4202    0.5408    0.5938 -999.0000  151.4028    0.5087    2.1184    9.0000   37.0000 
2057.4588   47.0470    0.5399    0.5904 -999.0000  150.8051    0.5280    2.1239    9.0000   37.0000 
2057.6112   49.3630    0.5410    0.5888 -999.0000  150.1894    0.5129    2.1234    9.0000   37.0000 
2057.7636   51.6790    0.5422    0.5871 -999.0000  149.5738    0.4977    2.1230    9.0000   37.0000 
2057.9160   53.9950    0.5433    0.5855 -999.0000  148.9581    0.4826    2.1225    9.0000   37.0000 
2058.0684   56.3110    0.5444    0.5839 -999.0000  148.3424    0.4675    2.1220    9.0000   37.0000 
2058.2208   52.8169    0.5449    0.5896 -999.0000  147.7949    0.4860    2.1091    9.0000   37.0000 
2058.3732   49.3229    0.5454    0.5952 -999.0000  147.2475    0.5044    2.0962    9.0000   37.0000 
2058.5256   45.8288    0.5459    0.6009 -999.0000  146.7000    0.5229    2.0833    9.0000   37.0000 
2058.6780   46.4664    0.5494    0.6047 -999.0000  146.3362    0.5094    2.0757    9.0000   37.0000 
2058.8304   47.1041    0.5530    0.6085 -999.0000  145.9723    0.4958    2.0681    9.0000   37.0000 
2058.9828   47.7417    0.5565    0.6123 -999.0000  145.6085    0.4823    2.0605    9.0000   37.0000 
2059.1352   47.7625    0.5609    0.5983 -999.0000  145.5328    0.4980    2.0668    9.0000   37.0000 
2059.2876   47.7834    0.5653    0.5843 -999.0000  145.4571    0.5138    2.0732    9.0000   37.0000 
2059.4400   47.8042    0.5697    0.5703 -999.0000  145.3814    0.5295    2.0795    9.0000   37.0000 
2059.5924   47.1604    0.5914    0.6349 -999.0000  134.0742    0.5301    2.0761    9.0000   37.0000 
2059.7448   46.5165    0.6131    0.6995 -999.0000  122.7669    0.5308    2.0728    9.0000   37.0000 
2059.8972   45.8727    0.6348    0.7641 -999.0000  111.4597    0.5315    2.0694    9.0000   37.0000 
2060.0496   45.2288    0.6565    0.8287 -999.0000  100.1525    0.5321    2.0660   12.0000   37.0000 
2060.2020   38.2144    0.7496    0.9697 -999.0000   96.7520    0.5054    2.2871   12.0000   37.0000 
2060.3544   31.2000    0.8427    1.1106 -999.0000   93.3514    0.4787    2.5081   12.0000   37.0000 
2060.5068   24.1856    0.9358    1.2516 -999.0000   89.9509    0.4520    2.7292   12.0000   37.0000 
2060.6592   27.4572    0.8574    1.0267 -999.0000  108.7650    0.4438    2.7261   12.0000   22.0000 
2060.8116   30.7288    0.7791    0.8018 -999.0000  127.5792    0.4357    2.7230   12.0000   22.0000 
2060.9640   34.0004    0.7007    0.5769 -999.0000  146.3933    0.4275    2.7199   12.0000   22.0000 
2061.1164   38.2783    0.6739    0.5719 -999.0000  145.9420    0.4516    2.5588   12.0000   22.0000 
2061.2688   42.5562    0.6471    0.5669 -999.0000  145.4907    0.4757    2.3978   12.0000   22.0000 
2061.4212   46.8340    0.6202    0.5619 -999.0000  145.0394    0.4999    2.2368    9.0000   22.0000 
2061.5736   51.1119    0.5934    0.5569 -999.0000  144.5881    0.5240    2.0757    9.0000   22.0000 
2061.7260   52.5738    0.5923    0.5775 -999.0000  144.7005    0.5088    2.0947    9.0000   37.0000 
2061.8784   54.0356    0.5912    0.5982 -999.0000  144.8130    0.4935    2.1138    9.0000   37.0000 
2062.0308   55.4975    0.5901    0.6188 -999.0000  144.9254    0.4783    2.1328    9.0000   37.0000 
2062.1832   54.2441    0.5936    0.6059 -999.0000  146.9983    0.5066    2.1184    9.0000   37.0000 
2062.3356   52.9907    0.5972    0.5931 -999.0000  149.0712    0.5350    2.1040    9.0000   37.0000 
2062.4880   51.7373    0.6007    0.5802 -999.0000  151.1441    0.5633    2.0896    9.0000   37.0000 
2062.6404   48.1776    0.6005    0.5964 -999.0000  144.8736    0.5275    2.1435   22.0000   37.0000 
2062.7928   44.6178    0.6003    0.6127 -999.0000  138.6032    0.4916    2.1973   22.0000   37.0000 
2062.9452   41.0581    0.6001    0.6289 -999.0000  132.3327    0.4558    2.2512   22.0000   37.0000 
