~VERSION INFORMATION
 VERS.                 2.0:   CWLS LOG ASCII STANDARD - VERSION 2.0
 WRAP.                  NO:   SINGLE LINE PER DEPTH STEP
 CREA.                 04/06/2018 10:36:36
#CREATED USING DSPetro VERSION 5000.10.1.3 BY H191660 ON 04/06/2018 10:36:36
~WELL INFORMATION
#MNEM.UNIT       DATA                          DESCRIPTION MNEMONIC
#---------      ---------------------------   --------------------------
 STRT    .M         1989.9456                 : START DEPTH
 STOP    .M         2954.9424                 : STOP DEPTH
 STEP    .M         0.1524                    : STEP VALUE
 NULL    .      -999.0000                     : NULL VALUE
 DATE    .      04/06/2018                    : LAS file Creation Date
 WELL .      15_9_11                     : Well Name
 COMP .      Neftex Exploration Insights : Company
 FLD  .      SLEIPNER OST                : Field
 UWI  .      YNOWL_15911                 : Unique Well Identifier (UWI)
 LOC  .                                  : Location
 RWS  .      -999                        : Def_Rw
 WST  .      -999                        : Def_Rwt
 SRVC .                                  : Contractor
~CURVE INFORMATION
#MNEM                     UNIT       API CODE   Curve Type Comments
#----------         --------------- ----------  ---------- -----------
 DEPTH             .M                         : Depth       
 GR_API            .API                       :             Gamma Ray (API) - Measures the intensity of natural gamma-ray radiation emitted from formations containing radioactive elements, such as K, Th and U
 RD_OHMM           .ohmm                      :             Unspecified Deep Resistivity - No accroynm or method of attainment is specified - units of ohmm
 RM_OHMM           .ohm.m                     :             Unspecified Medium Resistivity - No accroynm or method of attainment is specified
 RS_OHMM           .ohmm                      :             Unspecified Shallow Resistivity - No accroynm or method of attainment is specified
 DT_US_FT          .us/ft                     :             Interval Transit Time: Compressional Wave - Evaluates the time it takes for a compressional wave to traverse a fixed distance
 NEUT_P_RATIO      .ratio                     :             Unspecified Neutron Porosity Log - No accroynm or method of attainment is specified
 RHOB_G_CC         .g/cc                      :             Bulk Density - Measures the density of bulk material, including any void space or other materials contained in the subject volume
 LITH_v1_fromPetro .                          : LITH        Lithology Curve
 LITH_v2_fromCompo .                          : LITH        Lithology Curve
~A  DEPTH   GR_API   RD_OHMM   RM_OHMM   RS_OHMM   DT_US_FT NEUT_P_R~ RHOB_G_C~ LITH_v1_~ LITH_v2_~ 
1989.9456   61.1123    0.5235    0.5948 -999.0000  160.0509    0.5679    2.0830 -999.0000 -999.0000 
1990.0980   59.9682    0.5304    0.6057 -999.0000  159.4229    0.5390    2.0928 -999.0000 -999.0000 
1990.2504   58.8242    0.5374    0.6165 -999.0000  158.7950    0.5101    2.1025 -999.0000 -999.0000 
1990.4028   57.6801    0.5444    0.6274 -999.0000  158.1670    0.4812    2.1122 -999.0000 -999.0000 
1990.5552   56.5360    0.5513    0.6383 -999.0000  157.5390    0.4523    2.1220 -999.0000 -999.0000 
1990.7076   61.5470    0.5556    0.6458 -999.0000  157.0915    0.4447    2.1156 -999.0000 -999.0000 
1990.8600   66.5581    0.5599    0.6533 -999.0000  156.6441    0.4370    2.1093 -999.0000 -999.0000 
1991.0124   71.5691    0.5642    0.6608 -999.0000  156.1966    0.4294    2.1029 -999.0000 -999.0000 
1991.1648   67.7233    0.5642    0.6473 -999.0000  156.5124    0.4497    2.0958 -999.0000 -999.0000 
1991.3172   63.8776    0.5643    0.6337 -999.0000  156.8283    0.4701    2.0887 -999.0000 -999.0000 
1991.4696   60.0318    0.5643    0.6202 -999.0000  157.1441    0.4904    2.0816 -999.0000 -999.0000 
1991.6220   58.7829    0.5593    0.6165 -999.0000  157.4339    0.5164    2.0702 -999.0000 -999.0000 
1991.7744   57.5339    0.5542    0.6128 -999.0000  157.7238    0.5423    2.0589 -999.0000 -999.0000 
1991.9268   56.2850    0.5492    0.6091 -999.0000  158.0136    0.5683    2.0475 -999.0000 -999.0000 
1992.0792   57.0088    0.5459    0.6163 -999.0000  157.9318    0.5394    2.0620 -999.0000 -999.0000 
1992.2316   57.7326    0.5425    0.6235 -999.0000  157.8500    0.5106    2.0765 -999.0000 -999.0000 
1992.3840   58.4563    0.5392    0.6308 -999.0000  157.7682    0.4817    2.0910 -999.0000 -999.0000 
1992.5364   59.1801    0.5359    0.6380 -999.0000  157.6864    0.4528    2.1055 -999.0000 -999.0000 
1992.6888   57.1196    0.5337    0.6240 -999.0000  157.9909    0.4487    2.1021 -999.0000 -999.0000 
1992.8412   55.0592    0.5314    0.6101 -999.0000  158.2955    0.4447    2.0988 -999.0000 -999.0000 
1992.9936   52.9987    0.5292    0.5961 -999.0000  158.6000    0.4406    2.0954 -999.0000 -999.0000 
1993.1460   56.0846    0.5284    0.6152 -999.0000  158.4864    0.4861    2.0975 -999.0000 -999.0000 
1993.2984   59.1705    0.5276    0.6344 -999.0000  158.3729    0.5317    2.0995 -999.0000 -999.0000 
1993.4508   62.2564    0.5268    0.6535 -999.0000  158.2593    0.5772    2.1016 -999.0000 -999.0000 
1993.6032   62.8284    0.5278    0.6360 -999.0000  158.5233    0.5407    2.1030 -999.0000 -999.0000 
1993.7556   63.4005    0.5287    0.6186 -999.0000  158.7872    0.5041    2.1044 -999.0000 -999.0000 
1993.9080   63.9725    0.5296    0.6012 -999.0000  159.0512    0.4675    2.1058 -999.0000 -999.0000 
1994.0604   64.5445    0.5306    0.5837 -999.0000  159.3152    0.4310    2.1072 -999.0000 -999.0000 
1994.2128   59.5394    0.5312    0.5969 -999.0000  159.4197    0.4627    2.0995 -999.0000 -999.0000 
1994.3652   54.5343    0.5317    0.6101 -999.0000  159.5243    0.4943    2.0918 -999.0000 -999.0000 
1994.5176   49.5292    0.5323    0.6233 -999.0000  159.6288    0.5260    2.0841 -999.0000 -999.0000 
1994.6700   54.2610    0.5368    0.6150 -999.0000  159.1085    0.5174    2.0821 -999.0000 -999.0000 
1994.8224   58.9928    0.5414    0.6066 -999.0000  158.5881    0.5088    2.0801 -999.0000 -999.0000 
1994.9748   63.7246    0.5459    0.5983 -999.0000  158.0678    0.5002    2.0781 -999.0000 -999.0000 
1995.1272   61.0411    0.5470    0.6153 -999.0000  158.0525    0.4860    2.0780 -999.0000 -999.0000 
1995.2796   58.3577    0.5482    0.6323 -999.0000  158.0373    0.4719    2.0779 -999.0000 -999.0000 
1995.4320   55.6742    0.5493    0.6493 -999.0000  158.0220    0.4577    2.0778 -999.0000 -999.0000 
1995.5844   56.9860    0.5462    0.6322 -999.0000  158.4830    0.4547    2.0854 -999.0000 -999.0000 
1995.7368   58.2979    0.5431    0.6152 -999.0000  158.9441    0.4517    2.0931 -999.0000 -999.0000 
1995.8892   59.6097    0.5399    0.5982 -999.0000  159.4051    0.4487    2.1007 -999.0000 -999.0000 
1996.0416   60.9216    0.5368    0.5811 -999.0000  159.8661    0.4457    2.1083 -999.0000 -999.0000 
1996.1940   60.0309    0.5369    0.5881 -999.0000  159.9554    0.4723    2.0907 -999.0000 -999.0000 
1996.3464   59.1403    0.5370    0.5950 -999.0000  160.0446    0.4988    2.0731 -999.0000 -999.0000 
1996.4988   58.2496    0.5371    0.6020 -999.0000  160.1339    0.5254    2.0555 -999.0000 -999.0000 
1996.6512   59.7123    0.5424    0.6216 -999.0000  159.4153    0.5105    2.0667 -999.0000 -999.0000 
1996.8036   61.1750    0.5476    0.6412 -999.0000  158.6966    0.4957    2.0778 -999.0000 -999.0000 
1996.9560   62.6377    0.5529    0.6608 -999.0000  157.9780    0.4808    2.0890 -999.0000 -999.0000 
1997.1084   63.9407    0.5578    0.6571 -999.0000  157.4305    0.4882    2.0820 -999.0000 -999.0000 
1997.2608   65.2437    0.5627    0.6533 -999.0000  156.8831    0.4955    2.0750 -999.0000 -999.0000 
1997.4132   66.5466    0.5676    0.6496 -999.0000  156.3356    0.5028    2.0680 -999.0000 -999.0000 
1997.5656   67.8496    0.5725    0.6459 -999.0000  155.7881    0.5102    2.0610 -999.0000 -999.0000 
1997.7180   64.2526    0.5731    0.6359 -999.0000  155.9440    0.5022    2.0809 -999.0000 -999.0000 
1997.8704   60.6555    0.5737    0.6260 -999.0000  156.1000    0.4941    2.1007 -999.0000 -999.0000 
1998.0228   57.0585    0.5743    0.6160 -999.0000  156.2559    0.4861    2.1206 -999.0000 -999.0000 
1998.1752   58.1589    0.5721    0.6290 -999.0000  156.1553    0.5082    2.1144 -999.0000 -999.0000 
1998.3276   59.2593    0.5698    0.6420 -999.0000  156.0548    0.5302    2.1083 -999.0000 -999.0000 
1998.4800   60.3597    0.5676    0.6550 -999.0000  155.9542    0.5523    2.1021 -999.0000 -999.0000 
1998.6324   61.8067    0.5702    0.6503 -999.0000  156.0689    0.5243    2.1060 -999.0000 -999.0000 
1998.7848   63.2538    0.5728    0.6456 -999.0000  156.1836    0.4963    2.1099 -999.0000 -999.0000 
1998.9372   64.7008    0.5754    0.6409 -999.0000  156.2983    0.4683    2.1138 -999.0000 -999.0000 
1999.0896   65.8331    0.5793    0.6424 -999.0000  155.9246    0.4739    2.0982 -999.0000 -999.0000 
1999.2420   66.9655    0.5832    0.6439 -999.0000  155.5508    0.4796    2.0826 -999.0000 -999.0000 
1999.3944   68.0978    0.5870    0.6454 -999.0000  155.1771    0.4852    2.0670 -999.0000 -999.0000 
1999.5468   69.2301    0.5909    0.6469 -999.0000  154.8034    0.4908    2.0514 -999.0000 -999.0000 
1999.6992   70.2318    0.5999    0.6614 -999.0000  153.5695    0.5083    2.0635 -999.0000 -999.0000 
1999.8516   71.2335    0.6089    0.6759 -999.0000  152.3357    0.5257    2.0757 -999.0000 -999.0000 
2000.0040   72.2352    0.6179    0.6904 -999.0000  151.1018    0.5432    2.0878 -999.0000 -999.0000 
2000.1564   67.0865    0.6292    0.7025 -999.0000  150.5492    0.5255    2.0990 -999.0000   37.0000 
2000.3088   61.9377    0.6404    0.7145 -999.0000  149.9967    0.5077    2.1103 -999.0000   37.0000 
2000.4612   56.7890    0.6517    0.7266 -999.0000  149.4441    0.4900    2.1215 -999.0000   37.0000 
2000.6136   60.1574    0.6665    0.7350 -999.0000  149.8314    0.5032    2.1178    9.0000   37.0000 
2000.7660   63.5259    0.6812    0.7434 -999.0000  150.2187    0.5164    2.1141    9.0000   37.0000 
2000.9184   66.8943    0.6960    0.7518 -999.0000  150.6059    0.5295    2.1104    9.0000   37.0000 
2001.0708   70.2627    0.7108    0.7602 -999.0000  150.9932    0.5427    2.1067    9.0000   37.0000 
2001.2232   67.5926    0.7033    0.7451 -999.0000  151.7898    0.5229    2.1212    9.0000   37.0000 
2001.3756   64.9226    0.6958    0.7300 -999.0000  152.5865    0.5031    2.1358    9.0000   37.0000 
2001.5280   62.2525    0.6883    0.7149 -999.0000  153.3831    0.4833    2.1503    9.0000   37.0000 
2001.6804   63.4610    0.6410    0.6746 -999.0000  154.9769    0.4994    2.1405    9.0000   37.0000 
2001.8328   64.6695    0.5936    0.6344 -999.0000  156.5706    0.5154    2.1307    9.0000   37.0000 
2001.9852   65.8780    0.5463    0.5941 -999.0000  158.1644    0.5315    2.1209    9.0000   37.0000 
