~VERSION INFORMATION
 VERS.                 2.0:   CWLS LOG ASCII STANDARD - VERSION 2.0
 WRAP.                  NO:   SINGLE LINE PER DEPTH STEP
 CREA.                 04/06/2018 10:36:36
#CREATED USING DSPetro VERSION 5000.10.1.3 BY H191660 ON 04/06/2018 10:36:36
~WELL INFORMATION
#MNEM.UNIT       DATA                          DESCRIPTION MNEMONIC
#---------      ---------------------------   --------------------------
 STRT    .M         1989.9456                 : START DEPTH
 STOP    .M         2954.9424                 : STOP DEPTH
 STEP    .M         0.1524                    : STEP VALUE
 NULL    .      -999.0000                     : NULL VALUE
 DATE    .      04/06/2018                    : LAS file Creation Date
 WELL .      15_9_11                     : Well Name
 COMP .      Neftex Exploration Insights : Company
 FLD  .      SLEIPNER OST                : Field
 UWI  .      YNOWL_15911                 : Unique Well Identifier (UWI)
 LOC  .                                  : Location
 RWS  .      -999                        : Def_Rw
 WST  .      -999                        : Def_Rwt
 SRVC .                                  : Contractor
~CURVE INFORMATION
#MNEM                     UNIT       API CODE   Curve Type Comments
#----------         --------------- ----------  ---------- -----------
 DEPTH             .M                         : Depth       
 GR_API            .API                       :             Gamma Ray (API) - Measures the intensity of natural gamma-ray radiation emitted from formations containing radioactive elements, such as K, Th and U
 RD_OHMM           .ohmm                      :             Unspecified Deep Resistivity - No accroynm or method of attainment is specified - units of ohmm
 RM_OHMM           .ohm.m                     :             Unspecified Medium Resistivity - No accroynm or method of attainment is specified
 RS_OHMM           .ohmm                      :             Unspecified Shallow Resistivity - No accroynm or method of attainment is specified
 DT_US_FT          .us/ft                     :             Interval Transit Time: Compressional Wave - Evaluates the time it takes for a compressional wave to traverse a fixed distance
 NEUT_P_RATIO      .ratio                     :             Unspecified Neutron Porosity Log - No accroynm or method of attainment is specified
 RHOB_G_CC         .g/cc                      :             Bulk Density - Measures the density of bulk material, including any void space or other materials contained in the subject volume
 LITH_v1_fromPetro .                          : LITH        Lithology Curve
 LITH_v2_fromCompo .                          : LITH        Lithology Curve
~A  DEPTH   GR_API   RD_OHMM   RM_OHMM   RS_OHMM   DT_US_FT NEUT_P_R~ RHOB_G_C~ LITH_v1_~ LITH_v2_~ 
# ...
2367.8976   53.9213    0.8985    1.1278    1.0098  115.0508    0.3717    2.2010   37.0000   37.0000 
2368.0500   55.9417    0.8816    1.1854    1.1887  116.7627    0.3134    2.1528   37.0000   37.0000 
2368.2024   56.0974    0.8582    1.1444    0.9611  118.6610    0.3585    2.1859   37.0000   37.0000 
2368.3548   56.2532    0.8349    1.1035    0.7334  120.5593    0.4035    2.2191   37.0000   37.0000 
2368.5072   56.4089    0.8115    1.0625    0.5058  122.4576    0.4486    2.2522   37.0000   37.0000 
2368.6596   54.5657    0.8023    1.0148    0.5160  122.2316    0.4568    2.2009   37.0000   37.0000 
2368.8120   52.7224    0.7932    0.9671    0.5262  122.0057    0.4649    2.1496   37.0000   37.0000 
2368.9644   50.8792    0.7840    0.9194    0.5364  121.7797    0.4731    2.0983   37.0000   37.0000 
2369.1168   53.8331    0.9445    0.9559    0.5985  115.5806    0.4564    2.1393   37.0000   37.0000 
2369.2692   56.7870    1.1050    0.9924    0.6606  109.3814    0.4398    2.1804   37.0000   37.0000 
2369.4216   59.7410    1.2656    1.0290    0.7227  103.1823    0.4231    2.2215   37.0000   37.0000 
2369.5740   62.6949    1.4261    1.0655    0.7848   96.9831    0.4064    2.2625   37.0000   37.0000 
2369.7264   55.9809    1.5842    1.6164    1.1468   90.4464    0.3980    2.2813   37.0000   37.0000 
2369.8788   49.2670    1.7422    2.1673    1.5087   83.9096    0.3896    2.3001   37.0000   37.0000 
2370.0312   42.5530    1.9003    2.7182    1.8707   77.3729    0.3812    2.3189   37.0000   37.0000 
2370.1836   42.6865    1.8362    2.6539    3.6799   78.2091    0.3357    2.3654   37.0000   37.0000 
2370.3360   42.8199    1.7722    2.5897    5.4891   79.0452    0.2903    2.4118   37.0000   37.0000 
2370.4884   42.9534    1.7081    2.5254    7.2983   79.8814    0.2448    2.4583   37.0000   37.0000 
2370.6408   51.6970    1.5809    2.1727    5.1246   93.6215    0.2882    2.4026   37.0000   37.0000 
2370.7932   60.4407    1.4538    1.8201    2.9508  107.3616    0.3317    2.3468   37.0000   37.0000 
2370.9456   69.1843    1.3266    1.4674    0.7771  121.1017    0.3751    2.2911   37.0000   37.0000 
2371.0980   63.5681    1.3384    1.4111    0.7794  119.3220    0.3930    2.2819   37.0000   37.0000 
2371.2504   57.9518    1.3503    1.3548    0.7817  117.5424    0.4110    2.2727   37.0000   37.0000 
2371.4028   52.3355    1.3621    1.2985    0.7840  115.7627    0.4290    2.2635   37.0000   37.0000 
2371.5552   46.7193    1.3739    1.2422    0.7863  113.9830    0.4469    2.2543   37.0000   37.0000 
2371.7076   46.1356    1.2267    1.3424    1.6773  104.3785    0.4099    2.2894   37.0000   37.0000 
2371.8600   45.5519    1.0794    1.4427    2.5682   94.7740    0.3729    2.3245   37.0000   37.0000 
2372.0124   44.9682    0.9322    1.5429    3.4592   85.1695    0.3359    2.3596   37.0000   37.0000 
2372.1648   49.7722    0.8882    1.3991    2.6203   96.1299    0.3662    2.3388   37.0000   37.0000 
2372.3172   54.5763    0.8442    1.2554    1.7813  107.0904    0.3966    2.3181   37.0000   37.0000 
2372.4696   59.3803    0.8002    1.1116    0.9424  118.0508    0.4269    2.2973   37.0000   37.0000 
2372.6220   61.4767    0.8211    1.0635    1.1326  114.6101    0.4039    2.2721   37.0000   37.0000 
2372.7744   63.5731    0.8420    1.0154    1.3228  111.1695    0.3808    2.2469   37.0000   37.0000 
2372.9268   65.6695    0.8629    0.9673    1.5130  107.7288    0.3578    2.2217   37.0000   37.0000 
2373.0792   63.9677    0.8961    0.9750    1.3181  110.7754    0.3654    2.2206   37.0000   37.0000 
2373.2316   62.2659    0.9293    0.9828    1.1231  113.8221    0.3731    2.2194   37.0000   37.0000 
2373.3840   60.5641    0.9625    0.9906    0.9281  116.8687    0.3807    2.2182   37.0000   37.0000 
2373.5364   58.8623    0.9957    0.9983    0.7332  119.9153    0.3883    2.2171   37.0000   37.0000 
2373.6888   56.2013    0.9950    1.1928    1.1487  112.4831    0.4247    2.2123   37.0000   37.0000 
2373.8412   53.5402    0.9943    1.3872    1.5642  105.0508    0.4611    2.2076   37.0000   37.0000 
2373.9936   50.8792    0.9936    1.5817    1.9797   97.6186    0.4975    2.2028   37.0000   37.0000 
2374.1460   56.3997    0.9856    1.5899    1.6330   93.9774    0.4481    2.2300   37.0000   37.0000 
2374.2984   61.9202    0.9775    1.5982    1.2864   90.3361    0.3986    2.2572   37.0000   37.0000 
2374.4508   67.4407    0.9695    1.6064    0.9397   86.6949    0.3492    2.2844   37.0000   37.0000 
2374.6032   67.0265    1.0441    1.5100    2.6363   90.3813    0.3753    2.2724   37.0000   37.0000 
2374.7556   66.6123    1.1187    1.4135    4.3329   94.0678    0.4015    2.2605   37.0000   37.0000 
2374.9080   66.1981    1.1933    1.3170    6.0295   97.7542    0.4277    2.2485   37.0000   37.0000 
2375.0604   65.7839    1.2679    1.2206    7.7261  101.4407    0.4538    2.2366   37.0000   37.0000 
2375.2128   61.2606    1.3190    1.2268    5.9445  103.3277    0.4558    2.2418   37.0000   37.0000 
2375.3652   56.7373    1.3700    1.2331    4.1630  105.2147    0.4579    2.2470   37.0000   37.0000 
2375.5176   52.2140    1.4211    1.2393    2.3814  107.1017    0.4599    2.2522   37.0000   37.0000 
2375.6700   51.7151    1.4081    1.3913    4.7865  105.6017    0.3912    2.3229   37.0000   37.0000 
2375.8224   51.2161    1.3950    1.5432    7.1916  104.1017    0.3225    2.3935   37.0000   37.0000 
2375.9748   50.7172    1.3820    1.6952    9.5967  102.6017    0.2538    2.4642   37.0000   37.0000 
2376.1272   52.1822    1.3808    1.9769    6.7593   96.0000    0.2594    2.4548   37.0000   37.0000 
2376.2796   53.6473    1.3795    2.2585    3.9218   89.3983    0.2650    2.4455   37.0000   37.0000 
2376.4320   55.1123    1.3783    2.5402    1.0844   82.7966    0.2706    2.4361   37.0000   37.0000 
2376.5844   55.2505    1.3596    2.2150    2.9243   91.5254    0.3112    2.3935   37.0000   37.0000 
2376.7368   55.3888    1.3409    1.8898    4.7642  100.2542    0.3518    2.3510   37.0000   37.0000 
2376.8892   55.5271    1.3222    1.5645    6.6040  108.9831    0.3924    2.3084   37.0000   37.0000 
2377.0416   55.6653    1.3035    1.2393    8.4439  117.7119    0.4330    2.2658   37.0000   37.0000 
2377.1940   53.6038    1.2775    1.1829    6.0086  117.6271    0.4096    2.2854   37.0000   37.0000 
2377.3464   51.5424    1.2514    1.1266    3.5732  117.5424    0.3863    2.3050   37.0000   37.0000 
2377.4988   49.4809    1.2254    1.0702    1.1379  117.4576    0.3629    2.3246   37.0000   37.0000 
2377.6512   47.9979    1.1956    1.0393    1.7491  117.3474    0.3897    2.3044   37.0000   37.0000 
2377.8036   46.5148    1.1658    1.0084    2.3604  117.2373    0.4164    2.2843   37.0000   37.0000 
2377.9560   45.0318    1.1360    0.9775    2.9716  117.1271    0.4432    2.2641   37.0000   37.0000 
2378.1084   45.3019    1.1146    0.9733    2.3746  116.6631    0.4340    2.2371   37.0000   37.0000 
2378.2608   45.5721    1.0932    0.9690    1.7776  116.1992    0.4249    2.2102   37.0000   37.0000 
2378.4132   45.8422    1.0718    0.9647    1.1806  115.7352    0.4157    2.1832   37.0000   37.0000 
2378.5656   46.1123    1.0504    0.9605    0.5836  115.2712    0.4066    2.1562   37.0000   37.0000 
2378.7180   43.9875    1.0128    0.9872    0.7005  114.3898    0.4305    2.1631   37.0000   37.0000 
2378.8704   41.8627    0.9752    1.0139    0.8173  113.5085    0.4543    2.1701   37.0000   37.0000 
2379.0228   39.7379    0.9376    1.0406    0.9342  112.6271    0.4782    2.1770   37.0000   37.0000 
2379.1752   44.2441    0.9290    1.0184    0.7659  114.7627    0.4609    2.1893   37.0000   37.0000 
2379.3276   48.7502    0.9205    0.9963    0.5977  116.8983    0.4437    2.2015   37.0000   37.0000 
2379.4800   53.2564    0.9119    0.9741    0.4294  119.0339    0.4264    2.2138   37.0000   37.0000 
2379.6324   53.0890    0.8629    0.9461    0.5209  120.9096    0.4359    2.1677   37.0000   37.0000 
2379.7848   52.9216    0.8138    0.9182    0.6123  122.7853    0.4453    2.1215   37.0000   37.0000 
2379.9372   52.7542    0.7648    0.8902    0.7038  124.6610    0.4548    2.0754   11.0000   37.0000 
