~VERSION INFORMATION
 VERS.                 2.0:   CWLS LOG ASCII STANDARD - VERSION 2.0
 WRAP.                  NO:   SINGLE LINE PER DEPTH STEP
 CREA.                 04/06/2018 10:36:36
#CREATED USING DSPetro VERSION 5000.10.1.3 BY H191660 ON 04/06/2018 10:36:36
~WELL INFORMATION
#MNEM.UNIT       DATA                          DESCRIPTION MNEMONIC
#---------      ---------------------------   --------------------------
 STRT    .M         1989.9456                 : START DEPTH
 STOP    .M         2954.9424                 : STOP DEPTH
 STEP    .M         0.1524                    : STEP VALUE
 NULL    .      -999.0000                     : NULL VALUE
 DATE    .      04/06/2018                    : LAS file Creation Date
 WELL .      15_9_11                     : Well Name
 COMP .      Neftex Exploration Insights : Company
 FLD  .      SLEIPNER OST                : Field
 UWI  .      YNOWL_15911                 : Unique Well Identifier (UWI)
 LOC  .                                  : Location
 RWS  .      -999                        : Def_Rw
 WST  .      -999                        : Def_Rwt
 SRVC .                                  : Contractor
~CURVE INFORMATION
#MNEM                     UNIT       API CODE   Curve Type Comments
#----------         --------------- ----------  ---------- -----------
 DEPTH             .M                         : Depth       
 GR_API            .API                       :             Gamma Ray (API) - Measures the intensity of natural gamma-ray radiation emitted from formations containing radioactive elements, such as K, Th and U
 RD_OHMM           .ohmm                      :             Unspecified Deep Resistivity - No accroynm or method of attainment is specified - units of ohmm
 RM_OHMM           .ohm.m                     :             Unspecified Medium Resistivity - No accroynm or method of attainment is specified
 RS_OHMM           .ohmm                      :             Unspecified Shallow Resistivity - No accroynm or method of attainment is specified
 DT_US_FT          .us/ft                     :             Interval Transit Time: Compressional Wave - Evaluates the time it takes for a compressional wave to traverse a fixed distance
 NEUT_P_RATIO      .ratio                     :             Unspecified Neutron Porosity Log - No accroynm or method of attainment is specified
 RHOB_G_CC         .g/cc                      :             Bulk Density - Measures the density of bulk material, including any void space or other materials contained in the subject volume
 LITH_v1_fromPetro .                          : LITH        Lithology Curve
 LITH_v2_fromCompo .                          : LITH        Lithology Curve
~A  DEPTH   GR_API   RD_OHMM   RM_OHMM   RS_OHMM   DT_US_FT NEUT_P_R~ RHOB_G_C~ LITH_v1_~ LITH_v2_~ 
# ...
2623.9296   14.0034    2.5198    2.5051 -999.0000   71.0966    0.1596    2.4975   18.0000   18.0000 
2624.0820   15.3833    2.4705    2.4594 -999.0000   71.8051    0.1573    2.4913   18.0000   18.0000 
2624.2344   16.7631    2.4211    2.4137 -999.0000   72.5135    0.1551    2.4851   18.0000   18.0000 
2624.3868   18.1430    2.3718    2.3680 -999.0000   73.2220    0.1528    2.4790   18.0000   18.0000 
2624.5392   19.5229    2.3225    2.3223 -999.0000   73.9305    0.1505    2.4728   18.0000   18.0000 
2624.6916   17.8034    2.2949    2.2789 -999.0000   74.6542    0.1613    2.5018   18.0000   18.0000 
2624.8440   16.0839    2.2673    2.2355 -999.0000   75.3780    0.1722    2.5308   22.0000   18.0000 
2624.9964   14.3644    2.2397    2.1921 -999.0000   76.1017    0.1830    2.5598   22.0000   18.0000 
2625.1488   14.9330    2.2135    2.2686 -999.0000   75.2535    0.1783    2.5267   22.0000   18.0000 
2625.3012   15.5017    2.1872    2.3451 -999.0000   74.4052    0.1736    2.4935   18.0000   18.0000 
2625.4536   16.0703    2.1610    2.4216 -999.0000   73.5570    0.1689    2.4604   18.0000   18.0000 
2625.6060   16.1745    2.1499    2.3587 -999.0000   74.6161    0.1725    2.4676   18.0000   18.0000 
2625.7584   16.2788    2.1388    2.2957 -999.0000   75.6751    0.1761    2.4748   18.0000   18.0000 
2625.9108   16.3831    2.1278    2.2327 -999.0000   76.7341    0.1798    2.4820   18.0000   18.0000 
2626.0632   16.4873    2.1167    2.1698 -999.0000   77.7932    0.1834    2.4892   18.0000   18.0000 
2626.2156   16.0907    2.1239    2.2385 -999.0000   75.9845    0.1745    2.4903   18.0000   18.0000 
2626.3680   15.6941    2.1312    2.3073 -999.0000   74.1759    0.1656    2.4914   18.0000   18.0000 
2626.5204   15.2975    2.1384    2.3760 -999.0000   72.3672    0.1567    2.4925   18.0000   18.0000 
2626.6728   13.6005    2.1771    2.2874 -999.0000   72.7420    0.1683    2.4724   18.0000   18.0000 
2626.8252   11.9036    2.2159    2.1987 -999.0000   73.1167    0.1800    2.4523   18.0000   18.0000 
2626.9776   10.2066    2.2546    2.1101 -999.0000   73.4915    0.1916    2.4322   18.0000   18.0000 
2627.1300   12.0629    2.2826    2.2628 -999.0000   72.8898    0.1794    2.4458   18.0000   18.0000 
2627.2824   13.9191    2.3106    2.4155 -999.0000   72.2880    0.1673    2.4595   18.0000   18.0000 
2627.4348   15.7754    2.3386    2.5682 -999.0000   71.6863    0.1551    2.4731   18.0000   18.0000 
2627.5872   15.5940    2.3421    2.5517 -999.0000   72.2334    0.1661    2.4632   18.0000   18.0000 
2627.7396   15.4125    2.3456    2.5352 -999.0000   72.7805    0.1772    2.4532   18.0000   18.0000 
2627.8920   15.2310    2.3490    2.5187 -999.0000   73.3275    0.1882    2.4433   18.0000   18.0000 
2628.0444   15.0496    2.3525    2.5022 -999.0000   73.8746    0.1992    2.4334   18.0000   18.0000 
2628.1968   14.1992    2.3107    2.3481 -999.0000   74.1045    0.1966    2.4338   18.0000   18.0000 
2628.3492   13.3487    2.2688    2.1939 -999.0000   74.3345    0.1941    2.4343   18.0000   18.0000 
2628.5016   12.4983    2.2270    2.0398 -999.0000   74.5644    0.1915    2.4347   18.0000   18.0000 
2628.6540   13.0309    2.1835    2.1395 -999.0000   73.9986    0.1879    2.4480   18.0000   18.0000 
2628.8064   13.5636    2.1400    2.2393 -999.0000   73.4328    0.1843    2.4612   18.0000   18.0000 
2628.9588   14.0962    2.0965    2.3390 -999.0000   72.8670    0.1807    2.4745   18.0000   18.0000 
2629.1112   14.8572    2.0596    2.2782 -999.0000   73.2642    0.1784    2.4847   18.0000   18.0000 
2629.2636   15.6182    2.0227    2.2175 -999.0000   73.6615    0.1761    2.4949   18.0000   18.0000 
2629.4160   16.3792    1.9857    2.1567 -999.0000   74.0587    0.1739    2.5052   18.0000   18.0000 
2629.5684   17.1402    1.9488    2.0959 -999.0000   74.4559    0.1716    2.5154   18.0000   18.0000 
2629.7208   16.0447    1.8808    1.9736 -999.0000   74.7726    0.1877    2.4788   18.0000   18.0000 
2629.8732   14.9493    1.8127    1.8513 -999.0000   75.0893    0.2039    2.4421   18.0000   18.0000 
2630.0256   13.8538    1.7447    1.7290 -999.0000   75.4060    0.2200    2.4055   18.0000   18.0000 
2630.1780   14.0960    1.7217    1.7880 -999.0000   74.2757    0.2097    2.4185   18.0000   18.0000 
2630.3304   14.3383    1.6987    1.8470 -999.0000   73.1453    0.1993    2.4314   18.0000   18.0000 
2630.4828   14.5805    1.6757    1.9060 -999.0000   72.0150    0.1890    2.4444   18.0000   18.0000 
2630.6352   13.9309    1.6692    1.9138 -999.0000   72.5750    0.1852    2.4361   18.0000   18.0000 
2630.7876   13.2814    1.6628    1.9217 -999.0000   73.1349    0.1815    2.4279   18.0000   18.0000 
2630.9400   12.6318    1.6563    1.9295 -999.0000   73.6949    0.1777    2.4196   18.0000   18.0000 
2631.0924   12.8546    1.6632    1.8949 -999.0000   74.0472    0.1816    2.4291   18.0000   18.0000 
2631.2448   13.0774    1.6702    1.8602 -999.0000   74.3996    0.1856    2.4385   18.0000   18.0000 
2631.3972   13.3003    1.6771    1.8255 -999.0000   74.7519    0.1895    2.4480   18.0000   18.0000 
2631.5496   13.5231    1.6840    1.7909 -999.0000   75.1042    0.1935    2.4575   18.0000   18.0000 
2631.7020   14.7524    1.7029    1.7726 -999.0000   75.3429    0.1918    2.4258   18.0000   18.0000 
2631.8544   15.9816    1.7219    1.7542 -999.0000   75.5816    0.1901    2.3941   18.0000   18.0000 
2632.0068   17.2109    1.7408    1.7359 -999.0000   75.8203    0.1884    2.3624   18.0000   18.0000 
2632.1592   15.5375    1.7728    1.7393 -999.0000   75.7178    0.1834    2.3775   18.0000   18.0000 
2632.3116   13.8641    1.8049    1.7428 -999.0000   75.6152    0.1785    2.3927   18.0000   18.0000 
2632.4640   12.1907    1.8369    1.7462 -999.0000   75.5127    0.1735    2.4078   18.0000   18.0000 
2632.6164   12.5444    1.8631    1.8134 -999.0000   74.8481    0.1795    2.4230   18.0000   18.0000 
2632.7688   12.8981    1.8893    1.8805 -999.0000   74.1835    0.1856    2.4381   18.0000   18.0000 
2632.9212   13.2518    1.9155    1.9477 -999.0000   73.5190    0.1916    2.4532   18.0000   18.0000 
2633.0736   13.6055    1.9417    2.0149 -999.0000   72.8544    0.1976    2.4684   18.0000   18.0000 
2633.2260   14.1915    1.9760    2.0015 -999.0000   73.1495    0.1880    2.4562   18.0000   18.0000 
2633.3784   14.7776    2.0104    1.9882 -999.0000   73.4447    0.1783    2.4440   18.0000   18.0000 
2633.5308   15.3636    2.0447    1.9748 -999.0000   73.7398    0.1687    2.4318   18.0000   18.0000 
2633.6832   14.7098    2.0777    2.1633 -999.0000   73.2173    0.1728    2.4476   18.0000   18.0000 
2633.8356   14.0559    2.1106    2.3518 -999.0000   72.6949    0.1768    2.4633   18.0000   18.0000 
2633.9880   13.4021    2.1436    2.5403 -999.0000   72.1724    0.1809    2.4791   18.0000   18.0000 
2634.1404   13.2559    2.1761    2.4343 -999.0000   72.5757    0.1729    2.4654   18.0000   18.0000 
2634.2928   13.1098    2.2086    2.3282 -999.0000   72.9789    0.1650    2.4518   18.0000   18.0000 
2634.4452   12.9636    2.2411    2.2222 -999.0000   73.3822    0.1570    2.4381   18.0000   18.0000 
2634.5976   13.6936    2.2694    2.2643 -999.0000   73.5451    0.1604    2.4443   18.0000   18.0000 
2634.7500   14.4235    2.2977    2.3064 -999.0000   73.7079    0.1639    2.4506   18.0000   18.0000 
2634.9024   15.1535    2.3261    2.3485 -999.0000   73.8708    0.1673    2.4568   18.0000   18.0000 
2635.0548   15.8835    2.3544    2.3906 -999.0000   74.0337    0.1707    2.4630   18.0000   18.0000 
2635.2072   15.6992    2.3210    2.4709 -999.0000   73.5248    0.1671    2.4791   18.0000   18.0000 
2635.3596   15.5148    2.2876    2.5512 -999.0000   73.0160    0.1636    2.4952   18.0000   18.0000 
2635.5120   15.3305    2.2542    2.6315 -999.0000   72.5071    0.1600    2.5113   18.0000   18.0000 
2635.6644   14.3373    2.1887    2.4323 -999.0000   73.4663    0.1678    2.5065   18.0000   18.0000 
2635.8168   13.3441    2.1232    2.2331 -999.0000   74.4256    0.1756    2.5017   18.0000   18.0000 
2635.9692   12.3509    2.0577    2.0339 -999.0000   75.3848    0.1834    2.4969   18.0000   18.0000 
