~VERSION INFORMATION
 VERS.                 2.0:   CWLS LOG ASCII STANDARD - VERSION 2.0
 WRAP.                  NO:   SINGLE LINE PER DEPTH STEP
 CREA.                 04/06/2018 10:36:36
#CREATED USING DSPetro VERSION 5000.10.1.3 BY H191660 ON 04/06/2018 10:36:36
~WELL INFORMATION
#MNEM.UNIT       DATA                          DESCRIPTION MNEMONIC
#---------      ---------------------------   --------------------------
 STRT    .M         1989.9456                 : START DEPTH
 STOP    .M         2954.9424                 : STOP DEPTH
 STEP    .M         0.1524                    : STEP VALUE
 NULL    .      -999.0000                     : NULL VALUE
 DATE    .      04/06/2018                    : LAS file Creation Date
 WELL .      15_9_11                     : Well Name
 COMP .      Neftex Exploration Insights : Company
 FLD  .      SLEIPNER OST                : Field
 UWI  .      YNOWL_15911                 : Unique Well Identifier (UWI)
 LOC  .                                  : Location
 RWS  .      -999                        : Def_Rw
 WST  .      -999                        : Def_Rwt
 SRVC .                                  : Contractor
~CURVE INFORMATION
#MNEM                     UNIT       API CODE   Curve Type Comments
#----------         --------------- ----------  ---------- -----------
 DEPTH             .M                         : Depth       
 GR_API            .API                       :             Gamma Ray (API) - Measures the intensity of natural gamma-ray radiation emitted from formations containing radioactive elements, such as K, Th and U
 RD_OHMM           .ohmm                      :             Unspecified Deep Resistivity - No accroynm or method of attainment is specified - units of ohmm
 RM_OHMM           .ohm.m                     :             Unspecified Medium Resistivity - No accroynm or method of attainment is specified
 RS_OHMM           .ohmm                      :             Unspecified Shallow Resistivity - No accroynm or method of attainment is specified
 DT_US_FT          .us/ft                     :             Interval Transit Time: Compressional Wave - Evaluates the time it takes for a compressional wave to traverse a fixed distance
 NEUT_P_RATIO      .ratio                     :             Unspecified Neutron Porosity Log - No accroynm or method of attainment is specified
 RHOB_G_CC         .g/cc                      :             Bulk Density - Measures the density of bulk material, including any void space or other materials contained in the subject volume
 LITH_v1_fromPetro .                          : LITH        Lithology Curve
 LITH_v2_fromCompo .                          : LITH        Lithology Curve
~A  DEPTH   GR_API   RD_OHMM   RM_OHMM   RS_OHMM   DT_US_FT NEUT_P_R~ RHOB_G_C~ LITH_v1_~ LITH_v2_~ 
# ...
2245.9776   72.7436    0.6959    0.8768 -999.0000  122.9492    0.3767    2.2476   37.0000   37.0000 
2246.1300   69.0572    0.6855    0.8684 -999.0000  123.5650    0.3976    2.2562   37.0000   37.0000 
2246.2824   65.3707    0.6751    0.8600 -999.0000  124.1808    0.4184    2.2648   37.0000   37.0000 
2246.4348   61.6843    0.6647    0.8516 -999.0000  124.7966    0.4393    2.2734   37.0000   37.0000 
2246.5872   65.4343    0.6617    0.8511 -999.0000  124.6123    0.4385    2.2631   37.0000   37.0000 
2246.7396   69.1843    0.6587    0.8506 -999.0000  124.4279    0.4377    2.2529   37.0000   37.0000 
2246.8920   72.9343    0.6557    0.8501 -999.0000  124.2436    0.4369    2.2427   37.0000   37.0000 
2247.0444   76.6843    0.6527    0.8496 -999.0000  124.0593    0.4361    2.2324   37.0000   37.0000 
2247.1968   75.8580    0.6429    0.8304 -999.0000  124.3164    0.4203    2.2392   37.0000   37.0000 
2247.3492   75.0318    0.6331    0.8112 -999.0000  124.5734    0.4046    2.2459   37.0000   37.0000 
2247.5016   74.2055    0.6233    0.7920 -999.0000  124.8305    0.3888    2.2527   37.0000   37.0000 
2247.6540   67.0021    0.6208    0.7814 -999.0000  125.2571    0.3863    2.2338   22.0000   37.0000 
2247.8064   59.7987    0.6182    0.7709 -999.0000  125.6836    0.3838    2.2149   22.0000   37.0000 
2247.9588   52.5953    0.6157    0.7603 -999.0000  126.1102    0.3813    2.1960   22.0000   37.0000 
2248.1112   56.8538    0.6219    0.7727 -999.0000  125.6377    0.3901    2.1961   37.0000   37.0000 
2248.2636   61.1123    0.6280    0.7851 -999.0000  125.1653    0.3988    2.1962   37.0000   37.0000 
2248.4160   65.3707    0.6341    0.7974 -999.0000  124.6928    0.4076    2.1962   37.0000   37.0000 
2248.5684   69.6292    0.6403    0.8098 -999.0000  124.2203    0.4164    2.1963   37.0000   37.0000 
2248.7208   65.2436    0.6569    0.8366 -999.0000  123.5367    0.4021    2.2322   37.0000   37.0000 
2248.8732   60.8581    0.6734    0.8634 -999.0000  122.8531    0.3879    2.2680   37.0000   37.0000 
2249.0256   56.4725    0.6900    0.8902 -999.0000  122.1695    0.3736    2.3039   22.0000   37.0000 
2249.1780   58.1907    0.7013    0.8902 -999.0000  122.0791    0.3769    2.2841   22.0000   37.0000 
2249.3304   59.9089    0.7126    0.8902 -999.0000  121.9887    0.3803    2.2644   22.0000   37.0000 
2249.4828   61.6271    0.7239    0.8902 -999.0000  121.8983    0.3836    2.2446   37.0000   37.0000 
2249.6352   62.7902    0.7277    0.9090 -999.0000  120.6723    0.3938    2.2304   37.0000   37.0000 
2249.7876   63.9534    0.7314    0.9278 -999.0000  119.4463    0.4040    2.2161   37.0000   37.0000 
2249.9400   65.1165    0.7352    0.9466 -999.0000  118.2203    0.4142    2.2019   37.0000   37.0000 
2250.0924   64.8686    0.7382    0.9407 -999.0000  119.1949    0.4146    2.2261   37.0000   37.0000 
2250.2448   64.6208    0.7412    0.9348 -999.0000  120.1694    0.4150    2.2503   22.0000   37.0000 
2250.3972   64.3729    0.7441    0.9290 -999.0000  121.1440    0.4153    2.2746   22.0000   37.0000 
2250.5496   64.1250    0.7471    0.9231 -999.0000  122.1186    0.4157    2.2988   37.0000   37.0000 
2250.7020   59.8538    0.7395    0.9167 -999.0000  121.8107    0.3902    2.2866   37.0000   37.0000 
2250.8544   55.5826    0.7319    0.9103 -999.0000  121.5028    0.3646    2.2744   22.0000   37.0000 
2251.0068   51.3114    0.7243    0.9039 -999.0000  121.1949    0.3391    2.2622   22.0000   37.0000 
2251.1592   50.8284    0.7122    0.9021 -999.0000  120.6102    0.3331    2.2468   22.0000   37.0000 
2251.3116   50.3453    0.7001    0.9004 -999.0000  120.0254    0.3272    2.2313   22.0000   37.0000 
2251.4640   49.8623    0.6880    0.8986 -999.0000  119.4407    0.3212    2.2159   22.0000   37.0000 
2251.6164   52.4571    0.6812    0.8789 -999.0000  120.2860    0.3413    2.2363   22.0000   37.0000 
2251.7688   55.0519    0.6743    0.8592 -999.0000  121.1313    0.3615    2.2567   37.0000   37.0000 
2251.9212   57.6467    0.6675    0.8395 -999.0000  121.9767    0.3816    2.2771   37.0000   37.0000 
2252.0736   60.2415    0.6606    0.8198 -999.0000  122.8220    0.4017    2.2975   37.0000   37.0000 
2252.2260   59.1123    0.6633    0.8152 -999.0000  123.0960    0.4052    2.2754   37.0000   37.0000 
2252.3784   57.9830    0.6659    0.8107 -999.0000  123.3701    0.4087    2.2532   37.0000   37.0000 
2252.5308   56.8538    0.6686    0.8061 -999.0000  123.6441    0.4122    2.2311   37.0000   37.0000 
2252.6832   57.5275    0.6765    0.8465 -999.0000  122.8051    0.4019    2.2614   37.0000   37.0000 
2252.8356   58.2013    0.6843    0.8870 -999.0000  121.9661    0.3915    2.2917   37.0000   37.0000 
2252.9880   58.8750    0.6922    0.9274 -999.0000  121.1271    0.3812    2.3220   37.0000   37.0000 
2253.1404   62.9958    0.6938    0.9175 -999.0000  121.7288    0.3678    2.3105   37.0000   37.0000 
2253.2928   67.1165    0.6953    0.9075 -999.0000  122.3305    0.3545    2.2989   37.0000   37.0000 
2253.4452   71.2373    0.6969    0.8976 -999.0000  122.9322    0.3411    2.2874   37.0000   37.0000 
2253.5976   68.4693    0.6939    0.8795 -999.0000  123.2373    0.3606    2.2931   37.0000   37.0000 
2253.7500   65.7013    0.6910    0.8613 -999.0000  123.5423    0.3801    2.2988   37.0000   37.0000 
2253.9024   62.9333    0.6880    0.8432 -999.0000  123.8474    0.3995    2.3045   37.0000   37.0000 
2254.0548   60.1653    0.6850    0.8251 -999.0000  124.1525    0.4190    2.3102   37.0000   37.0000 
2254.2072   57.1674    0.6814    0.8434 -999.0000  123.2147    0.4193    2.2869   37.0000   37.0000 
2254.3596   54.1695    0.6777    0.8616 -999.0000  122.2768    0.4195    2.2637   37.0000   37.0000 
2254.5120   51.1716    0.6741    0.8799 -999.0000  121.3390    0.4198    2.2404   37.0000   37.0000 
2254.6644   55.1419    0.6684    0.8475 -999.0000  120.9209    0.4041    2.2527   22.0000   37.0000 
2254.8168   59.1123    0.6627    0.8152 -999.0000  120.5028    0.3883    2.2651   22.0000   37.0000 
2254.9692   63.0826    0.6570    0.7828 -999.0000  120.0847    0.3726    2.2774   22.0000   37.0000 
2255.1216   61.1758    0.6486    0.7976 -999.0000  121.7627    0.3851    2.2636   22.0000   37.0000 
2255.2740   59.2691    0.6401    0.8123 -999.0000  123.4406    0.3977    2.2498   22.0000   37.0000 
2255.4264   57.3623    0.6317    0.8271 -999.0000  125.1186    0.4102    2.2360   22.0000   37.0000 
2255.5788   56.5678    0.6248    0.8118 -999.0000  125.2585    0.4206    2.2290   22.0000   37.0000 
2255.7312   55.7733    0.6180    0.7966 -999.0000  125.3983    0.4310    2.2219   22.0000   37.0000 
2255.8836   54.9788    0.6112    0.7814 -999.0000  125.5381    0.4414    2.2148   22.0000   37.0000 
2256.0360   54.1843    0.6043    0.7661 -999.0000  125.6780    0.4518    2.2078   37.0000   37.0000 
2256.1884   54.2150    0.5998    0.7794 -999.0000  125.0565    0.4424    2.2267   37.0000   37.0000 
2256.3408   54.2458    0.5952    0.7928 -999.0000  124.4351    0.4331    2.2456   37.0000   37.0000 
2256.4932   54.2765    0.5907    0.8061 -999.0000  123.8136    0.4237    2.2645   37.0000   37.0000 
2256.6456   60.1992    0.5904    0.7834 -999.0000  125.5085    0.4192    2.2514   37.0000   37.0000 
2256.7980   66.1218    0.5901    0.7607 -999.0000  127.2034    0.4147    2.2383   37.0000   37.0000 
2256.9504   72.0445    0.5898    0.7380 -999.0000  128.8983    0.4102    2.2252   37.0000   37.0000 
2257.1028   69.1049    0.5906    0.7550 -999.0000  127.0763    0.4106    2.2148   37.0000   37.0000 
2257.2552   66.1653    0.5914    0.7721 -999.0000  125.2542    0.4110    2.2045   37.0000   37.0000 
2257.4076   63.2256    0.5923    0.7891 -999.0000  123.4322    0.4113    2.1941   37.0000   37.0000 
2257.5600   60.2860    0.5931    0.8061 -999.0000  121.6102    0.4117    2.1837   37.0000   37.0000 
2257.7124   64.0487    0.5977    0.8050 -999.0000  123.6441    0.4181    2.1988   37.0000   37.0000 
2257.8648   67.8115    0.6023    0.8039 -999.0000  125.6780    0.4245    2.2139   37.0000   37.0000 
2258.0172   71.5742    0.6069    0.8028 -999.0000  127.7119    0.4309    2.2290   37.0000   37.0000 
