~VERSION INFORMATION
 VERS.                 2.0:   CWLS LOG ASCII STANDARD - VERSION 2.0
 WRAP.                  NO:   SINGLE LINE PER DEPTH STEP
 CREA.                 04/06/2018 10:36:36
#CREATED USING DSPetro VERSION 5000.10.1.3 BY H191660 ON 04/06/2018 10:36:36
~WELL INFORMATION
#MNEM.UNIT       DATA                          DESCRIPTION MNEMONIC
#---------      ---------------------------   --------------------------
 STRT    .M         1989.9456                 : START DEPTH
 STOP    .M         2954.9424                 : STOP DEPTH
 STEP    .M         0.1524                    : STEP VALUE
 NULL    .      -999.0000                     : NULL VALUE
 DATE    .      04/06/2018                    : LAS file Creation Date
 WELL .      15_9_11                     : Well Name
 COMP .      Neftex Exploration Insights : Company
 FLD  .      SLEIPNER OST                : Field
 UWI  .      YNOWL_15911                 : Unique Well Identifier (UWI)
 LOC  .                                  : Location
 RWS  .      -999                        : Def_Rw
 WST  .      -999                        : Def_Rwt
 SRVC .                                  : Contractor
~CURVE INFORMATION
#MNEM                     UNIT       API CODE   Curve Type Comments
#----------         --------------- ----------  ---------- -----------
 DEPTH             .M                         : Depth       
 GR_API            .API                       :             Gamma Ray (API) - Measures the intensity of natural gamma-ray radiation emitted from formations containing radioactive elements, such as K, Th and U
 RD_OHMM           .ohmm                      :             Unspecified Deep Resistivity - No accroynm or method of attainment is specified - units of ohmm
 RM_OHMM           .ohm.m                     :             Unspecified Medium Resistivity - No accroynm or method of attainment is specified
 RS_OHMM           .ohmm                      :             Unspecified Shallow Resistivity - No accroynm or method of attainment is specified
 DT_US_FT          .us/ft                     :             Interval Transit Time: Compressional Wave - Evaluates the time it takes for a compressional wave to traverse a fixed distance
 NEUT_P_RATIO      .ratio                     :             Unspecified Neutron Porosity Log - No accroynm or method of attainment is specified
 RHOB_G_CC         .g/cc                      :             Bulk Density - Measures the density of bulk material, including any void space or other materials contained in the subject volume
 LITH_v1_fromPetro .                          : LITH        Lithology Curve
 LITH_v2_fromCompo .                          : LITH        Lithology Curve
~A  DEPTH   GR_API   RD_OHMM   RM_OHMM   RS_OHMM   DT_US_FT NEUT_P_R~ RHOB_G_C~ LITH_v1_~ LITH_v2_~ 
# ...
2562.9696   11.6301    4.8883    5.3025 -999.0000   64.3661    0.0818    2.5761   18.0000   18.0000 
2563.1220   11.6085    4.8778    5.4089 -999.0000   64.1463    0.0915    2.5673   18.0000   18.0000 
2563.2744   11.5869    4.8673    5.5153 -999.0000   63.9266    0.1013    2.5586   18.0000   18.0000 
2563.4268   11.5653    4.8568    5.6217 -999.0000   63.7068    0.1110    2.5498   22.0000   18.0000 
2563.5792   11.5793    4.8885    5.6184 -999.0000   63.9869    0.1141    2.5492   22.0000   18.0000 
2563.7316   11.5933    4.9201    5.6151 -999.0000   64.2670    0.1172    2.5486   22.0000   18.0000 
2563.8840   11.6072    4.9517    5.6118 -999.0000   64.5470    0.1204    2.5479   22.0000   18.0000 
2564.0364   11.6212    4.9834    5.6085 -999.0000   64.8271    0.1235    2.5473   22.0000   18.0000 
2564.1888   12.3083    4.9989    5.3522 -999.0000   65.0141    0.1288    2.5651   22.0000   18.0000 
2564.3412   12.9953    5.0145    5.0958 -999.0000   65.2011    0.1340    2.5828   18.0000   18.0000 
2564.4936   13.6824    5.0300    4.8395 -999.0000   65.3881    0.1393    2.6006   18.0000   18.0000 
2564.6460   13.8494    4.9769    5.0514 -999.0000   65.0779    0.1482    2.5764   22.0000   18.0000 
2564.7984   14.0163    4.9237    5.2633 -999.0000   64.7678    0.1572    2.5522   22.0000   18.0000 
2564.9508   14.1833    4.8706    5.4752 -999.0000   64.4576    0.1661    2.5280   18.0000   18.0000 
2565.1032   16.8325    4.8320    5.3981 -999.0000   64.6784    0.1620    2.5250   18.0000   18.0000 
2565.2556   19.4817    4.7934    5.3211 -999.0000   64.8992    0.1580    2.5219   18.0000   18.0000 
2565.4080   22.1309    4.7548    5.2440 -999.0000   65.1199    0.1540    2.5189   18.0000   18.0000 
2565.5604   24.7801    4.7162    5.1669 -999.0000   65.3407    0.1499    2.5158   18.0000   18.0000 
2565.7128   24.4196    4.6722    4.9075 -999.0000   65.2085    0.1521    2.5242   18.0000   18.0000 
2565.8652   24.0592    4.6281    4.6480 -999.0000   65.0763    0.1543    2.5325   22.0000   18.0000 
2566.0176   23.6987    4.5841    4.3886 -999.0000   64.9441    0.1565    2.5409   22.0000   18.0000 
2566.1700   25.7244    4.6280    4.6950 -999.0000   65.4447    0.1502    2.5336   22.0000   18.0000 
2566.3224   27.7502    4.6720    5.0013 -999.0000   65.9452    0.1440    2.5262   22.0000   18.0000 
2566.4748   29.7759    4.7159    5.3077 -999.0000   66.4458    0.1377    2.5189   22.0000   18.0000 
2566.6272   32.1984    4.6607    5.1354 -999.0000   67.0565    0.1438    2.5345   22.0000   18.0000 
2566.7796   34.6209    4.6056    4.9632 -999.0000   67.6672    0.1499    2.5501   22.0000   18.0000 
2566.9320   37.0434    4.5504    4.7909 -999.0000   68.2779    0.1560    2.5657   22.0000   18.0000 
2567.0844   35.9229    4.5378    4.6730 -999.0000   67.1131    0.1528    2.5508   22.0000   18.0000 
2567.2368   34.8024    4.5252    4.5552 -999.0000   65.9482    0.1497    2.5359   22.0000   18.0000 
2567.3892   33.6819    4.5126    4.4373 -999.0000   64.7834    0.1465    2.5209   22.0000   18.0000 
2567.5416   32.5614    4.5000    4.3194 -999.0000   63.6186    0.1433    2.5060   22.0000   18.0000 
2567.6940   31.3428    4.6347    4.6685 -999.0000   63.7237    0.1407    2.5156   22.0000   18.0000 
2567.8464   30.1243    4.7693    5.0175 -999.0000   63.8288    0.1382    2.5251   22.0000   18.0000 
2567.9988   28.9057    4.9040    5.3666 -999.0000   63.9339    0.1356    2.5347   22.0000   18.0000 
2568.1512   30.2569    4.9358    5.7084 -999.0000   64.0616    0.1285    2.5443   22.0000   18.0000 
2568.3036   31.6081    4.9676    6.0503 -999.0000   64.1893    0.1215    2.5538   22.0000   18.0000 
2568.4560   32.9593    4.9994    6.3921 -999.0000   64.3170    0.1144    2.5634   22.0000   18.0000 
2568.6084   31.5337    4.9537    6.0017 -999.0000   64.3492    0.1249    2.5667   22.0000   18.0000 
2568.7608   30.1081    4.9081    5.6113 -999.0000   64.3814    0.1355    2.5700   22.0000   18.0000 
2568.9132   28.6824    4.8624    5.2209 -999.0000   64.4136    0.1460    2.5732   22.0000   18.0000 
2569.0656   27.2568    4.8167    4.8305 -999.0000   64.4458    0.1565    2.5765   22.0000   18.0000 
2569.2180   29.5011    4.8418    4.8349 -999.0000   64.6526    0.1505    2.5552   22.0000   18.0000 
2569.3704   31.7453    4.8670    4.8392 -999.0000   64.8593    0.1446    2.5338   22.0000   18.0000 
2569.5228   33.9896    4.8921    4.8436 -999.0000   65.0661    0.1386    2.5125   22.0000   18.0000 
2569.6752   36.2128    4.8655    4.9348 -999.0000   65.1797    0.1347    2.5155   22.0000   18.0000 
2569.8276   38.4359    4.8390    5.0261 -999.0000   65.2932    0.1308    2.5184   22.0000   18.0000 
2569.9800   40.6591    4.8124    5.1173 -999.0000   65.4068    0.1269    2.5214   22.0000   18.0000 
2570.1324   38.9764    4.3840    4.9095 -999.0000   65.4639    0.1352    2.5399   22.0000   18.0000 
2570.2848   37.2937    3.9557    4.7018 -999.0000   65.5209    0.1435    2.5585   22.0000   18.0000 
2570.4372   35.6110    3.5273    4.4940 -999.0000   65.5780    0.1518    2.5770   22.0000   18.0000 
2570.5896   37.8331    3.3792    4.0505 -999.0000   65.6272    0.1633    2.5510   22.0000   18.0000 
2570.7420   40.0553    3.2311    3.6070 -999.0000   65.6763    0.1748    2.5250   22.0000   18.0000 
2570.8944   42.2775    3.0831    3.1635 -999.0000   65.7254    0.1863    2.4991   22.0000   18.0000 
2571.0468   44.4996    2.9350    2.7200 -999.0000   65.7746    0.1978    2.4731   18.0000   18.0000 
2571.1992   44.8283    3.1433    2.9580 -999.0000   65.8232    0.1837    2.4725   18.0000   18.0000 
2571.3516   45.1570    3.3517    3.1960 -999.0000   65.8717    0.1697    2.4720   18.0000   18.0000 
2571.5040   45.4857    3.5600    3.4340 -999.0000   65.9203    0.1556    2.4714   18.0000   18.0000 
2571.6564   43.9387    3.3898    3.5453 -999.0000   65.9802    0.1590    2.4884   18.0000   18.0000 
2571.8088   42.3918    3.2197    3.6565 -999.0000   66.0401    0.1623    2.5055   22.0000   18.0000 
2571.9612   40.8448    3.0495    3.7678 -999.0000   66.1000    0.1657    2.5225   22.0000   18.0000 
2572.1136   40.5584    3.0208    3.4672 -999.0000   66.1407    0.1689    2.5011   22.0000   18.0000 
2572.2660   40.2720    2.9921    3.1665 -999.0000   66.1814    0.1720    2.4797   22.0000   18.0000 
2572.4184   39.9856    2.9634    2.8658 -999.0000   66.2220    0.1752    2.4583   18.0000   18.0000 
2572.5708   39.6992    2.9347    2.5652 -999.0000   66.2627    0.1784    2.4369   18.0000   18.0000 
2572.7232   40.4615    2.8737    2.5947 -999.0000   66.3198    0.1640    2.4398   18.0000   18.0000 
2572.8756   41.2237    2.8127    2.6241 -999.0000   66.3768    0.1497    2.4426   27.0000   18.0000 
2573.0280   41.9860    2.7517    2.6536 -999.0000   66.4339    0.1353    2.4455   27.0000   18.0000 
2573.1804   41.8140    2.9137    3.0509 -999.0000   66.4910    0.1410    2.4799   18.0000   18.0000 
2573.3328   41.6419    3.0756    3.4482 -999.0000   66.5480    0.1467    2.5144   18.0000   18.0000 
2573.4852   41.4699    3.2376    3.8455 -999.0000   66.6051    0.1524    2.5488   18.0000   18.0000 
2573.6376   31.6220    3.2886    3.7550 -999.0000   66.7102    0.1497    2.5385   18.0000   18.0000 
2573.7900   21.7742    3.3397    3.6645 -999.0000   66.8152    0.1469    2.5282   18.0000   18.0000 
2573.9424   11.9263    3.3907    3.5740 -999.0000   66.9203    0.1442    2.5179   18.0000   18.0000 
2574.0948   11.6908    3.3922    3.5946 -999.0000   66.9271    0.1426    2.5262   18.0000   18.0000 
2574.2472   11.4553    3.3936    3.6152 -999.0000   66.9339    0.1410    2.5346   18.0000   18.0000 
2574.3996   11.2198    3.3951    3.6358 -999.0000   66.9407    0.1394    2.5430   18.0000   18.0000 
2574.5520   10.9843    3.3965    3.6564 -999.0000   66.9475    0.1378    2.5513   18.0000   18.0000 
2574.7044   10.9352    3.3703    3.6171 -999.0000   67.3435    0.1304    2.5433   18.0000   18.0000 
2574.8568   10.8860    3.3441    3.5778 -999.0000   67.7396    0.1229    2.5354   18.0000   18.0000 
2575.0092   10.8369    3.3179    3.5385 -999.0000   68.1356    0.1155    2.5274   18.0000   18.0000 
