~VERSION INFORMATION
 VERS.                 2.0:   CWLS LOG ASCII STANDARD - VERSION 2.0
 WRAP.                  NO:   SINGLE LINE PER DEPTH STEP
 CREA.                 04/06/2018 10:36:36
#CREATED USING DSPetro VERSION 5000.10.1.3 BY H191660 ON 04/06/2018 10:36:36
~WELL INFORMATION
#MNEM.UNIT       DATA                          DESCRIPTION MNEMONIC
#---------      ---------------------------   --------------------------
 STRT    .M         1989.9456                 : START DEPTH
 STOP    .M         2954.9424                 : STOP DEPTH
 STEP    .M         0.1524                    : STEP VALUE
 NULL    .      -999.0000                     : NULL VALUE
 DATE    .      04/06/2018                    : LAS file Creation Date
 WELL .      15_9_11                     : Well Name
 COMP .      Neftex Exploration Insights : Company
 FLD  .      SLEIPNER OST                : Field
 UWI  .      YNOWL_15911                 : Unique Well Identifier (UWI)
 LOC  .                                  : Location
 RWS  .      -999                        : Def_Rw
 WST  .      -999                        : Def_Rwt
 SRVC .                                  : Contractor
~CURVE INFORMATION
#MNEM                     UNIT       API CODE   Curve Type Comments
#----------         --------------- ----------  ---------- -----------
 DEPTH             .M                         : Depth       
 GR_API            .API                       :             Gamma Ray (API) - Measures the intensity of natural gamma-ray radiation emitted from formations containing radioactive elements, such as K, Th and U
 RD_OHMM           .ohmm                      :             Unspecified Deep Resistivity - No accroynm or method of attainment is specified - units of ohmm
 RM_OHMM           .ohm.m                     :             Unspecified Medium Resistivity - No accroynm or method of attainment is specified
 RS_OHMM           .ohmm                      :             Unspecified Shallow Resistivity - No accroynm or method of attainment is specified
 DT_US_FT          .us/ft                     :             Interval Transit Time: Compressional Wave - Evaluates the time it takes for a compressional wave to traverse a fixed distance
 NEUT_P_RATIO      .ratio                     :             Unspecified Neutron Porosity Log - No accroynm or method of attainment is specified
 RHOB_G_CC         .g/cc                      :             Bulk Density - Measures the density of bulk material, including any void space or other materials contained in the subject volume
 LITH_v1_fromPetro .                          : LITH        Lithology Curve
 LITH_v2_fromCompo .                          : LITH        Lithology Curve
~A  DEPTH   GR_API   RD_OHMM   RM_OHMM   RS_OHMM   DT_US_FT NEUT_P_R~ RHOB_G_C~ LITH_v1_~ LITH_v2_~ 
# ...
2684.8896   21.1744    2.7708    3.9701 -999.0000   72.9824    0.1192    2.6027   18.0000   18.0000 
2685.0420   21.0953    2.8595    4.5774 -999.0000   71.6271    0.1057    2.6297   18.0000   18.0000 
2685.1944   23.6381    2.9526    4.1346 -999.0000   72.3282    0.1144    2.6013   18.0000   18.0000 
2685.3468   26.1809    3.0457    3.6917 -999.0000   73.0294    0.1230    2.5730   18.0000   18.0000 
2685.4992   28.7237    3.1388    3.2489 -999.0000   73.7305    0.1317    2.5446   18.0000   18.0000 
2685.6516   26.6056    3.2145    3.2683 -999.0000   74.4522    0.1376    2.5692   18.0000   18.0000 
2685.8040   24.4874    3.2903    3.2878 -999.0000   75.1738    0.1435    2.5937   18.0000   18.0000 
2685.9564   22.3693    3.3660    3.3072 -999.0000   75.8955    0.1494    2.6183   18.0000   18.0000 
2686.1088   23.1323    3.5733    3.5038 -999.0000   74.0710    0.1395    2.6049   18.0000   18.0000 
2686.2612   23.8953    3.7807    3.7004 -999.0000   72.2465    0.1296    2.5915   22.0000   18.0000 
2686.4136   24.6582    3.9881    3.8971 -999.0000   70.4220    0.1198    2.5781   22.0000   18.0000 
2686.5660   25.4212    4.1954    4.0937 -999.0000   68.5975    0.1099    2.5647   18.0000   18.0000 
2686.7184   21.5233    5.2363    5.6464 -999.0000   66.6164    0.1036    2.5805   18.0000   18.0000 
2686.8708   17.6254    6.2771    7.1990 -999.0000   64.6353    0.0974    2.5963   18.0000   18.0000 
2687.0232   13.7275    7.3180    8.7517 -999.0000   62.6542    0.0911    2.6121   18.0000   18.0000 
2687.1756   19.5966    7.6709   10.3736 -999.0000   61.9251    0.0889    2.6169   18.0000   18.0000 
2687.3280   25.4657    8.0237   11.9955 -999.0000   61.1960    0.0866    2.6218   18.0000   18.0000 
2687.4804   31.3348    8.3766   13.6174 -999.0000   60.4669    0.0844    2.6266   18.0000   18.0000 
2687.6328   33.2132    7.8237   11.6814 -999.0000   62.1406    0.0952    2.6296   18.0000   18.0000 
2687.7852   35.0915    7.2707    9.7453 -999.0000   63.8144    0.1061    2.6327   18.0000   18.0000 
2687.9376   36.9699    6.7178    7.8093 -999.0000   65.4881    0.1169    2.6357   18.0000   18.0000 
2688.0900   37.1031    6.4940    7.4434 -999.0000   66.2474    0.1212    2.6206   18.0000   18.0000 
2688.2424   37.2362    6.2703    7.0774 -999.0000   67.0067    0.1255    2.6056   18.0000   18.0000 
2688.3948   37.3693    6.0465    6.7115 -999.0000   67.7661    0.1298    2.5905   18.0000   18.0000 
2688.5472   37.5025    5.8227    6.3456 -999.0000   68.5254    0.1341    2.5754   18.0000   18.0000 
2688.6996   35.6470    5.4864    6.2295 -999.0000   68.8181    0.1284    2.5649   18.0000   18.0000 
2688.8520   33.7915    5.1501    6.1135 -999.0000   69.1107    0.1227    2.5544   18.0000   18.0000 
2689.0044   31.9360    4.8138    5.9974 -999.0000   69.4034    0.1170    2.5439   18.0000   18.0000 
2689.1568   31.3771    4.6396    5.9819 -999.0000   69.6189    0.1139    2.5666   18.0000   18.0000 
2689.3092   30.8182    4.4654    5.9663 -999.0000   69.8345    0.1108    2.5893   18.0000   18.0000 
2689.4616   30.2593    4.2912    5.9508 -999.0000   70.0500    0.1077    2.6120   18.0000   18.0000 
2689.6140   30.3724    4.1614    5.7018 -999.0000   70.5036    0.1108    2.6028   18.0000   18.0000 
2689.7664   30.4856    4.0315    5.4528 -999.0000   70.9572    0.1138    2.5936   18.0000   18.0000 
2689.9188   30.5988    3.9016    5.2037 -999.0000   71.4108    0.1169    2.5845   18.0000   18.0000 
2690.0712   30.7119    3.7718    4.9547 -999.0000   71.8644    0.1200    2.5753   18.0000   18.0000 
2690.2236   29.8000    3.6526    4.8159 -999.0000   72.2037    0.1196    2.5730   18.0000   18.0000 
2690.3760   28.8882    3.5333    4.6772 -999.0000   72.5429    0.1193    2.5708   18.0000   18.0000 
2690.5284   27.9763    3.4141    4.5384 -999.0000   72.8822    0.1189    2.5685   18.0000   18.0000 
2690.6808   29.4165    3.3216    4.4643 -999.0000   73.6582    0.1233    2.5782   18.0000   18.0000 
2690.8332   30.8567    3.2291    4.3901 -999.0000   74.4342    0.1277    2.5880   18.0000   18.0000 
2690.9856   32.2969    3.1366    4.3160 -999.0000   75.2102    0.1321    2.5977   18.0000   18.0000 
2691.1380   31.2874    3.1070    4.0000 -999.0000   75.7148    0.1390    2.5878   18.0000   18.0000 
2691.2904   30.2779    3.0775    3.6840 -999.0000   76.2194    0.1460    2.5779   18.0000   18.0000 
2691.4428   29.2684    3.0479    3.3680 -999.0000   76.7240    0.1529    2.5680   18.0000   18.0000 
2691.5952   28.5484    3.0348    3.5715 -999.0000   75.6642    0.1456    2.5637   22.0000   18.0000 
2691.7476   27.8283    3.0217    3.7750 -999.0000   74.6044    0.1384    2.5595   22.0000   18.0000 
2691.9000   27.1082    3.0086    3.9785 -999.0000   73.5446    0.1311    2.5552   18.0000   18.0000 
2692.0524   26.3882    2.9955    4.1820 -999.0000   72.4848    0.1239    2.5509   18.0000   18.0000 
2692.2048   29.7785    2.9672    3.8718 -999.0000   73.8797    0.1325    2.5459   18.0000   18.0000 
2692.3572   33.1688    2.9389    3.5617 -999.0000   75.2746    0.1412    2.5410   18.0000   18.0000 
2692.5096   36.5591    2.9106    3.2515 -999.0000   76.6695    0.1498    2.5360   18.0000   22.0000 
2692.6620   33.9113    2.9260    3.4151 -999.0000   76.5367    0.1424    2.5368   18.0000   22.0000 
2692.8144   31.2635    2.9415    3.5786 -999.0000   76.4040    0.1349    2.5377   18.0000   22.0000 
2692.9668   28.6157    2.9569    3.7422 -999.0000   76.2712    0.1275    2.5385   18.0000   22.0000 
2693.1192   32.2391    2.9976    3.8488 -999.0000   75.8170    0.1320    2.5416   18.0000   22.0000 
2693.2716   35.8624    3.0384    3.9555 -999.0000   75.3627    0.1366    2.5447   18.0000   22.0000 
2693.4240   39.4858    3.0791    4.0621 -999.0000   74.9085    0.1411    2.5478   18.0000   22.0000 
2693.5764   37.8283    3.0647    3.9935 -999.0000   75.0704    0.1435    2.5528   18.0000   22.0000 
2693.7288   36.1708    3.0502    3.9250 -999.0000   75.2322    0.1458    2.5578   18.0000   22.0000 
2693.8812   34.5132    3.0357    3.8564 -999.0000   75.3941    0.1481    2.5629   18.0000   22.0000 
2694.0336   32.8557    3.0213    3.7878 -999.0000   75.5559    0.1505    2.5679   18.0000   22.0000 
2694.1860   35.1843    2.9772    3.6547 -999.0000   76.0260    0.1505    2.5760   22.0000   22.0000 
2694.3384   37.5129    2.9332    3.5215 -999.0000   76.4960    0.1505    2.5842   22.0000   22.0000 
2694.4908   39.8415    2.8891    3.3884 -999.0000   76.9661    0.1505    2.5923   22.0000   22.0000 
2694.6432   37.4085    2.9156    3.4650 -999.0000   77.1076    0.1474    2.5878   22.0000   22.0000 
2694.7956   34.9754    2.9422    3.5417 -999.0000   77.2490    0.1444    2.5834   22.0000   22.0000 
2694.9480   32.5424    2.9687    3.6183 -999.0000   77.3905    0.1413    2.5789   18.0000   22.0000 
2695.1004   32.5317    2.9816    3.7907 -999.0000   76.3861    0.1395    2.5732   18.0000   22.0000 
2695.2528   32.5209    2.9945    3.9632 -999.0000   75.3817    0.1377    2.5675   18.0000   22.0000 
2695.4052   32.5102    3.0075    4.1356 -999.0000   74.3773    0.1360    2.5617   18.0000   22.0000 
2695.5576   32.4994    3.0204    4.3080 -999.0000   73.3729    0.1342    2.5560   18.0000   22.0000 
2695.7100   34.3429    2.9769    4.1281 -999.0000   74.5000    0.1439    2.5515   22.0000   22.0000 
2695.8624   36.1865    2.9333    3.9483 -999.0000   75.6271    0.1536    2.5471   22.0000   22.0000 
2696.0148   38.0300    2.8898    3.7684 -999.0000   76.7542    0.1633    2.5426   22.0000   22.0000 
2696.1672   40.8271    2.8463    3.6223 -999.0000   77.2714    0.1652    2.5463   22.0000   22.0000 
2696.3196   43.6241    2.8027    3.4762 -999.0000   77.7887    0.1672    2.5500   22.0000   22.0000 
2696.4720   46.4212    2.7592    3.3301 -999.0000   78.3059    0.1691    2.5537   22.0000   22.0000 
2696.6244   40.8922    2.7492    3.4469 -999.0000   77.5461    0.1601    2.5527   22.0000   22.0000 
2696.7768   35.3631    2.7393    3.5638 -999.0000   76.7864    0.1511    2.5518   18.0000   22.0000 
2696.9292   29.8341    2.7293    3.6806 -999.0000   76.0266    0.1421    2.5508   18.0000   22.0000 
