~VERSION INFORMATION
 VERS.                 2.0:   CWLS LOG ASCII STANDARD - VERSION 2.0
 WRAP.                  NO:   SINGLE LINE PER DEPTH STEP
 CREA.                 04/06/2018 10:36:36
#CREATED USING DSPetro VERSION 5000.10.1.3 BY H191660 ON 04/06/2018 10:36:36
~WELL INFORMATION
#MNEM.UNIT       DATA                          DESCRIPTION MNEMONIC
#---------      ---------------------------   --------------------------
 STRT    .M         1989.9456                 : START DEPTH
 STOP    .M         2954.9424                 : STOP DEPTH
 STEP    .M         0.1524                    : STEP VALUE
 NULL    .      -999.0000                     : NULL VALUE
 DATE    .      04/06/2018                    : LAS file Creation Date
 WELL .      15_9_11                     : Well Name
 COMP .      Neftex Exploration Insights : Company
 FLD  .      SLEIPNER OST                : Field
 UWI  .      YNOWL_15911                 : Unique Well Identifier (UWI)
 LOC  .                                  : Location
 RWS  .      -999                        : Def_Rw
 WST  .      -999                        : Def_Rwt
 SRVC .                                  : Contractor
~CURVE INFORMATION
#MNEM                     UNIT       API CODE   Curve Type Comments
#----------         --------------- ----------  ---------- -----------
 DEPTH             .M                         : Depth       
 GR_API            .API                       :             Gamma Ray (API) - Measures the intensity of natural gamma-ray radiation emitted from formations containing radioactive elements, such as K, Th and U
 RD_OHMM           .ohmm                      :             Unspecified Deep Resistivity - No accroynm or method of attainment is specified - units of ohmm
 RM_OHMM           .ohm.m                     :             Unspecified Medium Resistivity - No accroynm or method of attainment is specified
 RS_OHMM           .ohmm                      :             Unspecified Shallow Resistivity - No accroynm or method of attainment is specified
 DT_US_FT          .us/ft                     :             Interval Transit Time: Compressional Wave - Evaluates the time it takes for a compressional wave to traverse a fixed distance
 NEUT_P_RATIO      .ratio                     :             Unspecified Neutron Porosity Log - No accroynm or method of attainment is specified
 RHOB_G_CC         .g/cc                      :             Bulk Density - Measures the density of bulk material, including any void space or other materials contained in the subject volume
 LITH_v1_fromPetro .                          : LITH        Lithology Curve
 LITH_v2_fromCompo .                          : LITH        Lithology Curve
~A  DEPTH   GR_API   RD_OHMM   RM_OHMM   RS_OHMM   DT_US_FT NEUT_P_R~ RHOB_G_C~ LITH_v1_~ LITH_v2_~ 
# ...
2306.9376   54.0509    0.6286    0.7213    0.7728  123.2373    0.4481    2.1266   37.0000   37.0000 
2307.0900   54.0286    0.6250    0.7171    1.0533  120.5424    0.4526    2.1467   37.0000   37.0000 
2307.2424   54.0064    0.6214    0.7130    1.3338  117.8475    0.4570    2.1667   37.0000   37.0000 
2307.3948   53.9841    0.6178    0.7089    1.6143  115.1525    0.4615    2.1867   37.0000   37.0000 
2307.5472   53.9619    0.6142    0.7047    1.8948  112.4576    0.4660    2.2068   37.0000   37.0000 
2307.6996   60.8496    0.6073    0.6967    1.4983  118.8418    0.4342    2.2630   37.0000   37.0000 
2307.8520   67.7373    0.6005    0.6888    1.1018  125.2260    0.4025    2.3192   22.0000   22.0000 
2308.0044   74.6250    0.5936    0.6808    0.7053  131.6102    0.3707    2.3754   22.0000   22.0000 
2308.1568   71.2225    0.5845    0.6731    0.7475  130.8531    0.3966    2.3133   22.0000   22.0000 
2308.3092   67.8199    0.5754    0.6654    0.7897  130.0961    0.4224    2.2511   37.0000   37.0000 
2308.4616   64.4174    0.5663    0.6577    0.8319  129.3390    0.4483    2.1890   37.0000   37.0000 
2308.6140   67.7988    0.5743    0.6712    0.7862  130.8221    0.4382    2.1684   37.0000   37.0000 
2308.7664   71.1801    0.5824    0.6847    0.7405  132.3051    0.4280    2.1479   37.0000   37.0000 
2308.9188   74.5614    0.5904    0.6982    0.6948  133.7881    0.4179    2.1273   37.0000   37.0000 
2309.0712   77.9428    0.5985    0.7117    0.6491  135.2712    0.4078    2.1067   37.0000   37.0000 
2309.2236   78.1292    0.6293    0.7351    0.7418  131.6384    0.4228    2.1491   37.0000   37.0000 
2309.3760   78.3157    0.6600    0.7585    0.8345  128.0057    0.4378    2.1915   37.0000   37.0000 
2309.5284   78.5021    0.6908    0.7819    0.9272  124.3729    0.4528    2.2339   37.0000   37.0000 
2309.6808   74.7182    0.6941    0.7876    0.8449  121.9831    0.4817    2.1709   37.0000   37.0000 
2309.8332   70.9343    0.6973    0.7933    0.7627  119.5932    0.5107    2.1080   37.0000   37.0000 
2309.9856   67.1504    0.7006    0.7990    0.6804  117.2034    0.5396    2.0450   37.0000   37.0000 
2310.1380   64.1070    0.6941    0.8084    0.7832  120.4237    0.5101    2.1249   37.0000   37.0000 
2310.2904   61.0635    0.6877    0.8177    0.8859  123.6441    0.4806    2.2049   37.0000   37.0000 
2310.4428   58.0201    0.6812    0.8271    0.9887  126.8644    0.4511    2.2848   37.0000   37.0000 
2310.5952   59.5225    0.6742    0.8350    0.9119  124.8206    0.4301    2.2846   37.0000   37.0000 
2310.7476   61.0249    0.6672    0.8430    0.8350  122.7769    0.4090    2.2843   37.0000   37.0000 
2310.9000   62.5273    0.6601    0.8510    0.7582  120.7331    0.3880    2.2841   37.0000   37.0000 
2311.0524   64.0297    0.6531    0.8589    0.6814  118.6893    0.3670    2.2839   37.0000   37.0000 
2311.2048   59.3327    0.6659    0.8680    0.7657  120.3409    0.3922    2.2344   37.0000   37.0000 
2311.3572   54.6356    0.6788    0.8770    0.8499  121.9925    0.4174    2.1850   37.0000   37.0000 
2311.5096   49.9386    0.6916    0.8861    0.9342  123.6441    0.4426    2.1355   37.0000   37.0000 
2311.6620   51.3962    0.6907    0.9002    0.8948  121.0480    0.4143    2.1698   37.0000   37.0000 
2311.8144   52.8538    0.6897    0.9144    0.8553  118.4520    0.3861    2.2040   37.0000   37.0000 
2311.9668   54.3114    0.6888    0.9285    0.8159  115.8559    0.3578    2.2383   37.0000   37.0000 
2312.1192   54.2055    0.6916    0.9545    0.7729  116.9830    0.3876    2.2024   37.0000   37.0000 
2312.2716   54.0995    0.6944    0.9805    0.7299  118.1102    0.4174    2.1665   37.0000   37.0000 
2312.4240   53.9936    0.6972    1.0065    0.6869  119.2373    0.4472    2.1306   37.0000   37.0000 
2312.5764   52.2036    0.6992    1.0126    0.8430  116.3559    0.4476    2.2004   37.0000   37.0000 
2312.7288   50.4137    0.7012    1.0187    0.9991  113.4746    0.4480    2.2701   37.0000   37.0000 
2312.8812   48.6237    0.7031    1.0248    1.1551  110.5932    0.4483    2.3398   22.0000   37.0000 
2313.0336   46.8337    0.7051    1.0309    1.3112  107.7119    0.4487    2.4096   22.0000   37.0000 
2313.1860   46.7839    0.6971    1.0193    1.1001  110.8927    0.4114    2.3103   22.0000   37.0000 
2313.3384   46.7341    0.6892    1.0076    0.8890  114.0734    0.3740    2.2111   37.0000   37.0000 
2313.4908   46.6843    0.6812    0.9960    0.6779  117.2542    0.3367    2.1118   37.0000   37.0000 
2313.6432   50.2648    0.6846    0.9860    0.9019  120.7401    0.3435    2.0988   37.0000   37.0000 
2313.7956   53.8454    0.6880    0.9761    1.1260  124.2260    0.3504    2.0859   37.0000   37.0000 
2313.9480   57.4259    0.6914    0.9661    1.3500  127.7119    0.3572    2.0729   37.0000   37.0000 
2314.1004   53.9643    0.6853    0.9762    1.1597  123.3898    0.3895    2.0835   37.0000   37.0000 
2314.2528   50.5027    0.6791    0.9863    0.9694  119.0678    0.4218    2.0940   37.0000   37.0000 
2314.4052   47.0411    0.6730    0.9964    0.7791  114.7458    0.4540    2.1046   37.0000   37.0000 
2314.5576   43.5795    0.6669    1.0065    0.5888  110.4237    0.4863    2.1152   37.0000   37.0000 
2314.7100   43.4916    0.6713    0.9978    0.7883  111.7514    0.4433    2.1702   37.0000   37.0000 
2314.8624   43.4036    0.6757    0.9891    0.9877  113.0791    0.4004    2.2252   22.0000   37.0000 
2315.0148   43.3157    0.6801    0.9804    1.1872  114.4068    0.3574    2.2802   22.0000   37.0000 
2315.1672   46.4576    0.6934    0.9686    0.9953  114.9944    0.3885    2.2280   22.0000   37.0000 
2315.3196   49.5996    0.7068    0.9567    0.8035  115.5819    0.4197    2.1759   37.0000   37.0000 
2315.4720   52.7415    0.7201    0.9449    0.6116  116.1695    0.4508    2.1237   37.0000   37.0000 
2315.6244   51.7267    0.7238    0.9262    0.6226  113.7740    0.4498    2.1441   37.0000   37.0000 
2315.7768   50.7118    0.7274    0.9074    0.6336  111.3785    0.4489    2.1646   37.0000   37.0000 
2315.9292   49.6970    0.7311    0.8887    0.6446  108.9830    0.4479    2.1850   37.0000   37.0000 
2316.0816   46.9759    0.7319    0.8804    0.7917  107.5211    0.4254    2.2101   37.0000   37.0000 
2316.2340   44.2547    0.7326    0.8722    0.9389  106.0593    0.4030    2.2351   37.0000   37.0000 
2316.3864   41.5336    0.7333    0.8639    1.0860  104.5975    0.3805    2.2601   37.0000   37.0000 
2316.5388   38.8125    0.7341    0.8556    1.2331  103.1356    0.3581    2.2852   22.0000   37.0000 
2316.6912   46.1186    0.7283    0.8470    1.0945  106.8390    0.3548    2.2553   37.0000   37.0000 
2316.8436   53.4248    0.7225    0.8383    0.9558  110.5424    0.3515    2.2255   37.0000   37.0000 
2316.9960   60.7309    0.7167    0.8297    0.8172  114.2458    0.3482    2.1956   37.0000   37.0000 
2317.1484   58.4534    0.7100    0.8203    0.7667  117.9435    0.3792    2.1687   37.0000   37.0000 
2317.3008   56.1758    0.7032    0.8108    0.7161  121.6413    0.4101    2.1417   37.0000   37.0000 
2317.4532   53.8983    0.6965    0.8014    0.6656  125.3390    0.4411    2.1148   37.0000   37.0000 
2317.6056   54.8914    0.6974    0.7964    0.8084  122.4216    0.4590    2.1773   37.0000   37.0000 
2317.7580   55.8846    0.6984    0.7915    0.9512  119.5042    0.4769    2.2399   37.0000   37.0000 
2317.9104   56.8777    0.6993    0.7865    1.0939  116.5869    0.4948    2.3024   37.0000   37.0000 
2318.0628   57.8708    0.7002    0.7815    1.2367  113.6695    0.5127    2.3649   22.0000   37.0000 
2318.2152   57.2288    0.7152    0.7765    1.0511  110.8927    0.4794    2.3118   37.0000   37.0000 
2318.3676   56.5869    0.7303    0.7715    0.8654  108.1158    0.4461    2.2588   37.0000   37.0000 
2318.5200   55.9449    0.7453    0.7665    0.6798  105.3390    0.4128    2.2057   37.0000   37.0000 
2318.6724   53.0720    0.7439    0.7602    1.0005  112.9661    0.3947    2.2319   37.0000   37.0000 
2318.8248   50.1992    0.7426    0.7540    1.3213  120.5932    0.3765    2.2582   37.0000   37.0000 
2318.9772   47.3263    0.7412    0.7477    1.6420  128.2203    0.3584    2.2844   37.0000   37.0000 
