~VERSION INFORMATION
 VERS.                 2.0:   CWLS LOG ASCII STANDARD - VERSION 2.0
 WRAP.                  NO:   SINGLE LINE PER DEPTH STEP
 CREA.                 04/06/2018 10:36:36
#CREATED USING DSPetro VERSION 5000.10.1.3 BY H191660 ON 04/06/2018 10:36:36
~WELL INFORMATION
#MNEM.UNIT       DATA                          DESCRIPTION MNEMONIC
#---------      ---------------------------   --------------------------
 STRT    .M         1989.9456                 : START DEPTH
 STOP    .M         2954.9424                 : STOP DEPTH
 STEP    .M         0.1524                    : STEP VALUE
 NULL    .      -999.0000                     : NULL VALUE
 DATE    .      04/06/2018                    : LAS file Creation Date
 WELL .      15_9_11                     : Well Name
 COMP .      Neftex Exploration Insights : Company
 FLD  .      SLEIPNER OST                : Field
 UWI  .      YNOWL_15911                 : Unique Well Identifier (UWI)
 LOC  .                                  : Location
 RWS  .      -999                        : Def_Rw
 WST  .      -999                        : Def_Rwt
 SRVC .                                  : Contractor
~CURVE INFORMATION
#MNEM                     UNIT       API CODE   Curve Type Comments
#----------         --------------- ----------  ---------- -----------
 DEPTH             .M                         : Depth       
 GR_API            .API                       :             Gamma Ray (API) - Measures the intensity of natural gamma-ray radiation emitted from formations containing radioactive elements, such as K, Th and U
 RD_OHMM           .ohmm                      :             Unspecified Deep Resistivity - No accroynm or method of attainment is specified - units of ohmm
 RM_OHMM           .ohm.m                     :             Unspecified Medium Resistivity - No accroynm or method of attainment is specified
 RS_OHMM           .ohmm                      :             Unspecified Shallow Resistivity - No accroynm or method of attainment is specified
 DT_US_FT          .us/ft                     :             Interval Transit Time: Compressional Wave - Evaluates the time it takes for a compressional wave to traverse a fixed distance
 NEUT_P_RATIO      .ratio                     :             Unspecified Neutron Porosity Log - No accroynm or method of attainment is specified
 RHOB_G_CC         .g/cc                      :             Bulk Density - Measures the density of bulk material, including any void space or other materials contained in the subject volume
 LITH_v1_fromPetro .                          : LITH        Lithology Curve
 LITH_v2_fromCompo .                          : LITH        Lithology Curve
~A  DEPTH   GR_API   RD_OHMM   RM_OHMM   RS_OHMM   DT_US_FT NEUT_P_R~ RHOB_G_C~ LITH_v1_~ LITH_v2_~ 
# ...
2111.8656   53.6120    0.5959    0.7311 -999.0000  128.1402    0.4467    2.3485    9.0000   22.0000 
2112.0180   54.7871    0.5916    0.7070 -999.0000  124.6209    0.4607    2.4238   22.0000   22.0000 
2112.1704   55.8678    0.5823    0.6693 -999.0000  132.4734    0.4743    2.3217   22.0000   37.0000 
2112.3228   56.9486    0.5729    0.6317 -999.0000  140.3260    0.4878    2.2196   22.0000   37.0000 
2112.4752   58.0293    0.5636    0.5940 -999.0000  148.1785    0.5014    2.1175    9.0000   37.0000 
2112.6276   57.3777    0.5609    0.6090 -999.0000  146.8784    0.4875    2.1217    9.0000   37.0000 
2112.7800   56.7262    0.5583    0.6240 -999.0000  145.5783    0.4737    2.1258    9.0000   37.0000 
2112.9324   56.0746    0.5556    0.6390 -999.0000  144.2782    0.4598    2.1300    9.0000   37.0000 
2113.0848   59.3606    0.5606    0.6308 -999.0000  145.2947    0.4647    2.1411    9.0000   37.0000 
2113.2372   62.6466    0.5657    0.6227 -999.0000  146.3112    0.4697    2.1523    9.0000   37.0000 
2113.3896   65.9326    0.5707    0.6145 -999.0000  147.3277    0.4747    2.1635    9.0000   37.0000 
2113.5420   69.2186    0.5758    0.6063 -999.0000  148.3442    0.4796    2.1746    9.0000   37.0000 
2113.6944   66.8457    0.5826    0.6327 -999.0000  146.7306    0.4655    2.1700    9.0000   37.0000 
2113.8468   64.4729    0.5895    0.6591 -999.0000  145.1170    0.4515    2.1653    9.0000   37.0000 
2113.9992   62.1000    0.5963    0.6855 -999.0000  143.5034    0.4374    2.1607    9.0000   37.0000 
2114.1516   60.1941    0.5972    0.6815 -999.0000  142.9534    0.4701    2.1717    9.0000   37.0000 
2114.3040   58.2881    0.5982    0.6776 -999.0000  142.4034    0.5027    2.1827    9.0000   37.0000 
2114.4564   56.3822    0.5991    0.6736 -999.0000  141.8534    0.5354    2.1937    9.0000   37.0000 
2114.6088   58.1303    0.5921    0.6660 -999.0000  141.5087    0.5198    2.1841    9.0000   37.0000 
2114.7612   59.8785    0.5850    0.6584 -999.0000  141.1640    0.5041    2.1744    9.0000   37.0000 
2114.9136   61.6267    0.5780    0.6508 -999.0000  140.8193    0.4885    2.1648    9.0000   37.0000 
2115.0660   63.3748    0.5709    0.6432 -999.0000  140.4746    0.4729    2.1552    9.0000   37.0000 
2115.2184   64.2439    0.5680    0.6419 -999.0000  139.8754    0.5017    2.1603    9.0000   37.0000 
2115.3708   65.1131    0.5650    0.6405 -999.0000  139.2761    0.5304    2.1654    9.0000   37.0000 
2115.5232   65.9822    0.5621    0.6392 -999.0000  138.6769    0.5592    2.1705    9.0000   37.0000 
2115.6756   63.5038    0.5654    0.6259 -999.0000  139.3542    0.5475    2.1743    9.0000   37.0000 
2115.8280   61.0254    0.5687    0.6127 -999.0000  140.0315    0.5359    2.1781    9.0000   37.0000 
2115.9804   58.5470    0.5720    0.5994 -999.0000  140.7088    0.5242    2.1819    9.0000   37.0000 
2116.1328   59.2203    0.5757    0.6165 -999.0000  140.1677    0.4973    2.1683    9.0000   37.0000 
2116.2852   59.8937    0.5795    0.6335 -999.0000  139.6267    0.4704    2.1548    9.0000   37.0000 
2116.4376   60.5670    0.5832    0.6506 -999.0000  139.0856    0.4435    2.1412    9.0000   37.0000 
2116.5900   59.8084    0.5847    0.6506 -999.0000  139.3371    0.4468    2.1507    9.0000   37.0000 
2116.7424   59.0498    0.5861    0.6506 -999.0000  139.5886    0.4500    2.1603    9.0000   37.0000 
2116.8948   58.2912    0.5876    0.6506 -999.0000  139.8400    0.4533    2.1698    9.0000   37.0000 
2117.0472   57.5326    0.5891    0.6506 -999.0000  140.0915    0.4566    2.1793    9.0000   37.0000 
2117.1996   61.0359    0.5880    0.6439 -999.0000  140.1260    0.4719    2.1714    9.0000   37.0000 
2117.3520   64.5391    0.5868    0.6372 -999.0000  140.1604    0.4871    2.1636    9.0000   37.0000 
2117.5044   68.0424    0.5857    0.6305 -999.0000  140.1949    0.5024    2.1557    9.0000   37.0000 
2117.6568   69.1798    0.5820    0.6225 -999.0000  140.4921    0.4916    2.1624    9.0000   37.0000 
2117.8092   70.3172    0.5783    0.6146 -999.0000  140.7892    0.4807    2.1691    9.0000   37.0000 
2117.9616   71.4546    0.5746    0.6066 -999.0000  141.0864    0.4699    2.1758    9.0000   37.0000 
2118.1140   71.5967    0.5715    0.6159 -999.0000  141.0746    0.4812    2.1716    9.0000   37.0000 
2118.2664   71.7388    0.5684    0.6251 -999.0000  141.0627    0.4924    2.1673    9.0000   37.0000 
2118.4188   71.8808    0.5654    0.6344 -999.0000  141.0508    0.5037    2.1630    9.0000   37.0000 
2118.5712   72.0229    0.5623    0.6437 -999.0000  141.0390    0.5150    2.1588    9.0000   37.0000 
2118.7236   67.5941    0.5601    0.6422 -999.0000  141.5085    0.4935    2.1551    9.0000   37.0000 
2118.8760   63.1652    0.5580    0.6408 -999.0000  141.9780    0.4721    2.1514    9.0000   37.0000 
2119.0284   58.7364    0.5558    0.6393 -999.0000  142.4475    0.4506    2.1477    9.0000   37.0000 
2119.1808   58.5508    0.5558    0.6284 -999.0000  143.3684    0.4354    2.1609    9.0000   37.0000 
2119.3332   58.3653    0.5558    0.6176 -999.0000  144.2893    0.4202    2.1742    9.0000   37.0000 
2119.4856   58.1797    0.5558    0.6067 -999.0000  145.2102    0.4050    2.1874    9.0000   37.0000 
2119.6380   60.3098    0.5558    0.6183 -999.0000  145.9651    0.4330    2.1791    9.0000   37.0000 
2119.7904   62.4398    0.5558    0.6298 -999.0000  146.7200    0.4611    2.1708    9.0000   37.0000 
2119.9428   64.5699    0.5558    0.6414 -999.0000  147.4749    0.4891    2.1625   22.0000   22.0000 
2120.0952   59.3646    0.5642    0.7232 -999.0000  138.4490    0.4594    2.2281   22.0000   22.0000 
2120.2476   54.1592    0.5725    0.8049 -999.0000  129.4230    0.4298    2.2936   22.0000   22.0000 
2120.4000   48.9539    0.5809    0.8867 -999.0000  120.3971    0.4001    2.3592   22.0000   22.0000 
2120.5524   43.7486    0.5893    0.9685 -999.0000  111.3712    0.3704    2.4248   22.0000   22.0000 
2120.7048   49.9568    0.5863    0.8649 -999.0000  123.4610    0.4022    2.3317   22.0000   22.0000 
2120.8572   56.1651    0.5833    0.7613 -999.0000  135.5509    0.4340    2.2387    9.0000   22.0000 
2121.0096   62.3733    0.5803    0.6577 -999.0000  147.6407    0.4658    2.1456    9.0000   37.0000 
2121.1620   59.1746    0.5711    0.6372 -999.0000  148.4421    0.4771    2.1474    9.0000   37.0000 
2121.3144   55.9758    0.5619    0.6168 -999.0000  149.2435    0.4885    2.1492    9.0000   37.0000 
2121.4668   52.7771    0.5527    0.5963 -999.0000  150.0449    0.4998    2.1510    9.0000   37.0000 
2121.6192   55.7649    0.5443    0.5991 -999.0000  150.7186    0.4868    2.1467    9.0000   37.0000 
2121.7716   58.7527    0.5359    0.6020 -999.0000  151.3924    0.4737    2.1423    9.0000   37.0000 
2121.9240   61.7405    0.5275    0.6048 -999.0000  152.0661    0.4607    2.1380    9.0000   37.0000 
2122.0764   58.2928    0.5317    0.6147 -999.0000  151.9754    0.4698    2.1464    9.0000   37.0000 
2122.2288   54.8451    0.5358    0.6247 -999.0000  151.8848    0.4790    2.1548    9.0000   37.0000 
2122.3812   51.3974    0.5400    0.6346 -999.0000  151.7941    0.4881    2.1632    9.0000   37.0000 
2122.5336   47.9497    0.5442    0.6445 -999.0000  151.7034    0.4972    2.1716    9.0000   37.0000 
2122.6860   49.2387    0.5453    0.6320 -999.0000  151.6305    0.4724    2.1745    9.0000   37.0000 
2122.8384   50.5277    0.5465    0.6195 -999.0000  151.5577    0.4475    2.1774    9.0000   37.0000 
2122.9908   51.8167    0.5476    0.6070 -999.0000  151.4848    0.4227    2.1803    9.0000   37.0000 
2123.1432   53.7489    0.5460    0.6070 -999.0000  151.2178    0.4459    2.1487    9.0000   37.0000 
2123.2956   55.6810    0.5445    0.6070 -999.0000  150.9509    0.4690    2.1172    9.0000   37.0000 
2123.4480   57.6132    0.5429    0.6070 -999.0000  150.6839    0.4922    2.0856    9.0000   37.0000 
2123.6004   56.6124    0.5398    0.6097 -999.0000  150.2998    0.4875    2.0915    9.0000   37.0000 
2123.7528   55.6115    0.5368    0.6124 -999.0000  149.9157    0.4829    2.0974    9.0000   37.0000 
2123.9052   54.6106    0.5338    0.6151 -999.0000  149.5316    0.4782    2.1034    9.0000   37.0000 
