~VERSION INFORMATION
 VERS.                 2.0:   CWLS LOG ASCII STANDARD - VERSION 2.0
 WRAP.                  NO:   SINGLE LINE PER DEPTH STEP
 CREA.                 04/06/2018 10:36:36
#CREATED USING DSPetro VERSION 5000.10.1.3 BY H191660 ON 04/06/2018 10:36:36
~WELL INFORMATION
#MNEM.UNIT       DATA                          DESCRIPTION MNEMONIC
#---------      ---------------------------   --------------------------
 STRT    .M         1989.9456                 : START DEPTH
 STOP    .M         2954.9424                 : STOP DEPTH
 STEP    .M         0.1524                    : STEP VALUE
 NULL    .      -999.0000                     : NULL VALUE
 DATE    .      04/06/2018                    : LAS file Creation Date
 WELL .      15_9_11                     : Well Name
 COMP .      Neftex Exploration Insights : Company
 FLD  .      SLEIPNER OST                : Field
 UWI  .      YNOWL_15911                 : Unique Well Identifier (UWI)
 LOC  .                                  : Location
 RWS  .      -999                        : Def_Rw
 WST  .      -999                        : Def_Rwt
 SRVC .                                  : Contractor
~CURVE INFORMATION
#MNEM                     UNIT       API CODE   Curve Type Comments
#----------         --------------- ----------  ---------- -----------
 DEPTH             .M                         : Depth       
 GR_API            .API                       :             Gamma Ray (API) - Measures the intensity of natural gamma-ray radiation emitted from formations containing radioactive elements, such as K, Th and U
 RD_OHMM           .ohmm                      :             Unspecified Deep Resistivity - No accroynm or method of attainment is specified - units of ohmm
 RM_OHMM           .ohm.m                     :             Unspecified Medium Resistivity - No accroynm or method of attainment is specified
 RS_OHMM           .ohmm                      :             Unspecified Shallow Resistivity - No accroynm or method of attainment is specified
 DT_US_FT          .us/ft                     :             Interval Transit Time: Compressional Wave - Evaluates the time it takes for a compressional wave to traverse a fixed distance
 NEUT_P_RATIO      .ratio                     :             Unspecified Neutron Porosity Log - No accroynm or method of attainment is specified
 RHOB_G_CC         .g/cc                      :             Bulk Density - Measures the density of bulk material, including any void space or other materials contained in the subject volume
 LITH_v1_fromPetro .                          : LITH        Lithology Curve
 LITH_v2_fromCompo .                          : LITH        Lithology Curve
~A  DEPTH   GR_API   RD_OHMM   RM_OHMM   RS_OHMM   DT_US_FT NEUT_P_R~ RHOB_G_C~ LITH_v1_~ LITH_v2_~ 
# ...
2502.0096   26.4451    0.5671    0.8494    1.5292   96.3881    0.2977    2.1873   27.0000   27.0000 
2502.1620   26.4362    0.5210    0.7610    1.4535   97.3972    0.3315    2.1828   27.0000   27.0000 
2502.3144   26.4273    0.4748    0.6727    1.3779   98.4062    0.3652    2.1784   27.0000   27.0000 
2502.4668   26.4184    0.4287    0.5843    1.3022   99.4153    0.3990    2.1739   27.0000   27.0000 
2502.6192   30.0356    0.4170    0.5401    1.1172  100.2435    0.3989    2.1336   27.0000   27.0000 
2502.7716   33.6527    0.4052    0.4960    0.9321  101.0718    0.3989    2.0933   27.0000   27.0000 
2502.9240   37.2699    0.3935    0.4518    0.7471  101.9000    0.3988    2.0530   27.0000   27.0000 
2503.0764   35.6489    0.3936    0.4723    0.8377  101.8051    0.3867    2.0577   27.0000   27.0000 
2503.2288   34.0279    0.3938    0.4927    0.9283  101.7102    0.3747    2.0624   27.0000   27.0000 
2503.3812   32.4068    0.3940    0.5132    1.0190  101.6152    0.3627    2.0672   27.0000   27.0000 
2503.5336   30.7858    0.3941    0.5337    1.1096  101.5203    0.3506    2.0719   27.0000   27.0000 
2503.6860   30.2768    0.4103    0.5587    1.0797  101.0461    0.3375    2.1060   27.0000   27.0000 
2503.8384   29.7679    0.4265    0.5836    1.0499  100.5720    0.3243    2.1402   27.0000   27.0000 
2503.9908   29.2589    0.4427    0.6086    1.0200  100.0978    0.3112    2.1743   27.0000   27.0000 
2504.1432   33.4987    0.4636    0.5993    0.9710  100.3245    0.3202    2.1730   27.0000   27.0000 
2504.2956   37.7386    0.4845    0.5901    0.9221  100.5513    0.3291    2.1718   27.0000   27.0000 
2504.4480   41.9784    0.5054    0.5808    0.8731  100.7780    0.3381    2.1705   27.0000   27.0000 
2504.6004   42.7386    0.5172    0.5993    0.9375  102.5263    0.3366    2.1858   27.0000   27.0000 
2504.7528   43.4987    0.5290    0.6177    1.0020  104.2746    0.3350    2.2011   27.0000   27.0000 
2504.9052   44.2589    0.5408    0.6362    1.0664  106.0229    0.3335    2.2163   27.0000   27.0000 
2505.0576   45.0191    0.5526    0.6547    1.1308  107.7712    0.3320    2.2316   27.0000   27.0000 
2505.2100   46.1543    0.5647    0.6895    1.0629  111.9102    0.3159    2.2203   27.0000   27.0000 
2505.3624   47.2894    0.5769    0.7242    0.9950  116.0491    0.2999    2.2091   27.0000   27.0000 
2505.5148   48.4246    0.5890    0.7590    0.9271  120.1881    0.2838    2.1978   27.0000   27.0000 
2505.6672   46.3204    0.5932    0.7809    0.7278  125.8892    0.3410    2.1820   27.0000   27.0000 
2505.8196   44.2161    0.5973    0.8028    0.5285  131.5904    0.3983    2.1662   27.0000   27.0000 
2505.9720   42.1119    0.6015    0.8247    0.3292  137.2915    0.4555    2.1504   11.0000   37.0000 
2506.1244   38.2169 -999.0000    1.6720    0.3718  124.9757    0.4786    2.1134   11.0000   37.0000 
2506.2768   34.3218 -999.0000    2.5192    0.4144  112.6599    0.5018    2.0764   11.0000   37.0000 
2506.4292   30.4268 -999.0000    3.3665    0.4570  100.3441    0.5249    2.0394   11.0000   37.0000 
2506.5816   30.6049 -999.0000    2.9084    2.7821   92.8274    0.4261    2.1157   11.0000   37.0000 
2506.7340   30.7829 -999.0000    2.4503    5.1071   85.3107    0.3273    2.1920   27.0000   37.0000 
2506.8864   30.9609 -999.0000    1.9923    7.4322   77.7941    0.2285    2.2683   27.0000   37.0000 
2507.0388   31.1390 -999.0000    1.5342    9.7572   70.2774    0.1297    2.3446   27.0000   37.0000 
2507.1912   36.8335 -999.0000    1.3931    6.6903   84.9674    0.2340    2.2994   11.0000   37.0000 
2507.3436   42.5280 -999.0000    1.2520    3.6235   99.6575    0.3384    2.2542   11.0000   37.0000 
2507.4960   48.2225 -999.0000    1.1109    0.5566  114.3475    0.4427    2.2090   11.0000   37.0000 
2507.6484   44.6161 -999.0000    1.4786    0.6282  108.7379    0.4429    2.2443   11.0000   37.0000 
2507.8008   41.0098 -999.0000    1.8463    0.6997  103.1282    0.4430    2.2796   11.0000   37.0000 
2507.9532   37.4034 -999.0000    2.2140    0.7713   97.5186    0.4432    2.3149   36.0000   37.0000 
2508.1056   36.8613 -999.0000    2.2304    6.2561   91.3029    0.3887    2.3570   36.0000   37.0000 
2508.2580   36.3191 -999.0000    2.2468   11.7408   85.0873    0.3341    2.3990   36.0000   37.0000 
2508.4104   35.7769 -999.0000    2.2632   17.2256   78.8717    0.2796    2.4411   36.0000   37.0000 
2508.5628   35.2348 -999.0000    2.2796   22.7104   72.6560    0.2251    2.4832   36.0000   37.0000 
2508.7152   38.5161 -999.0000    1.8735   15.3699   85.0916    0.2682    2.5016   36.0000   37.0000 
2508.8676   41.7975 -999.0000    1.4674    8.0295   97.5271    0.3114    2.5201   36.0000   37.0000 
2509.0200   45.0788 -999.0000    1.0613    0.6890  109.9627    0.3545    2.5385   36.0000   37.0000 
2509.1724   43.7330 -999.0000    1.4142    0.6849  105.8898    0.3778    2.4231   36.0000   37.0000 
2509.3248   42.3873 -999.0000    1.7672    0.6809  101.8168    0.4012    2.3078   36.0000   37.0000 
2509.4772   41.0415 -999.0000    2.1201    0.6768   97.7439    0.4245    2.1924   36.0000   37.0000 
2509.6296   43.6979 -999.0000    2.1385   11.2606   90.3716    0.3683    2.2443   36.0000   37.0000 
2509.7820   46.3542 -999.0000    2.1568   21.8444   82.9994    0.3121    2.2962   36.0000   37.0000 
2509.9344   49.0106 -999.0000    2.1752   32.4282   75.6271    0.2559    2.3481   36.0000   37.0000 
2510.0868   49.0225 -999.0000    1.8842   24.4798   84.4199    0.2865    2.3195   36.0000   37.0000 
2510.2392   49.0344 -999.0000    1.5933   16.5314   93.2127    0.3172    2.2908   36.0000   37.0000 
2510.3916   49.0462 -999.0000    1.3024    8.5830  102.0055    0.3479    2.2622   36.0000   37.0000 
2510.5440   49.0581 -999.0000    1.0114    0.6346  110.7983    0.3785    2.2336   36.0000   37.0000 
2510.6964   44.7408 -999.0000    1.1556   12.0582   97.2962    0.3346    2.2916   36.0000   37.0000 
2510.8488   40.4234 -999.0000    1.2997   23.4819   83.7941    0.2906    2.3496   27.0000   37.0000 
2511.0012   36.1061 -999.0000    1.4439   34.9055   70.2920    0.2467    2.4076   27.0000   37.0000 
2511.1536   39.2700 -999.0000    1.5199   23.4746   83.5692    0.2454    2.3406   27.0000   37.0000 
2511.3060   42.4340 -999.0000    1.5959   12.0436   96.8465    0.2441    2.2735   27.0000   27.0000 
2511.4584   45.5979 -999.0000    1.6719    0.6127  110.1237    0.2428    2.2065   27.0000   27.0000 
2511.6108   43.5737 -999.0000    1.5544    1.1389  107.8042    0.2821    2.2053   27.0000   27.0000 
2511.7632   41.5494 -999.0000    1.4368    1.6651  105.4848    0.3214    2.2041   27.0000   27.0000 
2511.9156   39.5252 -999.0000    1.3192    2.1912  103.1653    0.3608    2.2029   36.0000   27.0000 
2512.0680   37.5009 -999.0000    1.2017    2.7174  100.8458    0.4001    2.2017   36.0000   27.0000 
2512.2204   42.2093 -999.0000    1.1382    2.5011   96.1429    0.3434    2.2637   36.0000   27.0000 
2512.3728   46.9177 -999.0000    1.0748    2.2849   91.4399    0.2868    2.3258   36.0000   27.0000 
2512.5252   51.6261    1.0360    1.0113    2.0686   86.7370    0.2301    2.3878   36.0000   27.0000 
2512.6776   48.9657    1.0052    1.0594    1.5476   94.8170    0.2783    2.3497   36.0000   27.0000 
2512.8300   46.3053    0.9745    1.1076    1.0265  102.8969    0.3266    2.3116   36.0000   27.0000 
2512.9824   43.6449    0.9437    1.1557    0.5055  110.9769    0.3748    2.2735   36.0000   27.0000 
2513.1348   43.5661    0.9358    1.2069    0.7046  107.7006    0.3777    2.2749   36.0000   27.0000 
2513.2872   43.4873    0.9280    1.2581    0.9038  104.4244    0.3806    2.2762   36.0000   27.0000 
2513.4396   43.4085    0.9201    1.3093    1.1029  101.1481    0.3835    2.2776   36.0000   27.0000 
2513.5920   46.6274    0.9448    1.2356    0.9688  104.8773    0.3680    2.3124   36.0000   27.0000 
2513.7444   49.8464    0.9695    1.1620    0.8347  108.6064    0.3524    2.3472   37.0000   27.0000 
2513.8968   53.0654    0.9942    1.0884    0.7005  112.3356    0.3368    2.3820   37.0000   27.0000 
2514.0492   56.2843    1.0189    1.0147    0.5664  116.0648    0.3213    2.4168   37.0000   37.0000 
