~VERSION INFORMATION
 VERS.                 2.0:   CWLS LOG ASCII STANDARD - VERSION 2.0
 WRAP.                  NO:   SINGLE LINE PER DEPTH STEP
 CREA.                 04/06/2018 10:36:36
#CREATED USING DSPetro VERSION 5000.10.1.3 BY H191660 ON 04/06/2018 10:36:36
~WELL INFORMATION
#MNEM.UNIT       DATA                          DESCRIPTION MNEMONIC
#---------      ---------------------------   --------------------------
 STRT    .M         1989.9456                 : START DEPTH
 STOP    .M         2954.9424                 : STOP DEPTH
 STEP    .M         0.1524                    : STEP VALUE
 NULL    .      -999.0000                     : NULL VALUE
 DATE    .      04/06/2018                    : LAS file Creation Date
 WELL .      15_9_11                     : Well Name
 COMP .      Neftex Exploration Insights : Company
 FLD  .      SLEIPNER OST                : Field
 UWI  .      YNOWL_15911                 : Unique Well Identifier (UWI)
 LOC  .                                  : Location
 RWS  .      -999                        : Def_Rw
 WST  .      -999                        : Def_Rwt
 SRVC .                                  : Contractor
~CURVE INFORMATION
#MNEM                     UNIT       API CODE   Curve Type Comments
#----------         --------------- ----------  ---------- -----------
 DEPTH             .M                         : Depth       
 GR_API            .API                       :             Gamma Ray (API) - Measures the intensity of natural gamma-ray radiation emitted from formations containing radioactive elements, such as K, Th and U
 RD_OHMM           .ohmm                      :             Unspecified Deep Resistivity - No accroynm or method of attainment is specified - units of ohmm
 RM_OHMM           .ohm.m                     :             Unspecified Medium Resistivity - No accroynm or method of attainment is specified
 RS_OHMM           .ohmm                      :             Unspecified Shallow Resistivity - No accroynm or method of attainment is specified
 DT_US_FT          .us/ft                     :             Interval Transit Time: Compressional Wave - Evaluates the time it takes for a compressional wave to traverse a fixed distance
 NEUT_P_RATIO      .ratio                     :             Unspecified Neutron Porosity Log - No accroynm or method of attainment is specified
 RHOB_G_CC         .g/cc                      :             Bulk Density - Measures the density of bulk material, including any void space or other materials contained in the subject volume
 LITH_v1_fromPetro .                          : LITH        Lithology Curve
 LITH_v2_fromCompo .                          : LITH        Lithology Curve
~A  DEPTH   GR_API   RD_OHMM   RM_OHMM   RS_OHMM   DT_US_FT NEUT_P_R~ RHOB_G_C~ LITH_v1_~ LITH_v2_~ 
# ...
2745.8496   25.7569    2.5605    3.8229 -999.0000   72.3164    0.1198    2.6317   18.0000   37.0000 
2746.0020   25.5191    2.8561    3.7017 -999.0000   73.2373    0.1289    2.6495   18.0000   37.0000 
2746.1544   32.3199    2.8292    3.3673 -999.0000   74.7288    0.1476    2.6193   18.0000   37.0000 
2746.3068   39.1208    2.8023    3.0329 -999.0000   76.2204    0.1663    2.5891   18.0000   37.0000 
2746.4592   45.9216    2.7754    2.6985 -999.0000   77.7119    0.1850    2.5589   18.0000   37.0000 
2746.6116   45.9296    2.7501    2.7612 -999.0000   77.5848    0.1792    2.5751   22.0000   37.0000 
2746.7640   45.9375    2.7248    2.8239 -999.0000   77.4576    0.1734    2.5914   22.0000   37.0000 
2746.9164   45.9454    2.6994    2.8866 -999.0000   77.3305    0.1677    2.6076   22.0000   18.0000 
2747.0688   45.9534    2.6741    2.9493 -999.0000   77.2034    0.1619    2.6238   22.0000   18.0000 
2747.2212   45.3231    2.6563    3.0638 -999.0000   76.8644    0.1771    2.6245   22.0000   18.0000 
2747.3736   44.6928    2.6384    3.1782 -999.0000   76.5254    0.1924    2.6251   22.0000   18.0000 
2747.5260   44.0625    2.6206    3.2927 -999.0000   76.1864    0.2076    2.6258   22.0000   18.0000 
2747.6784   41.8856    2.6309    3.0855 -999.0000   77.4859    0.2098    2.6037   22.0000   18.0000 
2747.8308   39.7087    2.6412    2.8784 -999.0000   78.7853    0.2120    2.5815   22.0000   18.0000 
2747.9832   37.5318    2.6515    2.6712 -999.0000   80.0848    0.2142    2.5594   22.0000   18.0000 
2748.1356   40.0763    2.6971    2.8656 -999.0000   78.3221    0.1963    2.5665   22.0000   18.0000 
2748.2880   42.6208    2.7428    3.0600 -999.0000   76.5593    0.1785    2.5735   22.0000   18.0000 
2748.4404   45.1653    2.7884    3.2544 -999.0000   74.7966    0.1606    2.5806   22.0000   18.0000 
2748.5928   42.9714    2.8165    3.1603 -999.0000   75.5254    0.1755    2.5871   22.0000   37.0000 
2748.7452   40.7775    2.8446    3.0661 -999.0000   76.2542    0.1905    2.5936   22.0000   37.0000 
2748.8976   38.5837    2.8727    2.9720 -999.0000   76.9831    0.2054    2.6002   22.0000   37.0000 
2749.0500   36.3898    2.9008    2.8779 -999.0000   77.7119    0.2203    2.6067   22.0000   37.0000 
2749.2024   37.3213    2.9392    3.0892 -999.0000   76.5819    0.1994    2.6067   22.0000   37.0000 
2749.3548   38.2528    2.9775    3.3004 -999.0000   75.4520    0.1785    2.6067   22.0000   37.0000 
2749.5072   39.1843    3.0159    3.5117 -999.0000   74.3220    0.1576    2.6067   22.0000   37.0000 
2749.6596   40.8792    3.0159    3.3232 -999.0000   75.4802    0.1743    2.6014   22.0000   37.0000 
2749.8120   42.5742    3.0159    3.1346 -999.0000   76.6384    0.1909    2.5962   22.0000   37.0000 
2749.9644   44.2691    3.0159    2.9461 -999.0000   77.7966    0.2076    2.5909   22.0000   37.0000 
2750.1168   42.4259    2.9941    2.9951 -999.0000   77.6059    0.2038    2.5854   22.0000   37.0000 
2750.2692   40.5826    2.9724    3.0441 -999.0000   77.4153    0.2000    2.5800   22.0000   37.0000 
2750.4216   38.7394    2.9506    3.0931 -999.0000   77.2246    0.1962    2.5745   22.0000   37.0000 
2750.5740   36.8962    2.9289    3.1421 -999.0000   77.0339    0.1924    2.5691   22.0000   37.0000 
2750.7264   39.2966    2.8627    3.0983 -999.0000   76.9209    0.1974    2.5687   22.0000   37.0000 
2750.8788   41.6971    2.7964    3.0544 -999.0000   76.8079    0.2024    2.5684   22.0000   37.0000 
2751.0312   44.0975    2.7302    3.0106 -999.0000   76.6949    0.2074    2.5680   22.0000   18.0000 
2751.1836   47.8973    2.7356    2.8909 -999.0000   77.5989    0.2207    2.5520   22.0000   18.0000 
2751.3360   51.6970    2.7409    2.7712 -999.0000   78.5028    0.2339    2.5360   22.0000   18.0000 
2751.4884   55.4968    2.7463    2.6515 -999.0000   79.4068    0.2472    2.5200   22.0000   18.0000 
2751.6408   50.3220    2.9030    2.8946 -999.0000   77.8051    0.2206    2.5526   22.0000   18.0000 
2751.7932   45.1473    3.0598    3.1377 -999.0000   76.2034    0.1941    2.5851   22.0000   18.0000 
2751.9456   39.9725    3.2165    3.3808 -999.0000   74.6017    0.1675    2.6177   22.0000   18.0000 
2752.0980   46.0122    3.1797    3.5579 -999.0000   73.8114    0.1805    2.6124   22.0000   18.0000 
2752.2504   52.0519    3.1430    3.7350 -999.0000   73.0212    0.1934    2.6072   22.0000   18.0000 
2752.4028   58.0917    3.1062    3.9120 -999.0000   72.2309    0.2063    2.6019   22.0000   18.0000 
2752.5552   64.1314    3.0694    4.0891 -999.0000   71.4407    0.2193    2.5966   22.0000   18.0000 
2752.7076   78.8701    2.7129    3.7717 -999.0000   81.2147    0.2367    2.5188   22.0000   22.0000 
2752.8600   93.6088    2.3563    3.4542 -999.0000   90.9887    0.2540    2.4409   37.0000   37.0000 
2753.0124  108.3475    1.9998    3.1368 -999.0000  100.7627    0.2714    2.3631   37.0000   37.0000 
2753.1648  116.7977    1.8783    2.6298 -999.0000   99.9039    0.2879    2.3853   37.0000   37.0000 
2753.3172  125.2479    1.7569    2.1229 -999.0000   99.0452    0.3045    2.4075   37.0000   37.0000 
2753.4696  133.6981    1.6354    1.6159 -999.0000   98.1864    0.3210    2.4297   37.0000   37.0000 
2753.6220  129.6299    1.5971    1.5909 -999.0000   98.3587    0.3158    2.4553   37.0000   37.0000 
2753.7744  125.5618    1.5587    1.5660 -999.0000   98.5311    0.3105    2.4809   37.0000   37.0000 
2753.9268  121.4936    1.5204    1.5410 -999.0000   98.7034    0.3053    2.5065   37.0000   37.0000 
2754.0792  123.3368    1.5447    1.6876 -999.0000   98.5403    0.2984    2.4888   37.0000   37.0000 
2754.2316  125.1801    1.5691    1.8343 -999.0000   98.3772    0.2915    2.4711   37.0000   37.0000 
2754.3840  127.0233    1.5935    1.9809 -999.0000   98.2140    0.2846    2.4534   37.0000   37.0000 
2754.5364  128.8665    1.6178    2.1276 -999.0000   98.0509    0.2777    2.4357   37.0000   37.0000 
2754.6888  127.7330    1.6567    2.0975 -999.0000   97.6978    0.2859    2.4306   37.0000   37.0000 
2754.8412  126.5996    1.6956    2.0675 -999.0000   97.3446    0.2942    2.4255   37.0000   37.0000 
2754.9936  125.4661    1.7345    2.0374 -999.0000   96.9915    0.3024    2.4204   37.0000   37.0000 
2755.1460  117.8856    1.7569    2.0746 -999.0000   96.7005    0.3087    2.4370   37.0000   37.0000 
2755.2984  110.3051    1.7793    2.1118 -999.0000   96.4096    0.3150    2.4535   37.0000   37.0000 
2755.4508  102.7246    1.8017    2.1490 -999.0000   96.1186    0.3213    2.4701   37.0000   37.0000 
2755.6032  104.0005    1.7761    2.0055 -999.0000   96.1631    0.3135    2.4683   37.0000   37.0000 
2755.7556  105.2765    1.7505    1.8619 -999.0000   96.2076    0.3056    2.4664   37.0000   37.0000 
2755.9080  106.5525    1.7249    1.7183 -999.0000   96.2521    0.2977    2.4646   37.0000   37.0000 
2756.0604  107.8284    1.6993    1.5748 -999.0000   96.2966    0.2899    2.4628   37.0000   37.0000 
2756.2128  109.6081    1.6560    1.7290 -999.0000   96.2260    0.3060    2.4610   37.0000   37.0000 
2756.3652  111.3877    1.6127    1.8832 -999.0000   96.1554    0.3220    2.4593   37.0000   37.0000 
2756.5176  113.1674    1.5694    2.0374 -999.0000   96.0848    0.3381    2.4575   37.0000   37.0000 
2756.6700  109.0572    1.5889    2.0217 -999.0000   96.2684    0.3301    2.4555   37.0000   37.0000 
2756.8224  104.9471    1.6083    2.0060 -999.0000   96.4520    0.3222    2.4535   37.0000   37.0000 
2756.9748  100.8369    1.6278    1.9903 -999.0000   96.6356    0.3142    2.4515   37.0000   37.0000 
2757.1272  100.7733    1.6516    2.0100 -999.0000   96.8814    0.3220    2.4618   37.0000   37.0000 
2757.2796  100.7098    1.6755    2.0297 -999.0000   97.1271    0.3298    2.4721   37.0000   37.0000 
2757.4320  100.6462    1.6993    2.0494 -999.0000   97.3729    0.3376    2.4824   37.0000   37.0000 
2757.5844  105.3814    1.7094    2.0677 -999.0000   97.4025    0.3368    2.4725   37.0000   37.0000 
2757.7368  110.1165    1.7194    2.0861 -999.0000   97.4322    0.3359    2.4625   37.0000   37.0000 
2757.8892  114.8517    1.7295    2.1044 -999.0000   97.4619    0.3350    2.4525   37.0000   37.0000 
