~VERSION INFORMATION
 VERS.                 2.0:   CWLS LOG ASCII STANDARD - VERSION 2.0
 WRAP.                  NO:   SINGLE LINE PER DEPTH STEP
 CREA.                 04/06/2018 10:36:36
#CREATED USING DSPetro VERSION 5000.10.1.3 BY H191660 ON 04/06/2018 10:36:36
~WELL INFORMATION
#MNEM.UNIT       DATA                          DESCRIPTION MNEMONIC
#---------      ---------------------------   --------------------------
 STRT    .M         1989.9456                 : START DEPTH
 STOP    .M         2954.9424                 : STOP DEPTH
 STEP    .M         0.1524                    : STEP VALUE
 NULL    .      -999.0000                     : NULL VALUE
 DATE    .      04/06/2018                    : LAS file Creation Date
 WELL .      15_9_11                     : Well Name
 COMP .      Neftex Exploration Insights : Company
 FLD  .      SLEIPNER OST                : Field
 UWI  .      YNOWL_15911                 : Unique Well Identifier (UWI)
 LOC  .                                  : Location
 RWS  .      -999                        : Def_Rw
 WST  .      -999                        : Def_Rwt
 SRVC .                                  : Contractor
~CURVE INFORMATION
#MNEM                     UNIT       API CODE   Curve Type Comments
#----------         --------------- ----------  ---------- -----------
 DEPTH             .M                         : Depth       
 GR_API            .API                       :             Gamma Ray (API) - Measures the intensity of natural gamma-ray radiation emitted from formations containing radioactive elements, such as K, Th and U
 RD_OHMM           .ohmm                      :             Unspecified Deep Resistivity - No accroynm or method of attainment is specified - units of ohmm
 RM_OHMM           .ohm.m                     :             Unspecified Medium Resistivity - No accroynm or method of attainment is specified
 RS_OHMM           .ohmm                      :             Unspecified Shallow Resistivity - No accroynm or method of attainment is specified
 DT_US_FT          .us/ft                     :             Interval Transit Time: Compressional Wave - Evaluates the time it takes for a compressional wave to traverse a fixed distance
 NEUT_P_RATIO      .ratio                     :             Unspecified Neutron Porosity Log - No accroynm or method of attainment is specified
 RHOB_G_CC         .g/cc                      :             Bulk Density - Measures the density of bulk material, including any void space or other materials contained in the subject volume
 LITH_v1_fromPetro .                          : LITH        Lithology Curve
 LITH_v2_fromCompo .                          : LITH        Lithology Curve
~A  DEPTH   GR_API   RD_OHMM   RM_OHMM   RS_OHMM   DT_US_FT NEUT_P_R~ RHOB_G_C~ LITH_v1_~ LITH_v2_~ 
# ...
2940.9216   23.5494    1.4687    1.7758 -999.0000   76.8644    0.3498    2.4259   37.0000   37.0000 
2941.0740   25.6144    1.5396    1.9088 -999.0000   76.8644    0.3512    2.4401   37.0000   37.0000 
2941.2264   24.2229    1.5990    1.9836 -999.0000   76.8644    0.3299    2.4681   37.0000   37.0000 
2941.3788   22.8315    1.6583    2.0583 -999.0000   76.8644    0.3086    2.4962   37.0000   37.0000 
2941.5312   21.4400    1.7177    2.1331 -999.0000   76.8644    0.2873    2.5242   37.0000   37.0000 
2941.6836   21.2637    1.7409    2.2037 -999.0000   76.8644    0.2758    2.3998   37.0000   37.0000 
2941.8360   21.0873    1.7641    2.2742 -999.0000   76.8644    0.2644    2.2755   27.0000   37.0000 
2941.9884   20.9110    1.7873    2.3448 -999.0000   76.8644    0.2529    2.1511   27.0000   37.0000 
2942.1408   22.3370    1.7782    2.2625 -999.0000   76.8829    0.2454    2.2364   27.0000   37.0000 
2942.2932   23.7631    1.7691    2.1802 -999.0000   76.9013    0.2378    2.3218   37.0000   37.0000 
2942.4456   25.1891    1.7600    2.0979 -999.0000   76.9198    0.2303    2.4071   37.0000   37.0000 
2942.5980   24.3560    1.7556    2.1394 -999.0000   76.9483    0.2383    2.4310   37.0000   37.0000 
2942.7504   23.5229    1.7512    2.1809 -999.0000   76.9769    0.2463    2.4549   37.0000   37.0000 
2942.9028   22.6897    1.7468    2.2223 -999.0000   77.0054    0.2543    2.4789   37.0000   37.0000 
2943.0552   21.8566    1.7424    2.2638 -999.0000   77.0339    0.2623    2.5028   37.0000   37.0000 
2943.2076   21.5527    1.7449    2.1985 -999.0000   77.0904    0.2610    2.4427   37.0000   37.0000 
2943.3600   21.2487    1.7473    2.1331 -999.0000   77.1469    0.2597    2.3826   37.0000   37.0000 
2943.5124   20.9448    1.7498    2.0678 -999.0000   77.2034    0.2584    2.3225   37.0000   37.0000 
2943.6648   22.2631    1.7601    2.0098 -999.0000   77.2034    0.2484    2.3462   37.0000   37.0000 
2943.8172   23.5813    1.7705    1.9519 -999.0000   77.2034    0.2384    2.3698   37.0000   37.0000 
2943.9696   24.8996    1.7808    1.8939 -999.0000   77.2034    0.2284    2.3935   37.0000   37.0000 
2944.1220   25.1138    1.7883    2.0409 -999.0000   77.2034    0.2286    2.3371   37.0000   37.0000 
2944.2744   25.3279    1.7957    2.1880 -999.0000   77.2034    0.2289    2.2807   27.0000   37.0000 
2944.4268   25.5421    1.8032    2.3350 -999.0000   77.2034    0.2291    2.2243   27.0000   37.0000 
2944.5792   24.2450    1.8148    2.3375 -999.0000   77.2034    0.2317    2.2729   27.0000   37.0000 
2944.7316   22.9479    1.8264    2.3399 -999.0000   77.2034    0.2343    2.3216   37.0000   37.0000 
2944.8840   21.6508    1.8381    2.3424 -999.0000   77.2034    0.2370    2.3702   37.0000   37.0000 
2945.0364   20.3537    1.8497    2.3448 -999.0000   77.2034    0.2396    2.4189   37.0000   37.0000 
2945.1888   19.3022    1.8742    2.3401 -999.0000   77.2034    0.2364    2.4225   37.0000   37.0000 
2945.3412   18.2507    1.8988    2.3355 -999.0000   77.2034    0.2332    2.4262   37.0000   37.0000 
2945.4936   17.1992    1.9233    2.3308 -999.0000   77.2034    0.2300    2.4298   37.0000   37.0000 
2945.6460   16.6992    1.9379    2.3254 -999.0000   77.2034    0.2325    2.4358   37.0000   37.0000 
2945.7984   16.1992    1.9525    2.3201 -999.0000   77.2034    0.2351    2.4419   37.0000   37.0000 
2945.9508   15.6992    1.9671    2.3147 -999.0000   77.2034    0.2376    2.4479   37.0000   37.0000 
2946.1032   15.6992    1.9671    2.3088 -999.0000   77.2034    0.2400    2.3853   37.0000   37.0000 
2946.2556   15.6992    1.9671    2.3029 -999.0000   77.2034    0.2423    2.3228   27.0000   37.0000 
2946.4080   15.6992    1.9671    2.2970 -999.0000   77.2034    0.2446    2.2603   27.0000   37.0000 
2946.5604   15.6992    1.9671    2.2911 -999.0000   77.2034    0.2470    2.1977   27.0000   37.0000 
2946.7128   15.6992    1.9671    2.2846 -999.0000   77.2034    0.2614    2.1970   27.0000   37.0000 
2946.8652   15.6992    1.9671    2.2782 -999.0000   77.2034    0.2757    2.1963   27.0000   37.0000 
2947.0176   15.6992    1.9671    2.2717 -999.0000   77.2034    0.2901    2.1956   27.0000   37.0000 
2947.1700   15.6992    1.9600    2.2691 -999.0000   77.2034    0.2895    2.2241   37.0000   37.0000 
2947.3224   15.6992    1.9528    2.2664 -999.0000   77.2034    0.2889    2.2525   37.0000   37.0000 
2947.4748   15.6992    1.9457    2.2638 -999.0000   77.2034    0.2883    2.2810   37.0000   37.0000 
2947.6272   15.6992    1.9452    2.2594 -999.0000   77.2034    0.2817    2.2818   37.0000   37.0000 
2947.7796   15.6992    1.9447    2.2550 -999.0000   77.2034    0.2750    2.2827   37.0000   37.0000 
2947.9320   15.6992    1.9442    2.2506 -999.0000   77.2034    0.2684    2.2835   37.0000   37.0000 
2948.0844   15.6992    1.9442    2.2506 -999.0000   77.2034    0.2679    2.2957   37.0000   37.0000 
2948.2368   15.6992    1.9442    2.2506 -999.0000   77.2034    0.2675    2.3079   37.0000   37.0000 
2948.3892   15.6992    1.9442    2.2506 -999.0000   77.2034    0.2671    2.3201   37.0000   37.0000 
2948.5416   15.6992    1.9442    2.2506 -999.0000   77.2034    0.2666    2.3323   37.0000   37.0000 
2948.6940   15.7416    1.9442    2.2506 -999.0000   77.2034    0.2669    2.3338   37.0000   37.0000 
2948.8464   15.7839    1.9442    2.2506 -999.0000   77.2034    0.2672    2.3353   37.0000   37.0000 
2948.9988   15.8263    1.9442    2.2506 -999.0000   77.2034    0.2675    2.3368   37.0000   37.0000 
2949.1512   15.8263    1.9442    2.2419 -999.0000   77.2034    0.2676    2.3326   37.0000   37.0000 
2949.3036   15.8263    1.9442    2.2331 -999.0000   77.2034    0.2676    2.3284   37.0000   37.0000 
2949.4560   15.8263    1.9442    2.2244 -999.0000   77.2034    0.2677    2.3242   37.0000   37.0000 
2949.6084   15.8263    1.9442    2.2244 -999.0000   77.2034    0.2678    2.3282   37.0000   37.0000 
2949.7608   15.8263    1.9442    2.2244 -999.0000   77.2034    0.2678    2.3322   37.0000   37.0000 
2949.9132   15.8263    1.9442    2.2244 -999.0000   77.2034    0.2679    2.3362   37.0000   37.0000 
2950.0656   15.8263    1.9442    2.2244 -999.0000   77.2034    0.2680    2.3402   37.0000   37.0000 
2950.2180   15.8263    1.9464    2.2252 -999.0000   77.2034    0.2680    2.3409 -999.0000 -999.0000 
2950.3704   15.8263    1.9487    2.2259 -999.0000   77.2034    0.2680    2.3416 -999.0000 -999.0000 
2950.5228   15.8263    1.9509    2.2267 -999.0000   77.2034    0.2680    2.3423 -999.0000 -999.0000 
2950.6752   15.8263    1.9563    2.2391 -999.0000   77.2034    0.2680    2.3377 -999.0000 -999.0000 
2950.8276   15.8263    1.9617    2.2514 -999.0000   77.2034    0.2680    2.3330 -999.0000 -999.0000 
2950.9800   15.8263    1.9671    2.2638 -999.0000   77.2034    0.2680    2.3284 -999.0000 -999.0000 
2951.1324   15.8263    1.9671    2.2727 -999.0000   77.2034    0.2681    2.3245 -999.0000 -999.0000 
2951.2848   15.8263    1.9671    2.2816 -999.0000   77.2034    0.2683    2.3205 -999.0000 -999.0000 
2951.4372   15.8263    1.9671    2.2905 -999.0000   77.2034    0.2684    2.3166 -999.0000 -999.0000 
2951.5896   15.8549    1.9642    2.3006 -999.0000   77.2034    0.2686    2.3128 -999.0000 -999.0000 
2951.7420   15.8835    1.9613    2.3108 -999.0000   77.2034    0.2687    2.3089 -999.0000 -999.0000 
2951.8944   15.9121    1.9585    2.3210 -999.0000   77.2034    0.2688    2.3050 -999.0000 -999.0000 
2952.0468   15.9407    1.9556    2.3311 -999.0000   77.2034    0.2690    2.3012 -999.0000 -999.0000 
2952.1992   15.9449    1.9243    2.3402 -999.0000   77.2034    0.2690    2.3407 -999.0000 -999.0000 
2952.3516   15.9492    1.8931    2.3494 -999.0000   77.2034    0.2690    2.3803 -999.0000 -999.0000 
2952.5040   15.9534    1.8618    2.3585 -999.0000   77.2034    0.2690    2.4198 -999.0000 -999.0000 
2952.6564   15.9534    1.8405    2.3631 -999.0000   77.2034    0.2693    2.4206 -999.0000 -999.0000 
2952.8088   15.9534    1.8193    2.3678 -999.0000   77.2034    0.2696    2.4215 -999.0000 -999.0000 
2952.9612   15.9534    1.7980    2.3724 -999.0000   77.2034    0.2699    2.4223 -999.0000 -999.0000 
