~VERSION INFORMATION
 VERS.                 2.0:   CWLS LOG ASCII STANDARD - VERSION 2.0
 WRAP.                  NO:   SINGLE LINE PER DEPTH STEP
 CREA.                 04/06/2018 10:36:36
#CREATED USING DSPetro VERSION 5000.10.1.3 BY H191660 ON 04/06/2018 10:36:36
~WELL INFORMATION
#MNEM.UNIT       DATA                          DESCRIPTION MNEMONIC
#---------      ---------------------------   --------------------------
 STRT    .M         1989.9456                 : START DEPTH
 STOP    .M         2954.9424                 : STOP DEPTH
 STEP    .M         0.1524                    : STEP VALUE
 NULL    .      -999.0000                     : NULL VALUE
 DATE    .      04/06/2018                    : LAS file Creation Date
 WELL .      15_9_11                     : Well Name
 COMP .      Neftex Exploration Insights : Company
 FLD  .      SLEIPNER OST                : Field
 UWI  .      YNOWL_15911                 : Unique Well Identifier (UWI)
 LOC  .                                  : Location
 RWS  .      -999                        : Def_Rw
 WST  .      -999                        : Def_Rwt
 SRVC .                                  : Contractor
~CURVE INFORMATION
#MNEM                     UNIT       API CODE   Curve Type Comments
#----------         --------------- ----------  ---------- -----------
 DEPTH             .M                         : Depth       
 GR_API            .API                       :             Gamma Ray (API) - Measures the intensity of natural gamma-ray radiation emitted from formations containing radioactive elements, such as K, Th and U
 RD_OHMM           .ohmm                      :             Unspecified Deep Resistivity - No accroynm or method of attainment is specified - units of ohmm
 RM_OHMM           .ohm.m                     :             Unspecified Medium Resistivity - No accroynm or method of attainment is specified
 RS_OHMM           .ohmm                      :             Unspecified Shallow Resistivity - No accroynm or method of attainment is specified
 DT_US_FT          .us/ft                     :             Interval Transit Time: Compressional Wave - Evaluates the time it takes for a compressional wave to traverse a fixed distance
 NEUT_P_RATIO      .ratio                     :             Unspecified Neutron Porosity Log - No accroynm or method of attainment is specified
 RHOB_G_CC         .g/cc                      :             Bulk Density - Measures the density of bulk material, including any void space or other materials contained in the subject volume
 LITH_v1_fromPetro .                          : LITH        Lithology Curve
 LITH_v2_fromCompo .                          : LITH        Lithology Curve
~A  DEPTH   GR_API   RD_OHMM   RM_OHMM   RS_OHMM   DT_US_FT NEUT_P_R~ RHOB_G_C~ LITH_v1_~ LITH_v2_~ 
# ...
2428.8576   62.0742    1.3704    1.8461    0.7338  124.0079    0.3327    2.0494   27.0000   27.0000 
2429.0100   61.6017    1.2625    1.7951    0.4419  135.9695    0.3912    1.9679   11.0000   37.0000 
2429.1624   56.3148    1.3114    1.7779    1.1244  123.8384    0.4310    2.0090   11.0000   37.0000 
2429.3148   51.0280    1.3602    1.7606    1.8069  111.7074    0.4709    2.0500   11.0000   37.0000 
2429.4672   45.7411    1.4091    1.7434    2.4894   99.5763    0.5107    2.0911   11.0000   37.0000 
2429.6196   42.2102    1.5385    1.7506    2.3951  100.4237    0.4163    2.1383   11.0000   37.0000 
2429.7720   38.6792    1.6678    1.7577    2.3007  101.2712    0.3218    2.1856   11.0000   37.0000 
2429.9244   35.1483    1.7972    1.7649    2.2064  102.1186    0.2274    2.2328   27.0000   27.0000 
2430.0768   33.1799    1.8209    1.7751    2.1196  101.1008    0.2269    2.2172   27.0000   27.0000 
2430.2292   31.2114    1.8446    1.7852    2.0328  100.0831    0.2264    2.2017   27.0000   27.0000 
2430.3816   29.2430    1.8683    1.7954    1.9460   99.0653    0.2259    2.1861   27.0000   27.0000 
2430.5340   27.2746    1.8920    1.8056    1.8592   98.0475    0.2254    2.1705   27.0000   27.0000 
2430.6864   28.0030    1.8530    1.7656    2.0304   97.7966    0.2343    2.1729   27.0000   27.0000 
2430.8388   28.7314    1.8140    1.7257    2.2016   97.5458    0.2433    2.1753   27.0000   27.0000 
2430.9912   29.4598    1.7750    1.6857    2.3728   97.2949    0.2522    2.1777   27.0000   27.0000 
2431.1436   27.1784    1.6860    1.6510    2.2319   97.1280    0.2536    2.1874   27.0000   27.0000 
2431.2960   24.8971    1.5969    1.6163    2.0909   96.9610    0.2550    2.1972   27.0000   27.0000 
2431.4484   22.6157    1.5079    1.5816    1.9500   96.7941    0.2564    2.2069   27.0000   27.0000 
2431.6008   24.5174    1.4816    1.5634    1.9473   96.8273    0.2495    2.2115   27.0000   27.0000 
2431.7532   26.4191    1.4553    1.5452    1.9446   96.8606    0.2427    2.2160   27.0000   27.0000 
2431.9056   28.3208    1.4289    1.5269    1.9420   96.8939    0.2358    2.2206   27.0000   27.0000 
2432.0580   30.2225    1.4026    1.5087    1.9393   96.9271    0.2289    2.2252   27.0000   27.0000 
2432.2104   30.0742    1.3725    1.4953    2.0601   96.7184    0.2271    2.2164   27.0000   27.0000 
2432.3628   29.9258    1.3423    1.4820    2.1810   96.5096    0.2253    2.2077   27.0000   27.0000 
2432.5152   29.7775    1.3122    1.4686    2.3018   96.3009    0.2235    2.1989   27.0000   27.0000 
2432.6676   27.8890    1.2879    1.4696    2.1605   95.9893    0.2279    2.2001   27.0000   27.0000 
2432.8200   26.0004    1.2635    1.4706    2.0193   95.6777    0.2322    2.2012   27.0000   27.0000 
2432.9724   24.1119    1.2392    1.4716    1.8780   95.3661    0.2366    2.2024   27.0000   27.0000 
2433.1248   28.2954    1.2248    1.4560    1.8408   94.7655    0.2326    2.1958   27.0000   27.0000 
2433.2772   32.4788    1.2105    1.4404    1.8036   94.1650    0.2287    2.1891   27.0000   27.0000 
2433.4296   36.6623    1.1961    1.4248    1.7664   93.5644    0.2247    2.1825   27.0000   27.0000 
2433.5820   35.9450    1.1849    1.4207    1.9374   93.6064    0.2089    2.1905   27.0000   27.0000 
2433.7344   35.2278    1.1737    1.4166    2.1084   93.6483    0.1930    2.1985   33.0000   27.0000 
2433.8868   34.5105    1.1625    1.4125    2.2794   93.6902    0.1772    2.2066   33.0000   27.0000 
2434.0392   33.7932    1.1513    1.4084    2.4504   93.7322    0.1614    2.2146   33.0000   27.0000 
2434.1916   32.7691    1.1513    1.3678    2.2488   93.7266    0.1638    2.2212   33.0000   27.0000 
2434.3440   31.7449    1.1513    1.3271    2.0472   93.7209    0.1661    2.2279   33.0000   27.0000 
2434.4964   30.7208    1.1513    1.2865    1.8456   93.7153    0.1685    2.2345   33.0000   27.0000 
2434.6488   29.9329    1.1558    1.3425    1.9442   92.8441    0.1725    2.2224   33.0000   27.0000 
2434.8012   29.1449    1.1603    1.3985    2.0429   91.9729    0.1764    2.2102   33.0000   27.0000 
2434.9536   28.3570    1.1648    1.4545    2.1415   91.1017    0.1804    2.1981   33.0000   27.0000 
2435.1060   28.2107    1.1683    1.4585    2.1113   91.1864    0.1758    2.1986   33.0000   27.0000 
2435.2584   28.0643    1.1718    1.4625    2.0810   91.2712    0.1711    2.1991   33.0000   27.0000 
2435.4108   27.9179    1.1754    1.4666    2.0508   91.3559    0.1665    2.1996   33.0000   27.0000 
2435.5632   27.7716    1.1789    1.4706    2.0206   91.4407    0.1619    2.2001   33.0000   27.0000 
2435.7156   29.9445    1.1788    1.4639    2.0613   91.3836    0.1612    2.2108   33.0000   27.0000 
2435.8680   32.1174    1.1786    1.4572    2.1020   91.3266    0.1606    2.2216   33.0000   27.0000 
2436.0204   34.2903    1.1785    1.4505    2.1427   91.2695    0.1599    2.2323   33.0000   27.0000 
2436.1728   33.6547    1.1696    1.4577    2.1672   91.3771    0.1650    2.2363   33.0000   27.0000 
2436.3252   33.0191    1.1607    1.4650    2.1918   91.4848    0.1700    2.2402   33.0000   27.0000 
2436.4776   32.3835    1.1518    1.4722    2.2163   91.5924    0.1751    2.2442   33.0000   27.0000 
2436.6300   32.9767    1.1369    1.4312    2.0965   92.0322    0.1798    2.2364   33.0000   27.0000 
2436.7824   33.5699    1.1221    1.3903    1.9767   92.4721    0.1845    2.2287   33.0000   27.0000 
2436.9348   34.1631    1.1072    1.3493    1.8569   92.9119    0.1892    2.2209   33.0000   27.0000 
2437.0872   33.4004    1.0889    1.3303    1.8500   93.3015    0.1953    2.2166   33.0000   27.0000 
2437.2396   32.6377    1.0707    1.3113    1.8432   93.6911    0.2014    2.2122   27.0000   27.0000 
2437.3920   31.8750    1.0524    1.2924    1.8363   94.0807    0.2075    2.2079   27.0000   27.0000 
2437.5444   31.1123    1.0341    1.2734    1.8295   94.4703    0.2136    2.2036   27.0000   27.0000 
2437.6968   29.7352    1.0197    1.2606    1.8221   94.8068    0.2183    2.2112   27.0000   27.0000 
2437.8492   28.3580    1.0054    1.2477    1.8147   95.1432    0.2229    2.2188   27.0000   27.0000 
2438.0016   26.9809    0.9910    1.2349    1.8073   95.4797    0.2276    2.2264   27.0000   27.0000 
2438.1540   27.7419    0.9798    1.2241    1.7912   95.5458    0.2257    2.2131   27.0000   27.0000 
2438.3064   28.5030    0.9685    1.2132    1.7750   95.6119    0.2237    2.1999   27.0000   27.0000 
2438.4588   29.2640    0.9573    1.2024    1.7589   95.6780    0.2218    2.1866   27.0000   27.0000 
2438.6112   31.0608    0.9502    1.1931    1.7685   95.7094    0.2266    2.1906   27.0000   27.0000 
2438.7636   32.8577    0.9431    1.1837    1.7781   95.7407    0.2314    2.1946   27.0000   27.0000 
2438.9160   34.6545    0.9359    1.1744    1.7877   95.7720    0.2361    2.1985   27.0000   27.0000 
2439.0684   36.4513    0.9288    1.1651    1.7973   95.8034    0.2409    2.2025   27.0000   27.0000 
2439.2208   34.2479    0.9205    1.1486    1.8367   96.0661    0.2385    2.1958   27.0000   27.0000 
2439.3732   32.0445    0.9122    1.1321    1.8761   96.3288    0.2360    2.1892   27.0000   27.0000 
2439.5256   29.8411    0.9039    1.1156    1.9155   96.5915    0.2336    2.1825   27.0000   27.0000 
2439.6780   31.6419    0.9000    1.1015    1.8324   96.8520    0.2362    2.1765   27.0000   27.0000 
2439.8304   33.4428    0.8960    1.0874    1.7493   97.1124    0.2388    2.1706   27.0000   27.0000 
2439.9828   35.2436    0.8921    1.0733    1.6662   97.3729    0.2414    2.1646   27.0000   27.0000 
2440.1352   33.5945    0.8922    1.0754    1.6646   96.6831    0.2471    2.1818   27.0000   27.0000 
2440.2876   31.9453    0.8922    1.0775    1.6629   95.9932    0.2529    2.1990   27.0000   27.0000 
2440.4400   30.2962    0.8923    1.0796    1.6613   95.3034    0.2586    2.2162   27.0000   27.0000 
2440.5924   30.4720    0.8915    1.0796    1.6699   94.7191    0.2637    2.2195   27.0000   27.0000 
2440.7448   30.6477    0.8907    1.0796    1.6784   94.1348    0.2688    2.2229   27.0000   27.0000 
2440.8972   30.8235    0.8900    1.0796    1.6870   93.5504    0.2739    2.2262   27.0000   27.0000 
