~VERSION INFORMATION
 VERS.                 2.0:   CWLS LOG ASCII STANDARD - VERSION 2.0
 WRAP.                  NO:   SINGLE LINE PER DEPTH STEP
 CREA.                 04/06/2018 10:36:36
#CREATED USING DSPetro VERSION 5000.10.1.3 BY H191660 ON 04/06/2018 10:36:36
~WELL INFORMATION
#MNEM.UNIT       DATA                          DESCRIPTION MNEMONIC
#---------      ---------------------------   --------------------------
 STRT    .M         1989.9456                 : START DEPTH
 STOP    .M         2954.9424                 : STOP DEPTH
 STEP    .M         0.1524                    : STEP VALUE
 NULL    .      -999.0000                     : NULL VALUE
 DATE    .      04/06/2018                    : LAS file Creation Date
 WELL .      15_9_11                     : Well Name
 COMP .      Neftex Exploration Insights : Company
 FLD  .      SLEIPNER OST                : Field
 UWI  .      YNOWL_15911                 : Unique Well Identifier (UWI)
 LOC  .                                  : Location
 RWS  .      -999                        : Def_Rw
 WST  .      -999                        : Def_Rwt
 SRVC .                                  : Contractor
~CURVE INFORMATION
#MNEM                     UNIT       API CODE   Curve Type Comments
#----------         --------------- ----------  ---------- -----------
 DEPTH             .M                         : Depth       
 GR_API            .API                       :             Gamma Ray (API) - Measures the intensity of natural gamma-ray radiation emitted from formations containing radioactive elements, such as K, Th and U
 RD_OHMM           .ohmm                      :             Unspecified Deep Resistivity - No accroynm or method of attainment is specified - units of ohmm
 RM_OHMM           .ohm.m                     :             Unspecified Medium Resistivity - No accroynm or method of attainment is specified
 RS_OHMM           .ohmm                      :             Unspecified Shallow Resistivity - No accroynm or method of attainment is specified
 DT_US_FT          .us/ft                     :             Interval Transit Time: Compressional Wave - Evaluates the time it takes for a compressional wave to traverse a fixed distance
 NEUT_P_RATIO      .ratio                     :             Unspecified Neutron Porosity Log - No accroynm or method of attainment is specified
 RHOB_G_CC         .g/cc                      :             Bulk Density - Measures the density of bulk material, including any void space or other materials contained in the subject volume
 LITH_v1_fromPetro .                          : LITH        Lithology Curve
 LITH_v2_fromCompo .                          : LITH        Lithology Curve
~A  DEPTH   GR_API   RD_OHMM   RM_OHMM   RS_OHMM   DT_US_FT NEUT_P_R~ RHOB_G_C~ LITH_v1_~ LITH_v2_~ 
# ...
2819.0016   23.8824  100.9982   62.6000    9.8757   83.7542    0.1573    2.2248   27.0000   27.0000 
2819.1540   22.2504   88.1414   56.2186    7.9718   83.7960    0.1590    2.2290   27.0000   27.0000 
2819.3064   20.6184   75.2845   49.8373    6.0679   83.8379    0.1606    2.2333   27.0000   27.0000 
2819.4588   18.9864   62.4277   43.4559    4.1640   83.8797    0.1623    2.2375   27.0000   27.0000 
2819.6112   20.3351   61.0065   41.8283    4.1031   83.6280    0.1580    2.2410   27.0000   27.0000 
2819.7636   21.6839   59.5854   40.2007    4.0423   83.3763    0.1538    2.2445   27.0000   27.0000 
2819.9160   23.0326   58.1642   38.5731    3.9814   83.1246    0.1495    2.2480   27.0000   27.0000 
2820.0684   24.3814   56.7431   36.9455    3.9205   82.8729    0.1452    2.2515   27.0000   27.0000 
2820.2208   22.0526   56.5546   43.0779    5.7543   82.3153    0.1476    2.2614   27.0000   27.0000 
2820.3732   19.7237   56.3662   49.2103    7.5880   81.7576    0.1501    2.2712   27.0000   27.0000 
2820.5256   17.3949   56.1777   55.3427    9.4218   81.2000    0.1525    2.2811   27.0000   27.0000 
2820.6780   18.0936   60.7242   55.1905    8.8228   80.9729    0.1474    2.2715   27.0000   27.0000 
2820.8304   18.7923   65.2708   55.0384    8.2239   80.7457    0.1424    2.2619   27.0000   27.0000 
2820.9828   19.4910   69.8173   54.8862    7.6249   80.5186    0.1373    2.2523   27.0000   27.0000 
2821.1352   18.9771   59.4773   50.7276    8.2420   80.6209    0.1459    2.2677   27.0000   27.0000 
2821.2876   18.4631   49.1373   46.5689    8.8590   80.7231    0.1546    2.2830   27.0000   27.0000 
2821.4400   17.9492   38.7973   42.4103    9.4761   80.8254    0.1632    2.2984   27.0000   27.0000 
2821.5924   17.5091   37.6410   39.1398    8.1092   80.7436    0.1639    2.2835   27.0000   27.0000 
2821.7448   17.0689   36.4848   35.8692    6.7423   80.6618    0.1647    2.2686   27.0000   27.0000 
2821.8972   16.6287   35.3285   32.5987    5.3754   80.5801    0.1655    2.2537   27.0000   27.0000 
2822.0496   16.1886   34.1723   29.3281    4.0085   80.4983    0.1662    2.2388   27.0000   27.0000 
2822.2020   17.7267   32.9779   27.6482    5.7939   80.1712    0.1620    2.2527   27.0000   27.0000 
2822.3544   19.2649   31.7835   25.9684    7.5794   79.8441    0.1577    2.2665   27.0000   27.0000 
2822.5068   20.8030   30.5891   24.2885    9.3648   79.5170    0.1535    2.2804   27.0000   27.0000 
2822.6592   19.6437   29.5873   25.8535    7.4837   78.9616    0.1459    2.2928   27.0000   27.0000 
2822.8116   18.4843   28.5854   27.4184    5.6025   78.4063    0.1383    2.3052   27.0000   27.0000 
2822.9640   17.3250   27.5836   28.9834    3.7214   77.8509    0.1307    2.3176   27.0000   27.0000 
2823.1164   18.4649   25.2003   23.7722    5.1421   77.4547    0.1357    2.3261   27.0000   27.0000 
2823.2688   19.6047   22.8170   18.5611    6.5628   77.0585    0.1406    2.3346   27.0000   27.0000 
2823.4212   20.7445   20.4337   13.3499    7.9836   76.6623    0.1455    2.3431   27.0000   27.0000 
2823.5736   21.8844   18.0504    8.1387    9.4043   76.2661    0.1505    2.3516   27.0000   27.0000 
2823.7260   23.6899   15.2478    7.0923    8.7655   77.3571    0.1468    2.3524   27.0000   27.0000 
2823.8784   25.4955   12.4453    6.0459    8.1266   78.4480    0.1430    2.3533   27.0000   27.0000 
2824.0308   27.3010    9.6427    4.9995    7.4878   79.5390    0.1393    2.3541   27.0000   27.0000 
2824.1832   26.5168    7.8277    4.2366    5.7232   81.1153    0.1559    2.3451   27.0000   27.0000 
2824.3356   25.7325    6.0128    3.4737    3.9586   82.6915    0.1726    2.3361   27.0000   27.0000 
2824.4880   24.9483    4.1978    2.7108    2.1940   84.2678    0.1892    2.3271   27.0000   27.0000 
2824.6404   26.0496    3.8618    2.4610    2.1559   85.6277    0.1886    2.3154   27.0000   27.0000 
2824.7928   27.1508    3.5258    2.2112    2.1177   86.9876    0.1879    2.3037   27.0000   27.0000 
2824.9452   28.2521    3.1898    1.9614    2.0796   88.3475    0.1873    2.2920   27.0000   27.0000 
2825.0976   27.6480    2.9192    1.8950    2.1273   88.8547    0.1928    2.3022   27.0000   27.0000 
2825.2500   27.0438    2.6486    1.8286    2.1750   89.3619    0.1984    2.3123   27.0000   27.0000 
2825.4024   26.4397    2.3780    1.7623    2.2226   89.8691    0.2040    2.3225   27.0000   27.0000 
2825.5548   25.8356    2.1074    1.6959    2.2703   90.3763    0.2095    2.3326   27.0000   27.0000 
2825.7072   26.9282    1.7747    1.7843    2.1337   88.8576    0.2125    2.3229   27.0000   27.0000 
2825.8596   28.0208    1.4420    1.8727    1.9971   87.3390    0.2155    2.3131   27.0000   27.0000 
2826.0120   29.1134    1.1093    1.9611    1.8605   85.8203    0.2185    2.3034   27.0000   27.0000 
2826.1644   29.1852    1.0700    1.9184    2.3232   83.5994    0.2019    2.3381   18.0000   27.0000 
2826.3168   29.2570    1.0307    1.8758    2.7859   81.3785    0.1852    2.3728   18.0000   27.0000 
2826.4692   29.3288    0.9914    1.8331    3.2486   79.1576    0.1686    2.4075   18.0000   27.0000 
2826.6216   30.8040    0.8769    1.5512    2.6829   81.7876    0.1739    2.3770   18.0000   27.0000 
2826.7740   32.2793    0.7624    1.2694    2.1172   84.4175    0.1791    2.3466   36.0000   27.0000 
2826.9264   33.7545    0.6479    0.9875    1.5515   87.0475    0.1844    2.3161   36.0000   27.0000 
2827.0788   37.5576    0.6462    0.9834    1.5008   87.8726    0.1975    2.3291   36.0000   27.0000 
2827.2312   41.3606    0.6444    0.9794    1.4502   88.6976    0.2107    2.3421   36.0000   27.0000 
2827.3836   45.1637    0.6427    0.9754    1.3995   89.5227    0.2239    2.3551   36.0000   27.0000 
2827.5360   48.9667    0.6410    0.9713    1.3489   90.3477    0.2370    2.3681   36.0000   27.0000 
2827.6884   46.7442    0.6635    1.0526    1.7699   88.9877    0.2298    2.3467   36.0000   27.0000 
2827.8408   44.5216    0.6860    1.1340    2.1910   87.6278    0.2226    2.3252   36.0000   27.0000 
2827.9932   42.2991    0.7085    1.2153    2.6120   86.2678    0.2154    2.3038   36.0000   27.0000 
2828.1456   41.1994    0.9515    1.4593    2.9153   84.4853    0.2078    2.3270   36.0000   27.0000 
2828.2980   40.0997    1.1946    1.7034    3.2186   82.7028    0.2003    2.3501   36.0000   27.0000 
2828.4504   39.0000    1.4376    1.9474    3.5219   80.9203    0.1927    2.3733   36.0000   27.0000 
2828.6028   40.6209    1.5570    2.0672    3.3761   79.4402    0.1870    2.3915   36.0000   27.0000 
2828.7552   42.2419    1.6763    2.1871    3.2302   77.9602    0.1813    2.4097   36.0000   27.0000 
2828.9076   43.8628    1.7957    2.3069    3.0844   76.4801    0.1756    2.4279   36.0000   27.0000 
2829.0600   45.4837    1.9151    2.4267    2.9386   75.0000    0.1699    2.4461   18.0000   27.0000 
2829.2124   46.3672    1.9056    3.0247    3.8419   73.5642    0.1611    2.4574   18.0000   27.0000 
2829.3648   47.2508    1.8960    3.6226    4.7453   72.1285    0.1523    2.4688   18.0000   27.0000 
2829.5172   48.1343    1.8865    4.2206    5.6486   70.6927    0.1435    2.4801   18.0000   27.0000 
2829.6696   47.3925    1.7950    3.3249    5.3694   73.8008    0.1492    2.4580   18.0000   27.0000 
2829.8220   46.6507    1.7034    2.4293    5.0902   76.9089    0.1550    2.4359   18.0000   27.0000 
2829.9744   45.9089    1.6119    1.5336    4.8110   80.0170    0.1607    2.4138   36.0000   27.0000 
2830.1268   45.9587    1.4626    1.4997    3.9102   83.6684    0.1727    2.3793   36.0000   27.0000 
2830.2792   46.0085    1.3134    1.4659    3.0093   87.3198    0.1848    2.3447   36.0000   27.0000 
2830.4316   46.0583    1.1641    1.4320    2.1085   90.9712    0.1968    2.3102   36.0000   27.0000 
2830.5840   49.2941    1.2099    1.4344    1.7907   89.5792    0.2017    2.3096   36.0000   27.0000 
2830.7364   52.5299    1.2557    1.4369    1.4728   88.1873    0.2067    2.3089   36.0000   37.0000 
2830.8888   55.7657    1.3015    1.4393    1.1550   86.7953    0.2116    2.3082   36.0000   37.0000 
2831.0412   59.0015    1.3473    1.4417    0.8372   85.4034    0.2166    2.3076   36.0000   37.0000 
