~VERSION INFORMATION
 VERS.                 2.0:   CWLS LOG ASCII STANDARD - VERSION 2.0
 WRAP.                  NO:   SINGLE LINE PER DEPTH STEP
 CREA.                 04/06/2018 10:36:36
#CREATED USING DSPetro VERSION 5000.10.1.3 BY H191660 ON 04/06/2018 10:36:36
~WELL INFORMATION
#MNEM.UNIT       DATA                          DESCRIPTION MNEMONIC
#---------      ---------------------------   --------------------------
 STRT    .M         1989.9456                 : START DEPTH
 STOP    .M         2954.9424                 : STOP DEPTH
 STEP    .M         0.1524                    : STEP VALUE
 NULL    .      -999.0000                     : NULL VALUE
 DATE    .      04/06/2018                    : LAS file Creation Date
 WELL .      15_9_11                     : Well Name
 COMP .      Neftex Exploration Insights : Company
 FLD  .      SLEIPNER OST                : Field
 UWI  .      YNOWL_15911                 : Unique Well Identifier (UWI)
 LOC  .                                  : Location
 RWS  .      -999                        : Def_Rw
 WST  .      -999                        : Def_Rwt
 SRVC .                                  : Contractor
~CURVE INFORMATION
#MNEM                     UNIT       API CODE   Curve Type Comments
#----------         --------------- ----------  ---------- -----------
 DEPTH             .M                         : Depth       
 GR_API            .API                       :             Gamma Ray (API) - Measures the intensity of natural gamma-ray radiation emitted from formations containing radioactive elements, such as K, Th and U
 RD_OHMM           .ohmm                      :             Unspecified Deep Resistivity - No accroynm or method of attainment is specified - units of ohmm
 RM_OHMM           .ohm.m                     :             Unspecified Medium Resistivity - No accroynm or method of attainment is specified
 RS_OHMM           .ohmm                      :             Unspecified Shallow Resistivity - No accroynm or method of attainment is specified
 DT_US_FT          .us/ft                     :             Interval Transit Time: Compressional Wave - Evaluates the time it takes for a compressional wave to traverse a fixed distance
 NEUT_P_RATIO      .ratio                     :             Unspecified Neutron Porosity Log - No accroynm or method of attainment is specified
 RHOB_G_CC         .g/cc                      :             Bulk Density - Measures the density of bulk material, including any void space or other materials contained in the subject volume
 LITH_v1_fromPetro .                          : LITH        Lithology Curve
 LITH_v2_fromCompo .                          : LITH        Lithology Curve
~A  DEPTH   GR_API   RD_OHMM   RM_OHMM   RS_OHMM   DT_US_FT NEUT_P_R~ RHOB_G_C~ LITH_v1_~ LITH_v2_~ 
# ...
2879.9616   92.4534    1.8705    1.8166 -999.0000   81.5422    0.2861    2.4156   37.0000   37.0000 
2880.1140   92.9368    1.8627    1.8388 -999.0000   81.2036    0.2794    2.3876   37.0000   37.0000 
2880.2664   93.4202    1.8549    1.8609 -999.0000   80.8649    0.2727    2.3595   37.0000   37.0000 
2880.4188   93.9035    1.8470    1.8830 -999.0000   80.5263    0.2659    2.3314   37.0000   37.0000 
2880.5712   94.3869    1.8392    1.9052 -999.0000   80.1877    0.2592    2.3034   37.0000   37.0000 
2880.7236   93.0466    1.8351    1.8547 -999.0000   81.6006    0.2810    2.2922   37.0000   37.0000 
2880.8760   91.7064    1.8311    1.8042 -999.0000   83.0135    0.3029    2.2811   37.0000   37.0000 
2881.0284   90.3661    1.8270    1.7537 -999.0000   84.4264    0.3247    2.2699   37.0000   37.0000 
2881.1808   91.8419    1.8270    1.7988 -999.0000   82.9581    0.3029    2.3640   37.0000   37.0000 
2881.3332   93.3178    1.8269    1.8440 -999.0000   81.4899    0.2810    2.4581   37.0000   37.0000 
2881.4856   94.7936    1.8269    1.8891 -999.0000   80.0216    0.2592    2.5522   37.0000   37.0000 
2881.6380   97.4432    1.8318    1.8171 -999.0000   81.6607    0.2769    2.5030   37.0000   37.0000 
2881.7904  100.0928    1.8367    1.7452 -999.0000   83.2999    0.2946    2.4538   37.0000   37.0000 
2881.9428  102.7424    1.8416    1.6732 -999.0000   84.9390    0.3123    2.4046   37.0000   37.0000 
2882.0952  103.3783    1.8460    1.7506 -999.0000   84.1343    0.3081    2.4331   37.0000   37.0000 
2882.2476  104.0142    1.8503    1.8280 -999.0000   83.3297    0.3039    2.4616   37.0000   37.0000 
2882.4000  104.6501    1.8547    1.9053 -999.0000   82.5250    0.2997    2.4901   37.0000   37.0000 
2882.5524  105.2860    1.8591    1.9827 -999.0000   81.7203    0.2955    2.5186   37.0000   37.0000 
2882.7048  104.1699    1.8627    1.9545 -999.0000   82.6812    0.2919    2.4872   37.0000   37.0000 
2882.8572  103.0538    1.8663    1.9263 -999.0000   83.6421    0.2883    2.4557   37.0000   37.0000 
2883.0096  101.9377    1.8699    1.8981 -999.0000   84.6030    0.2847    2.4243   37.0000   37.0000 
2883.1620   99.5131    1.8699    1.9008 -999.0000   83.4822    0.2759    2.4676   37.0000   37.0000 
2883.3144   97.0886    1.8698    1.9034 -999.0000   82.3615    0.2670    2.5109   37.0000   37.0000 
2883.4668   94.6640    1.8698    1.9061 -999.0000   81.2407    0.2582    2.5542   37.0000   37.0000 
2883.6192   97.6358    1.8735    1.9514 -999.0000   81.1531    0.2616    2.5415   37.0000   37.0000 
2883.7716  100.6075    1.8771    1.9967 -999.0000   81.0656    0.2650    2.5288   37.0000   37.0000 
2883.9240  103.5793    1.8808    2.0420 -999.0000   80.9780    0.2684    2.5161   37.0000   37.0000 
2884.0764  104.8507    1.8844    2.0510 -999.0000   81.1437    0.2642    2.5251   37.0000   37.0000 
2884.2288  106.1221    1.8880    2.0599 -999.0000   81.3093    0.2600    2.5340   37.0000   37.0000 
2884.3812  107.3934    1.8916    2.0689 -999.0000   81.4750    0.2558    2.5430   37.0000   37.0000 
2884.5336  108.6648    1.8952    2.0778 -999.0000   81.6407    0.2516    2.5520   37.0000   37.0000 
2884.6860  103.4517    1.8987    2.0269 -999.0000   81.6136    0.2648    2.5417   37.0000   37.0000 
2884.8384   98.2385    1.9023    1.9759 -999.0000   81.5864    0.2780    2.5314   37.0000   37.0000 
2884.9908   93.0254    1.9058    1.9250 -999.0000   81.5593    0.2912    2.5211   37.0000   37.0000 
2885.1432   95.1436    1.9080    1.9831 -999.0000   81.5932    0.2859    2.5366   37.0000   37.0000 
2885.2956   97.2619    1.9101    2.0412 -999.0000   81.6271    0.2806    2.5521   37.0000   37.0000 
2885.4480   99.3801    1.9123    2.0993 -999.0000   81.6610    0.2753    2.5676   37.0000   37.0000 
2885.6004   97.3141    1.9154    2.1186 -999.0000   81.5093    0.2715    2.5599   37.0000   37.0000 
2885.7528   95.2481    1.9185    2.1379 -999.0000   81.3576    0.2678    2.5522   37.0000   37.0000 
2885.9052   93.1821    1.9216    2.1572 -999.0000   81.2059    0.2641    2.5445   37.0000   37.0000 
2886.0576   91.1161    1.9247    2.1765 -999.0000   81.0542    0.2603    2.5368   37.0000   37.0000 
2886.2100   93.5716    1.9284    2.1027 -999.0000   81.5440    0.2556    2.5521   37.0000   37.0000 
2886.3624   96.0271    1.9322    2.0289 -999.0000   82.0339    0.2508    2.5675   37.0000   37.0000 
2886.5148   98.4826    1.9359    1.9551 -999.0000   82.5237    0.2461    2.5828   37.0000   37.0000 
2886.6672  103.0534    1.9269    1.9156 -999.0000   82.7932    0.2676    2.5698   37.0000   37.0000 
2886.8196  107.6241    1.9179    1.8760 -999.0000   83.0627    0.2890    2.5567   37.0000   37.0000 
2886.9720  112.1949    1.9089    1.8365 -999.0000   83.3322    0.3105    2.5437   37.0000   37.0000 
2887.1244  105.4216    1.9011    1.8491 -999.0000   82.8853    0.3004    2.5226   37.0000   37.0000 
2887.2768   98.6483    1.8932    1.8618 -999.0000   82.4384    0.2903    2.5016   37.0000   37.0000 
2887.4292   91.8750    1.8854    1.8744 -999.0000   81.9915    0.2802    2.4805   37.0000   37.0000 
2887.5816   92.0787    1.8895    1.9184 -999.0000   81.8013    0.2760    2.4829   37.0000   37.0000 
2887.7340   92.2824    1.8937    1.9624 -999.0000   81.6111    0.2718    2.4854   37.0000   37.0000 
2887.8864   92.4861    1.8978    2.0064 -999.0000   81.4209    0.2675    2.4878   37.0000   37.0000 
2888.0388   92.6898    1.9019    2.0504 -999.0000   81.2307    0.2633    2.4903   37.0000   37.0000 
2888.1912   97.6148    1.9019    2.0222 -999.0000   81.6736    0.2660    2.5036   37.0000   37.0000 
2888.3436  102.5398    1.9018    1.9940 -999.0000   82.1164    0.2688    2.5168   37.0000   37.0000 
2888.4960  107.4648    1.9018    1.9658 -999.0000   82.5593    0.2715    2.5301   37.0000   37.0000 
2888.6484  106.2059    1.8907    1.9691 -999.0000   82.5621    0.2674    2.5209   37.0000   37.0000 
2888.8008  104.9470    1.8797    1.9724 -999.0000   82.5650    0.2634    2.5116   37.0000   37.0000 
2888.9532  103.6881    1.8686    1.9757 -999.0000   82.5678    0.2593    2.5024   37.0000   37.0000 
2889.1056  102.4007    1.8654    2.0162 -999.0000   82.6161    0.2657    2.5181   37.0000   37.0000 
2889.2580  101.1133    1.8621    2.0567 -999.0000   82.6644    0.2720    2.5338   37.0000   37.0000 
2889.4104   99.8260    1.8589    2.0972 -999.0000   82.7127    0.2783    2.5495   37.0000   37.0000 
2889.5628   98.5386    1.8556    2.1377 -999.0000   82.7610    0.2847    2.5652   37.0000   37.0000 
2889.7152   96.9721    1.8490    2.0512 -999.0000   82.8152    0.2864    2.5476   37.0000   37.0000 
2889.8676   95.4055    1.8424    1.9647 -999.0000   82.8695    0.2881    2.5299   37.0000   37.0000 
2890.0200   93.8390    1.8358    1.8782 -999.0000   82.9237    0.2898    2.5123   37.0000   37.0000 
2890.1724   91.3165    1.8430    1.9244 -999.0000   82.5299    0.2796    2.5177   37.0000   37.0000 
2890.3248   88.7941    1.8501    1.9705 -999.0000   82.1362    0.2695    2.5232   37.0000   37.0000 
2890.4772   86.2716    1.8573    2.0167 -999.0000   81.7424    0.2593    2.5286   37.0000   37.0000 
2890.6296   85.9330    1.8794    2.0407 -999.0000   81.5752    0.2650    2.5138   37.0000   37.0000 
2890.7820   85.5945    1.9015    2.0646 -999.0000   81.4079    0.2707    2.4990   37.0000   37.0000 
2890.9344   85.2559    1.9236    2.0886 -999.0000   81.2407    0.2764    2.4842   37.0000   37.0000 
2891.0868   87.8978    1.9462    2.0994 -999.0000   80.4754    0.2808    2.4797   37.0000   37.0000 
2891.2392   90.5396    1.9689    2.1103 -999.0000   79.7102    0.2851    2.4751   37.0000   37.0000 
2891.3916   93.1814    1.9915    2.1212 -999.0000   78.9450    0.2894    2.4706   37.0000   37.0000 
2891.5440   95.8233    2.0141    2.1320 -999.0000   78.1797    0.2938    2.4660   37.0000   37.0000 
2891.6964   93.4864    2.0146    2.1991 -999.0000   78.4019    0.2774    2.4955   37.0000   37.0000 
2891.8488   91.1496    2.0151    2.2662 -999.0000   78.6241    0.2610    2.5250   37.0000   37.0000 
2892.0012   88.8127    2.0156    2.3333 -999.0000   78.8463    0.2446    2.5545   37.0000   37.0000 
