~VERSION INFORMATION
 VERS.                 2.0:   CWLS LOG ASCII STANDARD - VERSION 2.0
 WRAP.                  NO:   SINGLE LINE PER DEPTH STEP
 CREA.                 11/04/2018 11:51:53
#CREATED USING DSPetro VERSION 5000.10.1.3 BY H191660 ON 11/04/2018 11:51:53
~WELL INFORMATION
#MNEM.UNIT       DATA                          DESCRIPTION MNEMONIC
#---------      ---------------------------   --------------------------
 STRT    .M         3744.0008                 : START DEPTH
 STOP    .M         4525.0508                 : STOP DEPTH
 STEP    .M         0.1524                    : STEP VALUE
 NULL    .      -999.0000                     : NULL VALUE
 DATE    .      11/04/2018                    : LAS file Creation Date
 WELL .      2-1-4          : Well Name
 COMP .                     : Company
 FLD  .      GYDA           : Field
 UWI  .      YNOWL_2_1_4    : Unique Well Identifier (UWI)
 LOC  .                     : Location
 PDAT .      Mean Sea Level : Permanent Datum
 RWS  .      0              : Def_Rw
 WST  .      0              : Def_Rwt
 MDEC .      0              : Magnetic Declination
 SRVC .      SCH            : Contractor
~CURVE INFORMATION
#MNEM                UNIT       API CODE   Curve Type Comments
#----------    --------------- ----------  ---------- -----------
 DEPTH        .M                         : Depth       
 CAL_INCH     .inch                      :             Caliper Log - A representation of the measured diameter of a borehole along its depth
 GR_API       .API                       :             Gamma Ray (API) - Measures the intensity of natural gamma-ray radiation emitted from formations containing radioactive elements, such as K, Th and U
 RD_OHMM      .ohmm                      :             Unspecified Deep Resistivity - No accroynm or method of attainment is specified - units of ohmm
 RM_OHMM      .ohm.m                     :             Unspecified Medium Resistivity - No accroynm or method of attainment is specified
 RS_OHMM      .ohmm                      :             Unspecified Shallow Resistivity - No accroynm or method of attainment is specified
 DT_US_FT     .us/ft                     :             Interval Transit Time: Compressional Wave - Evaluates the time it takes for a compressional wave to traverse a fixed distance
 NEUT_P_RATIO .ratio                     :             Unspecified Neutron Porosity Log - No accroynm or method of attainment is specified
 RHOB_G_CC    .g/cc                      :             Bulk Density - Measures the density of bulk material, including any void space or other materials contained in the subject volume
 LITH         .                          : LITH        Lithology Curve
 LITH_Comp    .                          :             
~A  DEPTH  CAL_INCH   GR_API   RD_OHMM   RM_OHMM   RS_OHMM   DT_US_FT NEUT_P_R~ RHOB_G_C~    LITH   LITH_Com~ 
# ...
3999.8804   14.4186   44.6950    3.3303    4.2291    1.0261   73.8983    0.3297    2.6530   22.0000    8.0000 
4000.0328   14.4254   44.2691    3.3254    4.2381    1.6735   73.1356    0.3022    2.6530   22.0000    8.0000 
4000.1852   14.3306   45.4131    3.2014    3.0231    1.6713   77.7737    0.1634    2.6505   22.0000    8.0000 
4000.3376   14.2675   46.3119    3.1336    2.7463    1.6130   79.4725    0.2021    2.5396   22.0000    8.0000 
4000.4900   14.2044   47.2106    3.0658    2.4696    1.5546   81.1712    0.2407    2.4287   22.0000    8.0000 
4000.6424   13.9130   48.5047    2.7067    2.5889    1.3307   82.4157    0.2666    2.4060   22.0000    8.0000 
4000.7948   13.6215   49.7987    2.3475    2.7081    1.1068   83.6602    0.2924    2.3833   22.0000    8.0000 
4000.9472   13.3159   47.6244    2.1602    2.7182    0.4924   86.1864    0.3128    2.3818   22.0000    8.0000 
4001.0996   13.2797   47.0495    2.1657    2.7081    0.4900   86.2711    0.3231    2.3839   22.0000    8.0000 
4001.2520   13.2435   46.4746    2.1712    2.6980    0.4876   86.3559    0.3335    2.3859   22.0000    8.0000 
4001.4044   13.2367   45.1589    2.2013    2.4632    3.6935   86.3559    0.3268    2.5034   22.0000    8.0000 
4001.5568   13.2298   43.8432    2.2314    2.2284    6.8994   86.3559    0.3202    2.6208   22.0000    8.0000 
4001.7092   12.9352   41.7721    2.3564    2.2308    5.3603   81.3216    0.3088    2.6178   22.0000    8.0000 
4001.8616   12.8154   40.3193    2.6035    3.2629    4.3248   79.4693    0.3039    2.6121   22.0000    8.0000 
4002.0140   12.6956   38.8665    2.8506    4.2950    3.2893   77.6170    0.2990    2.6063   22.0000    8.0000 
4002.1664   12.7790   38.0084    2.9097    4.6419    2.8922   74.4441    0.2968    2.5656   22.0000    8.0000 
4002.3188   12.8625   37.1504    2.9689    4.9888    2.4951   71.2712    0.2945    2.5250   22.0000    8.0000 
4002.4712   12.9488   44.6250    2.9846    4.7622    0.5292   74.0170    0.1757    2.4342   22.0000    8.0000 
4002.6236   12.9879   46.1777    2.8514    4.2137    0.6433   75.2742    0.1754    2.4325   22.0000    8.0000 
4002.7760   13.0269   47.7304    2.7181    3.6652    0.7574   76.5314    0.1752    2.4309   22.0000    8.0000 
4002.9284   12.9864   52.7225    2.5058    3.0640    0.7832   79.7051    0.2057    2.4326   22.0000    8.0000 
4003.0808   12.8919   52.8496    2.3885    2.8533    0.7675   81.8983    0.2316    2.4351   22.0000    8.0000 
4003.2332   12.7975   52.9767    2.2712    2.6425    0.7519   84.0915    0.2575    2.4376   22.0000    8.0000 
4003.3856   12.7034   53.4445    2.0705    2.5809    0.6945   86.9890    0.2640    2.4453   22.0000   10.0000 
4003.5380   12.6093   53.9123    1.8699    2.5193    0.6370   89.8864    0.2705    2.4529   22.0000   10.0000 
4003.6904   12.7281   56.2913    1.7846    2.0315    0.4999   94.3941    0.2834    2.4572   22.0000   10.0000 
4003.8428   12.7578   62.8128    1.7951    2.0292    0.4064   98.8496    0.3024    2.4577   22.0000   10.0000 
4003.9952   12.7875   69.3343    1.8056    2.0268    0.3128  103.3051    0.3214    2.4581   22.0000   10.0000 
4004.1476   12.8961   76.5686    1.8611    3.0412    0.3155  103.3898    0.3262    2.4587   22.0000   10.0000 
4004.3000   13.0047   83.8030    1.9166    4.0557    0.3182  103.4746    0.3311    2.4592   37.0000   10.0000 
4004.4524   12.7255   81.7996    2.3414    4.4429    0.9000   89.9153    0.3438    2.4614   37.0000   10.0000 
4004.6048   12.5177   86.5764    2.8736    6.0360    1.5875   90.0000    0.3334    2.4907   37.0000   10.0000 
4004.7572   12.3100   91.3532    3.4058    7.6292    2.2750   90.0848    0.3230    2.5199   37.0000   10.0000 
4004.9096   12.1154  106.6745    4.2017    8.1175    2.5231   95.4746    0.3123    2.4910   37.0000   10.0000 
4005.0620   11.9207  121.9958    4.9975    8.6058    2.7711  100.8644    0.3015    2.4620   37.0000   10.0000 
4005.2144   11.6001  132.5336    5.3577    8.8736    3.4324  105.5919    0.3095    2.4403   37.0000   10.0000 
4005.3668   11.4976  131.0497    5.4193    8.7218    6.3818  108.5247    0.3143    2.4239   37.0000   10.0000 
4005.5192   11.3950  129.5657    5.4808    8.5701    9.3313  111.4576    0.3191    2.4076   37.0000   10.0000 
4005.6716   11.3829  124.8168    5.4808    7.9144    9.5818  112.8445    0.3249    2.4040   37.0000   10.0000 
4005.8240   11.3707  120.0680    5.4808    7.2587    9.8323  114.2314    0.3307    2.4004   37.0000   10.0000 
4005.9764   11.5857   97.8267    4.6967    6.0682    7.7524  115.4373    0.3425    2.4008   37.0000   10.0000 
4006.1288   11.7350   93.4207    4.4706    6.1267    4.4216  114.6255    0.3476    2.4064   37.0000   10.0000 
4006.2812   11.8843   89.0148    4.2446    6.1852    1.0909  113.8136    0.3526    2.4119   37.0000   10.0000 
4006.4336   11.8813  100.4555    4.0682    6.2328    0.5983  114.0390    0.3526    2.4487   37.0000   10.0000 
4006.5860   11.9007  100.1968    4.0682    6.0000    0.5983  116.0449    0.3422    2.4483   37.0000   10.0000 
4006.7384   11.9201   99.9381    4.0682    5.7672    0.5983  118.0508    0.3318    2.4479   37.0000   10.0000 
4006.8908   11.9550   96.6375    4.0802    5.8273    1.3198  117.9661    0.3367    2.4254   37.0000   10.0000 
4007.0432   11.9898   93.3369    4.0921    5.8873    2.0413  117.8814    0.3415    2.4028   37.0000   10.0000 
4007.1956   12.0791   92.5742    4.6047    6.1028    1.4880  117.0339    0.3442    2.4023   37.0000   10.0000 
4007.3480   12.1158   95.4662    4.6841    6.6370    1.2998  116.5127    0.3516    2.4031   37.0000   10.0000 
4007.5004   12.1525   98.3581    4.7636    7.1713    1.1116  115.9915    0.3590    2.4039   37.0000   10.0000 
4007.6528   12.1889  101.4089    4.7636    7.1058    1.6964  116.0042    0.3654    2.4047   37.0000   10.0000 
4007.8052   12.2254  104.4597    4.7636    7.0403    2.2811  116.0170    0.3718    2.4055   37.0000   10.0000 
4007.9576   11.9742   98.1038    4.7082    6.5214    5.2018  116.5356    0.3638    2.4272   37.0000   10.0000 
4008.1100   11.9011   95.0997    4.6536    6.3407    5.2313  116.9543    0.3551    2.4269   37.0000   10.0000 
4008.2624   11.8279   92.0956    4.5990    6.1601    5.2609  117.3729    0.3465    2.4266   37.0000   10.0000 
4008.4148   11.9079   93.4612    4.4572    5.9107    3.2850  117.5424    0.3460    2.4232   37.0000   10.0000 
4008.5672   11.9880   94.8267    4.3154    5.6614    1.3092  117.7119    0.3455    2.4199   37.0000   10.0000 
4008.7196   12.1487   94.7987    4.0742    3.8390    0.8922  117.8814    0.3602    2.4134   37.0000   10.0000 
4008.8720   12.0859   92.1292    3.9446    3.8048    0.7951  117.8814    0.3679    2.4093   37.0000   10.0000 
4009.0244   12.0232   89.4598    3.8149    3.7706    0.6980  117.8814    0.3755    2.4051   37.0000   10.0000 
4009.1768   12.0355   97.8076    4.0921    7.7449    0.6924  117.8814    0.3532    2.4109   37.0000   10.0000 
4009.3292   11.9720   98.1146    4.2126    7.0255    2.1560  117.8814    0.3425    2.4141   37.0000   10.0000 
4009.4816   11.9085   98.4216    4.3330    6.3061    3.6195  117.8814    0.3318    2.4172   37.0000   10.0000 
4009.6340   11.9173   98.1992    4.6549    6.1445    3.7284  117.5856    0.3306    2.4192   37.0000   10.0000 
4009.7864   11.9262   97.9767    4.9768    5.9830    3.8373  117.2898    0.3294    2.4212   37.0000   10.0000 
4009.9388   12.0081  110.0530    5.1880    7.5586    0.8014  116.5763    0.3282    2.4199   37.0000   10.0000 
4010.0912   11.9516  116.3136    5.3184    7.4144    0.8014  116.3259    0.3309    2.4185   37.0000   10.0000 
4010.2436   11.8952  122.5742    5.4489    7.2703    0.8014  116.0754    0.3335    2.4171   37.0000   10.0000 
4010.3960   11.7536  122.6378    5.4649    7.1585    2.3375  116.0720    0.3345    2.4178   37.0000   10.0000 
4010.5484   11.6120  122.7013    5.4808    7.0467    3.8736  116.0686    0.3356    2.4185   37.0000   10.0000 
4010.7008   11.4159  113.9301    5.4808    7.8283    8.6528  116.1864    0.3374    2.4197   37.0000   10.0000 
4010.8532   11.4769  114.1293    5.4649    7.7829    8.6626  116.4407    0.3357    2.4174   37.0000   10.0000 
