~VERSION INFORMATION
 VERS.                 2.0:   CWLS LOG ASCII STANDARD - VERSION 2.0
 WRAP.                  NO:   SINGLE LINE PER DEPTH STEP
 CREA.                 11/04/2018 11:51:53
#CREATED USING DSPetro VERSION 5000.10.1.3 BY H191660 ON 11/04/2018 11:51:53
~WELL INFORMATION
#MNEM.UNIT       DATA                          DESCRIPTION MNEMONIC
#---------      ---------------------------   --------------------------
 STRT    .M         3744.0008                 : START DEPTH
 STOP    .M         4525.0508                 : STOP DEPTH
 STEP    .M         0.1524                    : STEP VALUE
 NULL    .      -999.0000                     : NULL VALUE
 DATE    .      11/04/2018                    : LAS file Creation Date
 WELL .      2-1-4          : Well Name
 COMP .                     : Company
 FLD  .      GYDA           : Field
 UWI  .      YNOWL_2_1_4    : Unique Well Identifier (UWI)
 LOC  .                     : Location
 PDAT .      Mean Sea Level : Permanent Datum
 RWS  .      0              : Def_Rw
 WST  .      0              : Def_Rwt
 MDEC .      0              : Magnetic Declination
 SRVC .      SCH            : Contractor
~CURVE INFORMATION
#MNEM                UNIT       API CODE   Curve Type Comments
#----------    --------------- ----------  ---------- -----------
 DEPTH        .M                         : Depth       
 CAL_INCH     .inch                      :             Caliper Log - A representation of the measured diameter of a borehole along its depth
 GR_API       .API                       :             Gamma Ray (API) - Measures the intensity of natural gamma-ray radiation emitted from formations containing radioactive elements, such as K, Th and U
 RD_OHMM      .ohmm                      :             Unspecified Deep Resistivity - No accroynm or method of attainment is specified - units of ohmm
 RM_OHMM      .ohm.m                     :             Unspecified Medium Resistivity - No accroynm or method of attainment is specified
 RS_OHMM      .ohmm                      :             Unspecified Shallow Resistivity - No accroynm or method of attainment is specified
 DT_US_FT     .us/ft                     :             Interval Transit Time: Compressional Wave - Evaluates the time it takes for a compressional wave to traverse a fixed distance
 NEUT_P_RATIO .ratio                     :             Unspecified Neutron Porosity Log - No accroynm or method of attainment is specified
 RHOB_G_CC    .g/cc                      :             Bulk Density - Measures the density of bulk material, including any void space or other materials contained in the subject volume
 LITH         .                          : LITH        Lithology Curve
 LITH_Comp    .                          :             
~A  DEPTH  CAL_INCH   GR_API   RD_OHMM   RM_OHMM   RS_OHMM   DT_US_FT NEUT_P_R~ RHOB_G_C~    LITH   LITH_Com~ 
# ...
4244.6348    9.7953   93.7325    4.6391    4.7082    6.4406   81.4364    0.2302    2.6334   37.0000    8.0000 
4244.7872    9.8136   93.9470    4.5195    4.7082    5.2694   81.5339    0.2294    2.6354   37.0000    8.0000 
4244.9396    9.8441   96.9280    4.3511    4.7776    4.4151   81.5254    0.2298    2.6398   37.0000    8.0000 
4245.0920    9.8469   97.6049    4.2282    4.9058    4.6782   81.3411    0.2296    2.6415   37.0000    8.0000 
4245.2444    9.8497   98.2818    4.1053    5.0341    4.9413   81.1568    0.2295    2.6432   37.0000    8.0000 
4245.3968    9.8489   99.3369    4.0167    5.0869    5.8726   80.7225    0.2307    2.6397   37.0000    8.0000 
4245.5492    9.8481  100.3920    3.9281    5.1396    6.8039   80.2881    0.2318    2.6362   37.0000    8.0000 
4245.7016    9.8746   98.0021    3.8480    5.0106    6.7505   79.8051    0.2315    2.6320   37.0000    8.0000 
4245.8540    9.8878   96.6022    3.8421    4.7007    6.1659   79.9449    0.2307    2.6295   37.0000    8.0000 
4246.0064    9.9010   95.2023    3.8363    4.3908    5.5812   80.0848    0.2298    2.6270   37.0000    8.0000 
4246.1588    9.8141   94.6192    3.8636    4.3583    5.2792   79.8093    0.2289    2.6270   37.0000    8.0000 
4246.3112    9.7271   94.0360    3.8910    4.3258    4.9771   79.5339    0.2279    2.6271   37.0000    8.0000 
4246.4636    9.6671   88.9513    3.9930    4.3036    4.5301   78.6271    0.2247    2.6331   37.0000    8.0000 
4246.6160    9.6073   91.5414    4.0343    4.5652    5.2071   78.2352    0.2237    2.6351   37.0000    8.0000 
4246.7684    9.5476   94.1314    4.0755    4.8267    5.8842   77.8432    0.2227    2.6370   37.0000    8.0000 
4246.9208    9.5103   95.7140    4.2249    5.1765    6.8335   77.8411    0.2246    2.6385   37.0000    8.0000 
4247.0732    9.4729   97.2966    4.3743    5.5263    7.7827   77.8390    0.2264    2.6400   37.0000    8.0000 
4247.2256    9.4881   99.7945    4.7379    6.0915    8.4639   79.2458    0.2281    2.6445   37.0000    8.0000 
4247.3780    9.4627  100.6335    4.8000    6.0906    8.6314   79.6229    0.2286    2.6432   37.0000    8.0000 
4247.5304    9.4373  101.4725    4.8622    6.0898    8.7990   80.0000    0.2291    2.6420   37.0000    8.0000 
4247.6828    9.3864  105.5403    4.6334    5.7492    8.3556   80.5890    0.2256    2.6395   37.0000    8.0000 
4247.8352    9.3875  105.5085    4.5457    5.3953    7.4976   80.0784    0.2230    2.6360   37.0000    8.0000 
4247.9876    9.3885  105.4767    4.4580    5.0415    6.6396   79.5678    0.2204    2.6324   37.0000    8.0000 
4248.1400    9.3867  103.4238    4.3893    4.9316    5.8597   78.7563    0.2156    2.6301   37.0000    8.0000 
4248.2924    9.3849  101.3708    4.3207    4.8217    5.0799   77.9449    0.2108    2.6277   37.0000    8.0000 
4248.4448    9.2807   80.4852    4.1791    4.8196    5.2123   77.0678    0.2112    2.6250   37.0000    8.0000 
4248.5972    9.2535   78.9343    4.1718    4.8320    5.5719   77.2627    0.2147    2.6246   37.0000    8.0000 
4248.7496    9.2263   77.3835    4.1645    4.8443    5.9315   77.4576    0.2183    2.6242   37.0000    8.0000 
4248.9020    9.2352   84.9471    4.1810    4.9042    7.2274   77.7288    0.2186    2.6255   37.0000    8.0000 
4249.0544    9.2441   92.5106    4.1975    4.9641    8.5233   78.0000    0.2189    2.6267   37.0000    8.0000 
4249.2068    9.2441   97.4047    4.2543    5.0941    4.8295   78.9195    0.2184    2.6309   37.0000    8.0000 
4249.3592    9.2309   98.6758    4.3078    5.1609    4.9817   79.5022    0.2164    2.6415   37.0000    8.0000 
4249.5116    9.2176   99.9470    4.3614    5.2276    5.1338   80.0848    0.2143    2.6521   37.0000    8.0000 
4249.6640    9.2262  100.8622    4.4083    5.2961    5.6892   80.1505    0.2154    2.6512   37.0000    8.0000 
4249.8164    9.2349  101.7775    4.4553    5.3645    6.2447   80.2161    0.2164    2.6504   37.0000    8.0000 
4249.9688    9.2492  104.9047    4.5395    5.9308    7.2877   80.2966    0.2217    2.6195   37.0000    8.0000 
4250.1212    9.2715  103.3983    4.5891    6.1453    7.8378   80.4216    0.2254    2.6193   37.0000    8.0000 
4250.2736    9.2939  101.8920    4.6387    6.3598    8.3878   80.5466    0.2291    2.6191   37.0000    8.0000 
4250.4260    9.2522   97.4492    4.6753    6.3136    9.5958   78.9322    0.2269    2.6477   37.0000    8.0000 
4250.5784    9.2754   93.7914    4.6781    5.9344    9.5244   77.5784    0.2115    2.6525   37.0000    8.0000 
4250.7308    9.2985   90.1335    4.6808    5.5551    9.4529   76.2246    0.1962    2.6572   37.0000    8.0000 
4250.8832    9.2885   84.5148    4.5700    5.1372    8.4513   74.9767    0.1777    2.6558   37.0000    8.0000 
4251.0356    9.2786   78.8962    4.4592    4.7193    7.4496   73.7288    0.1593    2.6544   37.0000    8.0000 
4251.1880    9.2059   72.1716    4.1041    4.3830    4.4216   71.2288    0.1452    2.6199   37.0000    8.0000 
4251.3404    9.1446   68.8427    3.9910    4.2137    4.8723   70.0721    0.1455    2.6199   36.0000    8.0000 
4251.4928    9.0834   65.5138    3.8779    4.0445    5.3230   68.9153    0.1458    2.6199   36.0000    8.0000 
4251.6452    9.0867   64.4063    3.7577    3.8624    5.3230   68.8941    0.1552    2.6309   36.0000    8.0000 
4251.7976    9.0900   63.2987    3.6375    3.6803    5.3230   68.8729    0.1646    2.6420   36.0000   27.0000 
4251.9500    9.0427   55.1250    3.4541    3.4927    2.2284   68.3814    0.1645    2.6403   36.0000   27.0000 
4252.1024    9.0674   49.2839    3.3946    3.4524    2.2349   68.2564    0.1577    2.6287   36.0000   27.0000 
4252.2548    9.0920   43.4428    3.3351    3.4120    2.2414   68.1314    0.1509    2.6171   36.0000   27.0000 
4252.4072    9.0867   43.3157    3.2313    3.3639    2.9732   67.8369    0.1488    2.6070   36.0000   27.0000 
4252.5596    9.0814   43.1886    3.1275    3.3157    3.7051   67.5424    0.1467    2.5970   36.0000   27.0000 
4252.7120    9.0203   44.2055    2.9165    3.2024    3.0401   68.7119    0.1509    2.5891   36.0000   27.0000 
4252.8644    9.0300   44.6822    2.7644    2.8397    2.9864   69.2119    0.1531    2.5855   36.0000   27.0000 
4253.0168    9.0397   45.1589    2.6123    2.4770    2.9327   69.7119    0.1552    2.5820   36.0000   27.0000 
4253.1692    9.0343   46.5572    2.5012    2.3668    2.7063   70.1272    0.1569    2.5868   36.0000   27.0000 
4253.3216    9.0290   47.9555    2.3902    2.2565    2.4799   70.5424    0.1587    2.5916   36.0000   27.0000 
4253.4740    9.0590   48.5275    2.3902    2.2546    2.4183   70.9322    0.1645    2.6017   36.0000   27.0000 
4253.6264    9.0499   48.8453    2.4548    2.3489    2.4113   70.8475    0.1658    2.6095   36.0000    8.0000 
4253.7788    9.0407   49.1631    2.5193    2.4432    2.4043   70.7627    0.1672    2.6174   36.0000    8.0000 
4253.9312    9.0234   61.6208    2.6772    2.5789    3.4021   70.7627    0.1697    2.6165   36.0000    8.0000 
4254.0836    9.0119   63.6229    2.8454    2.7299    4.4255   70.7903    0.1667    2.6072   36.0000    8.0000 
4254.2360    9.0005   65.6250    3.0135    2.8810    5.4489   70.8178    0.1637    2.5979   36.0000    8.0000 
4254.3884    8.9718   63.6229    3.0668    2.9521    4.7232   70.8750    0.1613    2.5950   36.0000    8.0000 
4254.5408    8.9431   61.6208    3.1202    3.0233    3.9975   70.9322    0.1589    2.5921   36.0000    8.0000 
4254.6932    9.0000   57.8708    3.2306    3.2791    2.9672   71.0085    0.1532    2.5911   36.0000    8.0000 
4254.8456    9.0000   63.7977    3.3025    3.3717    2.9608   70.7585    0.1497    2.6024   36.0000    8.0000 
4254.9980    9.0000   69.7246    3.3743    3.4643    2.9543   70.5085    0.1461    2.6138   36.0000    8.0000 
4255.1504    9.0000   69.4545    3.4391    3.5728    4.2016   70.1928    0.1456    2.6202   36.0000    8.0000 
4255.3028    9.0000   69.1843    3.5040    3.6814    5.4489   69.8771    0.1451    2.6267   36.0000    8.0000 
4255.4552    9.0000   66.8644    3.5152    3.9235    5.4172   69.3898    0.1454    2.6301   36.0000    8.0000 
4255.6076    9.0101   62.1388    3.4948    3.9332    5.2680   69.4131    0.1465    2.6202   36.0000   23.0000 
