~VERSION INFORMATION
 VERS.                 2.0:   CWLS LOG ASCII STANDARD - VERSION 2.0
 WRAP.                  NO:   SINGLE LINE PER DEPTH STEP
 CREA.                 11/04/2018 11:51:53
#CREATED USING DSPetro VERSION 5000.10.1.3 BY H191660 ON 11/04/2018 11:51:53
~WELL INFORMATION
#MNEM.UNIT       DATA                          DESCRIPTION MNEMONIC
#---------      ---------------------------   --------------------------
 STRT    .M         3744.0008                 : START DEPTH
 STOP    .M         4525.0508                 : STOP DEPTH
 STEP    .M         0.1524                    : STEP VALUE
 NULL    .      -999.0000                     : NULL VALUE
 DATE    .      11/04/2018                    : LAS file Creation Date
 WELL .      2-1-4          : Well Name
 COMP .                     : Company
 FLD  .      GYDA           : Field
 UWI  .      YNOWL_2_1_4    : Unique Well Identifier (UWI)
 LOC  .                     : Location
 PDAT .      Mean Sea Level : Permanent Datum
 RWS  .      0              : Def_Rw
 WST  .      0              : Def_Rwt
 MDEC .      0              : Magnetic Declination
 SRVC .      SCH            : Contractor
~CURVE INFORMATION
#MNEM                UNIT       API CODE   Curve Type Comments
#----------    --------------- ----------  ---------- -----------
 DEPTH        .M                         : Depth       
 CAL_INCH     .inch                      :             Caliper Log - A representation of the measured diameter of a borehole along its depth
 GR_API       .API                       :             Gamma Ray (API) - Measures the intensity of natural gamma-ray radiation emitted from formations containing radioactive elements, such as K, Th and U
 RD_OHMM      .ohmm                      :             Unspecified Deep Resistivity - No accroynm or method of attainment is specified - units of ohmm
 RM_OHMM      .ohm.m                     :             Unspecified Medium Resistivity - No accroynm or method of attainment is specified
 RS_OHMM      .ohmm                      :             Unspecified Shallow Resistivity - No accroynm or method of attainment is specified
 DT_US_FT     .us/ft                     :             Interval Transit Time: Compressional Wave - Evaluates the time it takes for a compressional wave to traverse a fixed distance
 NEUT_P_RATIO .ratio                     :             Unspecified Neutron Porosity Log - No accroynm or method of attainment is specified
 RHOB_G_CC    .g/cc                      :             Bulk Density - Measures the density of bulk material, including any void space or other materials contained in the subject volume
 LITH         .                          : LITH        Lithology Curve
 LITH_Comp    .                          :             
~A  DEPTH  CAL_INCH   GR_API   RD_OHMM   RM_OHMM   RS_OHMM   DT_US_FT NEUT_P_R~ RHOB_G_C~    LITH   LITH_Com~ 
# ...
3899.7536   22.0669   36.5711    1.5672    1.4869    0.2250   88.6212    0.4452    2.4014   22.0000    8.0000 
3899.9060   22.0242   36.6779    1.5682    1.4911    0.2231   88.5479    0.4431    2.3861   22.0000    8.0000 
3900.0584   21.9814   36.7848    1.5693    1.4954    0.2212   88.4745    0.4411    2.3708   22.0000    8.0000 
3900.2108   21.8914   37.4936    1.5561    1.4763    0.2231   89.2203    0.4348    2.3150   22.0000    8.0000 
3900.3632   21.8504   38.5614    1.5500    1.4603    0.2234   89.7542    0.4317    2.3073   22.0000    8.0000 
3900.5156   21.8095   39.6292    1.5438    1.4443    0.2236   90.2881    0.4287    2.2996   22.0000    8.0000 
3900.6680   21.7945   38.7775    1.5536    1.4410    0.2226   90.8093    0.4268    2.2919   22.0000    8.0000 
3900.8204   21.7795   37.9259    1.5634    1.4376    0.2215   91.3305    0.4248    2.2843   22.0000    8.0000 
3900.9728   21.6997   36.5625    1.6056    1.4570    0.2195   91.6695    0.4383    2.2852   22.0000    8.0000 
3901.1252   21.6460   34.9179    1.6238    1.4697    0.2178   92.7945    0.4572    2.3163   22.0000    8.0000 
3901.2776   21.5924   33.2733    1.6420    1.4824    0.2160   93.9195    0.4761    2.3474   22.0000    8.0000 
3901.4300   21.5349   37.5763    1.6454    1.4880    0.2167   95.4237    0.4734    2.4184   22.0000    8.0000 
3901.5824   21.5682   38.2691    1.6609    1.4767    0.2185   95.9025    0.4588    2.4230   22.0000    8.0000 
3901.7348   21.6015   38.9619    1.6765    1.4654    0.2204   96.3814    0.4443    2.4275   22.0000    8.0000 
3901.8872   21.5835   40.0996    1.6946    1.4734    0.2223   96.7627    0.4452    2.4275   22.0000    8.0000 
3902.0396   21.5654   41.2373    1.7126    1.4815    0.2242   97.1441    0.4461    2.4275   22.0000    8.0000 
3902.1920   21.4881   40.8242    1.6979    1.5157    0.2255   95.4831    0.4416    2.3674   22.0000    8.0000 
3902.3444   21.4983   40.3221    1.6906    1.5333    0.2274   94.3941    0.4273    2.3674   22.0000    8.0000 
3902.4968   21.5085   39.8199    1.6833    1.5510    0.2294   93.3051    0.4131    2.3674   22.0000    8.0000 
3902.6492   21.5289   38.6123    1.6784    1.5671    0.2332   92.2606    0.4126    2.3847   22.0000    8.0000 
3902.8016   21.5492   37.4047    1.6735    1.5833    0.2369   91.2161    0.4121    2.4020   22.0000    8.0000 
3902.9540   21.5492   37.8242    1.6735    1.5785    0.2403   89.7881    0.4087    2.4184   22.0000    8.0000 
3903.1064   21.5072   39.1780    1.6686    1.5805    0.2395   89.6822    0.4170    2.4216   22.0000    8.0000 
3903.2588   21.4653   40.5318    1.6637    1.5824    0.2387   89.5763    0.4253    2.4247   22.0000    8.0000 
3903.4112   21.4543   40.5255    1.6637    1.5892    0.2362   89.5763    0.4421    2.4274   22.0000    8.0000 
3903.5636   21.4434   40.5191    1.6637    1.5961    0.2338   89.5763    0.4589    2.4301   22.0000    8.0000 
3903.7160   21.3941   38.4852    1.6601    1.5877    0.2289   88.9831    0.4503    2.4415   22.0000    8.0000 
3903.8684   21.3918   37.4110    1.6571    1.5760    0.2285   88.7712    0.4471    2.4493   22.0000    8.0000 
3904.0208   21.3895   36.3369    1.6540    1.5643    0.2281   88.5593    0.4440    2.4572   22.0000    8.0000 
3904.1732   21.4251   36.0127    1.6319    1.5238    0.2296   89.7987    0.4409    2.4548   22.0000    8.0000 
3904.3256   21.4607   35.6886    1.6097    1.4833    0.2312   91.0381    0.4377    2.4524   22.0000    8.0000 
3904.4780   21.5207   45.9852    1.5748    1.4647    0.2371   91.6102    0.4314    2.4455   22.0000    8.0000 
3904.6304   21.5016   44.7839    1.5547    1.4519    0.2386   93.5127    0.4351    2.3691   22.0000    8.0000 
3904.7828   21.4825   43.5826    1.5346    1.4391    0.2400   95.4153    0.4387    2.2927   22.0000    8.0000 
3904.9352   21.4983   37.7860    1.5152    1.4209    0.2411   90.7627    0.4594    2.2869   22.0000    8.0000 
3905.0876   21.4752   41.4534    1.5098    1.4158    0.2429   90.6779    0.4594    2.3172   22.0000    8.0000 
3905.2400   21.4520   45.1208    1.5044    1.4107    0.2447   90.5932    0.4594    2.3474   22.0000    8.0000 
3905.3924   21.2789   45.3306    1.5041    1.4104    0.2462   92.7119    0.4437    2.3472   22.0000    8.0000 
3905.5448   21.1058   45.5403    1.5037    1.4101    0.2477   94.8305    0.4279    2.3470   22.0000    8.0000 
3905.6972   20.8576   40.7733    1.5168    1.4238    0.2609   95.6780    0.4375    2.3470   22.0000    8.0000 
3905.8496   20.8912   40.8083    1.5234    1.4362    0.2570   95.6229    0.4434    2.3953   22.0000    8.0000 
3906.0020   20.9248   40.8432    1.5299    1.4486    0.2532   95.5678    0.4492    2.4436   22.0000    8.0000 
3906.1544   21.0540   42.0795    1.5365    1.4505    0.2510   95.3263    0.4471    2.4436   22.0000    8.0000 
3906.3068   21.1831   43.3157    1.5431    1.4524    0.2488   95.0848    0.4450    2.4436   22.0000    8.0000 
3906.4592   21.1831   45.9852    1.5349    1.4325    0.2391   91.0000    0.4460    2.3547   22.0000    8.0000 
3906.6116   20.9898   44.4979    1.5346    1.4225    0.2351   89.5381    0.4464    2.3551   22.0000    8.0000 
3906.7640   20.7966   43.0106    1.5344    1.4126    0.2311   88.0763    0.4467    2.3555   22.0000    8.0000 
3906.9164   20.7752   42.4735    1.5477    1.4104    0.2330   91.0890    0.4640    2.3743   22.0000    8.0000 
3907.0688   20.7539   41.9364    1.5611    1.4081    0.2349   94.1017    0.4813    2.3931   22.0000    8.0000 
3907.2212   20.2073   38.6123    1.6170    1.4551    0.2308   98.2373    0.4828    2.4084   22.0000    8.0000 
3907.3736   20.1867   40.9640    1.6502    1.4742    0.2301   95.3051    0.4655    2.4176   22.0000    8.0000 
3907.5260   20.1661   43.3157    1.6834    1.4933    0.2294   92.3729    0.4482    2.4267   22.0000    8.0000 
3907.6784   20.2042   46.2394    1.7031    1.5411    0.2243   85.8475    0.4330    2.4417   22.0000    8.0000 
3907.8308   20.2126   44.8633    1.7126    1.5797    0.2261   86.6017    0.4178    2.4423   22.0000    8.0000 
3907.9832   20.2210   43.4873    1.7221    1.6183    0.2279   87.3559    0.4025    2.4430   22.0000    8.0000 
3908.1356   20.2546   42.2892    1.7323    1.6403    0.2306   87.5276    0.4035    2.4411   22.0000    8.0000 
3908.2880   20.2881   41.0911    1.7426    1.6623    0.2333   87.6992    0.4045    2.4391   22.0000    8.0000 
3908.4404   20.2759   44.4598    1.7292    1.6484    0.2391   88.7966    0.4250    2.4181   22.0000    8.0000 
3908.5928   20.3710   42.6960    1.7218    1.6123    0.2424   89.6208    0.4273    2.4072   22.0000    8.0000 
3908.7452   20.4661   40.9322    1.7143    1.5763    0.2458   90.4449    0.4297    2.3963   22.0000    8.0000 
3908.8976   20.5439   38.8824    1.7020    1.5635    0.2462   91.9597    0.4402    2.3721   22.0000    8.0000 
3909.0500   20.6217   36.8326    1.6897    1.5506    0.2466   93.4746    0.4508    2.3478   22.0000    8.0000 
3909.2024   20.3156   40.3665    1.6752    1.5183    0.2488   90.5932    0.4381    2.3603   22.0000    8.0000 
3909.3548   20.2917   42.1589    1.6632    1.5252    0.2499   88.8983    0.4329    2.3762   22.0000    8.0000 
3909.5072   20.2678   43.9513    1.6511    1.5322    0.2509   87.2034    0.4276    2.3920   22.0000    8.0000 
3909.6596   20.2678   42.5371    1.6441    1.5416    0.2503   88.3708    0.4235    2.3799   22.0000    8.0000 
3909.8120   20.2678   41.1229    1.6370    1.5510    0.2497   89.5381    0.4194    2.3678   22.0000    8.0000 
3909.9644   20.4407   40.6621    1.6206    1.5375    0.2454   91.3559    0.4116    2.3792   22.0000    8.0000 
3910.1168   20.4661   39.1287    1.6068    1.5244    0.2438   89.8728    0.4051    2.3926   22.0000    8.0000 
3910.2692   20.4915   37.5953    1.5929    1.5113    0.2422   88.3898    0.3987    2.4060   22.0000    8.0000 
3910.4216   20.4915   39.2161    1.5738    1.4915    0.2405   88.3898    0.3978    2.4123   22.0000    8.0000 
3910.5740   20.4915   40.8369    1.5547    1.4716    0.2388   88.3898    0.3969    2.4186   22.0000    8.0000 
3910.7264   20.4844   39.0572    1.5150    1.4543    0.2358   91.7797    0.4350    2.4301   22.0000    8.0000 
