~VERSION INFORMATION
 VERS.                 2.0:   CWLS LOG ASCII STANDARD - VERSION 2.0
 WRAP.                  NO:   SINGLE LINE PER DEPTH STEP
 CREA.                 11/04/2018 11:51:53
#CREATED USING DSPetro VERSION 5000.10.1.3 BY H191660 ON 11/04/2018 11:51:53
~WELL INFORMATION
#MNEM.UNIT       DATA                          DESCRIPTION MNEMONIC
#---------      ---------------------------   --------------------------
 STRT    .M         3744.0008                 : START DEPTH
 STOP    .M         4525.0508                 : STOP DEPTH
 STEP    .M         0.1524                    : STEP VALUE
 NULL    .      -999.0000                     : NULL VALUE
 DATE    .      11/04/2018                    : LAS file Creation Date
 WELL .      2-1-4          : Well Name
 COMP .                     : Company
 FLD  .      GYDA           : Field
 UWI  .      YNOWL_2_1_4    : Unique Well Identifier (UWI)
 LOC  .                     : Location
 PDAT .      Mean Sea Level : Permanent Datum
 RWS  .      0              : Def_Rw
 WST  .      0              : Def_Rwt
 MDEC .      0              : Magnetic Declination
 SRVC .      SCH            : Contractor
~CURVE INFORMATION
#MNEM                UNIT       API CODE   Curve Type Comments
#----------    --------------- ----------  ---------- -----------
 DEPTH        .M                         : Depth       
 CAL_INCH     .inch                      :             Caliper Log - A representation of the measured diameter of a borehole along its depth
 GR_API       .API                       :             Gamma Ray (API) - Measures the intensity of natural gamma-ray radiation emitted from formations containing radioactive elements, such as K, Th and U
 RD_OHMM      .ohmm                      :             Unspecified Deep Resistivity - No accroynm or method of attainment is specified - units of ohmm
 RM_OHMM      .ohm.m                     :             Unspecified Medium Resistivity - No accroynm or method of attainment is specified
 RS_OHMM      .ohmm                      :             Unspecified Shallow Resistivity - No accroynm or method of attainment is specified
 DT_US_FT     .us/ft                     :             Interval Transit Time: Compressional Wave - Evaluates the time it takes for a compressional wave to traverse a fixed distance
 NEUT_P_RATIO .ratio                     :             Unspecified Neutron Porosity Log - No accroynm or method of attainment is specified
 RHOB_G_CC    .g/cc                      :             Bulk Density - Measures the density of bulk material, including any void space or other materials contained in the subject volume
 LITH         .                          : LITH        Lithology Curve
 LITH_Comp    .                          :             
~A  DEPTH  CAL_INCH   GR_API   RD_OHMM   RM_OHMM   RS_OHMM   DT_US_FT NEUT_P_R~ RHOB_G_C~    LITH   LITH_Com~ 
# ...
4044.3812    8.3594   25.9360   23.5154   30.0940   14.5667   61.2585    0.0138    2.5793   27.0000   27.0000 
4044.5336    8.3695   27.6877   25.1932   32.0112   15.9229   59.7559    0.0054    2.5869   27.0000   27.0000 
4044.6860    8.3898   30.3572   54.4890   38.5509  200.0000   57.1182    0.0008    2.6604   27.0000   27.0000 
4044.8384    8.4000   31.1129   96.0105  115.2114  200.0000   55.6184    0.0005    2.6701   27.0000   27.0000 
4044.9908    8.4102   31.8686  137.5320  191.8719  200.0000   54.1187    0.0003    2.6798   27.0000   27.0000 
4045.1432    8.4102   32.5392  164.4776  192.2085  200.0000   53.3729    0.0005    2.6833   27.0000   27.0000 
4045.2956    8.4102   33.2098  191.4232  192.5451  200.0000   52.6271    0.0006    2.6868   27.0000   27.0000 
4045.4480    8.4102   33.6064  187.7565  192.5451  200.0000   53.4627    0.0033    2.6729   27.0000   27.0000 
4045.6004    8.4102   35.8859  164.4865  162.9743  199.4634   54.2676    0.0055    2.6639   27.0000   27.0000 
4045.7528    8.4102   38.1655  141.2165  133.4035  198.9269   55.0725    0.0078    2.6550   27.0000   27.0000 
4045.9052    8.4102   46.1057  136.5868   99.8501  174.6494   56.0150    0.0103    2.6501   27.0000   27.0000 
4046.0576    8.4102   54.0458  131.9570   66.2967  150.3720   56.9576    0.0128    2.6453   27.0000   27.0000 
4046.2100    8.4102   56.0275  114.3408   52.0413  111.6794   58.1102    0.0195    2.6275   27.0000   27.0000 
4046.3624    8.4102   45.7589   85.0172   50.5078   62.3477   58.1598    0.0191    2.6463   27.0000   27.0000 
4046.5148    8.4102   35.4903   55.6936   48.9742   13.0161   58.2093    0.0186    2.6652   27.0000   27.0000 
4046.6672    8.4000   34.5407   39.5787   71.3567   15.7330   57.9921    0.0187    2.6667   27.0000   27.0000 
4046.8196    8.3898   33.5911   23.4638   93.7391   18.4498   57.7750    0.0188    2.6682   27.0000   27.0000 
4046.9720    8.3898   35.7388   19.3584   90.5356   71.2952   57.2237    0.0191    2.6568   27.0000   27.0000 
4047.1244    8.3797   36.2059   18.1950   88.2499   71.9215   58.1437    0.0219    2.6435   27.0000   27.0000 
4047.2768    8.3696   36.6731   17.0317   85.9642   72.5478   59.0636    0.0247    2.6301   27.0000   27.0000 
4047.4292    8.3492   37.8114   14.8107   73.0460   12.4271   62.0636    0.0292    2.5838   27.0000   27.0000 
4047.5816    8.3371   41.0085   13.6560   43.6769   72.0593   63.7922    0.0375    2.5455   27.0000   27.0000 
4047.7340    8.3250   44.2055   12.5014   14.3079  131.6915   65.5208    0.0459    2.5072   27.0000   27.0000 
4047.8864    8.3189   42.0127   11.5019   13.4902   69.7014   66.6477    0.0638    2.4771   27.0000   27.0000 
4048.0388    8.3128   39.8199   10.5024   12.6726    7.7113   67.7746    0.0817    2.4470   27.0000   27.0000 
4048.1912    8.2678   40.6297    9.3285   11.7851    4.1789   70.5369    0.1068    2.4477   27.0000   27.0000 
4048.3436    8.2588   40.8934    9.2207   11.7851    4.1642   70.7638    0.1075    2.4490   27.0000   27.0000 
4048.4960    8.2498   41.1572    9.1130   11.7851    4.1495   70.9907    0.1083    2.4502   27.0000   27.0000 
4048.6484    8.2385   41.0939    9.0865   11.9148    4.2210   70.5611    0.1065    2.4545   27.0000   27.0000 
4048.8008    8.2271   41.0307    9.0599   12.0445    4.2925   70.1314    0.1047    2.4588   27.0000   27.0000 
4048.9532    8.2100   40.0195    9.3285   13.2216    5.1771   69.4881    0.0999    2.4631   27.0000   27.0000 
4049.1056    8.2260   39.4160    9.7451   13.4557    5.3450   69.4474    0.0980    2.4631   27.0000   27.0000 
4049.2580    8.2420   38.8125   10.1616   13.6899    5.5130   69.4068    0.0962    2.4631   27.0000   27.0000 
4049.4104    8.2062   37.3344   10.3109   13.7447    5.5648   69.4742    0.0941    2.4616   27.0000   27.0000 
4049.5628    8.1703   35.8564   10.4601   13.7995    5.6166   69.5415    0.0920    2.4601   27.0000   27.0000 
4049.7152    8.1458   33.3369   12.4216   13.7995    5.7359   69.1449    0.0884    2.4477   27.0000   27.0000 
4049.8676    8.1534   35.1801   12.9317   13.5813    6.1673   68.5767    0.0817    2.4476   27.0000   27.0000 
4050.0200    8.1610   37.0233   13.4418   13.3630    6.5987   68.0085    0.0751    2.4475   27.0000   27.0000 
4050.1724    8.2043   36.2158   15.3825   13.5813    6.9168   67.0087    0.0679    2.4694   27.0000   27.0000 
4050.3248    8.2475   35.4083   17.3231   13.7995    7.2349   66.0089    0.0606    2.4913   27.0000   27.0000 
4050.4772    8.3085   32.9555   19.1423   26.6266    8.2083   63.8746    0.0499    2.5610   27.0000   27.0000 
4050.6296    8.3261   35.6334   26.9534   31.7342   14.3491   62.8036    0.0460    2.5734   27.0000   27.0000 
4050.7820    8.3437   38.3113   34.7644   36.8418   20.4900   61.7326    0.0422    2.5858   27.0000   27.0000 
4050.9344    8.3695   43.5610   42.2927   55.0512   24.5093   59.8678    0.0354    2.5994   27.0000   27.0000 
4051.0868    8.3695   38.7985   45.6705   58.6897   40.1436   59.2369    0.0359    2.6047   27.0000   27.0000 
4051.2392    8.3695   34.0360   49.0483   62.3282   55.7778   58.6059    0.0364    2.6100   27.0000   27.0000 
4051.3916    8.3695   34.4809   49.3367   62.3282   55.4168   59.1170    0.0367    2.5971   27.0000   27.0000 
4051.5440    8.3695   34.9259   49.6250   62.3282   55.0558   59.6280    0.0369    2.5843   27.0000   27.0000 
4051.6964    8.3695   40.7940   49.2826   60.2776   48.6846   60.5021    0.0432    2.5683   27.0000   27.0000 
4051.8488    8.3594   43.7710   46.9219   55.7442   31.8498   61.1282    0.0466    2.5584   27.0000   27.0000 
4052.0012    8.3492   46.7479   44.5612   51.2109   15.0150   61.7542    0.0501    2.5485   27.0000   27.0000 
4052.1536    8.3390   43.0620   42.7184   41.5193   13.5839   62.3440    0.0490    2.5454   27.0000   27.0000 
4052.3060    8.3288   39.3760   40.8756   31.8278   12.1528   62.9339    0.0480    2.5422   27.0000   27.0000 
4052.4584    8.3085   35.6250   38.8241   32.2020   27.1818   61.9322    0.0378    2.5432   27.0000   27.0000 
4052.6108    8.3085   35.7839   36.7824   53.8940   20.4102   61.5159    0.0360    2.5697   27.0000   27.0000 
4052.7632    8.3085   35.9428   34.7408   75.5860   13.6387   61.0996    0.0343    2.5962   27.0000   27.0000 
4052.9156    8.3085   36.1786   33.2979   75.5860    9.9541   60.1684    0.0343    2.5962   27.0000   27.0000 
4053.0680    8.3085   36.4144   31.8550   75.5860    6.2694   59.2373    0.0343    2.5962   27.0000   27.0000 
4053.2204    8.3085   36.8962   27.8247   63.1878   28.5697   59.4068    0.0348    2.5576   27.0000   27.0000 
4053.3728    8.3085   39.7563   28.0708   44.9691   38.5056   62.5424    0.0436    2.5409   27.0000   27.0000 
4053.5252    8.3085   42.6165   28.3169   26.7503   48.4416   65.6780    0.0524    2.5242   27.0000   27.0000 
4053.6776    8.3288   47.5106   40.4453   26.2452    6.0181   65.5381    0.0554    2.5199   27.0000   27.0000 
4053.8300    8.3390   46.2693   40.5638   52.9864    6.0181   64.9012    0.0397    2.5532   27.0000   27.0000 
4053.9824    8.3492   45.0280   40.6823   79.7276    6.0181   64.2644    0.0239    2.5865   27.0000   27.0000 
4054.1348    8.3492   43.7606   40.6823   86.7072    8.3298   60.1407    0.0211    2.6003   27.0000   27.0000 
4054.2872    8.3492   42.4932   40.6823   93.6869   10.6416   56.0170    0.0183    2.6141   27.0000   27.0000 
4054.4396    8.3492   35.1165   40.2096   99.8811   68.0387   56.5254    0.0177    2.6527   27.0000   27.0000 
4054.5920    8.3324   36.5332   33.5658  100.8564  122.7287   57.0584    0.0179    2.6529   27.0000   27.0000 
4054.7444    8.3157   37.9500   26.9219  101.8316  177.4188   57.5915    0.0181    2.6530   27.0000   27.0000 
4054.8968    8.2917   41.6657   25.0274  101.6536  176.3879   58.8042    0.0204    2.6207   27.0000   27.0000 
4055.0492    8.2678   45.3814   23.1329  101.4756  175.3571   60.0170    0.0226    2.5885   27.0000   27.0000 
4055.2016    8.2271   51.4319   22.9443   26.7791   11.8315   61.5348    0.0471    2.5487   27.0000   27.0000 
4055.3540    8.2271   51.0996   23.1488   25.8398   11.7141   61.6572    0.0551    2.5490   27.0000   27.0000 
