~VERSION INFORMATION
 VERS.                 2.0:   CWLS LOG ASCII STANDARD - VERSION 2.0
 WRAP.                  NO:   SINGLE LINE PER DEPTH STEP
 CREA.                 11/04/2018 11:51:53
#CREATED USING DSPetro VERSION 5000.10.1.3 BY H191660 ON 11/04/2018 11:51:53
~WELL INFORMATION
#MNEM.UNIT       DATA                          DESCRIPTION MNEMONIC
#---------      ---------------------------   --------------------------
 STRT    .M         3744.0008                 : START DEPTH
 STOP    .M         4525.0508                 : STOP DEPTH
 STEP    .M         0.1524                    : STEP VALUE
 NULL    .      -999.0000                     : NULL VALUE
 DATE    .      11/04/2018                    : LAS file Creation Date
 WELL .      2-1-4          : Well Name
 COMP .                     : Company
 FLD  .      GYDA           : Field
 UWI  .      YNOWL_2_1_4    : Unique Well Identifier (UWI)
 LOC  .                     : Location
 PDAT .      Mean Sea Level : Permanent Datum
 RWS  .      0              : Def_Rw
 WST  .      0              : Def_Rwt
 MDEC .      0              : Magnetic Declination
 SRVC .      SCH            : Contractor
~CURVE INFORMATION
#MNEM                UNIT       API CODE   Curve Type Comments
#----------    --------------- ----------  ---------- -----------
 DEPTH        .M                         : Depth       
 CAL_INCH     .inch                      :             Caliper Log - A representation of the measured diameter of a borehole along its depth
 GR_API       .API                       :             Gamma Ray (API) - Measures the intensity of natural gamma-ray radiation emitted from formations containing radioactive elements, such as K, Th and U
 RD_OHMM      .ohmm                      :             Unspecified Deep Resistivity - No accroynm or method of attainment is specified - units of ohmm
 RM_OHMM      .ohm.m                     :             Unspecified Medium Resistivity - No accroynm or method of attainment is specified
 RS_OHMM      .ohmm                      :             Unspecified Shallow Resistivity - No accroynm or method of attainment is specified
 DT_US_FT     .us/ft                     :             Interval Transit Time: Compressional Wave - Evaluates the time it takes for a compressional wave to traverse a fixed distance
 NEUT_P_RATIO .ratio                     :             Unspecified Neutron Porosity Log - No accroynm or method of attainment is specified
 RHOB_G_CC    .g/cc                      :             Bulk Density - Measures the density of bulk material, including any void space or other materials contained in the subject volume
 LITH         .                          : LITH        Lithology Curve
 LITH_Comp    .                          :             
~A  DEPTH  CAL_INCH   GR_API   RD_OHMM   RM_OHMM   RS_OHMM   DT_US_FT NEUT_P_R~ RHOB_G_C~    LITH   LITH_Com~ 
# ...
4400.3876    9.0860   78.2285    5.8340    5.3527    4.7283   64.7784    0.1898    2.6336   37.0000    8.0000 
4400.5400    9.0814   75.8581    5.9277    5.4302    4.8030   63.8636    0.1930    2.6632   37.0000    8.0000 
4400.6924    9.1091   73.9710    5.9481    5.9261    7.8953   65.2932    0.2108    2.6691   37.0000    8.0000 
4400.8448    9.1225   80.8300    5.9481    5.9545    7.6618   65.5669    0.2021    2.6356   37.0000    8.0000 
4400.9972    9.1359   87.6890    5.9481    5.9830    7.4284   65.8407    0.1933    2.6021   37.0000    8.0000 
4401.1496    9.1059   87.7799    5.9308    5.9435    5.5995   66.4839    0.1875    2.5902   37.0000    8.0000 
4401.3020    9.0758   87.8708    5.9135    5.9040    3.7706   67.1271    0.1817    2.5783   37.0000    8.0000 
4401.4544    9.2394   86.7928    5.9055    5.8029    4.0236   67.3339    0.1738    2.5566   37.0000    8.0000 
4401.6068    9.2395   86.6962    5.6491    5.6711    5.1465   67.1337    0.1717    2.5475   37.0000    8.0000 
4401.7592    9.2395   86.5996    5.3928    5.5393    6.2694   66.9335    0.1696    2.5383   37.0000    8.0000 
4401.9116    9.2434   87.1259    5.2964    5.4114    6.1717   66.9718    0.1691    2.5336   37.0000    8.0000 
4402.0640    9.2473   87.6521    5.2000    5.2834    6.0740   67.0102    0.1686    2.5289   37.0000    8.0000 
4402.2164    9.0203   87.8708    5.2000    5.1697    5.3767   66.6021    0.1691    2.5250   37.0000    8.0000 
4402.3688    9.0002   87.5022    5.2615    5.2001    5.1265   66.3010    0.1698    2.5407   37.0000    8.0000 
4402.5212    8.9802   87.1335    5.3230    5.2305    4.8763   66.0000    0.1706    2.5564   37.0000    8.0000 
4402.6736    8.9850   86.3730    5.4341    5.3718    4.9050   65.5843    0.1713    2.5602   37.0000    8.0000 
4402.8260    8.9898   85.6125    5.5453    5.5131    4.9337   65.1686    0.1719    2.5640   37.0000    8.0000 
4402.9784    9.0594   83.6123    5.6105    6.0505    8.5937   65.4983    0.1736    2.5606   37.0000    8.0000 
4403.1308    9.0500   85.4975    5.6270    6.2357    8.5490   66.0047    0.1762    2.5364   37.0000    8.0000 
4403.2832    9.0407   87.3826    5.6434    6.4208    8.5043   66.5110    0.1788    2.5123   37.0000    8.0000 
4403.4356    9.0407   95.1318    5.6434    5.7520    7.8403   67.3288    0.1846    2.5098   37.0000    8.0000 
4403.5880    9.0407   96.5542    5.5972    5.3360    7.3162   67.7598    0.1903    2.5102   37.0000    8.0000 
4403.7404    9.0407   97.9767    5.5510    4.9200    6.7922   68.1907    0.1960    2.5106   37.0000    8.0000 
4403.8928    9.0407   97.9131    5.3105    4.6419    5.8469   68.2903    0.1960    2.5115   37.0000    8.0000 
4404.0452    9.0407   97.8496    5.0699    4.3638    4.9016   68.3898    0.1960    2.5123   37.0000    8.0000 
4404.1976    9.0257   94.1053    4.7358    4.3638    4.4906   68.0958    0.1945    2.5375   37.0000    8.0000 
4404.3500    9.0128   92.3762    4.7497    4.9545    4.4658   67.8454    0.1856    2.5494   37.0000    8.0000 
4404.5024    9.0000   90.6470    4.7636    5.5453    4.4410   67.5949    0.1766    2.5614   37.0000    8.0000 
4404.6548    9.0000   83.0552    4.8776    5.5349    5.4481   65.4801    0.1709    2.5344   37.0000    8.0000 
4404.8072    9.0000   75.4634    4.9916    5.5244    6.4553   63.3653    0.1652    2.5074   37.0000    8.0000 
4404.9596    9.0000   76.8814    4.7693    5.3044    9.3069   68.8983    0.1910    2.4811   36.0000   36.0000 
4405.1120    9.0101   79.3252    4.5582    5.0527    9.3450   69.7267    0.2024    2.4535   36.0000   36.0000 
4405.2644    9.0203   81.7691    4.3470    4.8011    9.3832   70.5551    0.2138    2.4259   36.0000   36.0000 
4405.4168    9.0203   77.1432    4.0477    3.9369    5.9548   71.8072    0.2068    2.4259   36.0000   36.0000 
4405.5692    9.0203   72.5174    3.7483    3.0728    2.5264   73.0593    0.1998    2.4259   36.0000   36.0000 
4405.7216    9.0156   66.8689    3.6407    2.9340    2.3099   73.6047    0.1970    2.4644   36.0000   36.0000 
4405.8740    9.0078   65.9714    3.6332    2.8770    2.2889   73.2990    0.1965    2.4663   36.0000   36.0000 
4406.0264    9.0000   65.0739    3.6256    2.8200    2.2678   72.9932    0.1960    2.4682   36.0000   36.0000 
4406.1788    9.0000   64.9259    3.8726    3.2156    2.6925   72.2670    0.1960    2.4628   36.0000   36.0000 
4406.3312    9.0000   66.6738    3.9390    3.3619    2.7213   71.7411    0.1956    2.4655   36.0000   36.0000 
4406.4836    9.0000   68.4216    4.0055    3.5083    2.7501   71.2153    0.1953    2.4682   36.0000   36.0000 
4406.6360    9.0101   68.7394    4.0974    3.5533    2.8221   70.9770    0.1937    2.4945   36.0000    8.0000 
4406.7884    9.0203   69.0572    4.1892    3.5984    2.8941   70.7386    0.1921    2.5208   37.0000    8.0000 
4406.9408    9.0834   76.3665    4.3227    3.5984    3.9281   70.6983    0.2470    2.6504   37.0000    8.0000 
4407.0932    9.1087   77.5672    4.3179    3.5004    2.8307   71.1026    0.2623    2.6500   37.0000    8.0000 
4407.2456    9.1339   78.7678    4.3131    3.4024    1.7332   71.5068    0.2777    2.6496   37.0000    8.0000 
4407.3980    9.2065   83.9184    4.2634    3.2441    1.7552   72.0564    0.2803    2.6063   37.0000    8.0000 
4407.5504    9.2792   89.0689    4.2137    3.0857    1.7773   72.6059    0.2828    2.5631   37.0000    8.0000 
4407.7028    9.3083   91.2477    4.1098    3.0021    2.4901   73.3229    0.2912    2.5640   37.0000    8.0000 
4407.8552    9.3318   92.8799    4.0599    3.0021    2.4901   73.8224    0.2914    2.5653   37.0000    8.0000 
4408.0076    9.3553   94.5121    4.0100    3.0021    2.4901   74.3220    0.2916    2.5666   37.0000    8.0000 
4408.1600    9.3507   95.5135    4.1368    3.0834    1.6621   74.2372    0.2878    2.5840   37.0000    8.0000 
4408.3124    9.3461   96.5148    4.2635    3.1647    0.8342   74.1525    0.2840    2.6013   37.0000    8.0000 
4408.4648    9.3667   99.9470    4.4007    3.2665    0.7047   69.5864    0.2840    2.6064   37.0000    8.0000 
4408.6172    9.3268  100.5508    4.5900    3.4742    1.2032   69.4966    0.2896    2.6089   37.0000    8.0000 
4408.7696    9.2870  101.1547    4.7793    3.6819    1.7016   69.4068    0.2951    2.6114   37.0000    8.0000 
4408.9220    9.2428   99.7881    4.9180    3.7695    1.7074   71.1864    0.2975    2.6118   37.0000    8.0000 
4409.0744    9.1985   98.4216    5.0567    3.8571    1.7131   72.9661    0.2998    2.6123   37.0000    8.0000 
4409.2268    9.1508   99.7564    5.6322    4.1362    0.8646   72.9661    0.1854    2.5784   37.0000    8.0000 
4409.3792    9.1913   99.7881    5.9876    4.5810    0.8646   70.4615    0.1847    2.5788   37.0000    8.0000 
4409.5316    9.2318   99.8199    6.3431    5.0258    0.8646   67.9568    0.1839    2.5792   37.0000    8.0000 
4409.6840    9.2263   92.3212    6.5312    6.6368    7.4711   66.2945    0.1673    2.5801   37.0000    8.0000 
4409.8364    9.2764   91.6277    6.5696    6.8624   10.4229   65.3380    0.1682    2.5902   37.0000    8.0000 
4409.9888    9.3264   90.9343    6.6079    7.0880   13.3747   64.3814    0.1691    2.6003   37.0000    8.0000 
4410.1412    9.2957   91.8254    6.6467    7.1087   13.3067   64.6469    0.1718    2.6076   37.0000    8.0000 
4410.2936    9.2651   92.7165    6.6856    7.1295   13.2386   64.9123    0.1745    2.6148   37.0000    8.0000 
4410.4460    9.1565   94.7098    6.6619    7.0547   12.6998   65.3246    0.1848    2.6331   37.0000    8.0000 
4410.5984    9.1335   95.7795    6.5858    6.9869    8.8167   65.5013    0.1894    2.6405   37.0000    8.0000 
4410.7508    9.1105   96.8492    6.5096    6.9191    4.9336   65.6780    0.1940    2.6479   37.0000    8.0000 
4410.9032    9.1167   97.9214    6.4353    6.8314    5.0675   65.7848    0.1963    2.6558   37.0000    8.0000 
4411.0556    9.1229   98.9936    6.3609    6.7437    5.2013   65.8915    0.1986    2.6636   37.0000    8.0000 
4411.2080    9.1831   99.3750    6.1623    6.3999    5.2612   66.3920    0.2091    2.6628   37.0000    8.0000 
4411.3604    9.1809   98.5894    6.0059    6.2905    5.4814   66.4951    0.2111    2.6319   37.0000    8.0000 
