~VERSION INFORMATION
 VERS.                 2.0:   CWLS LOG ASCII STANDARD - VERSION 2.0
 WRAP.                  NO:   SINGLE LINE PER DEPTH STEP
 CREA.                 11/04/2018 11:51:53
#CREATED USING DSPetro VERSION 5000.10.1.3 BY H191660 ON 11/04/2018 11:51:53
~WELL INFORMATION
#MNEM.UNIT       DATA                          DESCRIPTION MNEMONIC
#---------      ---------------------------   --------------------------
 STRT    .M         3744.0008                 : START DEPTH
 STOP    .M         4525.0508                 : STOP DEPTH
 STEP    .M         0.1524                    : STEP VALUE
 NULL    .      -999.0000                     : NULL VALUE
 DATE    .      11/04/2018                    : LAS file Creation Date
 WELL .      2-1-4          : Well Name
 COMP .                     : Company
 FLD  .      GYDA           : Field
 UWI  .      YNOWL_2_1_4    : Unique Well Identifier (UWI)
 LOC  .                     : Location
 PDAT .      Mean Sea Level : Permanent Datum
 RWS  .      0              : Def_Rw
 WST  .      0              : Def_Rwt
 MDEC .      0              : Magnetic Declination
 SRVC .      SCH            : Contractor
~CURVE INFORMATION
#MNEM                UNIT       API CODE   Curve Type Comments
#----------    --------------- ----------  ---------- -----------
 DEPTH        .M                         : Depth       
 CAL_INCH     .inch                      :             Caliper Log - A representation of the measured diameter of a borehole along its depth
 GR_API       .API                       :             Gamma Ray (API) - Measures the intensity of natural gamma-ray radiation emitted from formations containing radioactive elements, such as K, Th and U
 RD_OHMM      .ohmm                      :             Unspecified Deep Resistivity - No accroynm or method of attainment is specified - units of ohmm
 RM_OHMM      .ohm.m                     :             Unspecified Medium Resistivity - No accroynm or method of attainment is specified
 RS_OHMM      .ohmm                      :             Unspecified Shallow Resistivity - No accroynm or method of attainment is specified
 DT_US_FT     .us/ft                     :             Interval Transit Time: Compressional Wave - Evaluates the time it takes for a compressional wave to traverse a fixed distance
 NEUT_P_RATIO .ratio                     :             Unspecified Neutron Porosity Log - No accroynm or method of attainment is specified
 RHOB_G_CC    .g/cc                      :             Bulk Density - Measures the density of bulk material, including any void space or other materials contained in the subject volume
 LITH         .                          : LITH        Lithology Curve
 LITH_Comp    .                          :             
~A  DEPTH  CAL_INCH   GR_API   RD_OHMM   RM_OHMM   RS_OHMM   DT_US_FT NEUT_P_R~ RHOB_G_C~    LITH   LITH_Com~ 
# ...
3944.2544   20.8129   47.0021    1.2792    1.4660    0.2594   92.1144    0.3796    2.6507   22.0000    8.0000 
3944.4068   20.7112   48.7596    1.2687    1.4502    0.2600   92.5572    0.3796    2.6405   22.0000    8.0000 
3944.5592   20.6095   50.5170    1.2582    1.4343    0.2606   93.0000    0.3796    2.6303   22.0000    8.0000 
3944.7116   20.1122   48.9089    1.2703    1.4044    0.2605   93.0424    0.3865    2.6148   22.0000    8.0000 
3944.8640   19.9841   49.6716    1.2812    1.4168    0.2600   92.4110    0.3922    2.6153   22.0000    8.0000 
3945.0164   19.8559   50.4343    1.2921    1.4293    0.2594   91.7797    0.3979    2.6157   22.0000    8.0000 
3945.1688   19.7113   51.2606    1.2994    1.4500    0.2598   90.8263    0.3981    2.6494   22.0000    8.0000 
3945.3212   19.5666   52.0869    1.3068    1.4708    0.2601   89.8729    0.3984    2.6831   22.0000    8.0000 
3945.4736   19.7776   46.5381    1.3634    1.5350    0.2646   87.4915    0.3867    2.7403   22.0000    8.0000 
3945.6260   19.9431   46.0836    1.3914    1.5660    0.2650   85.1992    0.3867    2.7403   22.0000    8.0000 
3945.7784   20.1086   45.6292    1.4194    1.5970    0.2655   82.9068    0.3867    2.7403   22.0000    8.0000 
3945.9308   20.2048   45.6038    1.3966    1.5671    0.2708   83.4746    0.4030    2.6796   22.0000    8.0000 
3946.0832   20.4193   47.4471    1.3793    1.5434    0.2713   85.6568    0.4030    2.6489   22.0000    8.0000 
3946.2356   20.6339   49.2903    1.3619    1.5197    0.2718   87.8390    0.4030    2.6182   22.0000    8.0000 
3946.3880   20.7600   48.9582    1.3526    1.4889    0.2635   88.7415    0.3947    2.5893   22.0000    8.0000 
3946.5404   20.8861   48.6261    1.3434    1.4581    0.2552   89.6441    0.3865    2.5604   22.0000    8.0000 
3946.6928   20.9405   39.6292    1.3402    1.4305    0.2175   91.4407    0.3745    2.4598   22.0000    8.0000 
3946.8452   20.9779   39.6292    1.3445    1.4406    0.2169   91.4407    0.3817    2.4594   22.0000    8.0000 
3946.9976   21.0153   39.6292    1.3489    1.4507    0.2163   91.4407    0.3888    2.4589   22.0000    8.0000 
3947.1500   21.0194   44.4279    1.3606    1.4569    0.2148   91.5212    0.4065    2.4789   22.0000    8.0000 
3947.3024   21.0234   49.2267    1.3723    1.4630    0.2133   91.6017    0.4243    2.4989   22.0000    8.0000 
3947.4548   21.1932   50.3072    1.3880    1.4587    0.2102   90.8475    0.4253    2.5691   22.0000    8.0000 
3947.6072   21.3376   48.2129    1.3880    1.4566    0.2066   90.5530    0.4195    2.5725   22.0000    8.0000 
3947.7596   21.4820   46.1186    1.3880    1.4545    0.2031   90.2585    0.4137    2.5759   22.0000    8.0000 
3947.9120   21.5629   44.6853    1.3862    1.4607    0.2016   90.0318    0.4109    2.5754   22.0000    8.0000 
3948.0644   21.6437   43.2521    1.3844    1.4669    0.2000   89.8051    0.4081    2.5750   22.0000    8.0000 
3948.2168   21.3468   42.7436    1.3800    1.4796    0.2000   90.0848    0.4055    2.5530   22.0000    8.0000 
3948.3692   21.3402   43.6890    1.3704    1.4679    0.2107   90.2542    0.4108    2.5558   22.0000    8.0000 
3948.5216   21.3336   44.6345    1.3607    1.4562    0.2215   90.4237    0.4162    2.5586   22.0000    8.0000 
3948.6740   21.3280   47.7648    1.3560    1.4386    0.2206   90.9322    0.4284    2.6140   22.0000    8.0000 
3948.8264   21.4981   45.9216    1.3506    1.4425    0.2162   91.2754    0.4280    2.6136   22.0000    8.0000 
3948.9788   21.6681   44.0784    1.3453    1.4465    0.2118   91.6186    0.4275    2.6131   22.0000    8.0000 
3949.1312   21.8499   42.3941    1.3427    1.4583    0.2110   91.7140    0.4250    2.5860   22.0000    8.0000 
3949.2836   22.0317   40.7098    1.3402    1.4701    0.2102   91.8093    0.4225    2.5589   22.0000    8.0000 
3949.4360   21.8441   40.7542    1.3379    1.4725    0.2095   93.1356    0.4198    2.5338   22.0000    8.0000 
3949.5884   21.4770   42.6070    1.3291    1.4602    0.2083   93.2013    0.4190    2.5292   22.0000    8.0000 
3949.7408   21.1098   44.4598    1.3204    1.4479    0.2071   93.2670    0.4181    2.5245   22.0000    8.0000 
3949.8932   20.9024   43.8877    1.3187    1.4303    0.2039   93.0954    0.4026    2.5234   22.0000    8.0000 
3950.0456   20.6949   43.3157    1.3169    1.4127    0.2007   92.9237    0.3871    2.5223   22.0000    8.0000 
3950.1980   19.9749   41.3199    1.3225    1.4058    0.2000   91.6737    0.4027    2.3712   22.0000    8.0000 
3950.3504   19.2976   40.7924    1.3290    1.4293    0.2000   91.1335    0.4079    2.3479   22.0000    8.0000 
3950.5028   18.6203   40.2648    1.3355    1.4528    0.2000   90.5932    0.4131    2.3247   22.0000    8.0000 
3950.6552   19.0856   39.7817    1.3418    1.4694    0.2000   90.1971    0.3885    2.3205   22.0000    8.0000 
3950.8076   19.5509   39.2987    1.3481    1.4861    0.2000   89.8009    0.3640    2.3162   22.0000    8.0000 
3950.9600   20.0848   39.2479    1.3278    1.4763    0.2000   87.3729    0.3608    2.3157   22.0000    8.0000 
3951.1124   20.1661   40.6144    1.3053    1.4601    0.2000   87.3729    0.3838    2.3235   22.0000    8.0000 
3951.2648   20.2475   41.9809    1.2828    1.4439    0.2000   87.3729    0.4068    2.3314   22.0000    8.0000 
3951.4172   20.2271   43.9195    1.2654    1.4213    0.2000   90.5424    0.4075    2.3456   22.0000    8.0000 
3951.5696   20.2068   45.8581    1.2480    1.3987    0.2000   93.7119    0.4081    2.3599   22.0000    8.0000 
3951.7220   20.2709   46.0487    1.2226    1.3391    0.2000   94.1525    0.3927    2.3920   22.0000    8.0000 
3951.8744   20.5231   45.9311    1.2250    1.3438    0.2000   93.9661    0.3925    2.4293   22.0000    8.0000 
3952.0268   20.7753   45.8136    1.2274    1.3485    0.2000   93.7797    0.3923    2.4665   22.0000    8.0000 
3952.1792   21.2598   43.0996    1.2206    1.3643    0.2000   92.1992    0.4141    2.4962   22.0000    8.0000 
3952.3316   21.3231   43.2076    1.2314    1.3762    0.2000   91.8199    0.4314    2.4966   22.0000    8.0000 
3952.4840   21.3864   43.3157    1.2422    1.3880    0.2000   91.4407    0.4487    2.4970   22.0000    8.0000 
3952.6364   21.4469   45.8263    1.2531    1.3880    0.2000   91.4449    0.4302    2.4980   22.0000    8.0000 
3952.7888   21.5075   48.3369    1.2641    1.3880    0.2000   91.4492    0.4118    2.4991   22.0000    8.0000 
3952.9412   21.4129   48.3369    1.2925    1.3880    0.2000   91.4322    0.3725    2.5036   22.0000    8.0000 
3953.0936   21.3969   46.6398    1.2911    1.3898    0.2000   91.4725    0.3732    2.5057   22.0000    8.0000 
3953.2460   21.3809   44.9428    1.2897    1.3915    0.2000   91.5127    0.3739    2.5079   22.0000    8.0000 
3953.3984   21.3542   43.9703    1.2919    1.4012    0.2000   91.2563    0.3930    2.5130   22.0000    8.0000 
3953.5508   21.3275   42.9979    1.2940    1.4109    0.2000   91.0000    0.4121    2.5181   22.0000    8.0000 
3953.7032   21.3025   42.1716    1.3092    1.4303    0.2006   90.8051    0.3811    2.5364   22.0000    8.0000 
3953.8556   21.2316   41.9174    1.3092    1.4454    0.2006   90.3390    0.3838    2.5437   22.0000    8.0000 
3954.0080   21.1607   41.6631    1.3092    1.4605    0.2006   89.8729    0.3864    2.5509   22.0000    8.0000 
3954.1604   21.1178   40.7415    1.3080    1.4576    0.2012   89.7775    0.3988    2.5609   22.0000    8.0000 
3954.3128   21.0748   39.8199    1.3068    1.4547    0.2018   89.6822    0.4111    2.5708   22.0000    8.0000 
3954.4652   20.9309   44.7235    1.3077    1.4242    0.2027   90.3898    0.4121    2.5708   22.0000    8.0000 
3954.6176   20.8942   45.7230    1.3112    1.4143    0.2028   90.7394    0.4123    2.5708   22.0000    8.0000 
3954.7700   20.8576   46.7225    1.3148    1.4044    0.2029   91.0890    0.4126    2.5708   22.0000    8.0000 
3954.9224   20.8576   48.8962    1.3120    1.4074    0.2029   91.3284    0.4155    2.5714   22.0000    8.0000 
3955.0748   20.8576   51.0699    1.3092    1.4105    0.2029   91.5678    0.4185    2.5720   22.0000    8.0000 
3955.2272   20.8307   46.9131    1.3222    1.4246    0.2029   91.3644    0.4492    2.5944   22.0000    8.0000 
