~VERSION INFORMATION
 VERS.                 2.0:   CWLS LOG ASCII STANDARD - VERSION 2.0
 WRAP.                  NO:   SINGLE LINE PER DEPTH STEP
 CREA.                 11/04/2018 11:51:53
#CREATED USING DSPetro VERSION 5000.10.1.3 BY H191660 ON 11/04/2018 11:51:53
~WELL INFORMATION
#MNEM.UNIT       DATA                          DESCRIPTION MNEMONIC
#---------      ---------------------------   --------------------------
 STRT    .M         3744.0008                 : START DEPTH
 STOP    .M         4525.0508                 : STOP DEPTH
 STEP    .M         0.1524                    : STEP VALUE
 NULL    .      -999.0000                     : NULL VALUE
 DATE    .      11/04/2018                    : LAS file Creation Date
 WELL .      2-1-4          : Well Name
 COMP .                     : Company
 FLD  .      GYDA           : Field
 UWI  .      YNOWL_2_1_4    : Unique Well Identifier (UWI)
 LOC  .                     : Location
 PDAT .      Mean Sea Level : Permanent Datum
 RWS  .      0              : Def_Rw
 WST  .      0              : Def_Rwt
 MDEC .      0              : Magnetic Declination
 SRVC .      SCH            : Contractor
~CURVE INFORMATION
#MNEM                UNIT       API CODE   Curve Type Comments
#----------    --------------- ----------  ---------- -----------
 DEPTH        .M                         : Depth       
 CAL_INCH     .inch                      :             Caliper Log - A representation of the measured diameter of a borehole along its depth
 GR_API       .API                       :             Gamma Ray (API) - Measures the intensity of natural gamma-ray radiation emitted from formations containing radioactive elements, such as K, Th and U
 RD_OHMM      .ohmm                      :             Unspecified Deep Resistivity - No accroynm or method of attainment is specified - units of ohmm
 RM_OHMM      .ohm.m                     :             Unspecified Medium Resistivity - No accroynm or method of attainment is specified
 RS_OHMM      .ohmm                      :             Unspecified Shallow Resistivity - No accroynm or method of attainment is specified
 DT_US_FT     .us/ft                     :             Interval Transit Time: Compressional Wave - Evaluates the time it takes for a compressional wave to traverse a fixed distance
 NEUT_P_RATIO .ratio                     :             Unspecified Neutron Porosity Log - No accroynm or method of attainment is specified
 RHOB_G_CC    .g/cc                      :             Bulk Density - Measures the density of bulk material, including any void space or other materials contained in the subject volume
 LITH         .                          : LITH        Lithology Curve
 LITH_Comp    .                          :             
~A  DEPTH  CAL_INCH   GR_API   RD_OHMM   RM_OHMM   RS_OHMM   DT_US_FT NEUT_P_R~ RHOB_G_C~    LITH   LITH_Com~ 
# ...
4300.2608    8.9186  105.3871    6.0093    7.0880    7.3840   66.5254    0.1464    2.5674   37.0000    8.0000 
4300.4132    8.9452  105.0823    6.0065    7.0795    7.4365   66.5254    0.1477    2.5613   37.0000    8.0000 
4300.5656    8.9718  104.7775    6.0037    7.0710    7.4890   66.5254    0.1489    2.5552   37.0000    8.0000 
4300.7180    8.9787  104.3326    5.9418    7.0467    8.6511   66.4098    0.1520    2.5470   37.0000    8.0000 
4300.8704    8.9844  104.0466    5.9104    7.0533    8.6739   66.2710    0.1524    2.5564   37.0000    8.0000 
4301.0228    8.9902  103.7606    5.8790    7.0599    8.6967   66.1322    0.1528    2.5659   37.0000    8.0000 
4301.1752    8.9520  103.5064    5.9030    7.6275    8.3214   65.4619    0.1460    2.5797   37.0000    8.0000 
4301.3276    8.9783  103.4110    6.0317    7.9504    7.7000   64.5530    0.1434    2.5893   37.0000    8.0000 
4301.4800    9.0047  103.3157    6.1604    8.2734    7.0786   63.6441    0.1408    2.5988   37.0000    8.0000 
4301.6324    9.0106  102.6801    6.3458    8.4945    8.7684   63.7289    0.1369    2.6039   37.0000   27.0000 
4301.7848    9.0166  102.0445    6.5312    8.7156   10.4581   63.8136    0.1330    2.6090   37.0000   27.0000 
4301.9372    9.0000  101.4089    6.7359    9.3832   10.8328   65.1695    0.1433    2.6174   37.0000   27.0000 
4302.0896    9.0000  103.3497    6.9556    9.3832   11.0461   65.6013    0.1493    2.6165   37.0000   27.0000 
4302.2420    9.0000  105.2905    7.1753    9.3832   11.2594   66.0331    0.1552    2.6156   37.0000   27.0000 
4302.3944    8.9998  105.9684    7.1943    9.3908   12.3367   67.1436    0.1545    2.6054   37.0000   27.0000 
4302.5468    8.9995  106.6462    7.2133    9.3984   13.4139   68.2542    0.1538    2.5951   37.0000   27.0000 
4302.6992    9.0205  109.2903    7.1712    9.0593   11.9955   68.8975    0.1482    2.5648   37.0000   27.0000 
4302.8516    9.0308  107.0022    7.1304    8.5835   11.7562   68.2182    0.1599    2.5792   37.0000   27.0000 
4303.0040    9.0411  104.7140    7.0896    8.1077   11.5169   67.5390    0.1716    2.5936   37.0000   27.0000 
4303.1564    9.0601  106.4507    6.8488    7.7911    6.8439   67.1917    0.1767    2.6068   37.0000    8.0000 
4303.3088    9.0790  108.1875    6.6079    7.4745    2.1708   66.8445    0.1818    2.6199   37.0000    8.0000 
4303.4612    8.9987  111.0699    6.6079    7.1713    1.8935   66.0170    0.1635    2.5897   37.0000    8.0000 
4303.6136    8.9342  107.5170    6.6467    7.1297    6.7709   66.1017    0.1602    2.5791   37.0000    8.0000 
4303.7660    8.8696  103.9640    6.6856    7.0880   11.6482   66.1864    0.1569    2.5685   37.0000    8.0000 
4303.9184    8.8546  101.6859    6.7404    7.0880   11.0361   66.2619    0.1535    2.5636   37.0000    8.0000 
4304.0708    8.8395   99.4077    6.7952    7.0880   10.4240   66.3373    0.1501    2.5587   37.0000    8.0000 
4304.2232    8.8780   94.8698    6.8039    7.1713    8.2511   66.2487    0.1472    2.5543   37.0000    8.0000 
4304.3756    8.8780   90.5123    6.7840    7.1504    7.9936   66.3739    0.1475    2.5522   37.0000    8.0000 
4304.5280    8.8780   86.1547    6.7642    7.1295    7.7361   66.4992    0.1477    2.5500   37.0000    8.0000 
4304.6804    8.8780  100.3920    6.4176    6.8982    7.5744   66.3013    0.1548    2.5485   37.0000    8.0000 
4304.8328    8.8780   99.1208    6.3070    6.6843    7.4109   66.1761    0.1511    2.5480   37.0000    8.0000 
4304.9852    8.8780   97.8496    6.1965    6.4704    7.2473   66.0509    0.1474    2.5475   37.0000    8.0000 
4305.1376    8.8678   96.5148    6.1965    6.4253    7.0456   65.9492    0.1468    2.5497   37.0000    8.0000 
4305.2900    8.8576   95.1801    6.1965    6.3802    6.8438   65.8475    0.1462    2.5520   37.0000    8.0000 
4305.4424    8.8883   94.7987    6.3061    6.3993    6.9045   65.9754    0.1477    2.5557   37.0000    8.0000 
4305.5948    8.8832   94.6716    6.3706    6.4741    6.9742   66.1203    0.1531    2.5567   37.0000    8.0000 
4305.7472    8.8780   94.5445    6.4351    6.5490    7.0439   66.2653    0.1586    2.5577   37.0000    8.0000 
4305.8996    8.8780   94.3538    6.4452    6.6173    7.2474   66.3352    0.1587    2.5580   37.0000    8.0000 
4306.0520    8.8780   94.1631    6.4553    6.6856    7.4510   66.4051    0.1589    2.5582   37.0000    8.0000 
4306.2044    8.8780   93.2098    6.4036    6.7248    9.3832   66.1229    0.1630    2.5564   37.0000    8.0000 
4306.3568    8.8780   92.4789    6.3488    6.6858    8.3000   66.1543    0.1674    2.5705   37.0000    8.0000 
4306.5092    8.8780   91.7479    6.2940    6.6467    7.2168   66.1856    0.1718    2.5846   37.0000    8.0000 
4306.6616    8.8794   94.4575    6.1736    6.4397    6.8931   66.5371    0.1773    2.5989   37.0000    8.0000 
4306.8140    8.8809   97.1671    6.0533    6.2328    6.5694   66.8886    0.1828    2.6133   37.0000    8.0000 
4306.9664    8.8731  106.8140    6.0181    6.2328    6.6749   67.2441    0.1752    2.6182   37.0000   27.0000 
4307.1188    8.8766  113.1086    6.0005    6.5344    6.8937   67.6557    0.1709    2.6063   37.0000   27.0000 
4307.2712    8.8800  119.4032    5.9830    6.8360    7.1124   68.0674    0.1665    2.5945   37.0000   27.0000 
4307.4236    8.8774  117.9379    5.9284    6.7492    8.1354   68.1438    0.1675    2.5933   37.0000   27.0000 
4307.5760    8.8749  116.4725    5.8739    6.6625    9.1584   68.2203    0.1686    2.5920   37.0000   27.0000 
4307.7284    8.8234  110.9161    5.5130    5.7362    8.0218   68.2203    0.1798    2.5697   37.0000   27.0000 
4307.8808    8.8704  109.6900    5.4016    5.3046    7.2731   68.2653    0.1798    2.5641   37.0000   27.0000 
4308.0332    8.9174  108.4640    5.2901    4.8729    6.5243   68.3102    0.1798    2.5585   37.0000   27.0000 
4308.1856    8.8983   98.6123    5.0794    4.5456    4.9286   68.5606    0.1803    2.5495   37.0000   27.0000 
4308.3380    8.8885  100.6843    4.9641    4.5194    4.5344   68.7269    0.1806    2.5455   37.0000   27.0000 
4308.4904    8.8786  102.7564    4.8487    4.4932    4.1402   68.8932    0.1808    2.5416   37.0000   27.0000 
4308.6428    8.8681  105.2606    4.7922    4.4932    4.1645   68.9805    0.1861    2.5364   37.0000   27.0000 
4308.7952    8.8576  107.7648    4.7358    4.4932    4.1889   69.0678    0.1915    2.5312   37.0000    8.0000 
4308.9476    8.8438  103.5788    4.5195    4.4932    5.3856   69.0678    0.1860    2.5158   37.0000    8.0000 
4309.1000    8.8515  101.7143    4.4673    4.4692    5.3699   69.1456    0.1834    2.5089   37.0000    8.0000 
4309.2524    8.8593   99.8498    4.4151    4.4453    5.3542   69.2233    0.1808    2.5020   37.0000    8.0000 
4309.4048    8.8584   98.1595    4.3641    4.3075    4.9836   69.1968    0.1754    2.4974   37.0000    8.0000 
4309.5572    8.8576   96.4691    4.3131    4.1696    4.6129   69.1703    0.1701    2.4928   37.0000    8.0000 
4309.7096    8.8754   88.4428    4.2630    3.8882    3.8646   69.0678    0.1715    2.4856   37.0000    8.0000 
4309.8620    8.8767   88.8559    4.2296    3.8361    3.7754   69.0381    0.1769    2.4850   37.0000    8.0000 
4310.0144    8.8780   89.2691    4.1962    3.7839    3.6862   69.0085    0.1823    2.4843   37.0000    8.0000 
4310.1668    8.8864   91.6181    4.1925    3.7773    3.8031   69.0235    0.1772    2.5176   37.0000    8.0000 
4310.3192    8.8948   93.9672    4.1889    3.7706    3.9199   69.0386    0.1720    2.5509   37.0000    8.0000 
4310.4716    8.8656  108.3013    4.2485    4.2038    4.1700   69.5619    0.1689    2.5768   37.0000    8.0000 
4310.6240    8.8833  112.0573    4.3408    4.3577    5.6917   69.8049    0.1648    2.5963   37.0000    8.0000 
4310.7764    8.9010  115.8133    4.4332    4.5116    7.2133   70.0479    0.1606    2.6157   37.0000   27.0000 
4310.9288    8.9382  118.4428    4.6820    4.9348    7.2133   69.4441    0.1594    2.5826   37.0000   27.0000 
4311.0812    8.9006  117.3019    5.3668    5.3808    5.2549   69.0060    0.1601    2.5710   37.0000   27.0000 
4311.2336    8.8630  116.1610    6.0517    5.8269    3.2964   68.5678    0.1609    2.5594   37.0000   27.0000 
