~VERSION INFORMATION
 VERS.                 2.0:   CWLS LOG ASCII STANDARD - VERSION 2.0
 WRAP.                  NO:   SINGLE LINE PER DEPTH STEP
 CREA.                 11/04/2018 11:51:53
#CREATED USING DSPetro VERSION 5000.10.1.3 BY H191660 ON 11/04/2018 11:51:53
~WELL INFORMATION
#MNEM.UNIT       DATA                          DESCRIPTION MNEMONIC
#---------      ---------------------------   --------------------------
 STRT    .M         3744.0008                 : START DEPTH
 STOP    .M         4525.0508                 : STOP DEPTH
 STEP    .M         0.1524                    : STEP VALUE
 NULL    .      -999.0000                     : NULL VALUE
 DATE    .      11/04/2018                    : LAS file Creation Date
 WELL .      2-1-4          : Well Name
 COMP .                     : Company
 FLD  .      GYDA           : Field
 UWI  .      YNOWL_2_1_4    : Unique Well Identifier (UWI)
 LOC  .                     : Location
 PDAT .      Mean Sea Level : Permanent Datum
 RWS  .      0              : Def_Rw
 WST  .      0              : Def_Rwt
 MDEC .      0              : Magnetic Declination
 SRVC .      SCH            : Contractor
~CURVE INFORMATION
#MNEM                UNIT       API CODE   Curve Type Comments
#----------    --------------- ----------  ---------- -----------
 DEPTH        .M                         : Depth       
 CAL_INCH     .inch                      :             Caliper Log - A representation of the measured diameter of a borehole along its depth
 GR_API       .API                       :             Gamma Ray (API) - Measures the intensity of natural gamma-ray radiation emitted from formations containing radioactive elements, such as K, Th and U
 RD_OHMM      .ohmm                      :             Unspecified Deep Resistivity - No accroynm or method of attainment is specified - units of ohmm
 RM_OHMM      .ohm.m                     :             Unspecified Medium Resistivity - No accroynm or method of attainment is specified
 RS_OHMM      .ohmm                      :             Unspecified Shallow Resistivity - No accroynm or method of attainment is specified
 DT_US_FT     .us/ft                     :             Interval Transit Time: Compressional Wave - Evaluates the time it takes for a compressional wave to traverse a fixed distance
 NEUT_P_RATIO .ratio                     :             Unspecified Neutron Porosity Log - No accroynm or method of attainment is specified
 RHOB_G_CC    .g/cc                      :             Bulk Density - Measures the density of bulk material, including any void space or other materials contained in the subject volume
 LITH         .                          : LITH        Lithology Curve
 LITH_Comp    .                          :             
~A  DEPTH  CAL_INCH   GR_API   RD_OHMM   RM_OHMM   RS_OHMM   DT_US_FT NEUT_P_R~ RHOB_G_C~    LITH   LITH_Com~ 
# ...
4100.0072    8.1458   43.9513    2.7784    5.0282    4.0682   73.6864    0.1162    2.4453   27.0000   27.0000 
4100.1596    8.1458   45.4767    2.7664    5.0393    4.0596   73.7500    0.1196    2.4453   27.0000   27.0000 
4100.3120    8.1458   47.0021    2.7545    5.0503    4.0510   73.8136    0.1230    2.4453   27.0000   27.0000 
4100.4644    8.1499   43.4479    2.6770    4.9390    3.9049   73.9178    0.1267    2.4462   27.0000   27.0000 
4100.6168    8.1580   42.3013    2.6377    4.8742    3.8005   74.2934    0.1278    2.4509   27.0000   27.0000 
4100.7692    8.1661   41.1547    2.5983    4.8094    3.6960   74.6691    0.1289    2.4555   27.0000   27.0000 
4100.9216    8.1527   41.4089    2.5369    4.6805    3.5975   75.0583    0.1320    2.4538   27.0000   27.0000 
4101.0740    8.1393   41.6631    2.4755    4.5516    3.4990   75.4475    0.1351    2.4521   27.0000   27.0000 
4101.2264    8.0921   42.9343    2.3860    4.3594    3.2430   76.3411    0.1402    2.4221   27.0000   27.0000 
4101.3788    8.0963   41.8221    2.3151    4.2794    3.1079   76.7363    0.1414    2.4174   27.0000   27.0000 
4101.5312    8.1004   40.7098    2.2442    4.1995    2.9728   77.1314    0.1426    2.4128   27.0000   27.0000 
4101.6836    8.0524   42.2657    2.1200    4.0085    2.8038   78.0822    0.1483    2.3983   27.0000   27.0000 
4101.8360    8.0380   43.8712    2.0794    3.9310    2.7126   78.4174    0.1501    2.3942   27.0000   27.0000 
4101.9884    8.0237   45.4767    2.0389    3.8535    2.6213   78.7525    0.1519    2.3900   27.0000   27.0000 
4102.1408    8.0293   44.0175    2.0065    3.8000    2.5838   79.0493    0.1528    2.3871   27.0000   27.0000 
4102.2932    8.0349   42.5584    1.9742    3.7466    2.5463   79.3462    0.1536    2.3842   27.0000   27.0000 
4102.4456    7.9820   41.8157    1.8909    3.5753    2.4461   80.5975    0.1575    2.3749   27.0000   27.0000 
4102.5980    7.9520   39.9598    1.8615    3.5198    2.4322   80.6801    0.1592    2.3716   27.0000   27.0000 
4102.7504    7.9219   38.1038    1.8321    3.4642    2.4183   80.7627    0.1609    2.3682   27.0000   27.0000 
4102.9028    7.8918   40.4638    1.8087    3.4198    2.4046   80.9288    0.1614    2.3670   27.0000   27.0000 
4103.0552    7.8618   42.8237    1.7852    3.3755    2.3908   81.0949    0.1619    2.3657   27.0000   27.0000 
4103.2076    7.8203   47.5106    1.7194    3.2511    2.3226   80.9322    0.1625    2.3657   27.0000   27.0000 
4103.3600    7.8203   45.7882    1.6974    3.2357    2.3215   80.9322    0.1619    2.3657   27.0000   27.0000 
4103.5124    7.8203   44.0657    1.6754    3.2202    2.3205   80.9322    0.1614    2.3657   27.0000   27.0000 
4103.6648    7.7617   43.4992    1.6540    3.2297    2.3210   80.9322    0.1606    2.3649   27.0000   27.0000 
4103.8172    7.7031   42.9327    1.6326    3.2391    2.3214   80.9322    0.1598    2.3641   27.0000   27.0000 
4103.9696    7.7571   41.0345    1.5744    3.2056    2.3214   80.7814    0.1613    2.3586   27.0000   27.0000 
4104.1220    7.7674   39.6963    1.5517    3.1624    2.3140   80.9191    0.1636    2.3577   27.0000   27.0000 
4104.2744    7.7776   38.3581    1.5289    3.1191    2.3066   81.0568    0.1659    2.3569   27.0000   27.0000 
4104.4268    7.7046   42.1716    1.4770    3.0280    2.2811   81.5576    0.1740    2.3542   27.0000   27.0000 
4104.5792    7.6946   42.0127    1.4464    2.9694    2.2573   81.7261    0.1754    2.3531   27.0000   27.0000 
4104.7316    7.6845   41.8538    1.4159    2.9109    2.2336   81.8945    0.1768    2.3521   27.0000   27.0000 
4104.8840    7.6914   41.1229    1.3923    2.8680    2.2116   81.6337    0.1819    2.3530   27.0000   27.0000 
4105.0364    7.6983   40.3920    1.3687    2.8251    2.1896   81.3729    0.1869    2.3538   27.0000   27.0000 
4105.1888    7.7277   43.4902    1.3260    2.7618    2.2320   81.0547    0.1774    2.3509   27.0000   27.0000 
4105.3412    7.7130   44.3354    1.3090    2.7499    2.2467   81.0574    0.1750    2.3471   27.0000   27.0000 
4105.4936    7.6983   45.1805    1.2921    2.7380    2.2613   81.0602    0.1725    2.3434   27.0000   27.0000 
4105.6460    7.6912   46.3456    1.2764    2.7244    2.2255   81.3490    0.1702    2.3415   27.0000   27.0000 
4105.7984    7.6841   47.5106    1.2607    2.7108    2.1896   81.6377    0.1680    2.3397   27.0000   27.0000 
4105.9508    7.6373   45.9852    1.2443    2.6644    2.1806   82.2881    0.1696    2.3371   27.0000   27.0000 
4106.1032    7.6430   45.6435    1.2360    2.6493    2.1614   82.5583    0.1711    2.3391   27.0000   27.0000 
4106.2556    7.6487   45.3019    1.2277    2.6342    2.1423   82.8284    0.1727    2.3412   27.0000   27.0000 
4106.4080    7.6803   45.7491    1.2277    2.6116    2.1262   82.7845    0.1737    2.3447   27.0000   27.0000 
4106.5604    7.7118   46.1962    1.2277    2.5891    2.1101   82.7407    0.1748    2.3482   27.0000   27.0000 
4106.7128    7.6983   48.0235    1.2349    2.5984    2.1426   82.5059    0.1742    2.3538   27.0000   27.0000 
4106.8652    7.6983   46.5594    1.2394    2.6163    2.1613   82.6512    0.1750    2.3528   27.0000   27.0000 
4107.0176    7.6983   45.0953    1.2439    2.6341    2.1800   82.7966    0.1758    2.3517   27.0000   27.0000 
4107.1700    7.6983   44.0165    1.2463    2.6448    2.2042   82.8979    0.1811    2.3496   27.0000   27.0000 
4107.3224    7.6983   42.9378    1.2487    2.6554    2.2284   82.9992    0.1864    2.3476   27.0000   27.0000 
4107.4748    7.6983   48.0826    1.2339    2.6554    2.1988   83.4025    0.1792    2.3434   27.0000   27.0000 
4107.6272    7.6983   47.0975    1.2267    2.6469    2.1742   83.5367    0.1781    2.3419   27.0000   27.0000 
4107.7796    7.6983   46.1123    1.2195    2.6383    2.1496   83.6708    0.1771    2.3404   27.0000   27.0000 
4107.9320    7.6768   45.9973    1.1847    2.5852    2.0819   84.1525    0.1752    2.3433   27.0000   27.0000 
4108.0844    7.6891   48.3429    1.1713    2.5522    2.0555   84.2392    0.1752    2.3439   27.0000   27.0000 
4108.2368    7.7015   50.6886    1.1579    2.5191    2.0291   84.3259    0.1752    2.3445   27.0000   27.0000 
4108.3892    7.8296   46.9564    1.1447    2.4906    2.0030   84.7015    0.1789    2.3431   27.0000   27.0000 
4108.5416    7.9577   43.2242    1.1315    2.4621    1.9769   85.0771    0.1827    2.3416   27.0000   27.0000 
4108.6940    7.7405   38.3581    1.1184    2.4189    1.9380   84.6864    0.1873    2.3394   27.0000   27.0000 
4108.8464    7.7397   42.0210    1.1104    2.4085    1.9418   84.5517    0.1851    2.3425   27.0000   27.0000 
4108.9988    7.7390   45.6839    1.1023    2.3981    1.9455   84.4170    0.1829    2.3455   27.0000   27.0000 
4109.1512    7.7390   46.6158    1.0976    2.4006    1.9636   83.8252    0.1802    2.3482   27.0000   27.0000 
4109.3036    7.7390   47.5478    1.0928    2.4031    1.9816   83.2335    0.1774    2.3510   27.0000   27.0000 
4109.4560    7.7957   48.1564    1.0809    2.3932    1.9988   82.4932    0.1730    2.3624   27.0000   27.0000 
4109.6084    7.7726   48.7542    1.0744    2.3787    2.0389   82.5386    0.1682    2.3660   27.0000   27.0000 
4109.7608    7.7494   49.3519    1.0679    2.3642    2.0789   82.5839    0.1635    2.3695   27.0000   27.0000 
4109.9132    7.7646   51.2564    1.0602    2.3449    2.0736   82.8344    0.1678    2.3688   27.0000   27.0000 
4110.0656    7.7797   53.1610    1.0525    2.3255    2.0683   83.0848    0.1720    2.3682   27.0000   27.0000 
4110.2180    7.7628   54.4007    1.0435    2.2968    2.0059   83.5856    0.1786    2.3651   27.0000   27.0000 
4110.3704    7.7650   52.5103    1.0399    2.2849    1.9930   83.7843    0.1810    2.3619   27.0000   27.0000 
4110.5228    7.7673   50.6199    1.0363    2.2730    1.9801   83.9831    0.1834    2.3588   27.0000   27.0000 
4110.6752    7.7231   49.8803    1.0411    2.2753    1.9481   84.1157    0.1909    2.3540   27.0000   27.0000 
4110.8276    7.7315   49.3260    1.0557    2.3174    1.9353   83.5596    0.1896    2.3599   27.0000   27.0000 
4110.9800    7.7398   48.7716    1.0703    2.3595    1.9225   83.0034    0.1884    2.3658   27.0000   27.0000 
