~VERSION INFORMATION
 VERS.                 2.0:   CWLS LOG ASCII STANDARD - VERSION 2.0
 WRAP.                  NO:   SINGLE LINE PER DEPTH STEP
 CREA.                 11/04/2018 11:51:53
#CREATED USING DSPetro VERSION 5000.10.1.3 BY H191660 ON 11/04/2018 11:51:53
~WELL INFORMATION
#MNEM.UNIT       DATA                          DESCRIPTION MNEMONIC
#---------      ---------------------------   --------------------------
 STRT    .M         3744.0008                 : START DEPTH
 STOP    .M         4525.0508                 : STOP DEPTH
 STEP    .M         0.1524                    : STEP VALUE
 NULL    .      -999.0000                     : NULL VALUE
 DATE    .      11/04/2018                    : LAS file Creation Date
 WELL .      2-1-4          : Well Name
 COMP .                     : Company
 FLD  .      GYDA           : Field
 UWI  .      YNOWL_2_1_4    : Unique Well Identifier (UWI)
 LOC  .                     : Location
 PDAT .      Mean Sea Level : Permanent Datum
 RWS  .      0              : Def_Rw
 WST  .      0              : Def_Rwt
 MDEC .      0              : Magnetic Declination
 SRVC .      SCH            : Contractor
~CURVE INFORMATION
#MNEM                UNIT       API CODE   Curve Type Comments
#----------    --------------- ----------  ---------- -----------
 DEPTH        .M                         : Depth       
 CAL_INCH     .inch                      :             Caliper Log - A representation of the measured diameter of a borehole along its depth
 GR_API       .API                       :             Gamma Ray (API) - Measures the intensity of natural gamma-ray radiation emitted from formations containing radioactive elements, such as K, Th and U
 RD_OHMM      .ohmm                      :             Unspecified Deep Resistivity - No accroynm or method of attainment is specified - units of ohmm
 RM_OHMM      .ohm.m                     :             Unspecified Medium Resistivity - No accroynm or method of attainment is specified
 RS_OHMM      .ohmm                      :             Unspecified Shallow Resistivity - No accroynm or method of attainment is specified
 DT_US_FT     .us/ft                     :             Interval Transit Time: Compressional Wave - Evaluates the time it takes for a compressional wave to traverse a fixed distance
 NEUT_P_RATIO .ratio                     :             Unspecified Neutron Porosity Log - No accroynm or method of attainment is specified
 RHOB_G_CC    .g/cc                      :             Bulk Density - Measures the density of bulk material, including any void space or other materials contained in the subject volume
 LITH         .                          : LITH        Lithology Curve
 LITH_Comp    .                          :             
~A  DEPTH  CAL_INCH   GR_API   RD_OHMM   RM_OHMM   RS_OHMM   DT_US_FT NEUT_P_R~ RHOB_G_C~    LITH   LITH_Com~ 
# ...
4200.1340   10.1466   84.3750    3.7486    4.1032    4.9103   78.1015    0.2111    2.6470   37.0000    8.0000 
4200.2864   10.1390   87.9343    3.7486    3.8296    3.1544   78.7881    0.2103    2.6483   37.0000    8.0000 
4200.4388   10.1431   90.8612    3.6620    3.2695    3.0901   80.6949    0.2085    2.6540   37.0000    8.0000 
4200.5912   10.1718   92.8681    3.5345    3.2449    3.6031   80.6695    0.2062    2.6560   37.0000    8.0000 
4200.7436   10.2005   94.8750    3.4070    3.2202    4.1161   80.6441    0.2040    2.6581   37.0000    8.0000 
4200.8960   10.2384   96.1080    3.1845    3.2776    4.1525   80.5593    0.2041    2.6610   37.0000    8.0000 
4201.0484   10.2763   97.3411    2.9620    3.3351    4.1889   80.4746    0.2043    2.6640   37.0000    8.0000 
4201.2008   10.2483   93.5275    2.8402    3.2868    3.4191   80.7627    0.2245    2.6500   37.0000    8.0000 
4201.3532   10.2170   93.2081    2.8310    3.3424    3.3850   80.8305    0.2243    2.6485   37.0000    8.0000 
4201.5056   10.1858   92.8888    2.8218    3.3981    3.3508   80.8983    0.2240    2.6470   37.0000    8.0000 
4201.6580   10.1276   91.6954    2.8763    3.4893    3.2053   79.7394    0.2092    2.6470   37.0000    8.0000 
4201.8104   10.0693   90.5021    2.9309    3.5806    3.0598   78.5805    0.1943    2.6470   37.0000    8.0000 
4201.9628   10.0190   86.0021    3.0410    3.7356    2.8650   76.9831    0.1814    2.6470   37.0000    8.0000 
4202.1152   10.0276   84.5529    3.0944    3.9019    4.3050   75.9662    0.1778    2.6474   37.0000    8.0000 
4202.2676   10.0363   83.1038    3.1479    4.0682    5.7449   74.9492    0.1742    2.6479   37.0000    8.0000 
4202.4200   10.0164   81.6975    3.2030    4.0563    5.8120   74.3814    0.1750    2.6490   37.0000    8.0000 
4202.5724    9.9966   80.2913    3.2581    4.0445    5.8790   73.8136    0.1757    2.6500   37.0000    8.0000 
4202.7248   10.0159   73.9513    3.3055    3.8970    5.6467   74.6441    0.1807    2.6648   37.0000    8.0000 
4202.8772   10.0362   77.3056    3.2564    3.7941    5.1804   75.3856    0.1815    2.6683   37.0000    8.0000 
4203.0296   10.0566   80.6600    3.2072    3.6912    4.7141   76.1271    0.1823    2.6718   37.0000    8.0000 
4203.1820   10.0663   85.9004    3.1044    3.5130    4.5872   77.3220    0.1831    2.6484   37.0000    8.0000 
4203.3344   10.0722   84.3257    3.0647    3.4476    4.5271   77.5170    0.1843    2.6459   37.0000    8.0000 
4203.4868   10.0780   82.7511    3.0250    3.3823    4.4670   77.7119    0.1855    2.6433   37.0000    8.0000 
4203.6392   10.0360   81.1478    2.9693    3.3494    4.4670   78.0508    0.1872    2.6354   37.0000    8.0000 
4203.7916    9.9941   79.5445    2.9136    3.3165    4.4670   78.3898    0.1890    2.6275   37.0000    8.0000 
4203.9440    9.8695   82.6875    2.8961    2.8344    4.2606   78.5339    0.1908    2.6393   37.0000    8.0000 
4204.0964    9.8924   83.3279    2.9086    2.8329    3.9862   78.5784    0.1885    2.6411   37.0000    8.0000 
4204.2488    9.9153   83.9682    2.9212    2.8314    3.7118   78.6229    0.1862    2.6428   37.0000    8.0000 
4204.4012    9.9316   84.8072    2.9339    2.8616    2.2251   78.2691    0.1818    2.6403   37.0000    8.0000 
4204.5536    9.9478   85.6462    2.9465    2.8919    0.7384   77.9153    0.1775    2.6377   37.0000    8.0000 
4204.7060   10.0058   84.6992    2.9720    2.9643    4.8196   77.2161    0.1736    2.6334   37.0000    8.0000 
4204.8584    9.9453   84.1002    2.9848    2.9964    4.7778   76.7860    0.1742    2.6321   37.0000    8.0000 
4205.0108    9.8848   83.5011    2.9977    3.0286    4.7359   76.3559    0.1747    2.6309   37.0000    8.0000 
4205.1632    9.8538   82.0313    3.0236    3.0660    4.2007   76.0826    0.1790    2.6317   37.0000    8.0000 
4205.3156    9.8227   80.5614    3.0495    3.1034    3.6654   75.8093    0.1833    2.6325   37.0000    8.0000 
4205.4680    9.7973   74.7140    3.0911    3.1847    3.3845   75.9153    0.1833    2.6381   37.0000    8.0000 
4205.6204    9.7917   78.3623    3.0790    3.2255    4.4327   76.2500    0.1830    2.6394   37.0000    8.0000 
4205.7728    9.7861   82.0106    3.0669    3.2662    5.4808   76.5848    0.1826    2.6407   37.0000    8.0000 
4205.9252    9.7261   85.4190    3.0374    3.3431    4.8625   77.3051    0.1726    2.6450   37.0000    8.0000 
4206.0776    9.7228   89.4733    3.0385    3.3294    4.3112   77.0742    0.1728    2.6465   37.0000    8.0000 
4206.2300    9.7195   93.5275    3.0396    3.3157    3.7598   76.8432    0.1731    2.6479   37.0000    8.0000 
4206.3824    9.7340   90.4767    3.0528    3.3274    3.7109   76.6674    0.1736    2.6479   37.0000    8.0000 
4206.5348    9.7485   87.4259    3.0660    3.3391    3.6620   76.4915    0.1742    2.6479   37.0000    8.0000 
4206.6872    9.7978   81.0699    3.0539    3.6439    6.2694   75.4153    0.1854    2.6443   37.0000    8.0000 
4206.8396    9.8372   83.8936    3.0505    3.6403    6.2694   75.9323    0.1922    2.6429   37.0000    8.0000 
4206.9920    9.8766   86.7172    3.0472    3.6367    6.2694   76.4492    0.1991    2.6415   37.0000    8.0000 
4207.1444    9.8753   88.9211    3.0512    3.5519    6.0563   76.6547    0.1946    2.6392   37.0000    8.0000 
4207.2968    9.8741   91.1250    3.0552    3.4671    5.8431   76.8602    0.1902    2.6369   37.0000    8.0000 
4207.4492    9.8034   92.2564    3.0463    3.2204    4.1647   76.2712    0.1808    2.6394   37.0000    8.0000 
4207.6016    9.7483   89.3517    3.0247    3.2768    3.7306   75.8941    0.1752    2.6410   37.0000    8.0000 
4207.7540    9.6931   86.4470    3.0030    3.3332    3.2964   75.5170    0.1696    2.6427   37.0000    8.0000 
4207.9064    9.6923   86.3008    2.9938    3.3872    4.3727   75.3051    0.1789    2.6421   37.0000    8.0000 
4208.0588    9.6915   86.1547    2.9846    3.4412    5.4489   75.0932    0.1883    2.6416   37.0000    8.0000 
4208.2112    9.6539   86.6759    2.9846    3.5504    5.2093   75.3136    0.1996    2.6388   37.0000    8.0000 
4208.3636    9.6666   87.4386    3.0093    3.5145    5.1211   75.6823    0.1996    2.6380   37.0000    8.0000 
4208.5160    9.6793   88.2013    3.0339    3.4785    5.0329   76.0509    0.1996    2.6372   37.0000    8.0000 
4208.6684    9.6854   91.1822    3.0524    3.4562    4.9851   76.2776    0.1950    2.6379   37.0000    8.0000 
4208.8208    9.6915   94.1631    3.0709    3.4340    4.9372   76.5042    0.1904    2.6385   37.0000    8.0000 
4208.9732    9.6844   93.1653    3.1029    3.4683    4.8478   75.8390    0.1904    2.6425   37.0000    8.0000 
4209.1256    9.6442   89.9110    3.0896    3.5020    5.1269   75.6038    0.1904    2.6444   37.0000    8.0000 
4209.2780    9.6041   86.6568    3.0763    3.5358    5.4061   75.3686    0.1904    2.6464   37.0000    8.0000 
4209.4304    9.6102   79.7352    3.1257    3.5774    5.3480   74.8814    0.2031    2.6501   37.0000    8.0000 
4209.5828    9.6102   79.3856    3.1594    3.5774    5.2657   74.8093    0.2005    2.6510   37.0000    8.0000 
4209.7352    9.6102   79.0360    3.1931    3.5774    5.1834   74.7373    0.1978    2.6519   37.0000    8.0000 
4209.8876    9.6102   78.7500    3.2304    3.6575    5.0586   74.7839    0.1800    2.6484   37.0000    8.0000 
4210.0400    9.6102   78.4640    3.2676    3.7377    4.9338   74.8305    0.1622    2.6449   37.0000    8.0000 
4210.1924    9.6102   76.7225    3.3529    3.9615    4.6836   69.2373    0.1381    2.6424   37.0000    8.0000 
4210.3448    9.6102   72.1812    3.3755    4.1500    6.3020   69.2712    0.1463    2.6398   36.0000    8.0000 
4210.4972    9.6102   67.6398    3.3981    4.3384    7.9204   69.3051    0.1545    2.6372   36.0000    8.0000 
4210.6496    9.6102   67.1091    3.3794    4.2509    7.8664   70.3221    0.1583    2.6365   36.0000    8.0000 
4210.8020    9.6102   66.5784    3.3608    4.1634    7.8124   71.3390    0.1622    2.6357   37.0000    8.0000 
4210.9544    9.5756   75.8581    3.3547    3.5235    5.9024   75.5593    0.1726    2.6349   37.0000    8.0000 
4211.1068    9.5802   77.3835    3.3609    3.4588    5.2375   75.7034    0.1625    2.6342   37.0000    8.0000 
