~VERSION INFORMATION
 VERS.                 2.0:   CWLS LOG ASCII STANDARD - VERSION 2.0
 WRAP.                  NO:   SINGLE LINE PER DEPTH STEP
 CREA.                 11/04/2018 11:51:53
#CREATED USING DSPetro VERSION 5000.10.1.3 BY H191660 ON 11/04/2018 11:51:53
~WELL INFORMATION
#MNEM.UNIT       DATA                          DESCRIPTION MNEMONIC
#---------      ---------------------------   --------------------------
 STRT    .M         3744.0008                 : START DEPTH
 STOP    .M         4525.0508                 : STOP DEPTH
 STEP    .M         0.1524                    : STEP VALUE
 NULL    .      -999.0000                     : NULL VALUE
 DATE    .      11/04/2018                    : LAS file Creation Date
 WELL .      2-1-4          : Well Name
 COMP .                     : Company
 FLD  .      GYDA           : Field
 UWI  .      YNOWL_2_1_4    : Unique Well Identifier (UWI)
 LOC  .                     : Location
 PDAT .      Mean Sea Level : Permanent Datum
 RWS  .      0              : Def_Rw
 WST  .      0              : Def_Rwt
 MDEC .      0              : Magnetic Declination
 SRVC .      SCH            : Contractor
~CURVE INFORMATION
#MNEM                UNIT       API CODE   Curve Type Comments
#----------    --------------- ----------  ---------- -----------
 DEPTH        .M                         : Depth       
 CAL_INCH     .inch                      :             Caliper Log - A representation of the measured diameter of a borehole along its depth
 GR_API       .API                       :             Gamma Ray (API) - Measures the intensity of natural gamma-ray radiation emitted from formations containing radioactive elements, such as K, Th and U
 RD_OHMM      .ohmm                      :             Unspecified Deep Resistivity - No accroynm or method of attainment is specified - units of ohmm
 RM_OHMM      .ohm.m                     :             Unspecified Medium Resistivity - No accroynm or method of attainment is specified
 RS_OHMM      .ohmm                      :             Unspecified Shallow Resistivity - No accroynm or method of attainment is specified
 DT_US_FT     .us/ft                     :             Interval Transit Time: Compressional Wave - Evaluates the time it takes for a compressional wave to traverse a fixed distance
 NEUT_P_RATIO .ratio                     :             Unspecified Neutron Porosity Log - No accroynm or method of attainment is specified
 RHOB_G_CC    .g/cc                      :             Bulk Density - Measures the density of bulk material, including any void space or other materials contained in the subject volume
 LITH         .                          : LITH        Lithology Curve
 LITH_Comp    .                          :             
~A  DEPTH  CAL_INCH   GR_API   RD_OHMM   RM_OHMM   RS_OHMM   DT_US_FT NEUT_P_R~ RHOB_G_C~    LITH   LITH_Com~ 
# ...
3844.1276   17.9110   37.7362    1.2651    1.2078 -999.0000   88.7191    0.4230    2.4742   22.0000    8.0000 
3844.2800   17.9194   36.3515    1.3682    1.3424 -999.0000   88.2992    0.4210    2.4767   22.0000    8.0000 
3844.4324   18.0455   36.9267    1.5374    1.4459 -999.0000   88.3898    0.3857    2.5208   22.0000    8.0000 
3844.5848   18.0905   38.6593    1.5475    1.4618 -999.0000   88.3898    0.3855    2.5212   22.0000    8.0000 
3844.7372   18.1356   40.3920    1.5576    1.4778 -999.0000   88.3898    0.3852    2.5216   22.0000    8.0000 
3844.8896   18.1441   40.2013    1.5580    1.4739 -999.0000   86.9153    0.3923    2.4941   22.0000    8.0000 
3845.0420   18.1525   40.0106    1.5583    1.4700 -999.0000   85.4407    0.3994    2.4665   22.0000    8.0000 
3845.1944   18.1788   36.4379    1.5449    1.4013 -999.0000   84.1525    0.4006    2.3920   22.0000    8.0000 
3845.3468   18.1290   37.2073    1.5229    1.3807 -999.0000   87.5423    0.4017    2.3920   22.0000    8.0000 
3845.4992   18.0792   37.9767    1.5010    1.3602 -999.0000   90.9322    0.4028    2.3920   22.0000    8.0000 
3845.6516   18.2273   37.1476    1.4863    1.3502 -999.0000   90.9097    0.4226    2.4233   22.0000    8.0000 
3845.8040   18.3754   36.3184    1.4716    1.3402 -999.0000   90.8873    0.4424    2.4547   22.0000    8.0000 
3845.9564   18.6474   33.2733    1.4793    1.3498 -999.0000   89.7085    0.4457    2.4106   22.0000    8.0000 
3846.1088   18.7283   34.5890    1.4729    1.3712 -999.0000   87.8627    0.4305    2.4131   22.0000    8.0000 
3846.2612   18.8092   35.9047    1.4665    1.3925 -999.0000   86.0170    0.4153    2.4157   22.0000    8.0000 
3846.4136   18.9310   36.1780    1.4602    1.3974 -999.0000   86.1127    0.4033    2.4462   22.0000    8.0000 
3846.5660   19.0528   36.4513    1.4539    1.4023 -999.0000   86.2085    0.3913    2.4767   22.0000    8.0000 
3846.7184   19.2061   37.2461    1.4460    1.3590 -999.0000   88.0797    0.3918    2.4605   22.0000    8.0000 
3846.8708   19.2183   38.3106    1.4457    1.3416 -999.0000   89.3331    0.4094    2.4550   22.0000    8.0000 
3847.0232   19.2305   39.3750    1.4455    1.3242 -999.0000   90.5864    0.4270    2.4496   22.0000    8.0000 
3847.1756   19.2406   34.5445    1.4168    1.2867 -999.0000   90.0856    0.4319    2.4470   22.0000    8.0000 
3847.3280   19.2358   35.7299    1.3909    1.2684 -999.0000   89.5767    0.4302    2.4576   22.0000    8.0000 
3847.4804   19.2310   36.9153    1.3651    1.2500 -999.0000   89.0678    0.4284    2.4682   22.0000    8.0000 
3847.6328   19.2502   38.3994    1.3584    1.2534 -999.0000   89.1485    0.4234    2.4725   22.0000    8.0000 
3847.7852   19.2693   39.8835    1.3516    1.2568 -999.0000   89.2292    0.4183    2.4767   22.0000    8.0000 
3847.9376   19.2915   37.3659    1.3708    1.2705 -999.0000   89.2373    0.4543    2.4665   22.0000    8.0000 
3848.0900   19.3141   36.8727    1.3730    1.2763 -999.0000   89.1525    0.4711    2.4284   22.0000    8.0000 
3848.2424   19.3367   36.3795    1.3752    1.2821 -999.0000   89.0678    0.4879    2.3903   22.0000    8.0000 
3848.3948   19.3818   34.5722    1.3920    1.2910 -999.0000   89.0678    0.4876    2.3907   22.0000    8.0000 
3848.5472   19.4269   32.7648    1.4088    1.2999 -999.0000   89.0678    0.4874    2.3911   22.0000    8.0000 
3848.6996   19.4949   34.8591    1.4437    1.3431 -999.0000   89.0678    0.4686    2.4964   22.0000    8.0000 
3848.8520   19.5462   35.0924    1.4599    1.3556 -999.0000   90.9627    0.4683    2.4914   22.0000    8.0000 
3849.0044   19.5974   35.3256    1.4761    1.3681 -999.0000   92.8576    0.4681    2.4863   22.0000    8.0000 
3849.1568   19.6325   36.0791    1.4825    1.3820 -999.0000   96.0474    0.4724    2.4791   22.0000    8.0000 
3849.3092   19.6676   36.8326    1.4889    1.3958 -999.0000   99.2373    0.4767    2.4719   22.0000    8.0000 
3849.4616   19.9497   34.2445    1.4889    1.4060 -999.0000   82.9661    0.4787    2.4721   22.0000    8.0000 
3849.6140   20.0625   33.9475    1.4760    1.3835 -999.0000   82.9661    0.4785    2.4804   22.0000    8.0000 
3849.7664   20.1753   33.6505    1.4630    1.3611 -999.0000   82.9661    0.4782    2.4886   22.0000    8.0000 
3849.9188   20.2267   32.4450    1.4440    1.3381 -999.0000   85.6992    0.4728    2.4790   22.0000    8.0000 
3850.0712   20.2780   31.2394    1.4250    1.3150 -999.0000   88.4322    0.4674    2.4693   22.0000    8.0000 
3850.2236   20.2447   33.4525    1.3925    1.2848 -999.0000   91.7797    0.4452    2.4522   22.0000    8.0000 
3850.3760   20.1839   33.9388    1.3902    1.2872 -999.0000   90.6585    0.4441    2.4513   22.0000    8.0000 
3850.5284   20.1231   34.4250    1.3880    1.2896 -999.0000   89.5373    0.4429    2.4504   22.0000    8.0000 
3850.6808   20.0384   35.2707    1.3992    1.3149 -999.0000   84.8763    0.4402    2.4827   22.0000    8.0000 
3850.8332   19.9668   34.5262    1.4059    1.3328 -999.0000   84.5992    0.4324    2.4915   22.0000    8.0000 
3850.9856   19.8952   33.7818    1.4126    1.3506 -999.0000   84.3220    0.4247    2.5002   22.0000    8.0000 
3851.1380   19.9086   33.8141    1.4085    1.3539 -999.0000   85.6864    0.4558    2.4990   22.0000    8.0000 
3851.2904   19.9220   33.8464    1.4044    1.3571 -999.0000   87.0509    0.4869    2.4977   22.0000    8.0000 
3851.4428   19.9220   39.6877    1.3962    1.3688 -999.0000   87.9203    0.4864    2.4140   22.0000    8.0000 
3851.5952   19.9220   39.8492    1.3962    1.3737 -999.0000   88.3246    0.4630    2.4144   22.0000    8.0000 
3851.7476   19.9220   40.0106    1.3962    1.3785 -999.0000   88.7288    0.4396    2.4148   22.0000    8.0000 
3851.9000   19.9743   39.2618    1.3962    1.3690 -999.0000   90.1932    0.4363    2.4359   22.0000    8.0000 
3852.0524   20.0266   38.5131    1.3962    1.3594 -999.0000   91.6576    0.4330    2.4570   22.0000    8.0000 
3852.2048   20.1661   37.5515    1.4044    1.3317 -999.0000   93.6602    0.4833    2.4524   22.0000    8.0000 
3852.3572   20.1661   37.0649    1.4087    1.3284 -999.0000   94.8386    0.4833    2.4230   22.0000    8.0000 
3852.5096   20.1661   36.5784    1.4130    1.3250 -999.0000   96.0170    0.4833    2.3936   22.0000    8.0000 
3852.6620   20.1356   35.5452    1.4169    1.3365 -999.0000   92.9644    0.4787    2.3936   22.0000    8.0000 
3852.8144   20.1051   34.5121    1.4209    1.3481 -999.0000   89.9119    0.4741    2.3936   22.0000    8.0000 
3852.9668   19.8610   33.6280    1.4209    1.3636 -999.0000   86.1864    0.4681    2.3945   22.0000    8.0000 
3853.1192   19.8406   33.2917    1.4167    1.3677 -999.0000   87.0267    0.4833    2.3966   22.0000    8.0000 
3853.2716   19.8203   32.9555    1.4126    1.3719 -999.0000   87.8670    0.4985    2.3986   22.0000    8.0000 
3853.4240   19.8380   33.2250    1.3880    1.3650 -999.0000   88.9576    0.4995    2.4180   22.0000    8.0000 
3853.5764   19.9309   34.3662    1.3641    1.3426 -999.0000   90.0551    0.4729    2.4232   22.0000    8.0000 
3853.7288   20.0237   35.5074    1.3402    1.3203 -999.0000   91.1525    0.4462    2.4284   22.0000    8.0000 
3853.8812   19.9689   35.7569    1.3067    1.2757 -999.0000   91.8898    0.4462    2.4270   22.0000    8.0000 
3854.0336   19.9141   36.0064    1.2732    1.2310 -999.0000   92.6271    0.4462    2.4256   22.0000    8.0000 
3854.1860   19.7797   37.6608    1.2244    1.1952 -999.0000   88.7288    0.4803    2.4217   22.0000    8.0000 
3854.3384   19.7187   37.0281    1.2084    1.1790 -999.0000   88.7288    0.4811    2.4205   22.0000    8.0000 
3854.4908   19.6576   36.3953    1.1924    1.1627 -999.0000   88.7288    0.4818    2.4193   22.0000    8.0000 
3854.6432   19.6104   36.0102    1.2136    1.1815 -999.0000   90.4237    0.4617    2.4188   22.0000    8.0000 
3854.7956   19.5632   35.6250    1.2349    1.2002 -999.0000   92.1186    0.4415    2.4182   22.0000    8.0000 
3854.9480   19.4624   35.8602    1.2910    1.2628 -999.0000   92.1186    0.4215    2.4222   22.0000    8.0000 
3855.1004   19.3115   37.1452    1.3161    1.2964 -999.0000   90.9510    0.4189    2.4258   22.0000    8.0000 
