~VERSION INFORMATION
 VERS.                 2.0:   CWLS LOG ASCII STANDARD - VERSION 2.0
 WRAP.                  NO:   SINGLE LINE PER DEPTH STEP
 CREA.                 11/04/2018 11:51:53
#CREATED USING DSPetro VERSION 5000.10.1.3 BY H191660 ON 11/04/2018 11:51:53
~WELL INFORMATION
#MNEM.UNIT       DATA                          DESCRIPTION MNEMONIC
#---------      ---------------------------   --------------------------
 STRT    .M         3744.0008                 : START DEPTH
 STOP    .M         4525.0508                 : STOP DEPTH
 STEP    .M         0.1524                    : STEP VALUE
 NULL    .      -999.0000                     : NULL VALUE
 DATE    .      11/04/2018                    : LAS file Creation Date
 WELL .      2-1-4          : Well Name
 COMP .                     : Company
 FLD  .      GYDA           : Field
 UWI  .      YNOWL_2_1_4    : Unique Well Identifier (UWI)
 LOC  .                     : Location
 PDAT .      Mean Sea Level : Permanent Datum
 RWS  .      0              : Def_Rw
 WST  .      0              : Def_Rwt
 MDEC .      0              : Magnetic Declination
 SRVC .      SCH            : Contractor
~CURVE INFORMATION
#MNEM                UNIT       API CODE   Curve Type Comments
#----------    --------------- ----------  ---------- -----------
 DEPTH        .M                         : Depth       
 CAL_INCH     .inch                      :             Caliper Log - A representation of the measured diameter of a borehole along its depth
 GR_API       .API                       :             Gamma Ray (API) - Measures the intensity of natural gamma-ray radiation emitted from formations containing radioactive elements, such as K, Th and U
 RD_OHMM      .ohmm                      :             Unspecified Deep Resistivity - No accroynm or method of attainment is specified - units of ohmm
 RM_OHMM      .ohm.m                     :             Unspecified Medium Resistivity - No accroynm or method of attainment is specified
 RS_OHMM      .ohmm                      :             Unspecified Shallow Resistivity - No accroynm or method of attainment is specified
 DT_US_FT     .us/ft                     :             Interval Transit Time: Compressional Wave - Evaluates the time it takes for a compressional wave to traverse a fixed distance
 NEUT_P_RATIO .ratio                     :             Unspecified Neutron Porosity Log - No accroynm or method of attainment is specified
 RHOB_G_CC    .g/cc                      :             Bulk Density - Measures the density of bulk material, including any void space or other materials contained in the subject volume
 LITH         .                          : LITH        Lithology Curve
 LITH_Comp    .                          :             
~A  DEPTH  CAL_INCH   GR_API   RD_OHMM   RM_OHMM   RS_OHMM   DT_US_FT NEUT_P_R~ RHOB_G_C~    LITH   LITH_Com~ 
# ...
4444.8884    9.1139   61.4714    9.9151   10.4215   14.3454   62.9284    0.1842    2.5979   37.0000   36.0000 
4445.0408    9.1058   62.9110   10.0297   10.6333   17.3319   62.9661    0.1837    2.5877   37.0000   36.0000 
4445.1932    9.1083   63.2733   10.2861   11.0100   17.2961   62.9661    0.1833    2.5880   37.0000   36.0000 
4445.3456    9.1213   63.3368   10.4212   11.3976   16.3029   62.9661    0.1830    2.5897   37.0000   36.0000 
4445.4980    9.1343   63.4004   10.5562   11.7851   15.3096   62.9661    0.1826    2.5914   37.0000    8.0000 
4445.6504    9.0377   63.5285   10.7078   12.0312   13.9386   62.9436    0.1820    2.5963   37.0000    8.0000 
4445.8028    8.9411   63.6566   10.8593   12.2773   12.5676   62.9212    0.1813    2.6012   37.0000    8.0000 
4445.9552    8.9571   69.2479   10.9229   12.4944   12.6413   62.5458    0.2159    2.6264   37.0000    8.0000 
4446.1076    8.9420   69.6611   10.9229   12.4881   14.1213   62.3174    0.2202    2.6716   37.0000    8.0000 
4446.2600    8.9270   70.0742   10.9229   12.4817   15.6013   62.0890    0.2245    2.7167   22.0000    8.0000 
4446.4124    8.9330   66.7373   10.9229   12.3236    8.9412   58.1945    0.2247    2.7463   22.0000    8.0000 
4446.5648    8.9390   63.4004   10.9229   12.1655    2.2811   54.3000    0.2250    2.7759   22.0000    8.0000 
4446.7172    8.9611   60.4767   10.9229   11.5746    3.3351   53.9975    0.1952    2.7767   22.0000    8.0000 
4446.8696    8.9799   63.4809   10.9229   11.3766   19.7648   55.6954    0.1882    2.7550   22.0000    8.0000 
4447.0220    8.9988   66.4850   10.9229   11.1787   36.1946   57.3932    0.1812    2.7332   22.0000    8.0000 
4447.1744    8.8985   70.3920   10.9870   11.1161   36.1946   58.8114    0.1737    2.6318   22.0000    8.0000 
4447.3268    8.8384   70.9958   11.0515   12.1369   30.9956   59.9333    0.1707    2.6330   22.0000    8.0000 
4447.4792    8.7783   71.5996   11.1161   13.1577   25.7967   61.0551    0.1676    2.6343   37.0000    8.0000 
4447.6316    8.7773   71.5361   11.1161   13.8857   21.0293   61.7947    0.1681    2.6438   37.0000    8.0000 
4447.7840    8.7763   71.4725   11.1161   14.6138   16.2619   62.5343    0.1685    2.6533   37.0000    8.0000 
4447.9364    8.7952   69.7811   11.1161   14.8887   15.5950   62.3119    0.1695    2.6631   37.0000    8.0000 
4448.0888    8.7959   69.1967   11.0837   14.8102   16.2586   62.3345    0.1700    2.6628   37.0000    8.0000 
4448.2412    8.7966   68.6123   11.0514   14.7317   16.9222   62.3572    0.1706    2.6624   37.0000    8.0000 
4448.3936    8.7966   68.7076   10.9872   14.6007   18.6677   62.5574    0.1704    2.6393   37.0000    8.0000 
4448.5460    8.7966   68.8030   10.9229   14.4697   20.4133   62.7576    0.1701    2.6163   37.0000    8.0000 
4448.6984    8.7966   68.7394   10.8593   13.9252   14.0890   63.5042    0.1716    2.5871   37.0000    8.0000 
4448.8508    8.7880   67.7905   10.7649   13.7283   13.8640   64.1843    0.1750    2.5718   37.0000    8.0000 
4449.0032    8.7795   66.8415   10.6706   13.5314   13.6391   64.8644    0.1784    2.5564   37.0000    8.0000 
4449.1556    8.7747   65.4460   10.6395   13.2738   13.9239   65.3519    0.1811    2.5378   37.0000    8.0000 
4449.3080    8.7698   64.0506   10.6084   13.0161   14.2087   65.8394    0.1838    2.5191   37.0000    8.0000 
4449.4604    8.7883   55.8775   10.4491   12.5244   14.1259   66.4559    0.1895    2.5455   36.0000    8.0000 
4449.6128    8.7897   55.0533   10.3897   12.3911   12.2750   66.4445    0.1928    2.5517   36.0000    8.0000 
4449.7652    8.7911   54.2291   10.3304   12.2578   10.4240   66.4331    0.1962    2.5579   36.0000    8.0000 
4449.9176    8.7760   56.2724   10.2568   12.1962   10.4546   66.2462    0.1971    2.5717   37.0000    8.0000 
4450.0700    8.7610   58.3157   10.1832   12.1346   10.4853   66.0593    0.1981    2.5854   37.0000    8.0000 
4450.2224    8.7356   66.1970   10.0062   12.2383   13.8804   65.4699    0.1975    2.6068   37.0000    8.0000 
4450.3748    8.7285   69.7983    9.9770   12.4030   13.7997   65.2850    0.1970    2.6202   37.0000    8.0000 
4450.5272    8.7213   73.3996    9.9479   12.5676   13.7191   65.1000    0.1965    2.6337   37.0000    8.0000 
4450.6796    8.7023   77.3835    9.8899   12.6413   11.2482   64.7068    0.2103    2.6534   37.0000    8.0000 
4450.8320    8.7525   77.3199    9.8899   12.6295   10.2390   64.3178    0.2172    2.6676   37.0000    8.0000 
4450.9844    8.8027   77.2564    9.8899   12.6177    9.2299   63.9288    0.2240    2.6818   37.0000    8.0000 
4451.1368    8.8256   76.7805    9.8899   12.4117    7.5374   64.1222    0.2185    2.6818   37.0000    8.0000 
4451.2892    8.8485   76.3046    9.8899   12.2057    5.8448   64.3157    0.2131    2.6818   37.0000    8.0000 
4451.4416    8.9312   79.7326    9.9479    9.9794   17.3319   65.4432    0.2026    2.6362   37.0000    8.0000 
4451.5940    8.9249   83.8652    9.9651    9.7922   12.7936   65.7536    0.2076    2.6276   37.0000    8.0000 
4451.7464    8.9186   87.9979    9.9824    9.6051    8.2553   66.0640    0.2126    2.6189   37.0000    8.0000 
4451.8988    8.9186   85.4060   10.0236    9.6372    7.8630   66.1981    0.2163    2.6244   37.0000    8.0000 
4452.0512    8.9186   82.8140   10.0648    9.6693    7.4708   66.3322    0.2199    2.6298   37.0000    8.0000 
4452.2036    8.9593   78.5473   10.1238    9.8954   10.1209   65.4763    0.2209    2.6591   37.0000    8.0000 
4452.3560    8.9647   78.0226   10.1535   10.4107   11.3680   65.0644    0.2209    2.6611   37.0000   27.0000 
4452.5084    8.9700   77.4979   10.1832   10.9261   12.6150   64.6525    0.2209    2.6631   37.0000   27.0000 
4452.6608    8.9748   76.8337   10.1535   10.9566   13.3708   64.4872    0.2118    2.6453   37.0000   27.0000 
4452.8132    8.9796   76.1695   10.1238   10.9870   14.1267   64.3220    0.2026    2.6275   37.0000   27.0000 
4452.9656    8.9300   71.9009   10.0648   10.9870   12.1540   64.4848    0.1941    2.6160   37.0000   27.0000 
4453.1180    8.9142   66.2101    9.8819   10.9897   11.5568   64.7352    0.1849    2.6055   37.0000   27.0000 
4453.2704    8.8983   60.5193    9.6989   10.9924   10.9596   64.9856    0.1757    2.5951   36.0000   27.0000 
4453.4228    8.9434   59.2586    9.5483   10.7735   10.7419   65.2619    0.1785    2.5889   36.0000   27.0000 
4453.5752    8.9885   57.9979    9.3976   10.5546   10.5242   65.5381    0.1813    2.5827   36.0000   27.0000 
4453.7276    9.0371   57.9343    9.0261    9.9581    8.9046   66.1716    0.1841    2.5730   36.0000   27.0000 
4453.8800    9.0185   58.3531    8.8276    9.6012    8.6094   66.4146    0.1852    2.5708   36.0000   27.0000 
4454.0324    9.0000   58.7720    8.6291    9.2444    8.3142   66.6576    0.1864    2.5686   36.0000   27.0000 
4454.1848    9.0000   60.0953    8.4958    8.9756    7.2954   66.8644    0.1850    2.5636   36.0000   27.0000 
4454.3372    8.9832   60.3178    8.5342    8.9310    6.6793   66.8352    0.1846    2.5614   36.0000   27.0000 
4454.4896    8.9663   60.5403    8.5725    8.8864    6.0633   66.8059    0.1842    2.5592   36.0000   27.0000 
4454.6420    8.9730   60.0636    8.6933    8.9638    5.9431   66.7504    0.1836    2.5596   36.0000    8.0000 
4454.7944    8.9797   59.5869    8.8140    9.0412    5.8228   66.6949    0.1830    2.5601   36.0000    8.0000 
4454.9468    8.9593   58.8877    9.1986    9.1451    5.7533   66.4237    0.1833    2.5653   36.0000    8.0000 
4455.0992    8.9593   60.2542    9.3894    9.4206    6.0142   66.1733    0.1836    2.5675   36.0000    8.0000 
4455.2516    8.9593   61.6208    9.5802    9.6961    6.2751   65.9229    0.1838    2.5698   36.0000    8.0000 
4455.4040    8.9416   61.8115    9.9116   10.2675    6.9854   65.5030    0.1823    2.5764   36.0000    8.0000 
4455.5564    8.9238   62.0021   10.2429   10.8390    7.6957   65.0831    0.1808    2.5831   36.0000    8.0000 
4455.7088    8.9241   61.6843   10.8254   11.7629    8.1398   64.4581    0.1701    2.5950   36.0000    8.0000 
4455.8612    8.9074   61.9067   11.1691   12.3530    9.0380   64.1672    0.1653    2.6012   36.0000    8.0000 
