~VERSION INFORMATION
 VERS.                 2.0:   CWLS LOG ASCII STANDARD - VERSION 2.0
 WRAP.                  NO:   SINGLE LINE PER DEPTH STEP
 CREA.                 11/04/2018 11:51:53
#CREATED USING DSPetro VERSION 5000.10.1.3 BY H191660 ON 11/04/2018 11:51:53
~WELL INFORMATION
#MNEM.UNIT       DATA                          DESCRIPTION MNEMONIC
#---------      ---------------------------   --------------------------
 STRT    .M         3744.0008                 : START DEPTH
 STOP    .M         4525.0508                 : STOP DEPTH
 STEP    .M         0.1524                    : STEP VALUE
 NULL    .      -999.0000                     : NULL VALUE
 DATE    .      11/04/2018                    : LAS file Creation Date
 WELL .      2-1-4          : Well Name
 COMP .                     : Company
 FLD  .      GYDA           : Field
 UWI  .      YNOWL_2_1_4    : Unique Well Identifier (UWI)
 LOC  .                     : Location
 PDAT .      Mean Sea Level : Permanent Datum
 RWS  .      0              : Def_Rw
 WST  .      0              : Def_Rwt
 MDEC .      0              : Magnetic Declination
 SRVC .      SCH            : Contractor
~CURVE INFORMATION
#MNEM                UNIT       API CODE   Curve Type Comments
#----------    --------------- ----------  ---------- -----------
 DEPTH        .M                         : Depth       
 CAL_INCH     .inch                      :             Caliper Log - A representation of the measured diameter of a borehole along its depth
 GR_API       .API                       :             Gamma Ray (API) - Measures the intensity of natural gamma-ray radiation emitted from formations containing radioactive elements, such as K, Th and U
 RD_OHMM      .ohmm                      :             Unspecified Deep Resistivity - No accroynm or method of attainment is specified - units of ohmm
 RM_OHMM      .ohm.m                     :             Unspecified Medium Resistivity - No accroynm or method of attainment is specified
 RS_OHMM      .ohmm                      :             Unspecified Shallow Resistivity - No accroynm or method of attainment is specified
 DT_US_FT     .us/ft                     :             Interval Transit Time: Compressional Wave - Evaluates the time it takes for a compressional wave to traverse a fixed distance
 NEUT_P_RATIO .ratio                     :             Unspecified Neutron Porosity Log - No accroynm or method of attainment is specified
 RHOB_G_CC    .g/cc                      :             Bulk Density - Measures the density of bulk material, including any void space or other materials contained in the subject volume
 LITH         .                          : LITH        Lithology Curve
 LITH_Comp    .                          :             
~A  DEPTH  CAL_INCH   GR_API   RD_OHMM   RM_OHMM   RS_OHMM   DT_US_FT NEUT_P_R~ RHOB_G_C~    LITH   LITH_Com~ 
# ...
4144.5080    9.5085   74.7496    3.6673    5.0503    4.3376   75.6814    0.1487    2.6140   37.0000    8.0000 
4144.6604    9.5159   73.7784    3.7190    4.8264    4.9562   75.2417    0.1476    2.6162   37.0000    8.0000 
4144.8128    9.5232   72.8072    3.7706    4.6025    5.5748   74.8021    0.1465    2.6184   37.0000    8.0000 
4144.9652    9.5288   74.5869    3.7706    3.9419    7.3667   74.4915    0.1461    2.6220   37.0000    8.0000 
4145.1176    9.5288   75.8580    3.7125    3.8994    6.4819   74.9454    0.1459    2.6209   37.0000    8.0000 
4145.2700    9.5288   77.1292    3.6544    3.8568    5.5971   75.3992    0.1457    2.6199   37.0000    8.0000 
4145.4224    9.5546   78.4640    3.6055    3.9381    5.3146   75.8322    0.1486    2.6166   37.0000    8.0000 
4145.5748    9.5804   79.7987    3.5566    4.0195    5.0321   76.2653    0.1515    2.6133   37.0000    8.0000 
4145.7272    9.4902   77.7013    3.3889    4.0383    4.1889   76.5877    0.1639    2.6055   37.0000    8.0000 
4145.8796    9.5118   73.4110    3.2841    3.9241    4.2315   76.5379    0.1689    2.6035   37.0000    8.0000 
4146.0320    9.5333   69.1208    3.1793    3.8100    4.2740   76.4881    0.1739    2.6016   37.0000    8.0000 
4146.1844    9.5934   74.7728    3.0970    3.3547    5.4808   76.3856    0.1845    2.6038   37.0000    8.0000 
4146.3368    9.5713   77.1980    3.0572    3.3658    5.5131   76.5457    0.1902    2.6056   37.0000    8.0000 
4146.4892    9.5492   79.6233    3.0174    3.3769    5.5453   76.7059    0.1959    2.6075   37.0000    8.0000 
4146.6416    9.5381   78.6096    2.9950    3.4164    3.9530   76.9691    0.1942    2.6092   37.0000    8.0000 
4146.7940    9.5271   77.5958    2.9725    3.4559    2.3607   77.2322    0.1924    2.6109   37.0000    8.0000 
4146.9464    9.4881   75.0318    2.9456    3.5984    1.4976   77.5390    0.1878    2.6072   37.0000    8.0000 
4147.0988    9.4881   79.1949    2.9413    3.5984    2.5166   77.5403    0.1843    2.6053   37.0000    8.0000 
4147.2512    9.4881   83.3581    2.9370    3.5984    3.5355   77.5415    0.1808    2.6034   37.0000    8.0000 
4147.4036    9.4881   82.8877    2.9379    3.5879    3.8868   77.5441    0.1782    2.6015   37.0000    8.0000 
4147.5560    9.4881   82.4174    2.9388    3.5774    4.2381   77.5466    0.1757    2.5996   37.0000    8.0000 
4147.7084    9.4881   81.0744    2.9629    3.4967    2.3625   77.1428    0.1703    2.6037   37.0000    8.0000 
4147.8608    9.4881   79.2188    2.9945    3.4257    3.0887   76.6096    0.1671    2.6049   37.0000    8.0000 
4148.0132    9.4881   77.3631    3.0261    3.3547    3.8149   76.0763    0.1638    2.6062   37.0000    8.0000 
4148.1656    9.4881   70.8405    3.0686    3.3547    4.1410   75.4000    0.1619    2.6095   37.0000    8.0000 
4148.3180    9.4881   64.3179    3.1110    3.3547    4.4670   74.7237    0.1600    2.6128   36.0000    8.0000 
4148.4704    9.4881   62.8970    3.1972    3.4140    4.4012   73.5720    0.1525    2.6171   36.0000    8.0000 
4148.6228    9.4881   63.9115    3.2394    3.9632    4.1418   73.0074    0.1502    2.6169   36.0000    8.0000 
4148.7752    9.4881   64.9259    3.2815    4.5123    3.8824   72.4428    0.1479    2.6167   37.0000    8.0000 
4148.9276    9.4881   69.2034    3.3400    4.5195    3.8824   71.9763    0.1485    2.6104   37.0000    8.0000 
4149.0800    9.4881   70.0009    3.3302    4.4897    5.1245   72.3515    0.1533    2.6087   37.0000    8.0000 
4149.2324    9.4881   70.7984    3.3205    4.4600    6.3667   72.7267    0.1581    2.6070   37.0000    8.0000 
4149.3848    9.4881   72.6952    3.2601    3.9033    6.3921   73.2180    0.1621    2.6042   37.0000    8.0000 
4149.5372    9.4881   74.5920    3.1998    3.3467    6.4176   73.7093    0.1662    2.6013   37.0000    8.0000 
4149.6896    9.4881   76.5540    3.1836    3.4204    3.8928   75.0153    0.1762    2.5968   37.0000    8.0000 
4149.8420    9.4881   78.6530    3.2161    3.4678    3.9453   76.0246    0.1813    2.5962   37.0000    8.0000 
4149.9944    9.4881   80.7521    3.2486    3.5152    3.9977   77.0339    0.1864    2.5956   37.0000    8.0000 
4150.1468    9.4756   80.2306    3.4147    3.5616    4.1936   77.0339    0.1880    2.5931   37.0000    8.0000 
4150.2992    9.4632   79.7091    3.5808    3.6080    4.3894   77.0339    0.1896    2.5906   37.0000    8.0000 
4150.4516    9.4475   72.3623    3.7467    3.7229    4.2528   76.6949    0.1905    2.5830   36.0000    8.0000 
4150.6040    9.4678   72.3941    3.7780    3.8454    3.7843   76.7258    0.1869    2.5810   36.0000    8.0000 
4150.7564    9.4881   72.4259    3.8094    3.9680    3.3157   76.7568    0.1833    2.5791   36.0000    8.0000 
4150.9088    9.4747   79.3539    3.8205    4.1235    2.7150   77.8546    0.1988    2.5816   37.0000    8.0000 
4151.0612    9.4613   86.2818    3.8317    4.2790    2.1142   78.9525    0.2143    2.5840   37.0000    8.0000 
4151.2136    9.4068   88.0519    3.8773    4.4814    4.7484   80.1314    0.2525    2.5948   37.0000    8.0000 
4151.3660    9.4006   84.9181    3.9283    4.7955    4.5729   80.3623    0.2525    2.6056   37.0000    8.0000 
4151.5184    9.3943   81.7843    3.9794    5.1096    4.3974   80.5932    0.2525    2.6165   37.0000    8.0000 
4151.6708    9.4088   73.9271    4.0484    5.1096    3.7541   76.1864    0.2053    2.6101   37.0000    8.0000 
4151.8232    9.4234   66.0699    4.1174    5.1096    3.1108   71.7797    0.1581    2.6037   36.0000    8.0000 
4151.9756    9.4096   66.0699    4.3166    5.0757    3.0197   71.6102    0.1365    2.5920   36.0000    8.0000 
4152.1280    9.4039   66.9597    4.3885    4.8216    4.9720   71.6102    0.1443    2.5984   36.0000    8.0000 
4152.2804    9.3981   67.8496    4.4605    4.5676    6.9242   71.6102    0.1521    2.6048   37.0000    8.0000 
4152.4328    9.2024   77.3835    4.4866    4.3384    7.0056   78.8983    0.1860    2.6165   37.0000    8.0000 
4152.5852    9.2029   76.9380    4.4866    4.3640    5.6093   78.8136    0.1936    2.6186   37.0000    8.0000 
4152.7376    9.2033   76.4924    4.4866    4.3896    4.2129   78.7288    0.2011    2.6208   37.0000    8.0000 
4152.8900    9.1830   74.6816    4.4866    4.4929    3.0360   78.5627    0.1935    2.6107   37.0000    8.0000 
4153.0424    9.1627   72.8708    4.4866    4.5962    1.8591   78.3966    0.1859    2.6005   37.0000    8.0000 
4153.1948    9.1043   76.1542    4.4086    4.8172    2.3350   77.7263    0.1775    2.5939   37.0000    8.0000 
4153.3472    9.1030   77.4680    4.3538    4.9338    3.5773   78.2534    0.1760    2.5908   37.0000    8.0000 
4153.4996    9.1017   78.7818    4.2990    5.0503    4.8196   78.7805    0.1745    2.5877   37.0000    8.0000 
4153.6520    9.0924   78.0508    4.2097    5.0381    5.2953   79.1562    0.1755    2.5858   37.0000    8.0000 
4153.8044    9.0831   77.3199    4.1203    5.0260    5.7710   79.5318    0.1766    2.5839   37.0000    8.0000 
4153.9568    9.0938   80.3072    4.0268    4.7143    5.2372   79.6136    0.1788    2.5806   37.0000    8.0000 
4154.1092    9.1154   80.1492    4.0268    4.5137    4.4711   79.3632    0.1773    2.5770   37.0000    8.0000 
4154.2616    9.1370   79.9913    4.0268    4.3131    3.7051   79.1127    0.1758    2.5735   37.0000    8.0000 
4154.4140    9.1488   78.3772    4.0498    4.3131    3.1072   78.9762    0.1752    2.5735   37.0000    8.0000 
4154.5664    9.1606   76.7631    4.0728    4.3131    2.5092   78.8398    0.1745    2.5736   37.0000    8.0000 
4154.7188    9.1831   74.6504    4.1873    4.4060    5.4172   78.7288    0.1705    2.5769   37.0000    8.0000 
4154.8712    9.1831   74.4597    4.2941    4.5189    5.3392   78.2119    0.1692    2.5775   37.0000    8.0000 
4155.0236    9.1831   74.2691    4.4009    4.6319    5.2612   77.6949    0.1679    2.5781   37.0000    8.0000 
4155.1760    9.1831   77.3199    4.4866    4.8510    1.6075   76.0737    0.1641    2.5782   37.0000    8.0000 
4155.3284    9.1575   72.9610    4.4998    4.9213    2.7678   75.4055    0.1499    2.5791   37.0000    8.0000 
4155.4808    9.1320   68.6021    4.5129    4.9916    3.9281   74.7373    0.1358    2.5799   37.0000    8.0000 
