~VERSION INFORMATION
 VERS.                 2.0:   CWLS LOG ASCII STANDARD - VERSION 2.0
 WRAP.                  NO:   SINGLE LINE PER DEPTH STEP
 CREA.                 11/04/2018 11:51:53
#CREATED USING DSPetro VERSION 5000.10.1.3 BY H191660 ON 11/04/2018 11:51:53
~WELL INFORMATION
#MNEM.UNIT       DATA                          DESCRIPTION MNEMONIC
#---------      ---------------------------   --------------------------
 STRT    .M         3744.0008                 : START DEPTH
 STOP    .M         4525.0508                 : STOP DEPTH
 STEP    .M         0.1524                    : STEP VALUE
 NULL    .      -999.0000                     : NULL VALUE
 DATE    .      11/04/2018                    : LAS file Creation Date
 WELL .      2-1-4          : Well Name
 COMP .                     : Company
 FLD  .      GYDA           : Field
 UWI  .      YNOWL_2_1_4    : Unique Well Identifier (UWI)
 LOC  .                     : Location
 PDAT .      Mean Sea Level : Permanent Datum
 RWS  .      0              : Def_Rw
 WST  .      0              : Def_Rwt
 MDEC .      0              : Magnetic Declination
 SRVC .      SCH            : Contractor
~CURVE INFORMATION
#MNEM                UNIT       API CODE   Curve Type Comments
#----------    --------------- ----------  ---------- -----------
 DEPTH        .M                         : Depth       
 CAL_INCH     .inch                      :             Caliper Log - A representation of the measured diameter of a borehole along its depth
 GR_API       .API                       :             Gamma Ray (API) - Measures the intensity of natural gamma-ray radiation emitted from formations containing radioactive elements, such as K, Th and U
 RD_OHMM      .ohmm                      :             Unspecified Deep Resistivity - No accroynm or method of attainment is specified - units of ohmm
 RM_OHMM      .ohm.m                     :             Unspecified Medium Resistivity - No accroynm or method of attainment is specified
 RS_OHMM      .ohmm                      :             Unspecified Shallow Resistivity - No accroynm or method of attainment is specified
 DT_US_FT     .us/ft                     :             Interval Transit Time: Compressional Wave - Evaluates the time it takes for a compressional wave to traverse a fixed distance
 NEUT_P_RATIO .ratio                     :             Unspecified Neutron Porosity Log - No accroynm or method of attainment is specified
 RHOB_G_CC    .g/cc                      :             Bulk Density - Measures the density of bulk material, including any void space or other materials contained in the subject volume
 LITH         .                          : LITH        Lithology Curve
 LITH_Comp    .                          :             
~A  DEPTH  CAL_INCH   GR_API   RD_OHMM   RM_OHMM   RS_OHMM   DT_US_FT NEUT_P_R~ RHOB_G_C~    LITH   LITH_Com~ 
# ...
4344.7616    8.9130   77.9803    5.9289    6.0143    4.4932   62.1559    0.1623    2.7285   22.0000   27.0000 
4344.9140    8.9158   79.0484    6.0089    6.2198    5.2866   61.1372    0.1472    2.7469   22.0000   27.0000 
4345.0664    8.9186   80.1165    6.0888    6.4254    6.0800   60.1186    0.1320    2.7652   22.0000   27.0000 
4345.2188    8.9186   77.8150    6.4310   10.0103   12.4737   57.9797    0.1284    2.7699   22.0000   27.0000 
4345.3712    8.9186   73.2734    6.7043   10.3599   13.1432   57.8136    0.1284    2.7679   22.0000   27.0000 
4345.5236    8.9186   68.7318    6.9775   10.7095   13.8126   57.6475    0.1284    2.7659   22.0000   27.0000 
4345.6760    8.9186   68.5487    7.0880   10.8762   17.1754   59.3996    0.1316    2.6133   22.0000   27.0000 
4345.8284    8.9220   74.5513    6.9261    8.8842   17.4069   61.2007    0.1586    2.5957   22.0000   27.0000 
4345.9808    8.9254   80.5538    6.7642    6.8923   17.6385   63.0017    0.1856    2.5780   37.0000   27.0000 
4346.1332    8.9525   83.1906    6.2986    6.4240   10.9986   64.3791    0.1974    2.5742   37.0000   27.0000 
4346.2856    8.9797   85.8273    5.8329    5.9557    4.3586   65.7564    0.2092    2.5704   37.0000   27.0000 
4346.4380    9.0840  105.7004    4.7082    5.1681    1.7599   68.5000    0.2118    2.5435   37.0000   27.0000 
4346.5904    9.1085  105.8110    4.4486    4.5027    1.7118   68.9706    0.2040    2.5436   37.0000   27.0000 
4346.7428    9.1331  105.9216    4.1889    3.8373    1.6637   69.4411    0.1962    2.5437   37.0000    8.0000 
4346.8952    9.1168  105.8262    4.1049    3.8490    3.4971   68.9765    0.1927    2.5475   37.0000    8.0000 
4347.0476    9.1005  105.7309    4.0210    3.8607    5.3306   68.5119    0.1892    2.5513   37.0000    8.0000 
4347.2000    9.0508   99.7913    4.1161    4.2630    6.6061   65.5119    0.1752    2.6064   37.0000    8.0000 
4347.3524    9.0261   99.1446    5.2102    5.1397    7.6975   64.5928    0.1714    2.6611   37.0000   27.0000 
4347.5048    9.0015   98.4979    6.3043    6.0163    8.7888   63.6737    0.1676    2.7158   22.0000   27.0000 
4347.6572    9.0007   89.0530    6.5722    6.2116    9.0340   63.2129    0.1652    2.7287   22.0000   27.0000 
4347.8096    9.0000   79.6081    6.8400    6.4070    9.2793   62.7521    0.1628    2.7417   22.0000   27.0000 
4347.9620    9.0000   74.0784    7.0409    6.7983    8.9768   61.8153    0.1516    2.7346   22.0000   27.0000 
4348.1144    9.0101   70.8369    7.1271    6.9393    8.0096   62.3248    0.1504    2.7210   22.0000   27.0000 
4348.2668    9.0203   67.5953    7.2133    7.0803    7.0423   62.8343    0.1492    2.7073   22.0000   27.0000 
4348.4192    9.0113   71.8290    7.2771    7.3691    7.0398   64.1099    0.1452    2.6645   37.0000   27.0000 
4348.5716    9.0023   76.0627    7.3409    7.6578    7.0372   65.3856    0.1412    2.6218   37.0000   27.0000 
4348.7240    9.0074   84.2924    7.3409    7.5268    7.3058   69.8983    0.1367    2.5716   37.0000   27.0000 
4348.8764    9.0054   85.5916    7.2983    7.4623    6.8394   73.6356    0.1315    2.5721   37.0000   27.0000 
4349.0288    9.0033   86.8907    7.2556    7.3978    6.3731   77.3729    0.1264    2.5725   37.0000   27.0000 
4349.1812    9.1885   92.0657    6.5694    7.2712    6.1152   77.5424    0.1592    2.6469   37.0000   27.0000 
4349.3336    9.3052   98.8259    6.0640    6.9559    6.0113   77.0339    0.1829    2.6580   37.0000    8.0000 
4349.4860    9.4219  105.5860    5.5586    6.6407    5.9075   76.5254    0.2065    2.6691   37.0000    8.0000 
4349.6384    9.4180  110.5526    4.7143    6.0658    4.0222   76.5254    0.2251    2.6674   37.0000    8.0000 
4349.7908    9.4142  115.5191    3.8701    5.4908    2.1369   76.5254    0.2436    2.6657   37.0000    8.0000 
4349.9432    9.4017  114.5657    3.5984    3.7729    1.6543   77.2034    0.2676    2.6411   37.0000    8.0000 
4350.0956    9.4755  114.1582    3.5984    3.5712    1.4779   77.6272    0.2664    2.6409   37.0000    8.0000 
4350.2480    9.5492  113.7508    3.5984    3.3696    1.3016   78.0509    0.2651    2.6407   37.0000    8.0000 
4350.4004    9.5187  113.4807    3.6239    3.7936    1.8476   75.3195    0.2482    2.6400   37.0000    8.0000 
4350.5528    9.4881  113.2106    3.6494    4.2175    2.3935   72.5881    0.2313    2.6394   37.0000    8.0000 
4350.7052    9.3051  114.1939    4.2630    5.5368    2.8939   70.5140    0.1674    2.6032   37.0000    8.0000 
4350.8576    9.1493   93.4421    4.5599    5.6342    4.5261   68.5265    0.1586    2.5915   36.0000    8.0000 
4351.0100    8.9935   72.6903    4.8569    5.7315    6.1583   66.5390    0.1498    2.5798   36.0000    8.0000 
4351.1624    8.9372   68.0104    5.1617    5.8321    6.4956   65.8775    0.1514    2.5742   36.0000   27.0000 
4351.3148    8.8808   63.3305    5.4665    5.9327    6.8328   65.2161    0.1530    2.5686   36.0000   27.0000 
4351.4672    8.8983   63.0191    6.5312    6.1414    6.6589   65.6127    0.1556    2.5555   36.0000   27.0000 
4351.6196    8.8789   66.0061    6.5121    6.2020    5.9754   65.2750    0.1549    2.5582   36.0000   27.0000 
4351.7720    8.8595   68.9932    6.4931    6.2626    5.2920   64.9373    0.1543    2.5608   36.0000   27.0000 
4351.9244    8.8780   72.7246    6.4176    6.1351    5.3230   64.1288    0.1540    2.6208   36.0000   27.0000 
4352.0768    8.8780   74.1933    6.3435    6.0741    5.4212   63.7775    0.1561    2.6729   36.0000   27.0000 
4352.2292    8.8780   75.6620    6.2694    6.0131    5.5195   63.4263    0.1582    2.7250   22.0000   27.0000 
4352.3816    8.8780   77.3236    6.1791    5.9453    7.1592   63.1199    0.1620    2.7246   22.0000   27.0000 
4352.5340    8.8780   78.9852    6.0888    5.8774    8.7990   62.8136    0.1658    2.7242   22.0000   27.0000 
4352.6864    8.9186   79.7364    6.0181    5.7430    7.2130   63.4775    0.1696    2.7233   22.0000   27.0000 
4352.8388    8.9231   80.4483    6.0181    5.6860    7.1505   64.2727    0.1717    2.6921   22.0000   27.0000 
4352.9912    8.9276   81.1602    6.0181    5.6291    7.0880   65.0678    0.1739    2.6609   37.0000   27.0000 
4353.1436    8.9142   84.5155    6.0181    5.5724    8.0431   65.8562    0.1733    2.6281   37.0000    8.0000 
4353.2960    8.9009   87.8708    6.0181    5.5157    8.9982   66.6445    0.1727    2.5952   37.0000    8.0000 
4353.4484    8.8488   97.9767    6.0181    5.4077   10.8759   67.2331    0.1681    2.5700   37.0000    8.0000 
4353.6008    8.8431   97.6907    5.9760    5.3526    9.4682   67.3178    0.1666    2.5552   37.0000    8.0000 
4353.7532    8.8373   97.4047    5.9338    5.2974    8.0605   67.4025    0.1652    2.5403   37.0000    8.0000 
4353.9056    8.8373   85.1982    5.8893    5.2369    6.4987   66.9495    0.1629    2.5415   37.0000    8.0000 
4354.0580    8.8373   72.9918    5.8448    5.1765    4.9368   66.4966    0.1607    2.5428   37.0000   27.0000 
4354.2104    8.8902   70.8319    5.6434    5.0621    4.4410   65.8924    0.1585    2.5487   37.0000   27.0000 
4354.3628    8.8638   69.4793    5.4217    5.0119    5.5245   65.6157    0.1572    2.5475   37.0000   27.0000 
4354.5152    8.8373   68.1267    5.2000    4.9617    6.6079   65.3390    0.1559    2.5462   37.0000   27.0000 
4354.6676    8.8373   65.3186    4.9541    4.8299    6.5763   65.7572    0.1574    2.5400   36.0000   27.0000 
4354.8200    8.8373   62.5106    4.7082    4.6981    6.5447   66.1754    0.1588    2.5338   36.0000   27.0000 
4354.9724    8.8373   69.7468    4.2134    4.2804    5.7653   67.4068    0.1622    2.5076   36.0000   27.0000 
4355.1248    8.8373   73.2156    4.1290    4.2620    5.1869   67.7758    0.1643    2.4968   36.0000   27.0000 
4355.2772    8.8373   76.6843    4.0445    4.2436    4.6086   68.1449    0.1664    2.4860   36.0000   27.0000 
4355.4296    8.8373   76.7479    4.0210    4.2134    3.9048   68.8551    0.1686    2.4903   37.0000   27.0000 
4355.5820    8.8373   75.2861    4.0210    4.2044    3.7727   68.6058    0.1686    2.4992   37.0000    8.0000 
4355.7344    8.8373   73.8242    4.0210    4.1954    3.6407   68.3564    0.1686    2.5082   37.0000    8.0000 
