~VERSION INFORMATION
 VERS.                 2.0:   CWLS LOG ASCII STANDARD - VERSION 2.0
 WRAP.                  NO:   SINGLE LINE PER DEPTH STEP
 CREA.                 11/04/2018 11:51:53
#CREATED USING DSPetro VERSION 5000.10.1.3 BY H191660 ON 11/04/2018 11:51:53
~WELL INFORMATION
#MNEM.UNIT       DATA                          DESCRIPTION MNEMONIC
#---------      ---------------------------   --------------------------
 STRT    .M         3744.0008                 : START DEPTH
 STOP    .M         4525.0508                 : STOP DEPTH
 STEP    .M         0.1524                    : STEP VALUE
 NULL    .      -999.0000                     : NULL VALUE
 DATE    .      11/04/2018                    : LAS file Creation Date
 WELL .      2-1-4          : Well Name
 COMP .                     : Company
 FLD  .      GYDA           : Field
 UWI  .      YNOWL_2_1_4    : Unique Well Identifier (UWI)
 LOC  .                     : Location
 PDAT .      Mean Sea Level : Permanent Datum
 RWS  .      0              : Def_Rw
 WST  .      0              : Def_Rwt
 MDEC .      0              : Magnetic Declination
 SRVC .      SCH            : Contractor
~CURVE INFORMATION
#MNEM                UNIT       API CODE   Curve Type Comments
#----------    --------------- ----------  ---------- -----------
 DEPTH        .M                         : Depth       
 CAL_INCH     .inch                      :             Caliper Log - A representation of the measured diameter of a borehole along its depth
 GR_API       .API                       :             Gamma Ray (API) - Measures the intensity of natural gamma-ray radiation emitted from formations containing radioactive elements, such as K, Th and U
 RD_OHMM      .ohmm                      :             Unspecified Deep Resistivity - No accroynm or method of attainment is specified - units of ohmm
 RM_OHMM      .ohm.m                     :             Unspecified Medium Resistivity - No accroynm or method of attainment is specified
 RS_OHMM      .ohmm                      :             Unspecified Shallow Resistivity - No accroynm or method of attainment is specified
 DT_US_FT     .us/ft                     :             Interval Transit Time: Compressional Wave - Evaluates the time it takes for a compressional wave to traverse a fixed distance
 NEUT_P_RATIO .ratio                     :             Unspecified Neutron Porosity Log - No accroynm or method of attainment is specified
 RHOB_G_CC    .g/cc                      :             Bulk Density - Measures the density of bulk material, including any void space or other materials contained in the subject volume
 LITH         .                          : LITH        Lithology Curve
 LITH_Comp    .                          :             
~A  DEPTH  CAL_INCH   GR_API   RD_OHMM   RM_OHMM   RS_OHMM   DT_US_FT NEUT_P_R~ RHOB_G_C~    LITH   LITH_Com~ 
3744.0008   12.2949   30.3706    4.8478    5.2523    8.7400   68.7288 -999.0000 -999.0000 -999.0000    8.0000 
3744.1532   12.2949   30.8728    4.8478    5.2297    7.9236   68.5987 -999.0000 -999.0000 -999.0000    8.0000 
3744.3056   12.2949   31.3751    4.8478    5.2071    7.1073   68.4686 -999.0000 -999.0000 -999.0000    8.0000 
3744.4580   12.2949   33.5275    4.7433    5.1720   11.5128   68.4729 -999.0000 -999.0000 -999.0000    8.0000 
3744.6104   12.2949   33.3880    4.6521    5.0818   11.1579   68.6621 -999.0000 -999.0000 -999.0000    8.0000 
3744.7628   12.2949   33.2485    4.5608    4.9916   10.8031   68.8513 -999.0000 -999.0000   37.0000    8.0000 
3744.9152   12.3071   32.5936    4.5009    4.9401    8.3069   69.2308 -999.0000 -999.0000   37.0000    8.0000 
3745.0676   12.3193   31.9386    4.4410    4.8885    5.8107   69.6102 -999.0000 -999.0000   37.0000    8.0000 
3745.2200   12.3356   30.4131    4.2879    4.6345    8.7386   69.8606 -999.0000 -999.0000   37.0000    8.0000 
3745.3724   12.3356   30.4170    4.2469    4.5598    8.6672   69.9989 -999.0000 -999.0000   37.0000    8.0000 
3745.5248   12.3356   30.4208    4.2059    4.4851    8.5957   70.1373 -999.0000 -999.0000   37.0000    8.0000 
3745.6772   12.3356   34.4155    4.0858    4.3761    6.1284   70.6381 -999.0000 -999.0000   37.0000    8.0000 
3745.8296   12.3356   33.0499    4.0275    4.3071    6.0928   70.7004 -999.0000 -999.0000   37.0000    8.0000 
3745.9820   12.3356   31.6843    3.9692    4.2381    6.0572   70.7627 -999.0000 -999.0000   37.0000    8.0000 
3746.1344   12.3356   30.0317    3.9372    4.2309    6.0908   70.7627 -999.0000 -999.0000   37.0000    8.0000 
3746.2868   12.3356   28.3792    3.9052    4.2236    6.1245   70.7627 -999.0000 -999.0000   37.0000    8.0000 
3746.4392   12.3356   33.2098    3.9052    4.1873    7.0988   70.7627 -999.0000 -999.0000   37.0000    8.0000 
3746.5916   12.3356   33.6229    3.9052    4.1825    7.0917   70.7627 -999.0000 -999.0000   37.0000    8.0000 
3746.7440   12.3356   34.0360    3.9052    4.1777    7.0846   70.7627 -999.0000 -999.0000   37.0000    8.0000 
3746.8964   12.3356   35.6885    3.8941    4.1708    6.4463   70.9322 -999.0000 -999.0000   37.0000    8.0000 
3747.0488   12.3356   37.3411    3.8829    4.1640    5.8080   71.1017 -999.0000 -999.0000   37.0000    8.0000 
3747.2012   12.3356   36.9286    3.8714    4.1523    5.7097   71.0174 -999.0000 -999.0000   37.0000    8.0000 
3747.3536   12.3356   34.4972    3.8769    4.1348    6.2768   70.9748 -999.0000 -999.0000   37.0000    8.0000 
3747.5060   12.3356   32.0657    3.8824    4.1173    6.8438   70.9322 -999.0000 -999.0000   37.0000    8.0000 
3747.6584   12.3356   31.6525    3.8835    4.0342    6.7490   71.1017 -999.0000 -999.0000   37.0000    8.0000 
3747.8108   12.3356   31.2394    3.8846    3.9511    6.6541   71.2712 -999.0000 -999.0000   37.0000    8.0000 
3747.9632   12.3356   35.6485    3.8598    3.9084    5.1782   70.6407 -999.0000 -999.0000   37.0000    8.0000 
3748.1156   12.3356   36.6219    3.8486    3.9345    6.1670   70.9716 -999.0000 -999.0000   37.0000    8.0000 
3748.2680   12.3356   37.5953    3.8373    3.9605    7.1559   71.3025 -999.0000 -999.0000   37.0000    8.0000 
3748.4204   12.3356   35.5614    3.8586    3.9984    7.2699   71.1271 -999.0000 -999.0000   37.0000    8.0000 
3748.5728   12.3356   33.5275    3.8798    4.0364    7.3840   70.9517 -999.0000 -999.0000   37.0000    8.0000 
3748.7252   12.3356   35.6218    3.9157    4.2495    6.4931   70.4237 -999.0000 -999.0000   37.0000    8.0000 
3748.8776   12.3356   37.1171    3.9646    4.2708    6.5121   70.4949 -999.0000 -999.0000   37.0000    8.0000 
3749.0300   12.3356   38.6123    4.0135    4.2920    6.5312   70.5661 -999.0000 -999.0000   37.0000    8.0000 
3749.1824   12.3356   37.8496    4.0521    4.2959    6.5312   70.5932 -999.0000 -999.0000   37.0000    8.0000 
3749.3348   12.3356   35.0212    4.0697    4.3246    6.9358   70.5932 -999.0000 -999.0000   37.0000    8.0000 
3749.4872   12.3356   32.1928    4.0872    4.3534    7.3404   70.5932 -999.0000 -999.0000   37.0000    8.0000 
3749.6396   12.3356   32.1928    4.1170    4.3913    7.5948   70.5085 -999.0000 -999.0000   37.0000    8.0000 
3749.7920   12.3356   32.1928    4.1468    4.4292    7.8492   70.4237 -999.0000 -999.0000   37.0000    8.0000 
3749.9444   12.3356   34.7987    4.1645    4.4670    6.9750   70.5509 -999.0000 -999.0000   37.0000    8.0000 
3750.0968   12.3356   33.9464    4.1441    4.4411    7.1136   70.5914 -999.0000 -999.0000   37.0000    8.0000 
3750.2492   12.3356   33.0941    4.1238    4.4151    7.2522   70.6318 -999.0000 -999.0000   37.0000    8.0000 
3750.4016   12.3356   32.3587    4.0793    4.3792    7.3397   70.7570 -999.0000 -999.0000   37.0000    8.0000 
3750.5540   12.3356   31.6233    4.0349    4.3432    7.4272   70.8822 -999.0000 -999.0000   37.0000    8.0000 
3750.7064   12.3356   29.9682    3.9427    4.2539    7.3098   71.0250 -999.0000 -999.0000   37.0000    8.0000 
3750.8588   12.3356   32.6377    3.9239    4.2175    7.0173   71.4007 -999.0000 -999.0000   37.0000    8.0000 
3751.0112   12.3356   35.3072    3.9052    4.1811    6.7248   71.7763 -999.0000 -999.0000   37.0000    8.0000 
3751.1636   12.3370   35.0784    3.9052    4.1778    7.0760   71.9474 -999.0000 -999.0000   37.0000    8.0000 
3751.3160   12.3384   34.8496    3.9052    4.1746    7.4272   72.1186 -999.0000 -999.0000   37.0000    8.0000 
3751.4684   12.3184   33.2733    3.9334    4.2842    7.3741   71.9102 -999.0000 -999.0000   37.0000    8.0000 
3751.6208   12.3169   34.5321    3.9783    4.3173    6.8052   71.6833 -999.0000 -999.0000   37.0000    8.0000 
3751.7732   12.3153   35.7909    4.0231    4.3503    6.2362   71.4564 -999.0000 -999.0000   37.0000    8.0000 
3751.9256   12.3037   36.6350    4.0853    4.5579    7.4101   71.6102 -999.0000 -999.0000   37.0000    8.0000 
3752.0780   12.2993   36.7974    4.1260    4.5921    7.6181   71.5255 -999.0000 -999.0000   37.0000    8.0000 
3752.2304   12.2949   36.9598    4.1668    4.6264    7.8262   71.4407 -999.0000 -999.0000   37.0000    8.0000 
3752.3828   12.3003   36.9280    4.1966    4.6335    8.7156   71.4407 -999.0000 -999.0000   37.0000    8.0000 
3752.5352   12.3056   36.8962    4.2264    4.6406    9.6051   71.4407 -999.0000 -999.0000   37.0000    8.0000 
3752.6876   12.3356   36.8326    4.2381    4.5992    6.3802   71.4403 -999.0000 -999.0000   37.0000    8.0000 
3752.8400   12.3356   35.7254    4.2317    4.5912    6.3989   71.2744 -999.0000 -999.0000   37.0000    8.0000 
3752.9924   12.3356   34.6182    4.2253    4.5832    6.4176   71.1085 -999.0000 -999.0000   37.0000    8.0000 
3753.1448   12.3356   32.8017    4.2555    4.7120    8.2119   70.8580 -999.0000 -999.0000   37.0000    8.0000 
3753.2972   12.3356   30.9852    4.2858    4.8407   10.0062   70.6076 -999.0000 -999.0000   37.0000    8.0000 
3753.4496   12.3356   33.8517    4.3321    4.9264   10.0062   69.8636 -999.0000 -999.0000   37.0000    8.0000 
3753.6020   12.3356   34.1210    4.3842    4.9724    8.3579   69.7973 -999.0000 -999.0000   37.0000    8.0000 
3753.7544   12.3356   34.3904    4.4364    5.0183    6.7095   69.7309 -999.0000 -999.0000   37.0000    8.0000 
3753.9068   12.3396   34.8809    4.4207    5.0491    8.3871   69.6536 -999.0000 -999.0000   37.0000    8.0000 
3754.0592   12.3435   35.3714    4.4051    5.0799   10.0648   69.5763 -999.0000 -999.0000   37.0000    8.0000 
3754.2116   12.2854   37.6205    4.3451    4.8297   10.3029   70.0174 -999.0000 -999.0000   37.0000    8.0000 
3754.3640   12.2866   39.3876    4.3080    4.7780    8.0910   70.1651 -999.0000 -999.0000   37.0000    8.0000 
3754.5164   12.2879   41.1547    4.2708    4.7263    5.8790   70.3127    0.2555    2.6645   37.0000    8.0000 
3754.6688   12.2896   39.0705    4.2241    4.7286    7.0755   70.3682    0.2540    2.6588   37.0000    8.0000 
3754.8212   12.2913   36.9864    4.1775    4.7309    8.2720   70.4237    0.2525    2.6530   37.0000    8.0000 
3754.9736   12.2949   33.3559    4.1453    4.7974   12.3492   70.1356    0.2540    2.6445   37.0000    8.0000 
