~VERSION INFORMATION
 VERS.                 2.0:   CWLS LOG ASCII STANDARD - VERSION 2.0
 WRAP.                  NO:   SINGLE LINE PER DEPTH STEP
 CREA.                 11/04/2018 11:51:53
#CREATED USING DSPetro VERSION 5000.10.1.3 BY H191660 ON 11/04/2018 11:51:53
~WELL INFORMATION
#MNEM.UNIT       DATA                          DESCRIPTION MNEMONIC
#---------      ---------------------------   --------------------------
 STRT    .M         3744.0008                 : START DEPTH
 STOP    .M         4525.0508                 : STOP DEPTH
 STEP    .M         0.1524                    : STEP VALUE
 NULL    .      -999.0000                     : NULL VALUE
 DATE    .      11/04/2018                    : LAS file Creation Date
 WELL .      2-1-4          : Well Name
 COMP .                     : Company
 FLD  .      GYDA           : Field
 UWI  .      YNOWL_2_1_4    : Unique Well Identifier (UWI)
 LOC  .                     : Location
 PDAT .      Mean Sea Level : Permanent Datum
 RWS  .      0              : Def_Rw
 WST  .      0              : Def_Rwt
 MDEC .      0              : Magnetic Declination
 SRVC .      SCH            : Contractor
~CURVE INFORMATION
#MNEM                UNIT       API CODE   Curve Type Comments
#----------    --------------- ----------  ---------- -----------
 DEPTH        .M                         : Depth       
 CAL_INCH     .inch                      :             Caliper Log - A representation of the measured diameter of a borehole along its depth
 GR_API       .API                       :             Gamma Ray (API) - Measures the intensity of natural gamma-ray radiation emitted from formations containing radioactive elements, such as K, Th and U
 RD_OHMM      .ohmm                      :             Unspecified Deep Resistivity - No accroynm or method of attainment is specified - units of ohmm
 RM_OHMM      .ohm.m                     :             Unspecified Medium Resistivity - No accroynm or method of attainment is specified
 RS_OHMM      .ohmm                      :             Unspecified Shallow Resistivity - No accroynm or method of attainment is specified
 DT_US_FT     .us/ft                     :             Interval Transit Time: Compressional Wave - Evaluates the time it takes for a compressional wave to traverse a fixed distance
 NEUT_P_RATIO .ratio                     :             Unspecified Neutron Porosity Log - No accroynm or method of attainment is specified
 RHOB_G_CC    .g/cc                      :             Bulk Density - Measures the density of bulk material, including any void space or other materials contained in the subject volume
 LITH         .                          : LITH        Lithology Curve
 LITH_Comp    .                          :             
~A  DEPTH  CAL_INCH   GR_API   RD_OHMM   RM_OHMM   RS_OHMM   DT_US_FT NEUT_P_R~ RHOB_G_C~    LITH   LITH_Com~ 
# ...
4500.5144    7.6983   13.6335  200.0000    7.1380    5.5713   51.4068    0.0065    2.9500    1.0000    1.0000 
4500.6668    7.6983   13.8242  146.0204    6.9710    5.5474   51.1695    0.0074    2.9500    1.0000    1.0000 
4500.8192    7.6983   14.0148   92.0409    6.8039    5.5235   50.9322    0.0082    2.9500    1.0000    1.0000 
4500.9716    7.6841   13.6970  115.1283    6.9648    5.5034   50.7627    0.0067    2.9500    1.0000    1.0000 
4501.1240    7.6823   13.1567  157.5641    8.3986    5.4762   50.9322    0.0055    2.9500    1.0000    1.0000 
4501.2764    7.6805   12.6165  200.0000    9.8323    5.4489   51.1017    0.0043    2.9500    1.0000    1.0000 
4501.4288    7.6576   11.6631  200.0000    9.5380    5.4140   52.3220    0.0008    2.9500    1.0000    1.0000 
4501.5812    7.6459   11.4725  200.0000    9.2086    5.3998   56.8135    0.0008    2.9500    1.0000    1.0000 
4501.7336    7.6342   11.2818  200.0000    8.8792    5.3856   61.3051    0.0008    2.9500    1.0000    1.0000 
4501.8860    7.6459   11.2818  200.0000    8.3744    5.3691   65.6949    0.0008    2.9500    1.0000    1.0000 
4502.0384    7.6576   11.2818  200.0000    7.8696    5.3526   70.0848    0.0007    2.9500    1.0000    1.0000 
4502.1908    7.6576   11.5360  200.0000    7.8283    5.3230   70.9322    0.0000    2.9500    1.0000    1.0000 
4502.3432    7.6779   11.6790  200.0000    8.2625    5.2921   71.0170   -0.0007    2.9500    1.0000    1.0000 
4502.4956    7.6983   11.8220  200.0000    8.6967    5.2612   71.1017   -0.0013    2.9500    1.0000    1.0000 
4502.6480    7.6581   11.9459  190.8878    8.5494    5.2466   71.1864   -0.0021    2.9500    1.0000    1.0000 
4502.8004    7.6180   12.0699  181.7757    8.4020    5.2321   71.2712   -0.0029    2.9500    1.0000    1.0000 
4502.9528    7.5386   12.1081  181.6151    7.7535    5.1712   71.4407   -0.0008    2.9500    1.0000    1.0000 
4503.1052    7.5575   11.9174  190.8076    7.5168    5.1130   71.4407   -0.0005    2.9500    1.0000    1.0000 
4503.2576    7.5763   11.7267  200.0000    7.2801    5.0548   71.4407   -0.0003    2.9500    1.0000    1.0000 
4503.4100    7.5946   11.7267  200.0000    7.3451    5.0115   71.4407   -0.0003    2.9500    1.0000    1.0000 
4503.5624    7.6129   11.7267  200.0000    7.4101    4.9683   71.4407   -0.0003    2.9500    1.0000    1.0000 
4503.7148    7.5686   12.1081  200.0000    7.7672    4.8445   71.4407   -0.0010    2.9500    1.0000    1.0000 
4503.8672    7.5536   12.4338  200.0000    8.0290    4.7710   71.4407   -0.0012    2.9500    1.0000    1.0000 
4504.0196    7.5386   12.7595  200.0000    8.2909    4.6974   71.4407   -0.0013    2.9500    1.0000    1.0000 
4504.1720    7.5000   12.9232  192.4137    8.5272    4.6312   71.4407   -0.0012    2.9500    1.0000    1.0000 
4504.3244    7.4614   13.0869  184.8273    8.7634    4.5649   71.4407   -0.0011    2.9500    1.0000    1.0000 
4504.4768    7.4664   13.1886  184.8273    9.4407    4.3897   71.4407   -0.0004    2.9500    1.0000    1.0000 
4504.6292    7.4548   13.2521  192.4137    9.8667    4.2671   71.4407   -0.0004    2.9500    1.0000    1.0000 
4504.7816    7.4431   13.3157  200.0000   10.2927    4.1446   71.4407   -0.0004    2.9500    1.0000    1.0000 
4504.9340    7.4136   13.3951  200.0000   11.2468    4.0387   71.4407   -0.0011    2.9500    1.0000    1.0000 
4505.0864    7.4136   13.5525  200.0000   11.2468    3.9707   71.4407   -0.0015    2.9500    1.0000    1.0000 
4505.2388    7.4136   13.7098  200.0000   11.2468    3.9026   71.4407   -0.0019    2.9500    1.0000    1.0000 
4505.3912    7.4136   13.7987  200.0000   11.0404    3.8587   71.4407   -0.0022    2.9500    1.0000    1.0000 
4505.5436    7.4136   13.8877  200.0000   10.8340    3.8149   71.4407   -0.0026    2.9500    1.0000    1.0000 
4505.6960    7.4136   13.8114  200.0000   10.3029    3.8149   71.4407   -0.0028    2.9500    1.0000    1.0000 
4505.8484    7.4136   13.7241  200.0000   10.3940    3.8149   71.4407   -0.0028    2.9500    1.0000    1.0000 
4506.0008    7.4136   13.6367  200.0000   10.4851    3.8149   71.4407   -0.0028    2.9500    1.0000    1.0000 
4506.1532    7.4136   13.4762  200.0000   10.8990    3.8149   71.4407   -0.0028    2.9500    1.0000    1.0000 
4506.3056    7.4136   13.3157  200.0000   11.3128    3.8149   71.4407   -0.0028    2.9500    1.0000    1.0000 
4506.4580    7.4136   13.0678  200.0000   11.2996    3.8149   71.4407   -0.0028    2.9500    1.0000    1.0000 
4506.6104    7.4136   12.8803  195.7116   11.1658    3.8191   71.4407   -0.0028    2.9500    1.0000    1.0000 
4506.7628    7.4136   12.6928  191.4232   11.0321    3.8234   71.4407   -0.0028    2.9500    1.0000    1.0000 
4506.9152    7.4136   12.4688  191.4232   10.8202    3.8446   71.4407   -0.0026    2.9500    1.0000    1.0000 
4507.0676    7.4136   12.2447  191.4232   10.6084    3.8658   71.4407   -0.0025    2.9500    1.0000    1.0000 
4507.2200    7.4136   11.8284  200.0000   10.6115    3.8149   71.4407   -0.0018    2.9500    1.0000    1.0000 
4507.3724    7.4136   11.8094  200.0000   11.6264    3.8149   71.4407   -0.0016    2.9500    1.0000    1.0000 
4507.5248    7.4136   11.7903  200.0000   12.6413    3.8149   71.4407   -0.0015    2.9500    1.0000    1.0000 
4507.6772    7.4136   11.7903  151.5206   13.4021    3.8149   71.4407   -0.0008    2.9500    1.0000    1.0000 
4507.8296    7.4090   11.7903  151.9647   13.3631    3.8149   71.4407   -0.0005    2.9500    1.0000    1.0000 
4507.9820    7.4044   11.7903  152.4087   13.3240    3.8149   71.4407   -0.0003    2.9500    1.0000    1.0000 
4508.1344    7.4270   11.7903  176.2043   12.0286    3.8149   71.4407   -0.0001    2.9300    1.0000    1.0000 
4508.2868    7.4497   11.7903  200.0000   10.7331    3.8149   71.4407    0.0002    2.9101    1.0000    1.0000 
4508.4392    7.4664   11.7903  200.0000   10.9229    3.8149   71.4407    0.0008    2.8903    1.0000    1.0000 
4508.5916    7.5137   11.7903  200.0000   11.2137    3.8149   71.4407    0.0008    2.8899    1.0000    1.0000 
4508.7440    7.5610   11.7903  200.0000   11.5045    3.8149   71.4407    0.0008    2.8894    1.0000    1.0000 
4508.8964    7.6129   11.7903  200.0000   11.3629    3.8149   71.4407    0.0005    2.8873    1.0000    1.0000 
4509.0488    7.6648   11.7903  200.0000   11.2213    3.8149   71.4407    0.0003    2.8852    1.0000    1.0000 
4509.2012    7.5605   11.7903  200.0000   10.6859    3.8149   71.4407    0.0003    2.8812    1.0000    1.0000 
4509.3536    7.4901   11.7903  200.0000   10.0598    3.8182   71.4153    0.0007    2.8783    1.0000    1.0000 
4509.5060    7.4197   11.7903  200.0000    9.4337    3.8216   71.3898    0.0011    2.8753    1.0000    1.0000 
4509.6584    7.3320   11.7903  200.0000    9.1081    3.8295   71.3305    0.0019    2.8134   37.0000    1.0000 
4509.8108    7.2442   11.7903  200.0000    8.7825    3.8373   71.2712    0.0026    2.7516   37.0000    1.0000 
4509.9632    7.3068   11.7903  200.0000    8.0605    3.8654   71.3136    0.0028    2.7072   37.0000    1.0000 
4510.1156    7.3877   11.7903  200.0000    8.4932    3.8822   71.3772    0.0028    2.7034   37.0000    1.0000 
4510.2680    7.4685   11.7903  200.0000    8.9260    3.8989   71.4407    0.0028    2.6996   37.0000    1.0000 
4510.4204    7.6038   11.7903  200.0000    9.1559    3.9021   71.4238    0.0025    2.7839   37.0000    1.0000 
4510.5728    7.7390   11.7903  200.0000    9.3858    3.9052   71.4068    0.0022    2.8682   37.0000    1.0000 
4510.7252    7.7400   11.7903  140.4354   10.2317    3.9052   71.2712   -0.0006    2.9500    1.0000    1.0000 
4510.8776    7.7481   11.7903  140.4354   10.5746    3.9052   71.1864   -0.0007    2.9500    1.0000    1.0000 
4511.0300    7.7563   11.7903  140.4354   10.9174    3.9052   71.1017   -0.0007    2.9500    1.0000    1.0000 
4511.1824    7.7009   11.7903  200.0000   11.5404    3.9052   71.1017    0.0001    2.9500    1.0000    1.0000 
4511.3348    7.6975   11.7903  200.0000   12.0511    3.9052   71.1017    0.0002    2.9500    1.0000    1.0000 
4511.4872    7.6942   11.7903  200.0000   12.5619    3.9052   71.1017    0.0003    2.9500    1.0000    1.0000 
