~VERSION INFORMATION
 VERS.                 2.0:   CWLS LOG ASCII STANDARD - VERSION 2.0
 WRAP.                  NO:   SINGLE LINE PER DEPTH STEP
 CREA.                 11/04/2018 11:51:53
#CREATED USING DSPetro VERSION 5000.10.1.3 BY H191660 ON 11/04/2018 11:51:53
~WELL INFORMATION
#MNEM.UNIT       DATA                          DESCRIPTION MNEMONIC
#---------      ---------------------------   --------------------------
 STRT    .M         3744.0008                 : START DEPTH
 STOP    .M         4525.0508                 : STOP DEPTH
 STEP    .M         0.1524                    : STEP VALUE
 NULL    .      -999.0000                     : NULL VALUE
 DATE    .      11/04/2018                    : LAS file Creation Date
 WELL .      2-1-4          : Well Name
 COMP .                     : Company
 FLD  .      GYDA           : Field
 UWI  .      YNOWL_2_1_4    : Unique Well Identifier (UWI)
 LOC  .                     : Location
 PDAT .      Mean Sea Level : Permanent Datum
 RWS  .      0              : Def_Rw
 WST  .      0              : Def_Rwt
 MDEC .      0              : Magnetic Declination
 SRVC .      SCH            : Contractor
~CURVE INFORMATION
#MNEM                UNIT       API CODE   Curve Type Comments
#----------    --------------- ----------  ---------- -----------
 DEPTH        .M                         : Depth       
 CAL_INCH     .inch                      :             Caliper Log - A representation of the measured diameter of a borehole along its depth
 GR_API       .API                       :             Gamma Ray (API) - Measures the intensity of natural gamma-ray radiation emitted from formations containing radioactive elements, such as K, Th and U
 RD_OHMM      .ohmm                      :             Unspecified Deep Resistivity - No accroynm or method of attainment is specified - units of ohmm
 RM_OHMM      .ohm.m                     :             Unspecified Medium Resistivity - No accroynm or method of attainment is specified
 RS_OHMM      .ohmm                      :             Unspecified Shallow Resistivity - No accroynm or method of attainment is specified
 DT_US_FT     .us/ft                     :             Interval Transit Time: Compressional Wave - Evaluates the time it takes for a compressional wave to traverse a fixed distance
 NEUT_P_RATIO .ratio                     :             Unspecified Neutron Porosity Log - No accroynm or method of attainment is specified
 RHOB_G_CC    .g/cc                      :             Bulk Density - Measures the density of bulk material, including any void space or other materials contained in the subject volume
 LITH         .                          : LITH        Lithology Curve
 LITH_Comp    .                          :             
~A  DEPTH  CAL_INCH   GR_API   RD_OHMM   RM_OHMM   RS_OHMM   DT_US_FT NEUT_P_R~ RHOB_G_C~    LITH   LITH_Com~ 
# ...
3799.6268   13.2772   32.7972    2.7946    2.6227 -999.0000   74.8335    0.0796    2.3485   11.0000    8.0000 
3799.7792   13.7999   34.5445    2.7341    2.2463 -999.0000   76.6178    0.0786    2.3636   11.0000    8.0000 
3799.9316   14.2678   30.1589    2.7501    2.0593 -999.0000   86.2712    0.0772    2.4593   27.0000    8.0000 
3800.0840   14.5203   28.4078    2.7826    2.0326 -999.0000   85.7204    0.0768    2.4761   27.0000    8.0000 
3800.2364   14.7727   26.6568    2.8152    2.0059 -999.0000   85.1695    0.0765    2.4929   27.0000    8.0000 
3800.3888   14.8741   24.2244    2.8948    3.9495 -999.0000   78.3488    0.0765    2.5055   27.0000    8.0000 
3800.5412   14.9755   21.7920    2.9744    5.8931 -999.0000   71.5280    0.0765    2.5182   27.0000    8.0000 
3800.6936   14.9593   20.8792    3.1477    6.1604 -999.0000   62.9661    0.0765    2.5182   27.0000   18.0000 
3800.8460   14.9593   25.1059    3.3659    5.1993 -999.0000   62.9932    0.0767    2.5092   27.0000   18.0000 
3800.9984   14.9593   29.3326    3.5841    4.2381 -999.0000   63.0203    0.0770    2.5001   27.0000   18.0000 
3801.1508   14.9464   29.6504    3.7740    3.7481 -999.0000   66.6606    0.0784    2.4952   27.0000   18.0000 
3801.3032   14.9334   29.9682    3.9639    3.2581 -999.0000   70.3009    0.0797    2.4903   27.0000   18.0000 
3801.4556   14.8319   25.3970    4.2381    3.3592 -999.0000   70.4237    0.0889    2.4925   27.0000   18.0000 
3801.6080   14.4979   23.2376    4.3010    4.7812 -999.0000   69.5292    0.0952    2.5062   27.0000   18.0000 
3801.7604   14.1639   21.0782    4.3638    6.2032 -999.0000   68.6347    0.1014    2.5198   22.0000   18.0000 
3801.9128   13.5779   20.5338    4.3766    6.4056 -999.0000   65.9699    0.1060    2.5826   22.0000   18.0000 
3802.0652   12.9919   19.9894    4.3894    6.6079 -999.0000   63.3051    0.1107    2.6453   22.0000   18.0000 
3802.2176   11.5627   20.0530    4.3894    6.4141 -999.0000   63.6602    0.1110    2.7075   18.0000   18.0000 
3802.3700   10.9020   24.2352    4.3639    5.7106 -999.0000   64.9233    0.1101    2.7167   12.0000   18.0000 
3802.5224   10.2412   28.4174    4.3384    5.0070 -999.0000   66.1864    0.1091    2.7259   12.0000   18.0000 
3802.6748   10.2610   28.9513    4.2381    4.1393 -999.0000   66.8653    0.1355    2.7259   12.0000   18.0000 
3802.8272   10.2610   27.4443    4.1897    3.9662 -999.0000   67.2005    0.1416    2.7259   12.0000   18.0000 
3802.9796   10.2610   25.9373    4.1412    3.7932 -999.0000   67.5356    0.1476    2.7259   12.0000   18.0000 
3803.1320   10.2424   25.8871    4.0704    3.6228 -999.0000   68.1214    0.1609    2.7263   12.0000   18.0000 
3803.2844   10.2238   25.8369    3.9995    3.4524 -999.0000   68.7072    0.1742    2.7267   12.0000   18.0000 
3803.4368   10.1797   25.4403    3.8598    3.7268 -999.0000   69.7458    0.1342    2.7259   12.0000   18.0000 
3803.5892   10.1425   23.8494    3.8152    4.5350 -999.0000   69.5911    0.1256    2.7233   12.0000   18.0000 
3803.7416   10.1054   22.2585    3.7706    5.3433 -999.0000   69.4364    0.1170    2.7207   12.0000   18.0000 
3803.8940   10.0996   22.0455    3.7706    5.7983 -999.0000   66.4555    0.1085    2.7183   12.0000   18.0000 
3804.0464   10.0938   21.8326    3.7706    6.2533 -999.0000   63.4746    0.1001    2.7160   12.0000   18.0000 
3804.1988   10.0983   28.5605    3.7486    3.8268 -999.0000   69.3517    0.0850    2.7135   12.0000   18.0000 
3804.3512   10.0983   31.4254    3.7486    3.4955 -999.0000   71.3284    0.0821    2.7164   12.0000   18.0000 
3804.5036   10.0983   34.2903    3.7486    3.1642 -999.0000   73.3051    0.0792    2.7193   12.0000   18.0000 
3804.6560   10.0983   31.4952    3.7269    3.1702 -999.0000   72.0367    0.0795    2.7211   12.0000   18.0000 
3804.8084   10.0983   28.7002    3.7051    3.1762 -999.0000   70.7682    0.0799    2.7230   12.0000   18.0000 
3804.9608   10.1309   24.1843    3.7051    4.7750 -999.0000   68.3898    0.0808    2.7292   12.0000   18.0000 
3805.1132   10.1350   24.7122    3.7160    5.1137 -999.0000   67.2411    0.0815    2.7302   12.0000   18.0000 
3805.2656   10.1390   25.2400    3.7268    5.4525 -999.0000   66.0924    0.0821    2.7312   12.0000   18.0000 
3805.4180   10.1390   25.2842    3.8681    5.6573 -999.0000   65.7140    0.0827    2.7331   12.0000   18.0000 
3805.5704   10.1390   25.3284    4.0095    5.8622 -999.0000   65.3356    0.0833    2.7350   12.0000   18.0000 
3805.7228   10.1390   22.1320    5.0483    6.1054 -999.0000   64.5703    0.0844    2.7398   12.0000   18.0000 
3805.8752   10.1390   21.8870    5.4537    6.1150 -999.0000   64.5800    0.0850    2.7411   12.0000   18.0000 
3806.0276   10.1390   21.6420    5.8591    6.1245 -999.0000   64.5898    0.0855    2.7423   12.0000   18.0000 
3806.1800   10.1314   25.0742    6.0313    5.4689 -999.0000   63.3792    0.0854    2.7335   12.0000   18.0000 
3806.3324   10.1149   23.1356    6.0423    5.8878 -999.0000   63.1163    0.0843    2.7309   12.0000   18.0000 
3806.4848   10.0983   21.1970    6.0533    6.3066 -999.0000   62.8534    0.0831    2.7284   12.0000   18.0000 
3806.6372   10.0983   21.2968    6.0357    6.4691 -999.0000   62.1714    0.0811    2.7233   12.0000   18.0000 
3806.7896   10.0983   21.3966    6.0181    6.6316 -999.0000   61.4894    0.0791    2.7182   12.0000   18.0000 
3806.9420   10.0983   25.6335    5.8790    8.0851 -999.0000   62.6542    0.0796    2.7131   12.0000   18.0000 
3807.0944   10.0983   27.2644    5.3493    7.3007 -999.0000   64.9680    0.0916    2.7125   12.0000   18.0000 
3807.2468   10.0983   28.8953    4.8196    6.5164 -999.0000   67.2818    0.1037    2.7118   12.0000   18.0000 
3807.3992   10.0983   30.3661    4.4781    5.5694 -999.0000   69.2087    0.1365    2.7158   12.0000   18.0000 
3807.5516   10.0983   31.8369    4.1366    4.6224 -999.0000   71.1356    0.1693    2.7199   12.0000   18.0000 
3807.7040   10.1583   40.6462    3.2923    2.2284 -999.0000   75.0089    0.3082    2.7174   22.0000   18.0000 
3807.8564   10.1487   36.4336    3.1827    2.2681 -999.0000   74.9994    0.3093    2.7178   22.0000   18.0000 
3808.0088   10.1390   32.2211    3.0731    2.3079 -999.0000   74.9898    0.3104    2.7182   22.0000    8.0000 
3808.1612   10.1290   30.7655    3.0731    3.0071 -999.0000   74.2195    0.2344    2.6665   22.0000    8.0000 
3808.3136   10.1190   29.3099    3.0731    3.7064 -999.0000   73.4492    0.1584    2.6148   12.0000    8.0000 
3808.4660   10.1692   25.9640    3.1269    3.9729 -999.0000   69.0161    0.1569    2.6047   12.0000    8.0000 
3808.6184   10.1744   26.2294    3.3937    4.0922 -999.0000   68.4487    0.1633    2.6186   12.0000    8.0000 
3808.7708   10.1797   26.4947    3.6604    4.2116 -999.0000   67.8814    0.1697    2.6326   12.0000    8.0000 
3808.9232   10.2081   26.8097    3.7045    4.2608 -999.0000   67.9933    0.1734    2.6479   12.0000   18.0000 
3809.0756   10.2366   27.1246    3.7486    4.3101 -999.0000   68.1051    0.1770    2.6631   12.0000   18.0000 
3809.2280   10.1797   29.2055    3.7486    4.3131 -999.0000   69.4784    0.1729    2.6607   12.0000   18.0000 
3809.3804   10.2300   30.9851    3.4218    3.5065 -999.0000   71.8782    0.1697    2.6315   12.0000   18.0000 
3809.5328   10.2803   32.7648    3.0949    2.6999 -999.0000   74.2780    0.1665    2.6023   22.0000   18.0000 
3809.6852   10.5099   33.7818    2.8611    2.4078 -999.0000   76.3958    0.1601    2.5275   22.0000   18.0000 
3809.8376   10.6789   32.7680    2.7841    2.3444 -999.0000   78.8335    0.1592    2.5258   22.0000    8.0000 
3809.9900   10.8478   31.7542    2.7071    2.2811 -999.0000   81.2712    0.1582    2.5242   22.0000    8.0000 
3810.1424   10.8532   30.7341    2.6968    2.3263 -999.0000   77.2386    0.1581    2.5938   22.0000    8.0000 
3810.2948   10.8586   29.7140    2.6866    2.3715 -999.0000   73.2059    0.1579    2.6634   12.0000    8.0000 
3810.4472   10.9791   26.6631    2.6962    3.9836 -999.0000   67.8153    0.1567    2.6679   12.0000    8.0000 
3810.5996   10.9941   28.1133    2.7439    3.9906 -999.0000   70.9839    0.1572    2.6698   12.0000    8.0000 
