~VERSION INFORMATION
 VERS.                 2.0:   CWLS LOG ASCII STANDARD - VERSION 2.0
 WRAP.                  NO:   SINGLE LINE PER DEPTH STEP
 CREA.                 01/17/2018 13:40:30
#CREATED USING DSPetro VERSION 5000.10.1.3 BY H191660 ON 01/17/2018 13:40:30
~WELL INFORMATION
#MNEM.UNIT       DATA                          DESCRIPTION MNEMONIC
#---------      ---------------------------   --------------------------
 STRT    .M         0.0000                    : START DEPTH
 STOP    .M         3457.9560                 : STOP DEPTH
 STEP    .M         0.1524                    : STEP VALUE
 NULL    .      -999.0000                     : NULL VALUE
 DATE    .      01/17/2018                    : LAS file Creation Date
 WELL .      2717_Robot-1A               : Well Name
 COMP .      Neftex Exploration Insights : Company
 FLD  .                                  : Field
 UWI  .      ZAUWL_005614                : Unique Well Identifier (UWI)
 LOC  .                                  : Location
 RWS  .      -999                        : Def_Rw
 WST  .      -999                        : Def_Rwt
 SRVC .                                  : Contractor
~CURVE INFORMATION
#MNEM              UNIT       API CODE   Curve Type Comments
#----------  --------------- ----------  ---------- -----------
 DEPTH      .M                         : Depth       
 BS         .in                        : BitSize     
 CAL_INCH   .inch                      : caliper     Caliper Log - A representation of the measured diameter of a borehole along its depth
 SP_MV1     .mv                        : SP          Spontaneous Potential - Records the electrical potential produced by the interaction of formation water, conductive drilling mud, and certain ion-sele
 GR_API     .API                       : gammaRay    Gamma Ray (API) - Measures the intensity of natural gamma-ray radiation emitted from formations containing radioactive elements, such as K, Th and U
 LLD_OHMM   .ohmm                      : deepRes     Laterlog Deep Resistivity - Measurement made several feet into the formation; generally considered a measurement of the undisturbed formation
 LLS_OHMM   .ohmm                      : shalRes     Laterlog Shallow Resistivity - one to two feet into the formation; generally considered to measure the formation
 MSFL_OHMM  .ohmm                      : microRes    Micro-Spherically Focused Log - Measurement involves only the first few inches of the formation immediately adjacent to the borehole
 DT_US_FT   .us/ft                     : sonic       Interval Transit Time: Compressional Wave - Evaluates the time it takes for a compressional wave to traverse a fixed distance
 RHOB_G_CC  .g/cc                      : density     Bulk Density - Measures the density of bulk material, including any void space or other materials contained in the subject volume
 DRHO_G_CC  .g/cc                      : drho        Density Correction - Investigates the correction to the Bulk Density log; used as an indication of hole condition to validate the Bulk Density measure
 NPHI_V_V   .dec                       : Neutron     
 PEF_B_E    .b/e-                      : PEF         Photoelectric Factor - A log of photoelectric absorption properties. Often expressed in an approximation unit barns/electron (b/e-)
 LITH       .                          : LITH        Lithology Curve
 LITH_v2    .                          : LITH        Lithology Curve
~A  DEPTH     BS     CAL_INCH   SP_MV1    GR_API   LLD_OHMM  LLS_OHMM MSFL_OHM   DT_US_FT RHOB_G_C  DRHO_G_C   NPHI_V_V  PEF_B_E     LITH    LITH_v2  
# ...
2915.8692    8.5000   13.8498    3.3653  109.6262   11.7314   10.4713    2.5662   75.2789    2.5222    0.0088    0.1840    3.1683   37.0000   37.0000 
2916.0216    8.5000   13.7680    3.5959  112.8178   12.0958   10.6703    1.9811   74.3564    2.5244    0.0065    0.1857    3.2056   37.0000   37.0000 
2916.1740    8.5000   13.6773    3.5647  116.9409   11.9644   10.5926    1.8613   74.6440    2.5354    0.0038    0.1960    3.2138   37.0000   37.0000 
2916.3264    8.5000   13.5956    3.4202  119.8044   11.8716   10.4141    1.6845   75.0578    2.5453    0.0012    0.2035    3.1505   37.0000   37.0000 
2916.4788    8.5000   13.5216    3.1150  122.3438   11.4962   10.1828    1.6853   75.4616    2.5512   -0.0014    0.2028    3.0533   37.0000   37.0000 
2916.6312    8.5000   13.4435    2.9298  120.7834   11.5078   10.1033    1.5159   75.8362    2.5543   -0.0033    0.1962    3.0549   37.0000   37.0000 
2916.7836    8.5000   13.3558    3.1533  115.2391   11.6550   10.2807    1.1546   75.4229    2.5589   -0.0032    0.1862    3.1351   37.0000   37.0000 
2916.9360    8.5000   13.2632    3.6096  108.2902   12.3154   10.7114    0.9834   74.4521    2.5614   -0.0029    0.1735    3.1040   37.0000   37.0000 
2917.0884    8.5000   13.1815    3.7249  105.0734   13.0239   11.1710    1.0005   73.8078    2.5613   -0.0038    0.1600    3.0147   37.0000   37.0000 
2917.2408    8.5000   13.0986    3.3620  106.8420   13.0757   11.6065    1.1073   73.4422    2.5668   -0.0052    0.1565    2.9253   37.0000   37.0000 
2917.3932    8.5000   12.9796    2.9558  110.7255   13.3674   12.0148    1.3571   73.0000    2.5755   -0.0065    0.1652    2.9798   37.0000   37.0000 
2917.5456    8.5000   12.8239    3.1097  113.3886   13.5029   12.0808    2.5045   72.9909    2.5835   -0.0066    0.1768    3.0829   37.0000   37.0000 
2917.6980    8.5000   12.6478    3.6546  115.1023   12.9504   12.0200    4.5584   73.6630    2.5826   -0.0067    0.1844    3.1051   37.0000   37.0000 
2917.8504    8.5000   12.4610    3.9411  118.1290   12.8997   11.9845    6.5267   73.6922    2.5796   -0.0080    0.1924    3.0191   37.0000   37.0000 
2918.0028    8.5000   12.3107    4.2458  121.8716   13.4641   11.9521    8.4150   73.3560    2.5825   -0.0095    0.2001    2.9072   37.0000   37.0000 
2918.1552    8.5000   12.1959    4.3109  125.2423   13.2721   11.9039   11.2495   73.5866    2.5901   -0.0129    0.2047    2.9158   37.0000   37.0000 
2918.3076    8.5000   12.1244    4.2795  125.2373   12.3103   11.7509   14.1098   74.2211    2.5999   -0.0183    0.2036    3.0059   37.0000   37.0000 
2918.4600    8.5000   12.0931    4.2362  125.5231   12.0598   11.4763   14.7250   74.7017    2.6095   -0.0221    0.2029    3.0425   37.0000   37.0000 
2918.6124    8.5000   12.0733    4.2048  127.4059   11.9078   10.8528   13.8621   74.8655    2.6159   -0.0237    0.2074    3.0522   37.0000   37.0000 
2918.7648    8.5000   12.0367    4.1805  130.9691   10.5594    9.9497   13.9084   75.1539    2.6161   -0.0240    0.2202    3.1540   37.0000   37.0000 
2918.9172    8.5000   12.0000    4.0100  132.9241    9.1817    8.9952   13.5310   75.9426    2.6092   -0.0222    0.2443    3.3525   37.0000   37.0000 
2919.0696    8.5000   11.9616    3.9761  133.7389    8.7794    8.3172   12.0091   77.6155    2.5995   -0.0204    0.2673    3.4634   37.0000   37.0000 
2919.2220    8.5000   11.9135    4.2454  134.1559    8.6098    7.9856   10.3339   79.8172    2.5890   -0.0191    0.2712    3.3680   37.0000   37.0000 
2919.3744    8.5000   11.8678    4.6488  134.6796    8.2976    8.1214    9.7678   81.4225    2.5834   -0.0158    0.2469    3.2717   37.0000   37.0000 
2919.5268    8.5000   11.8125    4.6392  131.0008    8.6161    8.8149   10.4844   81.1630    2.5840   -0.0125    0.2067    3.2964   37.0000   37.0000 
2919.6792    8.5000   11.7608    4.3002  125.6485    9.9821    9.7857   11.5935   79.1922    2.5861   -0.0107    0.1796    3.4171   30.9937   37.0000 
2919.8316    8.5000   11.7236    4.1345  122.0022   11.4531   10.9783   12.7775   76.9138    2.5930   -0.0084    0.1812    3.5108   23.0126   37.0000 
2919.9840    8.5000   11.6737    4.4152  122.9330   12.3063   12.2418   14.3315   75.5099    2.5989   -0.0076    0.2031    3.4903   30.9937   37.0000 
2920.1364    8.5000   11.6154    4.7808  126.6299   12.6449   13.0253   15.6084   75.3176    2.5985   -0.0096    0.2190    3.4495   37.0000   37.0000 
2920.2888    8.5000   11.5547    5.3671  130.6729   12.6462   12.7601   15.8809   76.1250    2.5957   -0.0117    0.2255    3.3065   37.0000   37.0000 
2920.4412    8.5000   11.4994    6.1626  132.6135   12.3812   12.0447   15.4570   77.2500    2.5897   -0.0125    0.2310    3.1894   37.0000   37.0000 
2920.5936    8.5000   11.4681    6.8258  131.7516   11.9640   11.6670   14.5504   78.2306    2.5852   -0.0132    0.2392    3.0886   37.0000   37.0000 
2920.7460    8.5000   11.4411    7.0446  131.4699   11.7953   11.6102   13.7916   78.8461    2.5842   -0.0141    0.2398    3.0879   37.0000   37.0000 
2920.8984    8.5000   11.3786    7.0975  131.9636   12.3567   11.8113   13.8557   79.0767    2.5882   -0.0142    0.2259    3.0456   37.0000   37.0000 
2921.0508    8.5000   11.3137    7.2391  133.5360   12.5577   11.6599   14.3342   78.6440    2.5904   -0.0122    0.2145    3.1352   37.0000   37.0000 
2921.2032    8.5000   11.2626    7.3256  131.6828   12.2585   11.4639   14.6568   78.0198    2.5870   -0.0081    0.2179    3.3585   37.0000   37.0000 
2921.3556    8.5000   11.1989    7.3206  127.6972   12.0342   11.6286   12.5218   77.8841    2.5768   -0.0036    0.2323    3.5856   37.0000   37.0000 
2921.5080    8.5000   11.1274    7.3351  125.2514   11.9904   11.8338    9.2701   77.7025    2.5707    0.0001    0.2415    3.6544   37.0000   37.0000 
2921.6604    8.5000   11.0505    7.7533  127.2803   12.3648   11.8765    9.0997   78.1729    2.5723    0.0020    0.2350    3.6116   37.0000   37.0000 
2921.8128    8.5000   10.9802    8.6184  132.4072   12.8067   12.2273   11.8308   78.4901    2.5786    0.0017    0.2227    3.6572   37.0000   37.0000 
2921.9652    8.5000   10.9165    9.5366  135.1436   12.9802   12.4629   13.9713   78.2599    2.5809   -0.0026    0.2151    3.6581   37.0000   37.0000 
2922.1176    8.5000   10.8582   10.4500  135.9624   12.7241   12.3263   14.0234   78.4905    2.5761   -0.0094    0.2257    3.6135   37.0000   37.0000 
2922.2700    8.5000   10.8137   11.3993  138.1250   12.4684   12.1512   14.0818   79.2500    2.5718   -0.0143    0.2470    3.5811   37.0000   37.0000 
2922.4224    8.5000   10.7644   12.4597  140.9517   12.5283   12.0916   14.4534   79.8362    2.5694   -0.0156    0.2584    3.4828   37.0000   37.0000 
2922.5748    8.5000   10.7218   14.0458  140.2275   12.8162   12.1829   14.6255   79.8366    2.5666   -0.0163    0.2499    3.2655   37.0000   37.0000 
2922.7272    8.5000   10.6785   15.7740  133.5882   13.1375   12.4162   14.6484   79.2302    2.5652   -0.0177    0.2322    3.0659   37.0000   37.0000 
2922.8796    8.5000   10.6455   17.4712  127.8610   13.8308   12.8631   14.7573   77.7310    2.5697   -0.0173    0.2195    3.0033   37.0000   37.0000 
2923.0320    8.5000   10.6052   19.4685  125.7031   14.6685   13.2214   14.7248   76.5099    2.5739   -0.0160    0.2147    3.0213   37.0000   37.0000 
2923.1844    8.5000   10.5535   21.3420  126.1582   14.9300   13.3263   15.3177   75.6630    2.5746   -0.0150    0.2179    3.0551   37.0000   37.0000 
2923.3368    8.5000   10.5024   22.4850  127.2023   14.9246   13.3214   14.6794   74.6642    2.5790   -0.0117    0.2256    3.0264   37.0000   37.0000 
2923.4892    8.5000   10.4645   23.2388  129.2265   14.7310   12.6531   12.7976   75.2698    2.5834   -0.0074    0.2322    3.0627   37.0000   37.0000 
2923.6416    8.5000   10.4020   24.4299  132.4612   13.6457   11.6372   12.3149   77.3457    2.5821   -0.0042    0.2399    3.1676   37.0000   37.0000 
2923.7940    8.5000   10.3281   26.1518  135.7599   12.2918   10.5511   11.6430   79.4620    2.5747   -0.0022    0.2605    3.1938   37.0000   37.0000 
