~VERSION INFORMATION
 VERS.                 2.0:   CWLS LOG ASCII STANDARD - VERSION 2.0
 WRAP.                  NO:   SINGLE LINE PER DEPTH STEP
 CREA.                 01/17/2018 13:40:30
#CREATED USING DSPetro VERSION 5000.10.1.3 BY H191660 ON 01/17/2018 13:40:30
~WELL INFORMATION
#MNEM.UNIT       DATA                          DESCRIPTION MNEMONIC
#---------      ---------------------------   --------------------------
 STRT    .M         0.0000                    : START DEPTH
 STOP    .M         3457.9560                 : STOP DEPTH
 STEP    .M         0.1524                    : STEP VALUE
 NULL    .      -999.0000                     : NULL VALUE
 DATE    .      01/17/2018                    : LAS file Creation Date
 WELL .      2717_Robot-1A               : Well Name
 COMP .      Neftex Exploration Insights : Company
 FLD  .                                  : Field
 UWI  .      ZAUWL_005614                : Unique Well Identifier (UWI)
 LOC  .                                  : Location
 RWS  .      -999                        : Def_Rw
 WST  .      -999                        : Def_Rwt
 SRVC .                                  : Contractor
~CURVE INFORMATION
#MNEM              UNIT       API CODE   Curve Type Comments
#----------  --------------- ----------  ---------- -----------
 DEPTH      .M                         : Depth       
 BS         .in                        : BitSize     
 CAL_INCH   .inch                      : caliper     Caliper Log - A representation of the measured diameter of a borehole along its depth
 SP_MV1     .mv                        : SP          Spontaneous Potential - Records the electrical potential produced by the interaction of formation water, conductive drilling mud, and certain ion-sele
 GR_API     .API                       : gammaRay    Gamma Ray (API) - Measures the intensity of natural gamma-ray radiation emitted from formations containing radioactive elements, such as K, Th and U
 LLD_OHMM   .ohmm                      : deepRes     Laterlog Deep Resistivity - Measurement made several feet into the formation; generally considered a measurement of the undisturbed formation
 LLS_OHMM   .ohmm                      : shalRes     Laterlog Shallow Resistivity - one to two feet into the formation; generally considered to measure the formation
 MSFL_OHMM  .ohmm                      : microRes    Micro-Spherically Focused Log - Measurement involves only the first few inches of the formation immediately adjacent to the borehole
 DT_US_FT   .us/ft                     : sonic       Interval Transit Time: Compressional Wave - Evaluates the time it takes for a compressional wave to traverse a fixed distance
 RHOB_G_CC  .g/cc                      : density     Bulk Density - Measures the density of bulk material, including any void space or other materials contained in the subject volume
 DRHO_G_CC  .g/cc                      : drho        Density Correction - Investigates the correction to the Bulk Density log; used as an indication of hole condition to validate the Bulk Density measure
 NPHI_V_V   .dec                       : Neutron     
 PEF_B_E    .b/e-                      : PEF         Photoelectric Factor - A log of photoelectric absorption properties. Often expressed in an approximation unit barns/electron (b/e-)
 LITH       .                          : LITH        Lithology Curve
 LITH_v2    .                          : LITH        Lithology Curve
~A  DEPTH     BS     CAL_INCH   SP_MV1    GR_API   LLD_OHMM  LLS_OHMM MSFL_OHM   DT_US_FT RHOB_G_C  DRHO_G_C   NPHI_V_V  PEF_B_E     LITH    LITH_v2  
# ...
3352.0380    8.5000    8.8479    0.9814  169.3066   10.1878   10.0976   10.3552   74.9134    2.7156   -0.0078    0.2428    3.8647   37.0000   37.0000 
3352.1904    8.5000    8.8390    1.0244  167.7033    9.6860    9.4839   11.4887   74.7116    2.7002   -0.0063    0.2458    3.8512   37.0000   37.0000 
3352.3428    8.5000    8.8762    0.7171  168.7025    9.5282    9.2409    9.5573   74.7405    2.6696   -0.0048    0.2532    3.7942   37.0000   37.0000 
3352.4952    8.5000    8.8955    0.5342  170.4691    9.8427    9.4730    6.4597   75.0961    2.6447   -0.0051    0.2581    3.6540   37.0000   37.0000 
3352.6476    8.5000    8.9135    0.3732  170.5407   10.4091    9.8295    5.6037   75.4134    2.6326   -0.0028    0.2558    3.5562   37.0000   37.0000 
3352.8000    8.5000    8.9338    0.1088  172.3351   10.8887   10.3815    7.5612   75.5578    2.6224    0.0050    0.2477    3.5379   37.0000   37.0000 
3352.9524    8.5000    8.8894   -0.1195  175.3968   11.2091   11.0800   10.8759   75.6922    2.6122    0.0136    0.2398    3.6415   37.0000   37.0000 
3353.1048    8.5000    8.8474   -0.0714  179.3331   11.4513   11.4114   12.9517   75.8078    2.6131    0.0279    0.2363    3.7830   37.0000   37.0000 
3353.2572    8.5000    8.9069    0.1688  179.2994   11.3421   11.1316   11.7251   75.9711    2.6322    0.0564    0.2401    3.8948   37.0000   37.0000 
3353.4096    8.5000    8.9188    0.3805  178.6246   10.8885   10.5045    8.1595   76.0095    2.6551    0.0851    0.2500    3.9881   37.0000   37.0000 
3353.5620    8.5000    8.8716    0.6303  179.0103   10.3461    9.7811    5.5194   75.6634    2.6717    0.0989    0.2559    4.1349   37.0000   37.0000 
3353.7144    8.5000    8.9939    0.7771  179.4316    9.8946    9.3367    4.6385   75.1155    2.6868    0.1059    0.2504    4.4216   37.0000   37.0000 
3353.8668    8.5000    9.0884    1.0826  178.2888    9.7763    9.3974    4.3119   74.8078    2.7081    0.1058    0.2431    4.7280   37.0000   37.0000 
3354.0192    8.5000    9.0709    1.3174  177.2698   10.2277    9.9226    5.2009   74.8366    2.7252    0.0971    0.2383    4.7346   37.0000   37.0000 
3354.1716    8.5000    9.0091    0.5657  177.3168   11.3149   10.8749    7.0722   75.2116    2.7387    0.0841    0.2353    4.4938   37.0000   37.0000 
3354.3240    8.5000    8.9706   -0.1674  177.7413   12.2166   11.7791    7.3094   75.7017    2.7346    0.0696    0.2344    4.3738   37.0000   37.0000 
3354.4764    8.5000    8.9682   -0.1461  178.9992   12.4981   12.1783    5.2924   75.9328    2.7185    0.0559    0.2409    4.4313   37.0000   37.0000 
3354.6288    8.5000    9.0162    0.1522  180.2413   12.2261   12.0314    4.1740   75.9806    2.7153    0.0592    0.2534    4.6501   37.0000   37.0000 
3354.7812    8.5000    9.0211    0.4090  180.4688   11.8090   11.4463    5.4497   75.8655    2.7137    0.0806    0.2652    4.6412   37.0000   37.0000 
3354.9336    8.5000    9.0102    0.3806  177.0585   11.4473   10.9750    7.0425   75.7884    2.6875    0.1048    0.2661    4.4026   37.0000   37.0000 
3355.0860    8.5000    8.9627    0.4139  171.9794   11.1162   10.7812    6.3715   75.7694    2.6506    0.1312    0.2619    4.1329   37.0000   37.0000 
3355.2384    8.5000    8.8834    0.4430  166.5981   10.9483   10.6678    4.8294   75.8556    2.6339    0.1691    0.2566    4.0575   37.0000   37.0000 
3355.3908    8.5000    8.8306    0.6329  163.4415   11.1037   10.7140    4.4112   75.6056    2.6308    0.2079    0.2505    4.1656   37.0000   37.0000 
3355.5432    8.5000    8.9177    1.1401  161.1452   11.2286   10.8534    4.2116   75.3082    2.6238    0.2253    0.2456    4.2842   37.0000   37.0000 
3355.6956    8.5000    9.1515    2.0826  160.2983   11.2290   10.9644    4.2827   75.8172    2.6314    0.2308    0.2433    4.2275   37.0000   37.0000 
3355.8480    8.5000    9.3142    3.2648  161.2698   11.1844   11.0236    3.6919   76.2785    2.6653    0.2290    0.2431    4.0345   37.0000   11.0000 
3356.0004    8.5000    9.3096    3.9068  162.3255   11.0721   10.8805    2.9118   75.8750    2.6994    0.2139    0.2402    3.8662   37.0000   11.0000 
3356.1528    8.5000    9.3263    4.2122  159.8643   10.8606   10.5589    3.5512   75.2694    2.7151    0.1919    0.2314    3.9295   37.0000   11.0000 
3356.3052    8.5000    9.3366    4.5053  154.3275   10.8327   10.6601    4.7650   75.0289    2.7171    0.1726    0.2293    4.1573   37.0000   11.0000 
3356.4576    8.5000    9.3390    4.9120  150.8865   11.1164   11.1985    5.8519   75.2888    2.7145    0.1608    0.2335    4.3714   37.0000   11.0000 
3356.6100    8.5000    9.3942    5.8227  153.3956   11.5993   12.0056    6.7415   72.1495    2.7106    0.1604    0.2368    4.4204   37.0000   11.0000 
3356.7624    8.5000    9.4285    6.9238  159.8165   12.4539   12.8323    5.0619   67.3445    2.6952    0.1699    0.2383    4.3700   37.0000   11.0000 
3356.9148    8.5000    9.4905    7.9813  165.0475   12.9681   13.1520    2.7910   72.3422    2.6798    0.1888    0.2369    4.4637   37.0000   11.0000 
3357.0672    8.5000    9.7970    8.8516  167.1432   13.0905   13.0672    2.0499   76.0095    2.6646    0.2127    0.2335    4.7555   30.9937   11.0000 
3357.2196    8.5000   10.3310    9.7557  167.2702   12.9635   13.0033    1.6786   75.5672    2.6105    0.2280    0.2225    5.1342   17.0063   11.0000 
3357.3720    8.5000   10.8221   10.9019  165.6701   12.9618   12.7520    1.3603   74.5285    2.4939    0.2261    0.2054    5.2809   11.0000   11.0000 
3357.5244    8.5000   11.3246   11.4882  154.9098   13.4721   12.5342    1.2681   68.5245    2.3743    0.2216    0.1830    5.0991   11.0000   11.0000 
3357.6768    8.5000   11.8599   11.3351  131.0121   14.9213   13.1560    1.0270   61.9233    2.3272    0.2264    0.1579    4.7226   11.0000   11.0000 
3357.8292    8.5000   12.2044   11.5729  101.9316   17.7141   14.9378    0.8153   68.2548    2.3542    0.2377    0.1372    4.4176   11.0000   11.0000 
3357.9816    8.5000   12.5018   12.5032   81.6810   20.9977   17.3915    0.7379   73.1828    2.4048    0.2474    0.1278    4.3983   11.0000   11.0000 
3358.1340    8.5000   12.8558   13.8131   74.8254   23.6180   19.5140    0.7624   73.8271    2.4203    0.2442    0.1323    4.3597   11.0000   11.0000 
3358.2864    8.5000   13.2596   14.9956   78.2213   25.9001   20.6304    0.7764   74.5669    2.3933    0.2219    0.1470    4.2641   11.0000   11.0000 
3358.4388    8.5000   13.5900   15.6399   84.9903   26.6775   20.5594    0.8020   74.8465    2.3601    0.1975    0.1593    4.2757   11.0000   11.0000 
3358.5912    8.5000   13.6755   15.9719   88.7180   24.7719   19.4637    0.7999   74.8647    2.3231    0.1777    0.1659    4.5922   11.0000   11.0000 
3358.7436    8.5000   13.6822   16.3009   83.4066   22.7698   19.2305    0.5901   74.2120    2.2559    0.1554    0.1636    4.8954   11.0000   11.0000 
3358.8960    8.5000   13.7878   16.3708   70.9066   21.9271   19.6302    0.4118   73.9134    2.1682    0.1387    0.1600    4.9259   11.0000   11.0000 
3359.0484    8.5000   13.7853   16.3612   59.7624   23.0266   21.0689    0.3667   73.7306    2.0944    0.1317    0.1572    4.6067   11.0000   11.0000 
3359.2008    8.5000   13.4025   16.5247   56.1961   26.0689   23.8552    0.3991   73.1828    2.0735    0.1276    0.1608    4.1767   11.0000   11.0000 
3359.3532    8.5000   12.9222   16.8636   57.9350   27.8780   25.5052    0.6128   72.7116    2.1215    0.1247    0.1638    3.7883   11.0000   11.0000 
3359.5056    8.5000   12.9242   17.1134   59.4701   28.0234   25.5985    1.0341   69.2081    2.2086    0.1268    0.1557    3.4799   11.0000   11.0000 
3359.6580    8.5000   13.0895   17.0897   59.0969   28.1606   25.3920    1.2049   64.6511    2.2835    0.1368    0.1474    3.3713   11.0000   11.0000 
3359.8104    8.5000   13.1857   16.8657   60.2823   28.3092   25.1849    1.2110   68.9968    2.2951    0.1467    0.1538    3.4876   11.0000   11.0000 
3359.9628    8.5000   13.2284   16.1546   64.4255   28.3540   25.1596    1.2659   72.8750    2.2545    0.1505    0.1741    3.8180   11.0000   11.0000 
