~VERSION INFORMATION
 VERS.                 2.0:   CWLS LOG ASCII STANDARD - VERSION 2.0
 WRAP.                  NO:   SINGLE LINE PER DEPTH STEP
 CREA.                 01/17/2018 13:40:30
#CREATED USING DSPetro VERSION 5000.10.1.3 BY H191660 ON 01/17/2018 13:40:30
~WELL INFORMATION
#MNEM.UNIT       DATA                          DESCRIPTION MNEMONIC
#---------      ---------------------------   --------------------------
 STRT    .M         0.0000                    : START DEPTH
 STOP    .M         3457.9560                 : STOP DEPTH
 STEP    .M         0.1524                    : STEP VALUE
 NULL    .      -999.0000                     : NULL VALUE
 DATE    .      01/17/2018                    : LAS file Creation Date
 WELL .      2717_Robot-1A               : Well Name
 COMP .      Neftex Exploration Insights : Company
 FLD  .                                  : Field
 UWI  .      ZAUWL_005614                : Unique Well Identifier (UWI)
 LOC  .                                  : Location
 RWS  .      -999                        : Def_Rw
 WST  .      -999                        : Def_Rwt
 SRVC .                                  : Contractor
~CURVE INFORMATION
#MNEM              UNIT       API CODE   Curve Type Comments
#----------  --------------- ----------  ---------- -----------
 DEPTH      .M                         : Depth       
 BS         .in                        : BitSize     
 CAL_INCH   .inch                      : caliper     Caliper Log - A representation of the measured diameter of a borehole along its depth
 SP_MV1     .mv                        : SP          Spontaneous Potential - Records the electrical potential produced by the interaction of formation water, conductive drilling mud, and certain ion-sele
 GR_API     .API                       : gammaRay    Gamma Ray (API) - Measures the intensity of natural gamma-ray radiation emitted from formations containing radioactive elements, such as K, Th and U
 LLD_OHMM   .ohmm                      : deepRes     Laterlog Deep Resistivity - Measurement made several feet into the formation; generally considered a measurement of the undisturbed formation
 LLS_OHMM   .ohmm                      : shalRes     Laterlog Shallow Resistivity - one to two feet into the formation; generally considered to measure the formation
 MSFL_OHMM  .ohmm                      : microRes    Micro-Spherically Focused Log - Measurement involves only the first few inches of the formation immediately adjacent to the borehole
 DT_US_FT   .us/ft                     : sonic       Interval Transit Time: Compressional Wave - Evaluates the time it takes for a compressional wave to traverse a fixed distance
 RHOB_G_CC  .g/cc                      : density     Bulk Density - Measures the density of bulk material, including any void space or other materials contained in the subject volume
 DRHO_G_CC  .g/cc                      : drho        Density Correction - Investigates the correction to the Bulk Density log; used as an indication of hole condition to validate the Bulk Density measure
 NPHI_V_V   .dec                       : Neutron     
 PEF_B_E    .b/e-                      : PEF         Photoelectric Factor - A log of photoelectric absorption properties. Often expressed in an approximation unit barns/electron (b/e-)
 LITH       .                          : LITH        Lithology Curve
 LITH_v2    .                          : LITH        Lithology Curve
~A  DEPTH     BS     CAL_INCH   SP_MV1    GR_API   LLD_OHMM  LLS_OHMM MSFL_OHM   DT_US_FT RHOB_G_C  DRHO_G_C   NPHI_V_V  PEF_B_E     LITH    LITH_v2  
# ...
2657.3988    8.5000   11.3767   24.6554  114.9185    9.9916    7.9971    1.7377   74.1970    2.3968    0.1621    0.2011    4.7821   11.0000   11.0000 
2657.5512    8.5000   11.3510   25.1091  116.9856   10.8201    8.4395    1.5013   74.6972    2.4138    0.1442    0.2051    4.6136   11.0000   11.0000 
2657.7036    8.5000   11.0564   25.4625  117.5896   10.7847    8.5631    1.7707   74.8596    2.4382    0.1205    0.2049    4.2231   11.0000   11.0000 
2657.8560    8.5000   10.3907   25.6744  112.6377   10.3607    8.0703    2.5984   74.6226    2.4585    0.0776    0.1952    3.7848   11.0000   11.0000 
2658.0084    8.5000    9.7309   25.6873  101.5042    9.1517    7.1680    3.0721   74.1758    2.4596    0.0302    0.1739    3.3730   11.0000   36.0000 
2658.1608    8.5000    9.3883   25.7363   89.8056    7.9116    6.3975    3.2973   73.5958    2.4546    0.0039    0.1567    3.0311   11.0000   36.0000 
2658.3132    8.5000    9.2248   25.8418   82.6145    6.8147    5.6290    3.2689   73.1132    2.4500   -0.0026    0.1514    2.9759   14.6962   36.0000 
2658.4656    8.5000    9.0733   26.1685   76.1924    5.5237    4.4443    3.2149   73.0932    2.4534    0.0010    0.1440    3.1328   23.3038   36.0000 
2658.6180    8.5000    8.8473   26.6355   68.2177    4.4098    3.4552    3.1810   73.4518    2.4565    0.0059    0.1253    3.2256   27.0000   36.0000 
2658.7704    8.5000    8.5601   27.1571   59.4776    3.5545    2.9031    2.4929   73.9826    2.4537    0.0088    0.1017    3.1402   27.0000   27.0000 
2658.9228    8.5000    8.3859   27.6907   54.3811    3.3835    2.7051    2.0924   74.5445    2.4488    0.0108    0.0904    2.8930   27.0000   27.0000 
2659.0752    8.5000    8.3456   28.1131   53.5361    3.2956    2.7301    2.3748   74.9567    2.4513    0.0119    0.0913    2.6722   27.0000   27.0000 
2659.2276    8.5000    8.3438   28.4036   54.1469    3.5392    2.8218    2.8911   75.0578    2.4623    0.0116    0.0910    2.5476   27.0000   27.0000 
2659.3800    8.5000    8.3438   28.6574   54.7471    3.8272    2.9835    2.9413   74.7502    2.4726    0.0128    0.0878    2.4705   27.0000   27.0000 
2659.5324    8.5000    8.3438   28.6193   55.5759    3.9474    3.0326    2.6567   74.0475    2.4752    0.0139    0.0853    2.4283   27.0000   27.0000 
2659.6848    8.5000    8.3438   28.5668   59.2890    3.7112    3.0231    2.5892   73.2903    2.4766    0.0121    0.0917    2.3823   27.0000   27.0000 
2659.8372    8.5000    8.3438   28.6065   65.7215    3.9138    3.1566    2.5839   72.9480    2.4816    0.0095    0.1041    2.4345   27.0000   27.0000 
2659.9896    8.5000    8.3438   28.7471   70.2466    4.3654    3.3592    3.1532   73.0703    2.4902    0.0078    0.1122    2.5567   27.0000   36.0000 
2660.1420    8.5000    8.3438   29.0618   67.0233    4.6704    3.4622    4.1783   73.0735    2.4865    0.0038    0.1142    2.7293   27.0000   36.0000 
2660.2944    8.5000    8.3438   29.5545   59.2430    4.0889    3.2345    3.7287   72.5857    2.4690   -0.0013    0.1162    2.7937   27.0000   36.0000 
2660.4468    8.5000    8.3275   30.0289   52.5760    3.2979    2.5927    2.8701   71.5854    2.4408   -0.0048    0.1207    2.7197   27.0000   27.0000 
2660.5992    8.5000    8.2879   30.2788   49.7626    2.5102    1.9541    2.1996   70.6345    2.4116   -0.0052    0.1238    2.6282   27.0000   27.0000 
2660.7516    8.5000    8.2674   30.2185   48.8792    2.1618    1.5720    1.5509   70.6581    2.3890   -0.0039    0.1232    2.6912   27.0000   27.0000 
2660.9040    8.5000    8.2674   30.0941   48.3908    2.0292    1.4212    1.1667   71.8659    2.3760   -0.0030    0.1209    2.9532   27.0000   27.0000 
2661.0564    8.5000    8.2698   30.0292   49.6314    2.1140    1.4873    1.1471   73.8431    2.3784   -0.0005    0.1181    3.1318   27.0000   27.0000 
2661.2088    8.5000    8.2674   30.0310   50.2811    2.1156    1.6101    1.4844   75.9480    2.3898    0.0021    0.1163    3.0763   27.0000   27.0000 
2661.3612    8.5000    8.2656   30.0350   48.9776    2.2254    1.6838    1.9193   77.1138    2.3960    0.0011    0.1197    2.9111   27.0000   27.0000 
2661.5136    8.5000    8.2656   29.8053   46.9725    2.2900    1.7311    1.8795   77.0860    2.3927   -0.0015    0.1260    2.8975   27.0000   27.0000 
2661.6660    8.5000    8.2782   29.5190   47.1009    2.4187    1.7247    1.4662   76.4481    2.3842   -0.0023    0.1260    3.0123   27.0000   27.0000 
2661.8184    8.5000    8.3185   29.4823   48.1392    2.5890    1.8296    1.2697   75.7862    2.3793   -0.0032    0.1170    3.0964   27.0000   27.0000 
2661.9708    8.5000    8.3726   29.7082   47.6696    3.0995    2.0840    1.2557   75.4535    2.3872   -0.0048    0.1054    3.1245   27.0000   27.0000 
2662.1232    8.5000    8.4141   30.0774   45.6092    3.0796    2.1413    1.5817   75.3467    2.4122   -0.0043    0.0997    3.0854   27.0000   27.0000 
2662.2756    8.5000    8.3991   30.4916   44.4035    2.7019    1.8880    2.2367   74.8235    2.4354   -0.0038    0.1047    3.0119   27.0000   27.0000 
2662.4280    8.5000    8.3582   31.0548   43.7120    2.2943    1.6419    2.4370   73.4776    2.4345   -0.0048    0.1157    2.8594   27.0000   27.0000 
2662.5804    8.5000    8.3384   31.6649   43.5241    2.3063    1.6099    1.8595   72.0574    2.4094   -0.0083    0.1234    2.7642   27.0000   27.0000 
2662.7328    8.5000    8.3167   32.1689   43.9691    2.4091    1.6855    1.3451   71.8248    2.3913   -0.0102    0.1215    2.7694   27.0000   27.0000 
2662.8852    8.5000    8.2903   32.4130   44.6438    2.7922    1.7996    1.4845   72.8298    2.3937   -0.0089    0.1129    2.8722   27.0000   27.0000 
2663.0376    8.5000    8.2777   32.4471   43.9464    2.9776    1.9189    1.9418   73.8667    2.4033   -0.0070    0.1063    2.9345   27.0000   27.0000 
2663.1900    8.5000    8.2692   32.1837   40.7302    3.0447    1.9336    1.9323   73.8420    2.4005   -0.0072    0.1076    2.9247   27.0000   27.0000 
2663.3424    8.5000    8.2656   31.6929   36.5924    2.6515    1.7674    1.6110   73.0848    2.3898   -0.0073    0.1134    2.8512   27.0000   27.0000 
2663.4948    8.5000    8.2656   31.1388   34.0215    2.3300    1.5441    1.3314   72.5877    2.3783   -0.0062    0.1220    2.7040   27.0000   27.0000 
2663.6472    8.5000    8.2656   30.9127   33.2802    2.0447    1.3554    1.1583   72.7257    2.3667   -0.0052    0.1299    2.5320   27.0000   27.0000 
2663.7996    8.5000    8.2656   31.1060   35.0647    1.8779    1.2456    1.0616   73.5959    2.3556   -0.0042    0.1377    2.4475   27.0000   27.0000 
2663.9520    8.5000    8.2656   31.5822   38.0342    1.7116    1.2140    1.0082   74.9464    2.3475   -0.0039    0.1397    2.5209   27.0000   27.0000 
2664.1044    8.5000    8.2656   31.9195   41.0040    1.7490    1.2285    0.9919   76.2191    2.3463   -0.0038    0.1346    2.6859   27.0000   27.0000 
2664.2568    8.5000    8.2656   31.9939   43.1305    1.8652    1.3316    1.0145   77.1820    2.3524   -0.0038    0.1246    2.8194   27.0000   27.0000 
2664.4092    8.5000    8.2656   31.8116   44.8403    2.1654    1.4713    1.1480   77.8092    2.3634   -0.0043    0.1183    2.8308   27.0000   27.0000 
2664.5616    8.5000    8.2656   31.4741   44.8125    2.3675    1.6081    1.4048   77.8526    2.3757   -0.0047    0.1210    2.7218   27.0000   27.0000 
2664.7140    8.5000    8.2728   31.1272   43.4564    2.3992    1.6792    1.5518   77.1990    2.3853   -0.0058    0.1280    2.5116   27.0000   27.0000 
2664.8664    8.5000    8.2987   30.8605   41.9502    2.3402    1.6460    1.5407   76.2795    2.3892   -0.0069    0.1326    2.2792   27.0000   27.0000 
2665.0188    8.5000    8.3287   30.5408   42.5203    2.2126    1.5797    1.4538   75.4377    2.3904   -0.0074    0.1327    2.1671   27.0000   27.0000 
2665.1712    8.5000    8.3438   30.1832   47.2200    2.3636    1.5714    1.4028   74.9770    2.3921   -0.0083    0.1325    2.2360   27.0000   27.0000 
2665.3236    8.5000    8.3696   29.8283   56.3131    2.4702    1.6461    1.5190   75.1988    2.3985   -0.0080    0.1343    2.4453   27.0000   36.0000 
