~VERSION INFORMATION
 VERS.                 2.0:   CWLS LOG ASCII STANDARD - VERSION 2.0
 WRAP.                  NO:   SINGLE LINE PER DEPTH STEP
 CREA.                 01/17/2018 13:40:30
#CREATED USING DSPetro VERSION 5000.10.1.3 BY H191660 ON 01/17/2018 13:40:30
~WELL INFORMATION
#MNEM.UNIT       DATA                          DESCRIPTION MNEMONIC
#---------      ---------------------------   --------------------------
 STRT    .M         0.0000                    : START DEPTH
 STOP    .M         3457.9560                 : STOP DEPTH
 STEP    .M         0.1524                    : STEP VALUE
 NULL    .      -999.0000                     : NULL VALUE
 DATE    .      01/17/2018                    : LAS file Creation Date
 WELL .      2717_Robot-1A               : Well Name
 COMP .      Neftex Exploration Insights : Company
 FLD  .                                  : Field
 UWI  .      ZAUWL_005614                : Unique Well Identifier (UWI)
 LOC  .                                  : Location
 RWS  .      -999                        : Def_Rw
 WST  .      -999                        : Def_Rwt
 SRVC .                                  : Contractor
~CURVE INFORMATION
#MNEM              UNIT       API CODE   Curve Type Comments
#----------  --------------- ----------  ---------- -----------
 DEPTH      .M                         : Depth       
 BS         .in                        : BitSize     
 CAL_INCH   .inch                      : caliper     Caliper Log - A representation of the measured diameter of a borehole along its depth
 SP_MV1     .mv                        : SP          Spontaneous Potential - Records the electrical potential produced by the interaction of formation water, conductive drilling mud, and certain ion-sele
 GR_API     .API                       : gammaRay    Gamma Ray (API) - Measures the intensity of natural gamma-ray radiation emitted from formations containing radioactive elements, such as K, Th and U
 LLD_OHMM   .ohmm                      : deepRes     Laterlog Deep Resistivity - Measurement made several feet into the formation; generally considered a measurement of the undisturbed formation
 LLS_OHMM   .ohmm                      : shalRes     Laterlog Shallow Resistivity - one to two feet into the formation; generally considered to measure the formation
 MSFL_OHMM  .ohmm                      : microRes    Micro-Spherically Focused Log - Measurement involves only the first few inches of the formation immediately adjacent to the borehole
 DT_US_FT   .us/ft                     : sonic       Interval Transit Time: Compressional Wave - Evaluates the time it takes for a compressional wave to traverse a fixed distance
 RHOB_G_CC  .g/cc                      : density     Bulk Density - Measures the density of bulk material, including any void space or other materials contained in the subject volume
 DRHO_G_CC  .g/cc                      : drho        Density Correction - Investigates the correction to the Bulk Density log; used as an indication of hole condition to validate the Bulk Density measure
 NPHI_V_V   .dec                       : Neutron     
 PEF_B_E    .b/e-                      : PEF         Photoelectric Factor - A log of photoelectric absorption properties. Often expressed in an approximation unit barns/electron (b/e-)
 LITH       .                          : LITH        Lithology Curve
 LITH_v2    .                          : LITH        Lithology Curve
~A  DEPTH     BS     CAL_INCH   SP_MV1    GR_API   LLD_OHMM  LLS_OHMM MSFL_OHM   DT_US_FT RHOB_G_C  DRHO_G_C   NPHI_V_V  PEF_B_E     LITH    LITH_v2  
# ...
1025.8044   17.5000   22.5313    4.3351   14.8252 -999.0000 -999.0000 -999.0000 -999.0000    1.5000   -0.0294    0.4499    3.1791 -999.0000    3.0000 
1025.9568   17.5000   22.5313    4.0530   14.3481 -999.0000 -999.0000 -999.0000 -999.0000    1.4763   -0.0317    0.4673    3.1667 -999.0000    3.0000 
1026.1092   17.5000   22.5313    3.7682   13.9457 -999.0000 -999.0000 -999.0000 -999.0000    1.4731   -0.0336    0.4707    3.2296 -999.0000    3.0000 
1026.2616   17.5000   22.5313    3.4474   14.3410 -999.0000 -999.0000 -999.0000 -999.0000    1.4807   -0.0334    0.4816    3.2878 -999.0000    3.0000 
1026.4140   17.5000   22.5313    3.0738   14.2882 -999.0000 -999.0000 -999.0000 -999.0000    1.4764   -0.0332    0.4780    3.2808 -999.0000    3.0000 
1026.5664   17.5000   22.5313    2.7272   14.7880 -999.0000 -999.0000 -999.0000 -999.0000    1.4718   -0.0323    0.4651    3.2303 -999.0000    3.0000 
1026.7188   17.5000   22.5313    2.4190   15.3608 -999.0000 -999.0000 -999.0000 -999.0000    1.5081   -0.0273    0.4377    3.2182 -999.0000    3.0000 
1026.8712   17.5000   22.5313    2.1103   16.0313 -999.0000 -999.0000 -999.0000 -999.0000    1.5979   -0.0197    0.4090    3.2850 -999.0000    3.0000 
1027.0236   17.5000   22.5313    1.9603   16.3047 -999.0000 -999.0000 -999.0000 -999.0000    1.7112   -0.0087    0.3957    3.3882 -999.0000    3.0000 
1027.1760   17.5000   22.5313    1.9801   15.2471 -999.0000 -999.0000 -999.0000 -999.0000    1.8066    0.0067    0.3891    3.4803 -999.0000    3.0000 
1027.3284   17.5000   22.5313    2.0141   13.5135 -999.0000 -999.0000 -999.0000 -999.0000    1.8744    0.0246    0.3838    3.5494 -999.0000    3.0000 
1027.4808   17.5000   22.5313    2.1667   12.2114 -999.0000 -999.0000 -999.0000 -999.0000    1.9247    0.0441    0.3732    3.6094 -999.0000    3.0000 
1027.6332   17.5000   22.5313    2.2590   13.2165 -999.0000 -999.0000 -999.0000 -999.0000    1.9569    0.0596    0.3702    3.6548 -999.0000    3.0000 
1027.7856   17.5000   22.5313    2.5073   15.1857 -999.0000 -999.0000 -999.0000 -999.0000    1.9715    0.0692    0.3661    3.6363 -999.0000    3.0000 
1027.9380   17.5000   22.5313    2.9002   15.7009 -999.0000 -999.0000 -999.0000 -999.0000    1.9784    0.0772    0.3546    3.5926 -999.0000    3.0000 
1028.0904   17.5000   22.5313    3.1759   14.7139 -999.0000 -999.0000 -999.0000 -999.0000    1.9846    0.0836    0.3345    3.5852 -999.0000    3.0000 
1028.2428   17.5000   22.5313    3.5195   13.9544 -999.0000 -999.0000 -999.0000 -999.0000    1.9840    0.0830    0.3241    3.6564 -999.0000    3.0000 
1028.3952   17.5000   22.5313    3.7337   14.5648 -999.0000 -999.0000 -999.0000 -999.0000    1.9799    0.0795    0.3229    3.7038 -999.0000    3.0000 
1028.5476   17.5000   22.5313    3.7518   15.6732 -999.0000 -999.0000 -999.0000 -999.0000    1.9736    0.0757    0.3322    3.6514 -999.0000    3.0000 
1028.7000   17.5000   22.5313    3.6421   15.9924 -999.0000 -999.0000 -999.0000 -999.0000    1.9641    0.0678    0.3447    3.5611 -999.0000    3.0000 
1028.8524   17.5000   22.5313    3.5882   14.6615 -999.0000 -999.0000 -999.0000 -999.0000    1.9601    0.0610    0.3541    3.4826 -999.0000    3.0000 
1029.0048   17.5000   22.5313    3.5914   13.6788 -999.0000 -999.0000 -999.0000 -999.0000    1.9647    0.0600    0.3541    3.4722 -999.0000    3.0000 
1029.1572   17.5000   22.5313    3.5391   14.2631 -999.0000 -999.0000 -999.0000 -999.0000    1.9683    0.0600    0.3558    3.4950 -999.0000    3.0000 
1029.3096   17.5000   22.5313    3.3452   15.7117 -999.0000 -999.0000 -999.0000 -999.0000    1.9644    0.0565    0.3671    3.5464 -999.0000    3.0000 
1029.4620   17.5000   22.5313    3.1014   16.8043 -999.0000 -999.0000 -999.0000 -999.0000    1.9602    0.0538    0.3780    3.5601 -999.0000    3.0000 
1029.6144   17.5000   22.5313    2.9519   17.7173 -999.0000 -999.0000 -999.0000 -999.0000    1.9574    0.0546    0.3737    3.5612 -999.0000    3.0000 
1029.7668   17.5000   22.5313    2.8648   18.7312 -999.0000 -999.0000 -999.0000 -999.0000    1.9533    0.0562    0.3640    3.6043 -999.0000    3.0000 
1029.9192   17.5000   22.5313    2.8333   19.2619 -999.0000 -999.0000 -999.0000 -999.0000    1.9405    0.0555    0.3613    3.5995 -999.0000    3.0000 
1030.0716   17.5000   22.5313    2.9858   18.5879 -999.0000 -999.0000 -999.0000 -999.0000    1.9223    0.0529    0.3660    3.5429 -999.0000    3.0000 
1030.2240   17.5000   22.5313    3.1051   18.6673 -999.0000 -999.0000 -999.0000 -999.0000    1.9082    0.0491    0.3718    3.5023 -999.0000    3.0000 
1030.3764   17.5000   22.5313    3.1376   18.0291 -999.0000 -999.0000 -999.0000 -999.0000    1.8972    0.0418    0.3674    3.5759 -999.0000    3.0000 
1030.5288   17.5000   22.5313    3.1109   16.6409 -999.0000 -999.0000 -999.0000 -999.0000    1.8906    0.0375    0.3746    3.6831 -999.0000    3.0000 
1030.6812   17.5000   22.5313    3.1127   15.0616 -999.0000 -999.0000 -999.0000 -999.0000    1.8840    0.0375    0.3972    3.6831 -999.0000    3.0000 
1030.8336   17.5000   22.5313    3.0739   14.4194 -999.0000 -999.0000 -999.0000 -999.0000    1.8669    0.0323    0.4315    3.5711 -999.0000    3.0000 
1030.9860   17.5000   22.5313    2.9868   14.8439 -999.0000 -999.0000 -999.0000 -999.0000    1.8472    0.0244    0.4553    3.4575 -999.0000    3.0000 
1031.1384   17.5000   22.5313    2.8230   14.8691 -999.0000 -999.0000 -999.0000 -999.0000    1.8321    0.0192    0.4385    3.3902 -999.0000    3.0000 
1031.2908   17.5000   22.5313    2.7823   14.7976 -999.0000 -999.0000 -999.0000 -999.0000    1.8173    0.0118    0.4023    3.3790 -999.0000    3.0000 
1031.4432   17.5000   22.5313    2.9506   14.8850 -999.0000 -999.0000 -999.0000 -999.0000    1.8047    0.0044    0.3764    3.3924 -999.0000    3.0000 
1031.5956   17.5000   22.5313    3.0927   14.9450 -999.0000 -999.0000 -999.0000 -999.0000    1.7987    0.0019    0.3867    3.3902 -999.0000    3.0000 
1031.7480   17.5000   22.5313    3.2628   15.6419 -999.0000 -999.0000 -999.0000 -999.0000    1.7949    0.0017    0.4188    3.3926 -999.0000    3.0000 
1031.9004   17.5000   22.5313    3.4059   16.8852 -999.0000 -999.0000 -999.0000 -999.0000    1.7898    0.0013    0.4382    3.4088 -999.0000    3.0000 
1032.0528   17.5000   22.5313    3.5035   18.5400 -999.0000 -999.0000 -999.0000 -999.0000    1.7818    0.0014    0.4277    3.4363 -999.0000    3.0000 
1032.2052   17.5000   22.5313    3.6412   20.0098 -999.0000 -999.0000 -999.0000 -999.0000    1.7713    0.0018    0.3994    3.4564 -999.0000    3.0000 
1032.3576   17.5000   22.5313    3.7623   19.7381 -999.0000 -999.0000 -999.0000 -999.0000    1.7595    0.0005    0.3750    3.4902 -999.0000    3.0000 
1032.5100   17.5000   22.5313    3.8374   18.2494 -999.0000 -999.0000 -999.0000 -999.0000    1.7474   -0.0034    0.3609    3.4941 -999.0000    3.0000 
1032.6624   17.5000   22.5313    3.7451   16.4720 -999.0000 -999.0000 -999.0000 -999.0000    1.7382   -0.0065    0.3479    3.4593 -999.0000    3.0000 
1032.8148   17.5000   22.5313    3.6219   15.9807 -999.0000 -999.0000 -999.0000 -999.0000    1.7328   -0.0078    0.3372    3.4167 -999.0000    3.0000 
1032.9672   17.5000   22.5313    3.4870   16.3741 -999.0000 -999.0000 -999.0000 -999.0000    1.7270   -0.0105    0.3398    3.4324 -999.0000    3.0000 
1033.1196   17.5000   22.5313    3.3999   17.0562 -999.0000 -999.0000 -999.0000 -999.0000    1.7220   -0.0140    0.3582    3.4731 -999.0000    3.0000 
1033.2720   17.5000   22.5313    3.3340   17.5411 -999.0000 -999.0000 -999.0000 -999.0000    1.7166   -0.0160    0.3771    3.4620 -999.0000    3.0000 
1033.4244   17.5000   22.5313    3.3089   17.5041 -999.0000 -999.0000 -999.0000 -999.0000    1.7106   -0.0166    0.3913    3.4279 -999.0000    3.0000 
1033.5768   17.5000   22.5313    3.2236   16.0138 -999.0000 -999.0000 -999.0000 -999.0000    1.7048   -0.0171    0.3974    3.4089 -999.0000    3.0000 
1033.7292   17.5000   22.5313    3.0810   14.4237 -999.0000 -999.0000 -999.0000 -999.0000    1.7014   -0.0163    0.4144    3.3801 -999.0000    3.0000 
