~VERSION INFORMATION
 VERS.                 2.0:   CWLS LOG ASCII STANDARD - VERSION 2.0
 WRAP.                  NO:   SINGLE LINE PER DEPTH STEP
 CREA.                 01/17/2018 13:40:30
#CREATED USING DSPetro VERSION 5000.10.1.3 BY H191660 ON 01/17/2018 13:40:30
~WELL INFORMATION
#MNEM.UNIT       DATA                          DESCRIPTION MNEMONIC
#---------      ---------------------------   --------------------------
 STRT    .M         0.0000                    : START DEPTH
 STOP    .M         3457.9560                 : STOP DEPTH
 STEP    .M         0.1524                    : STEP VALUE
 NULL    .      -999.0000                     : NULL VALUE
 DATE    .      01/17/2018                    : LAS file Creation Date
 WELL .      2717_Robot-1A               : Well Name
 COMP .      Neftex Exploration Insights : Company
 FLD  .                                  : Field
 UWI  .      ZAUWL_005614                : Unique Well Identifier (UWI)
 LOC  .                                  : Location
 RWS  .      -999                        : Def_Rw
 WST  .      -999                        : Def_Rwt
 SRVC .                                  : Contractor
~CURVE INFORMATION
#MNEM              UNIT       API CODE   Curve Type Comments
#----------  --------------- ----------  ---------- -----------
 DEPTH      .M                         : Depth       
 BS         .in                        : BitSize     
 CAL_INCH   .inch                      : caliper     Caliper Log - A representation of the measured diameter of a borehole along its depth
 SP_MV1     .mv                        : SP          Spontaneous Potential - Records the electrical potential produced by the interaction of formation water, conductive drilling mud, and certain ion-sele
 GR_API     .API                       : gammaRay    Gamma Ray (API) - Measures the intensity of natural gamma-ray radiation emitted from formations containing radioactive elements, such as K, Th and U
 LLD_OHMM   .ohmm                      : deepRes     Laterlog Deep Resistivity - Measurement made several feet into the formation; generally considered a measurement of the undisturbed formation
 LLS_OHMM   .ohmm                      : shalRes     Laterlog Shallow Resistivity - one to two feet into the formation; generally considered to measure the formation
 MSFL_OHMM  .ohmm                      : microRes    Micro-Spherically Focused Log - Measurement involves only the first few inches of the formation immediately adjacent to the borehole
 DT_US_FT   .us/ft                     : sonic       Interval Transit Time: Compressional Wave - Evaluates the time it takes for a compressional wave to traverse a fixed distance
 RHOB_G_CC  .g/cc                      : density     Bulk Density - Measures the density of bulk material, including any void space or other materials contained in the subject volume
 DRHO_G_CC  .g/cc                      : drho        Density Correction - Investigates the correction to the Bulk Density log; used as an indication of hole condition to validate the Bulk Density measure
 NPHI_V_V   .dec                       : Neutron     
 PEF_B_E    .b/e-                      : PEF         Photoelectric Factor - A log of photoelectric absorption properties. Often expressed in an approximation unit barns/electron (b/e-)
 LITH       .                          : LITH        Lithology Curve
 LITH_v2    .                          : LITH        Lithology Curve
~A  DEPTH     BS     CAL_INCH   SP_MV1    GR_API   LLD_OHMM  LLS_OHMM MSFL_OHM   DT_US_FT RHOB_G_C  DRHO_G_C   NPHI_V_V  PEF_B_E     LITH    LITH_v2  
# ...
3263.1888    8.5000    8.5739   21.7259   55.3683   14.9531   11.9327    2.6679   69.9715    2.4646   -0.0014    0.1217    2.5115   16.7753   36.0000 
3263.3412    8.5000    8.6708   20.9407   73.7496   14.2923   11.4219    2.8553   70.1444    2.4891    0.0063    0.1713    2.8972   11.0000   36.0000 
3263.4936    8.5000    8.8906   19.3682  104.2929   13.8153   11.0194    3.1753   71.1155    2.5190    0.0313    0.2045    3.3173   11.0000   11.0000 
3263.6460    8.5000    9.1623   17.6311  134.7559   14.2371   11.0162    4.0096   72.0668    2.5419    0.0752    0.2145    3.6394   11.0000   11.0000 
3263.7984    8.5000    9.4542   16.0763  154.3821   15.7238   12.2007    4.4257   72.2694    2.5677    0.1320    0.2199    3.8959   11.0000   11.0000 
3263.9508    8.5000    9.6845   14.5051  162.2567   19.9319   15.7690    3.8074   72.3461    2.6090    0.1938    0.2289    4.1455   11.0000   11.0000 
3264.1032    8.5000    9.8761   12.9936  162.2702   23.5802   19.8215    2.1598   72.5289    2.6592    0.2452    0.2399    4.2837   11.0000   11.0000 
3264.2556    8.5000    9.9284   11.7494  162.0004   23.2426   21.0221    1.6494   72.8078    2.6928    0.2699    0.2488    4.3106   11.0000   11.0000 
3264.4080    8.5000    9.7878   11.0431  165.4636   22.3577   20.4950    2.4939   73.3655    2.7019    0.2687    0.2509    4.1819   11.0000   11.0000 
3264.5604    8.5000    9.5692   10.6137  172.5756   21.4970   19.6856    3.6459   74.1634    2.6952    0.2541    0.2476    4.0660   11.0000   11.0000 
3264.7128    8.5000    9.4579   10.3015  175.5063   19.5756   18.7111    4.7002   74.8750    2.6898    0.2388    0.2466    3.9853   11.0000   11.0000 
3264.8652    8.5000    9.3534    9.6460  170.3082   18.2437   17.6846    4.9816   75.4422    2.6921    0.2310    0.2544    4.0321   11.0000   11.0000 
3265.0176    8.5000    9.2495    8.5242  163.9529   17.2657   16.7477    5.2444   75.8461    2.6982    0.2293    0.2661    4.0916   11.0000   11.0000 
3265.1700    8.5000    9.2350    7.4000  161.6938   16.4113   16.1603    4.7171   76.1250    2.6945    0.2249    0.2766    4.0668   11.0000   11.0000 
3265.3224    8.5000    9.2584    6.7157  163.1725   16.5122   15.9303    3.1705   76.3172    2.6878    0.2153    0.2805    4.0613   11.0000   11.0000 
3265.4748    8.5000    9.2410    6.3843  165.4430   15.8615   15.7144    2.8339   76.3461    2.6877    0.2072    0.2764    4.0790   11.0000   11.0000 
3265.6272    8.5000    9.2230    5.9141  168.8078   15.6732   15.4908    4.4260   76.4233    2.6850    0.2003    0.2689    4.1172   11.0000   11.0000 
3265.7796    8.5000    9.1893    5.3474  172.2492   15.1941   15.1567    9.9408   76.8461    2.6725    0.1893    0.2653    4.1247   11.0000   11.0000 
3265.9320    8.5000    9.1341    4.6847  173.5668   14.6716   14.8005   15.6467   76.9707    2.6554    0.1704    0.2655    4.1495   11.0000   11.0000 
3266.0844    8.5000    9.1184    4.0989  173.1828   14.9353   14.7687   12.1188   76.4426    2.6498    0.1410    0.2643    4.2547   11.0000   11.0000 
3266.2368    8.5000    9.1232    3.6089  172.8176   14.9818   15.0593    9.8697   76.1922    2.6589    0.1087    0.2618    4.1999   11.0000   11.0000 
3266.3892    8.5000    9.1100    2.7684  171.7773   15.7867   15.6853   13.5308   76.0095    2.6616    0.0704    0.2677    4.1044   11.0000   11.0000 
3266.5416    8.5000    9.1041    1.7524  168.3758   16.9477   17.0157   16.8467   75.6155    2.6469    0.0285    0.2757    4.0222   11.0000   11.0000 
3266.6940    8.5000    9.2289    0.9791  165.9719   18.3656   18.5591   13.9600   75.4616    2.6332    0.0050    0.2760    4.1137   11.0000   11.0000 
3266.8464    8.5000    9.3089    0.6096  165.9422   19.3471   19.5180    8.5909   75.5095    2.6267    0.0025    0.2671    4.2739   11.0000   11.0000 
3266.9988    8.5000    9.3377    0.7137  166.3556   19.7252   19.8178   10.8701   75.5194    2.6157    0.0094    0.2597    4.2587   11.0000   11.0000 
3267.1512    8.5000    9.3450    0.9736  166.4905   20.1390   19.8640   19.7873   75.5479    2.6125    0.0368    0.2573    4.2416   11.0000   11.0000 
3267.3036    8.5000    9.3516    0.9362  167.5585   19.4812   19.7546   23.9647   75.1922    2.6292    0.0830    0.2572    4.3829   11.0000   11.0000 
3267.4560    8.5000    9.3816    0.7058  169.8453   19.1488   19.7812   24.4120   74.6155    2.6495    0.1143    0.2546    4.5356   11.0000   11.0000 
3267.6084    8.5000    9.3839    0.2501  170.8651   19.6392   19.9242   25.2970   74.1345    2.6773    0.1302    0.2550    4.4564   11.0000   11.0000 
3267.7608    8.5000    9.3390   -0.0954  170.8176   19.4004   19.8358   25.2416   73.5866    2.7130    0.1431    0.2554    4.3171   11.0000   11.0000 
3267.9132    8.5000    9.4002   -0.2560  170.8746   19.2731   19.5625   20.5290   73.2694    2.7245    0.1415    0.2520    4.4042   11.0000   11.0000 
3268.0656    8.5000    9.4489   -0.6447  170.7504   18.6558   18.9965   11.1185   73.2884    2.7011    0.1253    0.2484    4.7094   11.0000   11.0000 
3268.2180    8.5000    9.4111   -1.1414  169.7967   18.0323   18.3180    7.6058   73.3655    2.6835    0.1275    0.2568    4.8875   11.0000   11.0000 
3268.3704    8.5000    9.4141   -1.3258  168.6084   17.4884   17.7007   11.3244   73.5961    2.6802    0.1415    0.2692    4.7728   11.0000   11.0000 
3268.5228    8.5000    9.4224   -1.2941  170.8066   16.8359   17.1225   13.2424   74.0194    2.6776    0.1450    0.2730    4.5200   11.0000   11.0000 
3268.6752    8.5000    9.3955   -1.3172  174.7903   16.4601   16.6911   15.9583   74.6634    2.6793    0.1343    0.2690    4.1621   11.0000   11.0000 
3268.8276    8.5000    9.3912   -1.3673  179.2472   16.0152   16.1473   18.2409   75.0479    2.6874    0.1225    0.2674    3.8851   11.0000   11.0000 
3268.9800    8.5000    9.4292   -1.5009  181.1942   15.3850   15.7040   14.7577   74.9616    2.6928    0.1140    0.2674    3.8248   11.0000   11.0000 
3269.1324    8.5000    9.5811   -1.4379  183.0174   15.4844   15.6653    7.8858   74.8172    2.6901    0.1094    0.2612    3.8391   11.0000   11.0000 
3269.2848    8.5000    9.6273   -1.2905  182.8560   15.5783   16.0403    5.7149   74.6250    2.6732    0.1039    0.2524    3.8540   11.0000   11.0000 
3269.4372    8.5000    9.4875   -1.3188  181.6444   16.2019   16.3871    8.9742   74.4039    2.6595    0.1058    0.2500    3.9328   11.0000   11.0000 
3269.5896    8.5000    9.5494   -1.6569  180.4802   16.2637   16.4475   13.1753   74.1922    2.6464    0.1227    0.2542    4.0774   11.0000   11.0000 
3269.7420    8.5000    9.8123   -2.1033  178.5099   16.3088   16.4856   14.8445   74.1060    2.6148    0.1396    0.2597    4.2169   11.0000   11.0000 
3269.8944    8.5000    9.8828   -2.3115  175.0368   16.4068   16.4621   12.5199   74.4134    2.5917    0.1547    0.2635    4.2425   11.0000   11.0000 
3270.0468    8.5000    9.8636   -2.0105  171.5036   16.2460   16.2482    7.7987   74.7211    2.6096    0.1853    0.2626    4.2432   11.0000   11.0000 
3270.1992    8.5000    9.8594   -1.5846  172.9794   16.5278   16.1509    5.0316   74.8750    2.6606    0.2250    0.2573    4.3555   11.0000   11.0000 
3270.3516    8.5000    9.9418   -1.4274  174.7306   16.2356   16.0243    3.6741   74.9422    2.6918    0.2423    0.2553    4.4901   11.0000   11.0000 
3270.5040    8.5000   10.1171   -1.4968  174.4418   15.5603   15.6100    2.7261   74.9039    2.7002    0.2420    0.2554    4.5267   11.0000   11.0000 
3270.6564    8.5000   10.1672   -2.0269  174.5305   15.2266   15.0336    2.5002   74.9328    2.7124    0.2425    0.2524    4.4117   11.0000   11.0000 
3270.8088    8.5000   10.2236   -2.5335  176.5661   14.5844   14.5963    3.6339   75.1539    2.7291    0.2415    0.2508    4.3192   11.0000   11.0000 
3270.9612    8.5000   10.3107   -2.6144  176.5665   13.9018   14.3104    5.0983   75.5000    2.7428    0.2389    0.2540    4.4384   11.0000   11.0000 
3271.1136    8.5000   10.3503   -2.4578  174.7417   13.5693   13.9450    3.7840   75.9328    2.7388    0.2328    0.2632    4.6399   11.0000   11.0000 
