~VERSION INFORMATION
 VERS.                 2.0:   CWLS LOG ASCII STANDARD - VERSION 2.0
 WRAP.                  NO:   SINGLE LINE PER DEPTH STEP
 CREA.                 01/17/2018 13:40:30
#CREATED USING DSPetro VERSION 5000.10.1.3 BY H191660 ON 01/17/2018 13:40:30
~WELL INFORMATION
#MNEM.UNIT       DATA                          DESCRIPTION MNEMONIC
#---------      ---------------------------   --------------------------
 STRT    .M         0.0000                    : START DEPTH
 STOP    .M         3457.9560                 : STOP DEPTH
 STEP    .M         0.1524                    : STEP VALUE
 NULL    .      -999.0000                     : NULL VALUE
 DATE    .      01/17/2018                    : LAS file Creation Date
 WELL .      2717_Robot-1A               : Well Name
 COMP .      Neftex Exploration Insights : Company
 FLD  .                                  : Field
 UWI  .      ZAUWL_005614                : Unique Well Identifier (UWI)
 LOC  .                                  : Location
 RWS  .      -999                        : Def_Rw
 WST  .      -999                        : Def_Rwt
 SRVC .                                  : Contractor
~CURVE INFORMATION
#MNEM              UNIT       API CODE   Curve Type Comments
#----------  --------------- ----------  ---------- -----------
 DEPTH      .M                         : Depth       
 BS         .in                        : BitSize     
 CAL_INCH   .inch                      : caliper     Caliper Log - A representation of the measured diameter of a borehole along its depth
 SP_MV1     .mv                        : SP          Spontaneous Potential - Records the electrical potential produced by the interaction of formation water, conductive drilling mud, and certain ion-sele
 GR_API     .API                       : gammaRay    Gamma Ray (API) - Measures the intensity of natural gamma-ray radiation emitted from formations containing radioactive elements, such as K, Th and U
 LLD_OHMM   .ohmm                      : deepRes     Laterlog Deep Resistivity - Measurement made several feet into the formation; generally considered a measurement of the undisturbed formation
 LLS_OHMM   .ohmm                      : shalRes     Laterlog Shallow Resistivity - one to two feet into the formation; generally considered to measure the formation
 MSFL_OHMM  .ohmm                      : microRes    Micro-Spherically Focused Log - Measurement involves only the first few inches of the formation immediately adjacent to the borehole
 DT_US_FT   .us/ft                     : sonic       Interval Transit Time: Compressional Wave - Evaluates the time it takes for a compressional wave to traverse a fixed distance
 RHOB_G_CC  .g/cc                      : density     Bulk Density - Measures the density of bulk material, including any void space or other materials contained in the subject volume
 DRHO_G_CC  .g/cc                      : drho        Density Correction - Investigates the correction to the Bulk Density log; used as an indication of hole condition to validate the Bulk Density measure
 NPHI_V_V   .dec                       : Neutron     
 PEF_B_E    .b/e-                      : PEF         Photoelectric Factor - A log of photoelectric absorption properties. Often expressed in an approximation unit barns/electron (b/e-)
 LITH       .                          : LITH        Lithology Curve
 LITH_v2    .                          : LITH        Lithology Curve
~A  DEPTH     BS     CAL_INCH   SP_MV1    GR_API   LLD_OHMM  LLS_OHMM MSFL_OHM   DT_US_FT RHOB_G_C  DRHO_G_C   NPHI_V_V  PEF_B_E     LITH    LITH_v2  
# ...
1195.4256   17.5000   22.5313    7.2456   22.1786 -999.0000 -999.0000 -999.0000 -999.0000    2.0870   -0.0177    0.2634    3.8770 -999.0000    3.0000 
1195.5780   17.5000   22.5313    7.2807   23.4654 -999.0000 -999.0000 -999.0000 -999.0000    2.0441   -0.0195    0.2779    3.6685 -999.0000    3.0000 
1195.7304   17.5000   22.5313    7.6678   25.4732 -999.0000 -999.0000 -999.0000 -999.0000    2.0510   -0.0212    0.2944    3.7340 -999.0000    3.0000 
1195.8828   17.5000   22.5313    8.2605   26.8642 -999.0000 -999.0000 -999.0000 -999.0000    2.1011   -0.0222    0.2956    3.9609 -999.0000    3.0000 
1196.0352   17.5000   22.5313    8.7579   27.7065 -999.0000 -999.0000 -999.0000 -999.0000    2.1533   -0.0287    0.2967    4.0952 -999.0000    3.0000 
1196.1876   17.5000   22.5313    9.1769   27.2178 -999.0000 -999.0000 -999.0000 -999.0000    2.1819   -0.0364    0.3068    4.1079 -999.0000    3.0000 
1196.3400   17.5000   22.5313    9.1890   24.8622 -999.0000 -999.0000 -999.0000 -999.0000    2.1859   -0.0400    0.3181    4.1422 -999.0000    3.0000 
1196.4924   17.5000   22.5313    8.8390   22.2173 -999.0000 -999.0000 -999.0000 -999.0000    2.1773   -0.0404    0.3156    4.2255 -999.0000    3.0000 
1196.6448   17.5000   22.5313    8.2229   19.4907 -999.0000 -999.0000 -999.0000 -999.0000    2.1690   -0.0369    0.2994    4.1230 -999.0000    3.0000 
1196.7972   17.5000   22.5313    7.2663   17.4331 -999.0000 -999.0000 -999.0000 -999.0000    2.1688   -0.0336    0.2899    3.8944 -999.0000    3.0000 
1196.9496   17.5000   22.5313    6.1559   16.6721 -999.0000 -999.0000 -999.0000 -999.0000    2.1774   -0.0320    0.3014    3.7723 -999.0000    3.0000 
1197.1020   17.5000   22.5313    5.4617   17.4480 -999.0000 -999.0000 -999.0000 -999.0000    2.1923   -0.0286    0.3185    3.8388 -999.0000    3.0000 
1197.2544   17.5000   22.5313    5.1158   19.2995 -999.0000 -999.0000 -999.0000 -999.0000    2.1996   -0.0280    0.3232    3.9209 -999.0000    3.0000 
1197.4068   17.5000   22.5313    4.9163   19.7958 -999.0000 -999.0000 -999.0000 -999.0000    2.1940   -0.0326    0.3225    3.8819 -999.0000    3.0000 
1197.5592   17.5000   22.5313    4.8493   19.1799 -999.0000 -999.0000 -999.0000 -999.0000    2.1890   -0.0351    0.3109    3.9878 -999.0000    3.0000 
1197.7116   17.5000   22.5313    5.1017   18.1892 -999.0000 -999.0000 -999.0000 -999.0000    2.1954   -0.0337    0.2939    4.2296 -999.0000    3.0000 
1197.8640   17.5000   22.5313    5.5881   17.9678 -999.0000 -999.0000 -999.0000 -999.0000    2.1954   -0.0335    0.2782    4.3931 -999.0000    3.0000 
1198.0164   17.5000   22.5313    6.1946   18.3218 -999.0000 -999.0000 -999.0000 -999.0000    2.1802   -0.0341    0.2824    4.2642 -999.0000    3.0000 
1198.1688   17.5000   22.5313    6.7228   17.9553 -999.0000 -999.0000 -999.0000 -999.0000    2.1558   -0.0339    0.3031    4.0709 -999.0000    3.0000 
1198.3212   17.5000   22.5313    6.8451   17.4202 -999.0000 -999.0000 -999.0000 -999.0000    2.1411   -0.0324    0.3218    3.9254 -999.0000    3.0000 
1198.4736   17.5000   22.5313    6.7810   18.0444 -999.0000 -999.0000 -999.0000 -999.0000    2.1425   -0.0302    0.3334    3.9404 -999.0000    3.0000 
1198.6260   17.5000   22.5313    6.7985   20.2128 -999.0000 -999.0000 -999.0000 -999.0000    2.1528   -0.0282    0.3360    4.0677 -999.0000    3.0000 
1198.7784   17.5000   22.5313    6.9105   24.0026 -999.0000 -999.0000 -999.0000 -999.0000    2.1665   -0.0248    0.3381    4.1667 -999.0000    3.0000 
1198.9308   17.5000   22.5313    7.1154   26.7730 -999.0000 -999.0000 -999.0000 -999.0000    2.1774   -0.0211    0.3408    4.1343 -999.0000    3.0000 
1199.0832   17.5000   22.5313    7.2924   27.5805 -999.0000 -999.0000 -999.0000 -999.0000    2.1769   -0.0213    0.3429    4.0434 -999.0000    3.0000 
1199.2356   17.5000   22.5313    7.5551   26.0569 -999.0000 -999.0000 -999.0000 -999.0000    2.1710   -0.0234    0.3377    4.0517 -999.0000    3.0000 
1199.3880   17.5000   22.5313    7.8395   25.1416 -999.0000 -999.0000 -999.0000 -999.0000    2.1717   -0.0218    0.3287    4.1244 -999.0000    3.0000 
1199.5404   17.5000   22.5313    8.0391   26.6490 -999.0000 -999.0000 -999.0000 -999.0000    2.1748   -0.0203    0.3222    4.1823 -999.0000    3.0000 
1199.6928   17.5000   22.5313    8.0465   29.0302 -999.0000 -999.0000 -999.0000 -999.0000    2.1723   -0.0214    0.3245    4.1304 -999.0000    3.0000 
1199.8452   17.5000   22.5313    7.7659   30.2269 -999.0000 -999.0000 -999.0000 -999.0000    2.1666   -0.0212    0.3327    3.9930 -999.0000    3.0000 
1199.9976   17.5000   22.5313    7.2428   29.2799 -999.0000 -999.0000 -999.0000 -999.0000    2.1647   -0.0186    0.3442    3.9232 -999.0000    3.0000 
1200.1500   17.5000   22.5313    6.7411   27.9362 -999.0000 -999.0000 -999.0000 -999.0000    2.1631   -0.0170    0.3493    3.9551 -999.0000    3.0000 
1200.3024   17.5000   22.5313    6.3428   25.2375 -999.0000 -999.0000 -999.0000 -999.0000    2.1576   -0.0172    0.3503    4.0591 -999.0000    3.0000 
1200.4548   17.5000   22.5313    5.9710   21.9403 -999.0000 -999.0000 -999.0000 -999.0000    2.1449   -0.0163    0.3395    4.1229 -999.0000    3.0000 
1200.6072   17.5000   22.5313    5.6899   18.3784 -999.0000 -999.0000 -999.0000 -999.0000    2.1278   -0.0101    0.3116    4.1418 -999.0000    3.0000 
1200.7596   17.5000   22.5313    5.5571   16.5099 -999.0000 -999.0000 -999.0000 -999.0000    2.1136   -0.0017    0.2782    4.1295 -999.0000    3.0000 
1200.9120   17.5000   22.5313    5.4606   17.1055 -999.0000 -999.0000 -999.0000 -999.0000    2.1088    0.0044    0.2630    4.0454 -999.0000    3.0000 
1201.0644   17.5000   22.5313    5.4215   19.8098 -999.0000 -999.0000 -999.0000 -999.0000    2.1131    0.0057    0.2708    3.9830 -999.0000    3.0000 
1201.2168   17.5000   22.5313    5.3004   22.7018 -999.0000 -999.0000 -999.0000 -999.0000    2.1211    0.0058    0.2875    3.9884 -999.0000    3.0000 
1201.3692   17.5000   22.5313    5.1040   24.4080 -999.0000 -999.0000 -999.0000 -999.0000    2.1320    0.0021    0.3076    4.0230 -999.0000    3.0000 
1201.5216   17.5000   22.5313    4.8235   24.3159 -999.0000 -999.0000 -999.0000 -999.0000    2.1410   -0.0071    0.3388    4.0549 -999.0000    3.0000 
1201.6740   17.5000   22.5313    4.5936   23.3476 -999.0000 -999.0000 -999.0000 -999.0000    2.1454   -0.0139    0.3559    4.0523 -999.0000    3.0000 
1201.8264   17.5000   22.5313    4.4602   22.3302 -999.0000 -999.0000 -999.0000 -999.0000    2.1510   -0.0108    0.3427    4.0760 -999.0000    3.0000 
1201.9788   17.5000   22.5313    4.3613   21.4635 -999.0000 -999.0000 -999.0000 -999.0000    2.1564   -0.0075    0.3110    4.1367 -999.0000    3.0000 
1202.1312   17.5000   22.5313    4.4413   22.2504 -999.0000 -999.0000 -999.0000 -999.0000    2.1573   -0.0095    0.2959    4.1737 -999.0000    3.0000 
1202.2836   17.5000   22.5313    4.5941   24.2112 -999.0000 -999.0000 -999.0000 -999.0000    2.1574   -0.0096    0.3044    4.1776 -999.0000    3.0000 
1202.4360   17.5000   22.5313    4.6969   25.1473 -999.0000 -999.0000 -999.0000 -999.0000    2.1497   -0.0060    0.3084    4.1433 -999.0000    3.0000 
1202.5884   17.5000   22.5313    4.6900   24.0789 -999.0000 -999.0000 -999.0000 -999.0000    2.1326   -0.0012    0.2983    4.0812 -999.0000    3.0000 
1202.7408   17.5000   22.5313    4.7435   21.7371 -999.0000 -999.0000 -999.0000 -999.0000    2.1047    0.0033    0.2875    4.0491 -999.0000    3.0000 
1202.8932   17.5000   22.5313    4.7087   20.8102 -999.0000 -999.0000 -999.0000 -999.0000    2.0786    0.0187    0.2949    3.9599 -999.0000    3.0000 
1203.0456   17.5000   22.5313    4.3190   22.0747 -999.0000 -999.0000 -999.0000 -999.0000    2.0642    0.0402    0.3228    3.7938 -999.0000    3.0000 
1203.1980   17.5000   22.5313    3.9034   22.5255 -999.0000 -999.0000 -999.0000 -999.0000    2.0515    0.0387    0.3464    3.6278 -999.0000    3.0000 
1203.3504   17.5000   22.5313    3.6442   21.8309 -999.0000 -999.0000 -999.0000 -999.0000    2.0613    0.0210    0.3522    3.6614 -999.0000    3.0000 
