~VERSION INFORMATION
 VERS.                 2.0:   CWLS LOG ASCII STANDARD - VERSION 2.0
 WRAP.                  NO:   SINGLE LINE PER DEPTH STEP
 CREA.                 01/17/2018 13:40:30
#CREATED USING DSPetro VERSION 5000.10.1.3 BY H191660 ON 01/17/2018 13:40:30
~WELL INFORMATION
#MNEM.UNIT       DATA                          DESCRIPTION MNEMONIC
#---------      ---------------------------   --------------------------
 STRT    .M         0.0000                    : START DEPTH
 STOP    .M         3457.9560                 : STOP DEPTH
 STEP    .M         0.1524                    : STEP VALUE
 NULL    .      -999.0000                     : NULL VALUE
 DATE    .      01/17/2018                    : LAS file Creation Date
 WELL .      2717_Robot-1A               : Well Name
 COMP .      Neftex Exploration Insights : Company
 FLD  .                                  : Field
 UWI  .      ZAUWL_005614                : Unique Well Identifier (UWI)
 LOC  .                                  : Location
 RWS  .      -999                        : Def_Rw
 WST  .      -999                        : Def_Rwt
 SRVC .                                  : Contractor
~CURVE INFORMATION
#MNEM              UNIT       API CODE   Curve Type Comments
#----------  --------------- ----------  ---------- -----------
 DEPTH      .M                         : Depth       
 BS         .in                        : BitSize     
 CAL_INCH   .inch                      : caliper     Caliper Log - A representation of the measured diameter of a borehole along its depth
 SP_MV1     .mv                        : SP          Spontaneous Potential - Records the electrical potential produced by the interaction of formation water, conductive drilling mud, and certain ion-sele
 GR_API     .API                       : gammaRay    Gamma Ray (API) - Measures the intensity of natural gamma-ray radiation emitted from formations containing radioactive elements, such as K, Th and U
 LLD_OHMM   .ohmm                      : deepRes     Laterlog Deep Resistivity - Measurement made several feet into the formation; generally considered a measurement of the undisturbed formation
 LLS_OHMM   .ohmm                      : shalRes     Laterlog Shallow Resistivity - one to two feet into the formation; generally considered to measure the formation
 MSFL_OHMM  .ohmm                      : microRes    Micro-Spherically Focused Log - Measurement involves only the first few inches of the formation immediately adjacent to the borehole
 DT_US_FT   .us/ft                     : sonic       Interval Transit Time: Compressional Wave - Evaluates the time it takes for a compressional wave to traverse a fixed distance
 RHOB_G_CC  .g/cc                      : density     Bulk Density - Measures the density of bulk material, including any void space or other materials contained in the subject volume
 DRHO_G_CC  .g/cc                      : drho        Density Correction - Investigates the correction to the Bulk Density log; used as an indication of hole condition to validate the Bulk Density measure
 NPHI_V_V   .dec                       : Neutron     
 PEF_B_E    .b/e-                      : PEF         Photoelectric Factor - A log of photoelectric absorption properties. Often expressed in an approximation unit barns/electron (b/e-)
 LITH       .                          : LITH        Lithology Curve
 LITH_v2    .                          : LITH        Lithology Curve
~A  DEPTH     BS     CAL_INCH   SP_MV1    GR_API   LLD_OHMM  LLS_OHMM MSFL_OHM   DT_US_FT RHOB_G_C  DRHO_G_C   NPHI_V_V  PEF_B_E     LITH    LITH_v2  
# ...
3182.4168    8.5000   14.9712   10.4630  109.0811   16.0209   11.3865    0.6554   71.4810    2.2352    0.1731    0.1789    4.6082   11.0000   11.0000 
3182.5692    8.5000   15.2067   10.7247  110.0878   14.6973   11.0808    0.5874   72.7393    2.1834    0.1565    0.1960    4.8912   11.0000   11.0000 
3182.7216    8.5000   15.4669   11.2622  111.4933   14.6506   11.3227    0.6011   72.1349    2.1459    0.1431    0.2192    5.2138   11.0000   11.0000 
3182.8740    8.5000   15.5726   11.7835  109.7162   15.7132   11.5440    0.5039   71.9913    2.1523    0.1350    0.2369    5.4172   11.0000   11.0000 
3183.0264    8.5000   15.4544   12.2370  105.6922   15.5417   12.1112    0.4865   73.2298    2.2015    0.1375    0.2389    5.7650   11.0000   11.0000 
3183.1788    8.5000   15.3630   12.6237  101.3750   14.4183   12.8508    0.5725   73.4233    2.2413    0.1419    0.2249    6.1985   11.0000   11.0000 
3183.3312    8.5000   15.4038   13.2817   98.1984   14.9907   13.1571    0.5992   73.3849    2.2096    0.1449    0.2064    6.3415   11.0000   11.0000 
3183.4836    8.5000   15.4423   14.1751   96.5275   16.2507   13.6934    0.5997   73.3742    2.1388    0.1477    0.1908    6.1035   11.0000   11.0000 
3183.6360    8.5000   15.4736   14.8549   92.8604   17.2873   14.5516    0.5931   66.4173    2.0999    0.1423    0.1839    5.7373   11.0000   11.0000 
3183.7884    8.5000   15.1865   15.3952   88.5059   17.6474   15.3237    0.4617   53.2769    2.1235    0.1376    0.1807    5.3289   11.0000   11.0000 
3183.9408    8.5000   14.0812   15.9450   87.9102   18.0316   16.0484    0.3587   54.2816    2.1869    0.1456    0.1866    4.9673   11.0000   11.0000 
3184.0932    8.5000   13.1664   16.3603   93.7617   18.8958   16.7895    0.4228   65.3137    2.2380    0.1521    0.1982    4.5721   11.0000   11.0000 
3184.2456    8.5000   13.2541   16.6674  103.7191   20.1053   17.2433    0.5431   70.7690    2.2575    0.1454    0.2087    4.6079   11.0000   11.0000 
3184.3980    8.5000   13.5589   16.9433  109.2672   19.9016   16.0668    0.6596   72.2789    2.2789    0.1478    0.2125    4.9991   11.0000   11.0000 
3184.5504    8.5000   13.6170   17.2961  104.8857   17.1740   13.4707    0.8128   75.1843    2.2838    0.1565    0.2041    5.4152   11.0000   11.0000 
3184.7028    8.5000   13.4521   17.6848   90.4569   13.5949   11.6865    0.9911   79.0356    2.2842    0.1627    0.1932    5.5741   11.0000   11.0000 
3184.8552    8.5000   13.5320   17.8404   73.4911   11.4745   10.6254    1.0567   79.0490    2.2946    0.1627    0.1814    5.4306   11.0000   11.0000 
3185.0076    8.5000   13.7569   17.6332   61.7152   11.0273    9.4645    0.7839   78.3556    2.3224    0.1692    0.1739    5.2612   11.0000   11.0000 
3185.1600    8.5000   13.4928   17.3562   59.3805   11.1838    8.7869    0.6228   78.4521    2.3373    0.1730    0.1688    5.1757   11.0000   11.0000 
3185.3124    8.5000   13.2431   17.2258   63.2367   11.1700    8.8204    0.8925   78.9328    2.2947    0.1666    0.1670    5.0842   11.0000   11.0000 
3185.4648    8.5000   13.5035   17.1530   69.6820   10.5826    9.1401    1.0091   79.3168    2.2091    0.1566    0.1716    5.1674   11.0000   11.0000 
3185.6172    8.5000   13.7740   16.9144   74.1090   10.3517    9.4570    0.7657   79.0099    2.1262    0.1495    0.1860    5.3392   11.0000   11.0000 
3185.7696    8.5000   13.7493   16.3152   74.0526   11.6762    9.9334    0.7068   78.6729    2.0799    0.1420    0.1960    5.4448   11.0000   11.0000 
3185.9220    8.5000   13.5561   15.4470   72.8135   13.2687   10.7554    0.8016   78.3849    2.0865    0.1364    0.1970    5.4713   11.0000   11.0000 
3186.0744    8.5000   13.2394   14.6290   77.3550   13.3606   10.8876    0.6481   78.2112    2.1430    0.1340    0.1938    5.4622   11.0000   11.0000 
3186.2268    8.5000   12.4089   13.8930   92.6644   12.1973   10.5121    0.4500   78.2603    2.2391    0.1305    0.2035    5.6911   11.0000   11.0000 
3186.3792    8.5000   11.8956   13.3491  112.9895   11.2502   10.4631    0.4062   78.2006    2.3656    0.1393    0.2295    5.5487   11.0000   11.0000 
3186.5316    8.5000   11.9079   13.0360  130.7628   11.8802   11.0913    0.4638   70.3501    2.4824    0.1564    0.2586    5.2437   11.0000   11.0000 
3186.6840    8.5000   11.9111   12.8333  143.0949   13.6299   12.3660    0.5142   57.1147    2.5567    0.1707    0.2704    4.9945   11.0000   11.0000 
3186.8364    8.5000   11.9308   12.5130  150.1816   15.0316   13.2817    0.4770   59.3184    2.5852    0.1753    0.2621    4.7309   11.0000   11.0000 
3186.9888    8.5000   11.9538   11.9884  152.4988   15.0903   13.3986    0.7406   69.6701    2.6027    0.1824    0.2447    4.5506   11.0000   11.0000 
3187.1412    8.5000   11.9885   11.3581  150.4031   14.0851   13.1331    1.3720   73.8647    2.6066    0.1813    0.2349    4.3819   11.0000   11.0000 
3187.2936    8.5000   11.9375   10.7661  145.4134   13.7417   12.8654    1.3858   73.8944    2.5932    0.1850    0.2367    4.6493   11.0000   11.0000 
3187.4460    8.5000   11.8889   10.1982  141.7813   14.2731   12.6124    0.8857   73.7694    2.5501    0.2011    0.2472    5.2134   11.0000   11.0000 
3187.5984    8.5000   11.7589    9.9480  144.1547   14.3083   11.9492    0.9488   74.0961    2.4866    0.2180    0.2568    5.6845   11.0000   11.0000 
3187.7508    8.5000   11.4515   10.3434  150.6539   13.3144   11.2811    1.3941   74.6155    2.4534    0.2412    0.2604    5.5296   11.0000   11.0000 
3187.9032    8.5000   11.4304   10.5737  155.8343   11.9566   11.1690    1.5445   74.6531    2.4786    0.2709    0.2562    4.8506   11.0000   11.0000 
3188.0556    8.5000   11.6448   10.4604  155.1626   11.5722   11.1718    1.2729   73.8180    2.5365    0.2828    0.2483    4.2718   11.0000   11.0000 
3188.2080    8.5000   11.7554   10.2262  151.2702   12.4890   10.8630    1.0695   73.4418    2.5890    0.2663    0.2366    4.2354   11.0000   11.0000 
3188.3604    8.5000   11.7126    9.5576  147.5854   12.7048   10.6754    1.0282   73.1254    2.6095    0.2554    0.2286    4.5751   11.0000   11.0000 
3188.5128    8.5000   11.6053    8.7901  143.5012   11.5387   10.4743    1.1792   73.1634    2.5527    0.2387    0.2324    4.9082   11.0000   11.0000 
3188.6652    8.5000   11.5779    8.0876  141.0289   10.9049   10.1053    1.4046   73.3461    2.4617    0.2212    0.2476    5.0283   11.0000   11.0000 
3188.8176    8.5000   11.4316    7.4766  140.3275   10.9320    9.9574    1.8125   73.4039    2.4265    0.2327    0.2621    5.0174   11.0000   11.0000 
3188.9700    8.5000   11.5049    7.1250  141.8374   11.4474   10.2329    2.3118   73.4134    2.4569    0.2656    0.2665    4.8943   11.0000   11.0000 
3189.1224    8.5000   11.6782    7.0668  144.4312   11.9771   10.5001    1.9587   73.5676    2.4814    0.2686    0.2572    4.7662   11.0000   11.0000 
3189.2748    8.5000   11.4893    7.3906  145.3663   12.1834   10.4873    1.4883   73.9130    2.5013    0.2604    0.2478    4.6747   11.0000   11.0000 
3189.4272    8.5000   11.3581    7.7624  145.7777   12.0574   10.7128    1.6261   73.3845    2.5282    0.2574    0.2465    4.6363   11.0000   11.0000 
3189.5796    8.5000   11.3318    7.6632  144.9332   12.0947   10.9768    2.0371   72.8758    2.5456    0.2381    0.2474    4.5617   11.0000   11.0000 
3189.7320    8.5000   11.3666    7.1629  144.6353   12.4138   11.1305    2.2095   73.2203    2.5735    0.2172    0.2438    4.5886   11.0000   11.0000 
3189.8844    8.5000   11.4892    6.7391  145.5281   12.5823   11.5785    2.0937   73.0775    2.6200    0.2164    0.2310    4.5652   11.0000   11.0000 
3190.0368    8.5000   11.4782    6.3443  146.7033   13.1036   11.9212    1.8494   73.1246    2.6428    0.2148    0.2198    4.4477   11.0000   11.0000 
3190.1892    8.5000   11.3494    6.0313  149.1238   13.3761   11.8669    1.6367   72.9905    2.6274    0.1969    0.2153    4.3700   11.0000   11.0000 
3190.3416    8.5000   11.4885    5.9200  149.7880   13.4392   11.7741    2.0276   72.7500    2.6059    0.1801    0.2218    4.4929   11.0000   11.0000 
