~VERSION INFORMATION
 VERS.                 2.0:   CWLS LOG ASCII STANDARD - VERSION 2.0
 WRAP.                  NO:   SINGLE LINE PER DEPTH STEP
 CREA.                 01/17/2018 13:40:30
#CREATED USING DSPetro VERSION 5000.10.1.3 BY H191660 ON 01/17/2018 13:40:30
~WELL INFORMATION
#MNEM.UNIT       DATA                          DESCRIPTION MNEMONIC
#---------      ---------------------------   --------------------------
 STRT    .M         0.0000                    : START DEPTH
 STOP    .M         3457.9560                 : STOP DEPTH
 STEP    .M         0.1524                    : STEP VALUE
 NULL    .      -999.0000                     : NULL VALUE
 DATE    .      01/17/2018                    : LAS file Creation Date
 WELL .      2717_Robot-1A               : Well Name
 COMP .      Neftex Exploration Insights : Company
 FLD  .                                  : Field
 UWI  .      ZAUWL_005614                : Unique Well Identifier (UWI)
 LOC  .                                  : Location
 RWS  .      -999                        : Def_Rw
 WST  .      -999                        : Def_Rwt
 SRVC .                                  : Contractor
~CURVE INFORMATION
#MNEM              UNIT       API CODE   Curve Type Comments
#----------  --------------- ----------  ---------- -----------
 DEPTH      .M                         : Depth       
 BS         .in                        : BitSize     
 CAL_INCH   .inch                      : caliper     Caliper Log - A representation of the measured diameter of a borehole along its depth
 SP_MV1     .mv                        : SP          Spontaneous Potential - Records the electrical potential produced by the interaction of formation water, conductive drilling mud, and certain ion-sele
 GR_API     .API                       : gammaRay    Gamma Ray (API) - Measures the intensity of natural gamma-ray radiation emitted from formations containing radioactive elements, such as K, Th and U
 LLD_OHMM   .ohmm                      : deepRes     Laterlog Deep Resistivity - Measurement made several feet into the formation; generally considered a measurement of the undisturbed formation
 LLS_OHMM   .ohmm                      : shalRes     Laterlog Shallow Resistivity - one to two feet into the formation; generally considered to measure the formation
 MSFL_OHMM  .ohmm                      : microRes    Micro-Spherically Focused Log - Measurement involves only the first few inches of the formation immediately adjacent to the borehole
 DT_US_FT   .us/ft                     : sonic       Interval Transit Time: Compressional Wave - Evaluates the time it takes for a compressional wave to traverse a fixed distance
 RHOB_G_CC  .g/cc                      : density     Bulk Density - Measures the density of bulk material, including any void space or other materials contained in the subject volume
 DRHO_G_CC  .g/cc                      : drho        Density Correction - Investigates the correction to the Bulk Density log; used as an indication of hole condition to validate the Bulk Density measure
 NPHI_V_V   .dec                       : Neutron     
 PEF_B_E    .b/e-                      : PEF         Photoelectric Factor - A log of photoelectric absorption properties. Often expressed in an approximation unit barns/electron (b/e-)
 LITH       .                          : LITH        Lithology Curve
 LITH_v2    .                          : LITH        Lithology Curve
~A  DEPTH     BS     CAL_INCH   SP_MV1    GR_API   LLD_OHMM  LLS_OHMM MSFL_OHM   DT_US_FT RHOB_G_C  DRHO_G_C   NPHI_V_V  PEF_B_E     LITH    LITH_v2  
# ...
2746.2480    8.5000    8.4075   31.5246   56.5154    3.2104    2.2061    2.0400   70.3849    2.4765   -0.0030    0.1053    2.7128   27.0000   36.0000 
2746.4004    8.5000    8.3618   31.2657   44.5017    2.6346    2.0244    1.4361   70.6733    2.4540   -0.0057    0.1117    2.5307   27.0000   36.0000 
2746.5528    8.5000    8.3438   30.8796   37.8783    2.4027    1.8628    1.2064   71.7694    2.4194   -0.0095    0.1139    2.3784   27.0000   36.0000 
2746.7052    8.5000    8.3438   30.3404   35.2193    2.3658    1.6971    1.1753   73.2017    2.3933   -0.0128    0.1114    2.3100   27.0000   27.0000 
2746.8576    8.5000    8.3438   29.9755   34.9958    2.1030    1.6166    1.1079   74.1151    2.3814   -0.0138    0.1106    2.3525   27.0000   27.0000 
2747.0100    8.5000    8.3438   29.8631   36.4471    2.0380    1.5997    1.0543   74.3655    2.3804   -0.0136    0.1132    2.4175   27.0000   27.0000 
2747.1624    8.5000    8.3438   29.8893   37.1333    1.9224    1.5848    1.0522   74.4517    2.3799   -0.0136    0.1181    2.4402   27.0000   27.0000 
2747.3148    8.5000    8.3438   30.1551   35.5777    1.9143    1.5752    1.0411   74.3655    2.3778   -0.0135    0.1195    2.4285   27.0000   27.0000 
2747.4672    8.5000    8.3438   30.3625   33.7590    2.0699    1.5706    1.0294   74.1151    2.3799   -0.0110    0.1173    2.3694   27.0000   27.0000 
2747.6196    8.5000    8.3438   30.4581   32.4051    2.1784    1.5306    1.0589   73.7215    2.3873   -0.0075    0.1125    2.3181   27.0000   27.0000 
2747.7720    8.5000    8.3438   30.7329   32.0554    2.0867    1.4862    1.1117   73.5862    2.4012   -0.0047    0.1095    2.3388   27.0000   27.0000 
2747.9244    8.5000    8.3438   30.7189   31.2462    2.1202    1.5652    1.1722   73.1539    2.4132   -0.0020    0.1087    2.3827   27.0000   27.0000 
2748.0768    8.5000    8.3438   30.7805   30.7744    2.2522    1.6535    1.1928   72.6733    2.4143   -0.0014    0.1078    2.3994   27.0000   27.0000 
2748.2292    8.5000    8.3438   31.5086   30.6407    2.0795    1.6339    1.1507   72.6828    2.4022   -0.0044    0.1066    2.3001   27.0000   27.0000 
2748.3816    8.5000    8.3438   31.4219   32.1066    1.9195    1.5899    1.1284   73.0578    2.3903   -0.0065    0.1071    2.2367   27.0000   27.0000 
2748.5340    8.5000    8.3438   31.2684   34.2914    1.9552    1.5519    1.1877   73.7116    2.3917   -0.0061    0.1074    2.2916   27.0000   27.0000 
2748.6864    8.5000    8.3438   31.3601   35.8545    1.8597    1.5410    1.3536   74.3362    2.4022   -0.0048    0.1054    2.3994   27.0000   27.0000 
2748.8388    8.5000    8.3438   31.4396   34.8846    1.9762    1.5658    1.4742   74.5194    2.4143   -0.0021    0.1014    2.4789   27.0000   27.0000 
2748.9912    8.5000    8.3438   31.4165   32.5216    1.9258    1.5518    1.4891   74.4324    2.4207    0.0006    0.0977    2.4899   27.0000   27.0000 
2749.1436    8.5000    8.3438   31.1427   30.4886    1.9013    1.5056    1.4330   73.9521    2.4210    0.0002    0.0959    2.5758   27.0000   27.0000 
2749.2960    8.5000    8.3438   30.8889   30.9654    1.7587    1.4865    1.2332   73.5672    2.4300   -0.0002    0.0956    2.6889   27.0000   27.0000 
2749.4484    8.5000    8.3438   30.6628   34.8242    1.7187    1.4943    1.1210   73.1634    2.4502   -0.0002    0.0951    2.7573   27.0000   36.0000 
2749.6008    8.5000    8.3492   30.3215   40.7323    2.0239    1.5465    1.2755   72.6444    2.4692   -0.0006    0.0965    2.6900   27.0000   36.0000 
2749.7532    8.5000    8.3672   30.0621   49.3193    2.0751    1.6603    1.6351   72.4616    2.4710   -0.0011    0.1031    2.6180   27.0000   36.0000 
2749.9056    8.5000    8.3960   29.7106   60.1315    2.2259    1.7934    1.7843   72.7405    2.4578   -0.0024    0.1159    2.6865   27.0000   36.0000 
2750.0580    8.5000    8.4267   28.9236   71.5451    2.5306    1.9550    1.8665   73.2306    2.4543   -0.0041    0.1267    2.8217   27.0000   37.0000 
2750.2104    8.5000    8.4375   29.9161   76.5417    2.6703    2.1257    2.3140   73.5289    2.4698   -0.0025    0.1265    2.8949   29.0791   37.0000 
2750.3628    8.5000    8.4375   32.1210   74.4606    3.0481    2.3464    2.6977   73.6345    2.4866   -0.0003    0.1157    2.8250   33.9209   37.0000 
2750.5152    8.5000    8.4375   31.7014   70.3380    3.2323    2.5848    2.6925   73.5000    2.4818   -0.0019    0.1066    2.7093   36.0000   36.0000 
2750.6676    8.5000    8.4375   31.1610   70.1843    3.2962    2.6136    2.5237   73.4521    2.4629   -0.0036    0.1072    2.6273   36.0000   36.0000 
2750.8200    8.5000    8.4375   31.2009   75.1203    3.1751    2.4941    2.2387   73.8461    2.4481   -0.0029    0.1166    2.5841   36.0000   36.0000 
2750.9724    8.5000    8.4375   30.9127   80.6527    2.8277    2.3449    2.2266   74.3172    2.4393   -0.0023    0.1290    2.5868   36.0000   36.0000 
2751.1248    8.5000    8.4375   30.3335   82.5180    2.8552    2.2012    2.1818   74.5961    2.4307   -0.0031    0.1345    2.5746   36.0000   36.0000 
2751.2772    8.5000    8.4375   29.7064   81.8619    2.8749    2.2162    1.9005   74.6634    2.4224   -0.0036    0.1336    2.6396   36.0000   36.0000 
2751.4296    8.5000    8.4375   29.1319   83.6689    2.8685    2.3041    1.8470   74.5866    2.4225   -0.0033    0.1325    2.8260   36.0000   36.0000 
2751.5820    8.5000    8.4375   28.2306   87.8699    2.9312    2.3944    2.1404   74.5672    2.4310   -0.0024    0.1332    3.0007   36.0000   36.0000 
2751.7344    8.5000    8.4375   28.5311   89.8728    3.0255    2.4632    2.5774   74.5866    2.4372   -0.0025    0.1322    2.9774   36.0000   36.0000 
2751.8868    8.5000    8.4375   30.1269   87.0099    3.2155    2.4856    2.5725   74.6922    2.4317   -0.0035    0.1316    2.8340   36.0000   36.0000 
2752.0392    8.5000    8.4375   30.7421   83.6837    3.1168    2.4771    2.2202   74.9521    2.4230   -0.0047    0.1332    2.8126   36.0000   36.0000 
2752.1916    8.5000    8.4375   30.7626   82.4322    3.0185    2.5001    2.2111   75.2785    2.4219   -0.0050    0.1319    2.8892   36.0000   36.0000 
2752.3440    8.5000    8.4375   31.1295   81.2166    3.2102    2.5477    2.4294   75.0578    2.4284   -0.0042    0.1214    2.8222   36.0000   36.0000 
2752.4964    8.5000    8.4375   30.6450   81.1262    3.2724    2.5859    2.3544   74.8560    2.4326   -0.0027    0.1092    2.6473   36.0000   36.0000 
2752.6488    8.5000    8.4592   30.2819   84.5392    3.4212    2.5968    2.2361   75.1056    2.4357   -0.0012    0.1054    2.5961   36.0000   36.0000 
2752.8012    8.5000    8.5132   30.4341   91.3325    3.4883    2.6862    2.2210   75.3655    2.4381    0.0003    0.1131    2.8054   36.0000   36.0000 
2752.9536    8.5000    8.5397   30.7098   98.5605    3.5982    2.8501    2.4685   75.4035    2.4415    0.0007    0.1305    3.1135   36.0000   37.0000 
2753.1060    8.5000    8.5205   30.9115  101.8362    4.0518    2.9823    2.9969   74.7789    2.4414    0.0001    0.1519    3.1958   36.0000   37.0000 
2753.2584    8.5000    8.4760   31.1212  100.6133    3.9456    2.9992    3.4396   73.9905    2.4329   -0.0016    0.1627    3.0250   36.0000   37.0000 
2753.4108    8.5000    8.4447   31.0913   94.3026    3.5541    2.8659    3.3323   73.4134    2.4149   -0.0045    0.1568    2.8201   36.0000   37.0000 
2753.5632    8.5000    8.4375   30.9760   85.6830    3.3183    2.6469    2.4611   73.1254    2.3969   -0.0082    0.1427    2.7286   36.0000   36.0000 
2753.7156    8.5000    8.4375   30.8250   78.7899    2.9745    2.4421    2.0097   73.6250    2.3933   -0.0100    0.1279    2.6885   36.0000   36.0000 
2753.8680    8.5000    8.4375   30.4373   75.2498    2.9210    2.3352    2.1368   74.3267    2.4033   -0.0100    0.1171    2.5954   36.0000   36.0000 
2754.0204    8.5000    8.4375   30.0535   73.3517    2.8145    2.2984    2.1385   74.5672    2.4138   -0.0093    0.1118    2.5314   36.0000   36.0000 
2754.1728    8.5000    8.4447   29.9455   77.1584    2.9299    2.3814    1.9939   74.5578    2.4189   -0.0081    0.1170    2.6275   36.0000   36.0000 
