~VERSION INFORMATION
 VERS.                 2.0:   CWLS LOG ASCII STANDARD - VERSION 2.0
 WRAP.                  NO:   SINGLE LINE PER DEPTH STEP
 CREA.                 01/17/2018 13:40:30
#CREATED USING DSPetro VERSION 5000.10.1.3 BY H191660 ON 01/17/2018 13:40:30
~WELL INFORMATION
#MNEM.UNIT       DATA                          DESCRIPTION MNEMONIC
#---------      ---------------------------   --------------------------
 STRT    .M         0.0000                    : START DEPTH
 STOP    .M         3457.9560                 : STOP DEPTH
 STEP    .M         0.1524                    : STEP VALUE
 NULL    .      -999.0000                     : NULL VALUE
 DATE    .      01/17/2018                    : LAS file Creation Date
 WELL .      2717_Robot-1A               : Well Name
 COMP .      Neftex Exploration Insights : Company
 FLD  .                                  : Field
 UWI  .      ZAUWL_005614                : Unique Well Identifier (UWI)
 LOC  .                                  : Location
 RWS  .      -999                        : Def_Rw
 WST  .      -999                        : Def_Rwt
 SRVC .                                  : Contractor
~CURVE INFORMATION
#MNEM              UNIT       API CODE   Curve Type Comments
#----------  --------------- ----------  ---------- -----------
 DEPTH      .M                         : Depth       
 BS         .in                        : BitSize     
 CAL_INCH   .inch                      : caliper     Caliper Log - A representation of the measured diameter of a borehole along its depth
 SP_MV1     .mv                        : SP          Spontaneous Potential - Records the electrical potential produced by the interaction of formation water, conductive drilling mud, and certain ion-sele
 GR_API     .API                       : gammaRay    Gamma Ray (API) - Measures the intensity of natural gamma-ray radiation emitted from formations containing radioactive elements, such as K, Th and U
 LLD_OHMM   .ohmm                      : deepRes     Laterlog Deep Resistivity - Measurement made several feet into the formation; generally considered a measurement of the undisturbed formation
 LLS_OHMM   .ohmm                      : shalRes     Laterlog Shallow Resistivity - one to two feet into the formation; generally considered to measure the formation
 MSFL_OHMM  .ohmm                      : microRes    Micro-Spherically Focused Log - Measurement involves only the first few inches of the formation immediately adjacent to the borehole
 DT_US_FT   .us/ft                     : sonic       Interval Transit Time: Compressional Wave - Evaluates the time it takes for a compressional wave to traverse a fixed distance
 RHOB_G_CC  .g/cc                      : density     Bulk Density - Measures the density of bulk material, including any void space or other materials contained in the subject volume
 DRHO_G_CC  .g/cc                      : drho        Density Correction - Investigates the correction to the Bulk Density log; used as an indication of hole condition to validate the Bulk Density measure
 NPHI_V_V   .dec                       : Neutron     
 PEF_B_E    .b/e-                      : PEF         Photoelectric Factor - A log of photoelectric absorption properties. Often expressed in an approximation unit barns/electron (b/e-)
 LITH       .                          : LITH        Lithology Curve
 LITH_v2    .                          : LITH        Lithology Curve
~A  DEPTH     BS     CAL_INCH   SP_MV1    GR_API   LLD_OHMM  LLS_OHMM MSFL_OHM   DT_US_FT RHOB_G_C  DRHO_G_C   NPHI_V_V  PEF_B_E     LITH    LITH_v2  
# ...
 936.9552   17.5000   22.5313    5.4215   15.0019 -999.0000 -999.0000 -999.0000 -999.0000    1.4950   -0.0311    0.5799    2.7589 -999.0000    3.0000 
 937.1076   17.5000   22.5313    4.5528   14.9044 -999.0000 -999.0000 -999.0000 -999.0000    1.4294   -0.0336    0.5849    2.4821 -999.0000    3.0000 
 937.2600   17.5000   22.5313    3.9484   15.6835 -999.0000 -999.0000 -999.0000 -999.0000    1.3683   -0.0373    0.5942    2.5069 -999.0000    3.0000 
 937.4124   17.5000   22.5313    3.6510   15.7749 -999.0000 -999.0000 -999.0000 -999.0000    1.3968   -0.0391    0.5932    2.9154 -999.0000    3.0000 
 937.5648   17.5000   22.5313    3.5027   14.9888 -999.0000 -999.0000 -999.0000 -999.0000    1.5056   -0.0344    0.5982    3.3718 -999.0000    3.0000 
 937.7172   17.5000   22.5349    3.4428   14.6824 -999.0000 -999.0000 -999.0000 -999.0000    1.5989   -0.0261    0.5911    3.2871 -999.0000    3.0000 
 937.8696   17.5000   22.5397    3.4524   15.1838 -999.0000 -999.0000 -999.0000 -999.0000    1.5693   -0.0241    0.5846    2.8006 -999.0000    3.0000 
 938.0220   17.5000   22.5349    3.4822   15.2615 -999.0000 -999.0000 -999.0000 -999.0000    1.4316   -0.0306    0.5765    2.4378 -999.0000    3.0000 
 938.1744   17.5000   22.5313    3.5963   14.3621 -999.0000 -999.0000 -999.0000 -999.0000    1.2859   -0.0377    0.5880    2.3195 -999.0000    3.0000 
 938.3268   17.5000   22.5313    3.6471   14.0082 -999.0000 -999.0000 -999.0000 -999.0000    1.2051   -0.0446    0.6298    2.4154 -999.0000    3.0000 
 938.4792   17.5000   22.5313    3.6832   14.7637 -999.0000 -999.0000 -999.0000 -999.0000    1.2144   -0.0499    0.6743    2.7066 -999.0000    3.0000 
 938.6316   17.5000   22.5313    3.5446   15.5943 -999.0000 -999.0000 -999.0000 -999.0000    1.3022   -0.0487    0.6999    3.1112 -999.0000    3.0000 
 938.7840   17.5000   22.5313    3.5570   15.8032 -999.0000 -999.0000 -999.0000 -999.0000    1.4062   -0.0450    0.6874    3.3352 -999.0000    3.0000 
 938.9364   17.5000   22.5313    3.8781   15.5250 -999.0000 -999.0000 -999.0000 -999.0000    1.4453   -0.0453    0.6213    3.1672 -999.0000    3.0000 
 939.0888   17.5000   22.5313    3.8480   15.5444 -999.0000 -999.0000 -999.0000 -999.0000    1.3923   -0.0452    0.5562    2.7875 -999.0000    3.0000 
 939.2412   17.5000   22.5313    3.6791   15.5437 -999.0000 -999.0000 -999.0000 -999.0000    1.3024   -0.0462    0.5505    2.4731 -999.0000    3.0000 
 939.3936   17.5000   22.5313    3.4095   15.7217 -999.0000 -999.0000 -999.0000 -999.0000    1.2379   -0.0509    0.5964    2.3512 -999.0000    3.0000 
 939.5460   17.5000   22.5313    3.1321   16.8779 -999.0000 -999.0000 -999.0000 -999.0000    1.2447   -0.0523    0.6415    2.4826 -999.0000    3.0000 
 939.6984   17.5000   22.5313    3.0011   18.3005 -999.0000 -999.0000 -999.0000 -999.0000    1.3324   -0.0478    0.6460    2.9393 -999.0000    3.0000 
 939.8508   17.5000   22.5313    2.9034   18.9212 -999.0000 -999.0000 -999.0000 -999.0000    1.4813   -0.0409    0.6325    3.5425 -999.0000    3.0000 
 940.0032   17.5000   22.5313    2.8445   17.7077 -999.0000 -999.0000 -999.0000 -999.0000    1.6310   -0.0279    0.6360    3.7274 -999.0000    3.0000 
 940.1556   17.5000   22.5313    2.7546   15.8118 -999.0000 -999.0000 -999.0000 -999.0000    1.6989   -0.0131    0.6741    3.4469 -999.0000    3.0000 
 940.3080   17.5000   22.5313    2.7324   14.6561 -999.0000 -999.0000 -999.0000 -999.0000    1.6429   -0.0094    0.7214    3.0355 -999.0000    3.0000 
 940.4604   17.5000   22.5313    2.7459   14.3392 -999.0000 -999.0000 -999.0000 -999.0000    1.5216   -0.0144    0.7277    2.7551 -999.0000    3.0000 
 940.6128   17.5000   22.5313    2.8487   14.9921 -999.0000 -999.0000 -999.0000 -999.0000    1.4052   -0.0210    0.6819    2.6464 -999.0000    3.0000 
 940.7652   17.5000   22.5313    2.9277   15.2240 -999.0000 -999.0000 -999.0000 -999.0000    1.3314   -0.0317    0.6220    2.7183 -999.0000    3.0000 
 940.9176   17.5000   22.5313    2.9589   14.9933 -999.0000 -999.0000 -999.0000 -999.0000    1.3349   -0.0422    0.6012    3.0098 -999.0000    3.0000 
 941.0700   17.5000   22.5313    2.8822   13.7725 -999.0000 -999.0000 -999.0000 -999.0000    1.4237   -0.0455    0.5928    3.4654 -999.0000    3.0000 
 941.2224   17.5000   22.5313    2.7592   12.5387 -999.0000 -999.0000 -999.0000 -999.0000    1.5560   -0.0420    0.5817    3.8133 -999.0000    3.0000 
 941.3748   17.5000   22.5313    2.6746   12.5330 -999.0000 -999.0000 -999.0000 -999.0000    1.6444   -0.0349    0.5742    4.0007 -999.0000    3.0000 
 941.5272   17.5000   22.5313    2.5412   13.9536 -999.0000 -999.0000 -999.0000 -999.0000    1.6634   -0.0260    0.5983    4.0356 -999.0000    3.0000 
 941.6796   17.5000   22.5313    2.2477   15.4204 -999.0000 -999.0000 -999.0000 -999.0000    1.6392   -0.0220    0.6257    3.6661 -999.0000    3.0000 
 941.8320   17.5000   22.5313    2.1150   15.8116 -999.0000 -999.0000 -999.0000 -999.0000    1.5638   -0.0281    0.6223    3.0642 -999.0000    3.0000 
 941.9844   17.5000   22.5313    2.2226   15.1321 -999.0000 -999.0000 -999.0000 -999.0000    1.4324   -0.0381    0.6021    2.6273 -999.0000    3.0000 
 942.1368   17.5000   22.5313    2.4598   14.1444 -999.0000 -999.0000 -999.0000 -999.0000    1.3211   -0.0417    0.5769    2.5715 -999.0000    3.0000 
 942.2892   17.5000   22.5313    2.8237   13.6095 -999.0000 -999.0000 -999.0000 -999.0000    1.3061   -0.0435    0.5663    2.8851 -999.0000    3.0000 
 942.4416   17.5000   22.5313    2.9347   13.5836 -999.0000 -999.0000 -999.0000 -999.0000    1.3644   -0.0479    0.5777    3.1587 -999.0000    3.0000 
 942.5940   17.5000   22.5313    2.9143   13.6049 -999.0000 -999.0000 -999.0000 -999.0000    1.4222   -0.0468    0.6181    3.2035 -999.0000    3.0000 
 942.7464   17.5000   22.5313    2.8514   12.9969 -999.0000 -999.0000 -999.0000 -999.0000    1.4460   -0.0380    0.6475    3.2112 -999.0000    3.0000 
 942.8988   17.5000   22.5313    2.6922   12.2052 -999.0000 -999.0000 -999.0000 -999.0000    1.4861   -0.0292    0.6317    3.4806 -999.0000    3.0000 
 943.0512   17.5000   22.5313    2.3392   11.7738 -999.0000 -999.0000 -999.0000 -999.0000    1.5712   -0.0224    0.6149    3.8024 -999.0000    3.0000 
 943.2036   17.5000   22.5313    1.9991   11.2092 -999.0000 -999.0000 -999.0000 -999.0000    1.6450   -0.0156    0.6287    3.8426 -999.0000    3.0000 
 943.3560   17.5000   22.5313    1.7872   10.6460 -999.0000 -999.0000 -999.0000 -999.0000    1.6411   -0.0152    0.6438    3.6037 -999.0000    3.0000 
 943.5084   17.5000   22.5313    1.7175   11.0574 -999.0000 -999.0000 -999.0000 -999.0000    1.5783   -0.0198    0.6294    3.2880 -999.0000    3.0000 
 943.6608   17.5000   22.5313    1.7411   13.2239 -999.0000 -999.0000 -999.0000 -999.0000    1.5251   -0.0230    0.6000    3.1389 -999.0000    3.0000 
 943.8132   17.5000   22.5313    1.7935   15.2274 -999.0000 -999.0000 -999.0000 -999.0000    1.5270   -0.0246    0.5926    3.3485 -999.0000    3.0000 
 943.9656   17.5000   22.5313    1.7781   15.5632 -999.0000 -999.0000 -999.0000 -999.0000    1.5901   -0.0224    0.5684    3.7797 -999.0000    3.0000 
 944.1180   17.5000   22.5313    1.8029   14.4803 -999.0000 -999.0000 -999.0000 -999.0000    1.6722   -0.0147    0.5321    4.0370 -999.0000    3.0000 
 944.2704   17.5000   22.5313    1.8630   13.4366 -999.0000 -999.0000 -999.0000 -999.0000    1.7114   -0.0091    0.5103    3.9734 -999.0000    3.0000 
 944.4228   17.5000   22.5313    1.9181   13.1851 -999.0000 -999.0000 -999.0000 -999.0000    1.6812   -0.0111    0.5261    3.7924 -999.0000    3.0000 
 944.5752   17.5000   22.5313    1.8883   12.7278 -999.0000 -999.0000 -999.0000 -999.0000    1.6270   -0.0133    0.5560    3.6560 -999.0000    3.0000 
 944.7276   17.5000   22.5313    1.4839   11.6629 -999.0000 -999.0000 -999.0000 -999.0000    1.6064   -0.0125    0.5650    3.6038 -999.0000    3.0000 
 944.8800   17.5000   22.5313    1.2441   11.9416 -999.0000 -999.0000 -999.0000 -999.0000    1.6172   -0.0120    0.5727    3.4427 -999.0000    3.0000 
