~VERSION INFORMATION
 VERS.                 2.0:   CWLS LOG ASCII STANDARD - VERSION 2.0
 WRAP.                  NO:   SINGLE LINE PER DEPTH STEP
 CREA.                 01/17/2018 13:40:30
#CREATED USING DSPetro VERSION 5000.10.1.3 BY H191660 ON 01/17/2018 13:40:30
~WELL INFORMATION
#MNEM.UNIT       DATA                          DESCRIPTION MNEMONIC
#---------      ---------------------------   --------------------------
 STRT    .M         0.0000                    : START DEPTH
 STOP    .M         3457.9560                 : STOP DEPTH
 STEP    .M         0.1524                    : STEP VALUE
 NULL    .      -999.0000                     : NULL VALUE
 DATE    .      01/17/2018                    : LAS file Creation Date
 WELL .      2717_Robot-1A               : Well Name
 COMP .      Neftex Exploration Insights : Company
 FLD  .                                  : Field
 UWI  .      ZAUWL_005614                : Unique Well Identifier (UWI)
 LOC  .                                  : Location
 RWS  .      -999                        : Def_Rw
 WST  .      -999                        : Def_Rwt
 SRVC .                                  : Contractor
~CURVE INFORMATION
#MNEM              UNIT       API CODE   Curve Type Comments
#----------  --------------- ----------  ---------- -----------
 DEPTH      .M                         : Depth       
 BS         .in                        : BitSize     
 CAL_INCH   .inch                      : caliper     Caliper Log - A representation of the measured diameter of a borehole along its depth
 SP_MV1     .mv                        : SP          Spontaneous Potential - Records the electrical potential produced by the interaction of formation water, conductive drilling mud, and certain ion-sele
 GR_API     .API                       : gammaRay    Gamma Ray (API) - Measures the intensity of natural gamma-ray radiation emitted from formations containing radioactive elements, such as K, Th and U
 LLD_OHMM   .ohmm                      : deepRes     Laterlog Deep Resistivity - Measurement made several feet into the formation; generally considered a measurement of the undisturbed formation
 LLS_OHMM   .ohmm                      : shalRes     Laterlog Shallow Resistivity - one to two feet into the formation; generally considered to measure the formation
 MSFL_OHMM  .ohmm                      : microRes    Micro-Spherically Focused Log - Measurement involves only the first few inches of the formation immediately adjacent to the borehole
 DT_US_FT   .us/ft                     : sonic       Interval Transit Time: Compressional Wave - Evaluates the time it takes for a compressional wave to traverse a fixed distance
 RHOB_G_CC  .g/cc                      : density     Bulk Density - Measures the density of bulk material, including any void space or other materials contained in the subject volume
 DRHO_G_CC  .g/cc                      : drho        Density Correction - Investigates the correction to the Bulk Density log; used as an indication of hole condition to validate the Bulk Density measure
 NPHI_V_V   .dec                       : Neutron     
 PEF_B_E    .b/e-                      : PEF         Photoelectric Factor - A log of photoelectric absorption properties. Often expressed in an approximation unit barns/electron (b/e-)
 LITH       .                          : LITH        Lithology Curve
 LITH_v2    .                          : LITH        Lithology Curve
~A  DEPTH     BS     CAL_INCH   SP_MV1    GR_API   LLD_OHMM  LLS_OHMM MSFL_OHM   DT_US_FT RHOB_G_C  DRHO_G_C   NPHI_V_V  PEF_B_E     LITH    LITH_v2  
# ...
3004.7184    8.5000   13.0703   -0.7408  127.5485   13.1266   10.7747   13.9071   75.4039    2.6078   -0.0153    0.2118    3.2081   37.0000   37.0000 
3004.8708    8.5000   13.0703   -0.6790  130.2162   12.9305   10.8115   14.7246   75.1349    2.6015   -0.0169    0.2026    3.2036   37.0000   37.0000 
3005.0232    8.5000   13.0703   -0.5788  131.6333   12.1546   10.8837   14.3836   75.0957    2.5950   -0.0163    0.1993    3.1947   37.0000   37.0000 
3005.1756    8.5000   13.0703   -0.3562  129.5668   11.8976   10.7295   13.5976   74.6926    2.5916   -0.0145    0.2020    3.1172   37.0000   37.0000 
3005.3280    8.5000   13.0703   -0.2704  124.8024   12.8237   10.5802   12.9048   74.7116    2.5906   -0.0144    0.2016    3.0490   37.0000   37.0000 
3005.4804    8.5000   13.0703   -0.1101  121.4213   13.0910   10.5354   13.7221   75.0190    2.5977   -0.0119    0.1988    3.0600   37.0000   37.0000 
3005.6328    8.5000   13.0703    0.2976  124.1201   12.6306   10.5269   14.5526   75.0194    2.6032   -0.0087    0.1979    3.1344   37.0000   37.0000 
3005.7852    8.5000   13.0703    0.5803  130.0969   12.2123   10.4865   13.8621   75.1539    2.6041   -0.0083    0.2015    3.0972   37.0000   37.0000 
3005.9376    8.5000   13.0703    0.4545  135.1705   11.6927   10.2910   13.0382   75.2979    2.6046   -0.0086    0.2057    2.9790   37.0000   37.0000 
3006.0900    8.5000   13.0703    0.1607  134.6147   11.4982   10.1495   12.9592   75.2021    2.6136   -0.0077    0.2067    2.9001   37.0000   37.0000 
3006.2424    8.5000   13.0703   -0.1290  128.4935   12.4653   10.4246   13.4955   75.4039    2.6213   -0.0076    0.1935    2.8746   37.0000   37.0000 
3006.3948    8.5000   13.0703   -0.5452  119.3524   14.3724   11.3710   15.9473   75.4418    2.6273   -0.0076    0.1642    2.8752   37.0000   37.0000 
3006.5472    8.5000   13.0703   -0.5944  113.1889   15.6892   12.2039   22.3643   74.3556    2.6368   -0.0052    0.1379    2.7926   37.0000   37.0000 
3006.6996    8.5000   13.0703   -0.4198  115.0518   15.7183   12.4986   26.5735   72.4422    2.6409   -0.0040    0.1385    2.7664   37.0000   37.0000 
3006.8520    8.5000   13.0703   -0.2161  125.2006   15.1214   12.4600   21.6112   70.6543    2.6359   -0.0046    0.1629    2.7439   37.0000   37.0000 
3007.0044    8.5000   13.0703    0.1193  134.8354   13.7388   11.8073   15.3239   69.9521    2.6238   -0.0063    0.1902    2.7256   37.0000   37.0000 
3007.1568    8.5000   13.0703    0.2389  137.8912   12.8335   10.9777   12.9129   70.5582    2.6131   -0.0075    0.1975    2.6845   37.0000   37.0000 
3007.3092    8.5000   13.0703    0.2524  132.8024   12.5640   10.7565   12.9538   72.1440    2.6082   -0.0076    0.1860    2.7125   37.0000   37.0000 
3007.4616    8.5000   13.0703    0.1432  124.7654   13.0098   10.8846   14.0200   73.3074    2.6057   -0.0062    0.1723    2.8341   37.0000   37.0000 
3007.6140    8.5000   13.0703   -0.2829  119.6117   13.3840   10.9460   14.1172   73.6155    2.6094   -0.0038    0.1691    2.9612   37.0000   37.0000 
3007.7664    8.5000   13.0703   -0.6033  118.6786   13.3135   10.9529   13.2872   73.5574    2.6155   -0.0026    0.1774    3.1016   37.0000   37.0000 
3007.9188    8.5000   13.0703   -0.6213  119.9033   13.1922   10.7088   13.1875   73.3082    2.6213   -0.0030    0.1867    3.2018   37.0000   37.0000 
3008.0712    8.5000   13.0703   -0.6771  120.3026   12.8821   10.4813   12.8212   73.5767    2.6198   -0.0059    0.1917    3.2600   37.0000   37.0000 
3008.2236    8.5000   13.0703   -0.6830  119.3026   12.7440   10.5186   12.5475   73.8750    2.6089   -0.0112    0.1916    3.2191   37.0000   37.0000 
3008.3760    8.5000   13.0703   -0.5802  118.7514   12.7095   10.5797   13.3986   73.9134    2.5988   -0.0160    0.1860    3.1304   37.0000   37.0000 
3008.5284    8.5000   13.0703   -0.1389  120.3647   12.6300   10.5706   13.3992   73.7500    2.5952   -0.0183    0.1803    3.0852   37.0000   37.0000 
3008.6808    8.5000   13.0703    0.5574  123.2274   12.4476   10.6901   12.8381   73.6733    2.5962   -0.0193    0.1786    3.0942   37.0000   37.0000 
3008.8332    8.5000   13.0703    0.9167  127.2340   12.3196   10.6207   13.0949   74.0000    2.5994   -0.0197    0.1851    3.0978   37.0000   37.0000 
3008.9856    8.5000   13.0703    0.5245  130.7421   12.3714   10.5288   12.7833   74.4711    2.5995   -0.0189    0.1967    3.0536   37.0000   37.0000 
3009.1380    8.5000   13.0703   -0.0413  135.4604   12.4603   10.5931   12.4191   74.7884    2.5981   -0.0182    0.2023    2.9811   37.0000   37.0000 
3009.2904    8.5000   13.0703   -0.4338  138.2199   12.5685   10.7262   13.6046   74.6729    2.5976   -0.0172    0.1990    2.9408   37.0000   37.0000 
3009.4428    8.5000   13.0703   -0.4707  137.7120   13.0398   10.8500   14.6642   74.2888    2.6025   -0.0159    0.1936    2.9876   37.0000   37.0000 
3009.5952    8.5000   13.0703   -0.3227  136.6341   13.2451   10.7803   14.8098   74.3461    2.6082   -0.0157    0.1968    3.1230   37.0000   37.0000 
3009.7476    8.5000   13.0667   -0.2681  135.6258   12.4556   10.5272   14.8256   74.4517    2.6103   -0.0172    0.2035    3.2579   37.0000   37.0000 
3009.9000    8.5000   13.0403   -0.3630  134.4889   11.7665   10.3100   13.1842   74.5004    2.6079   -0.0190    0.2029    3.2515   37.0000   37.0000 
3010.0524    8.5000   12.9946   -0.6399  131.5392   11.9591   10.3078   11.5885   74.9324    2.6011   -0.0225    0.1909    3.1077   37.0000   37.0000 
3010.2048    8.5000   12.9766   -0.6601  128.6201   12.3550   10.1570   11.9938   75.0000    2.5965   -0.0257    0.1799    3.0261   37.0000   37.0000 
3010.3572    8.5000   12.9766   -0.5938  125.9759   12.3160   10.2735   12.6659   74.7211    2.5960   -0.0243    0.1768    2.9391   37.0000   37.0000 
3010.5096    8.5000   12.9658   -0.6472  124.8914   12.0680   10.5372   12.4291   74.3750    2.5988   -0.0218    0.1859    2.8371   37.0000   37.0000 
3010.6620    8.5000   12.9315   -0.4895  127.4608   12.0167   10.4730   12.4247   73.9422    2.6031   -0.0197    0.1969    2.7343   37.0000   37.0000 
3010.8144    8.5000   12.8978   -0.0937  130.4905   12.8791   10.5927   13.4697   73.8082    2.6116   -0.0153    0.2013    2.7975   37.0000   37.0000 
3010.9668    8.5000   12.8846    0.3453  130.0641   13.4928   11.0724   13.3089   74.2785    2.6192   -0.0097    0.1919    2.9785   37.0000   37.0000 
3011.1192    8.5000   12.8828    0.6377  124.7041   13.2421   11.3446   13.1423   74.2884    2.6162   -0.0085    0.1789    3.1386   37.0000   37.0000 
3011.2716    8.5000   12.8828    0.7836  121.2983   13.1759   11.4005   14.2245   73.5767    2.6123   -0.0081    0.1734    3.2155   37.0000   37.0000 
3011.4240    8.5000   12.8828    0.8716  121.4867   13.6757   11.5278   14.6878   72.3461    2.6097   -0.0083    0.1748    3.1923   37.0000   37.0000 
3011.5764    8.5000   12.8828    0.7890  122.5316   14.1864   11.4496   14.3527   71.2793    2.6082   -0.0100    0.1715    3.0429   37.0000   37.0000 
3011.7288    8.5000   12.8828    0.4276  121.2462   13.6394   11.3923   14.1511   70.6341    2.6104   -0.0118    0.1637    2.9956   37.0000   37.0000 
3011.8812    8.5000   12.8810   -0.0201  120.6926   12.8806   11.4200   14.2108   70.5783    2.6148   -0.0118    0.1613    3.0598   37.0000   37.0000 
3012.0336    8.5000   12.8606   -0.3242  123.2033   12.9480   11.5135   15.0454   72.2010    2.6156   -0.0118    0.1700    3.1796   37.0000   37.0000 
3012.1860    8.5000   12.8191   -0.4831  128.2587   13.4839   11.5910   15.3211   72.8556    2.6111   -0.0109    0.1825    3.1960   37.0000   37.0000 
3012.3384    8.5000   12.7987   -0.0277  132.6250   13.5514   11.3496   15.2661   72.7409    2.6098   -0.0089    0.1876    3.1697   37.0000   37.0000 
3012.4908    8.5000   12.7969    0.3704  133.8149   13.2874   11.1368   15.4713   73.3940    2.6102   -0.0076    0.1777    3.0856   37.0000   37.0000 
3012.6432    8.5000   12.7969    0.2016  130.2458   13.3730   11.1635   14.7545   73.8556    2.6126   -0.0080    0.1625    3.0582   37.0000   37.0000 
