~VERSION INFORMATION
 VERS.                 2.0:   CWLS LOG ASCII STANDARD - VERSION 2.0
 WRAP.                  NO:   SINGLE LINE PER DEPTH STEP
 CREA.                 01/17/2018 13:40:30
#CREATED USING DSPetro VERSION 5000.10.1.3 BY H191660 ON 01/17/2018 13:40:30
~WELL INFORMATION
#MNEM.UNIT       DATA                          DESCRIPTION MNEMONIC
#---------      ---------------------------   --------------------------
 STRT    .M         0.0000                    : START DEPTH
 STOP    .M         3457.9560                 : STOP DEPTH
 STEP    .M         0.1524                    : STEP VALUE
 NULL    .      -999.0000                     : NULL VALUE
 DATE    .      01/17/2018                    : LAS file Creation Date
 WELL .      2717_Robot-1A               : Well Name
 COMP .      Neftex Exploration Insights : Company
 FLD  .                                  : Field
 UWI  .      ZAUWL_005614                : Unique Well Identifier (UWI)
 LOC  .                                  : Location
 RWS  .      -999                        : Def_Rw
 WST  .      -999                        : Def_Rwt
 SRVC .                                  : Contractor
~CURVE INFORMATION
#MNEM              UNIT       API CODE   Curve Type Comments
#----------  --------------- ----------  ---------- -----------
 DEPTH      .M                         : Depth       
 BS         .in                        : BitSize     
 CAL_INCH   .inch                      : caliper     Caliper Log - A representation of the measured diameter of a borehole along its depth
 SP_MV1     .mv                        : SP          Spontaneous Potential - Records the electrical potential produced by the interaction of formation water, conductive drilling mud, and certain ion-sele
 GR_API     .API                       : gammaRay    Gamma Ray (API) - Measures the intensity of natural gamma-ray radiation emitted from formations containing radioactive elements, such as K, Th and U
 LLD_OHMM   .ohmm                      : deepRes     Laterlog Deep Resistivity - Measurement made several feet into the formation; generally considered a measurement of the undisturbed formation
 LLS_OHMM   .ohmm                      : shalRes     Laterlog Shallow Resistivity - one to two feet into the formation; generally considered to measure the formation
 MSFL_OHMM  .ohmm                      : microRes    Micro-Spherically Focused Log - Measurement involves only the first few inches of the formation immediately adjacent to the borehole
 DT_US_FT   .us/ft                     : sonic       Interval Transit Time: Compressional Wave - Evaluates the time it takes for a compressional wave to traverse a fixed distance
 RHOB_G_CC  .g/cc                      : density     Bulk Density - Measures the density of bulk material, including any void space or other materials contained in the subject volume
 DRHO_G_CC  .g/cc                      : drho        Density Correction - Investigates the correction to the Bulk Density log; used as an indication of hole condition to validate the Bulk Density measure
 NPHI_V_V   .dec                       : Neutron     
 PEF_B_E    .b/e-                      : PEF         Photoelectric Factor - A log of photoelectric absorption properties. Often expressed in an approximation unit barns/electron (b/e-)
 LITH       .                          : LITH        Lithology Curve
 LITH_v2    .                          : LITH        Lithology Curve
~A  DEPTH     BS     CAL_INCH   SP_MV1    GR_API   LLD_OHMM  LLS_OHMM MSFL_OHM   DT_US_FT RHOB_G_C  DRHO_G_C   NPHI_V_V  PEF_B_E     LITH    LITH_v2  
# ...
1373.1240   17.5000   17.9952    3.5831   33.3319 -999.0000 -999.0000 -999.0000 -999.0000    2.2644   -0.0582    0.3451    4.4988 -999.0000    3.0000 
1373.2764   17.5000   17.9820    3.3162   33.2911 -999.0000 -999.0000 -999.0000 -999.0000    2.2750   -0.0576    0.3314    4.2858 -999.0000    3.0000 
1373.4288   17.5000   17.9628    3.0992   33.9834 -999.0000 -999.0000 -999.0000 -999.0000    2.2789   -0.0571    0.3216    4.1245 -999.0000    3.0000 
1373.5812   17.5000   17.9916    2.9502   34.8866 -999.0000 -999.0000 -999.0000 -999.0000    2.2727   -0.0574    0.3181    4.1205 -999.0000    3.0000 
1373.7336   17.5000   18.0481    2.9203   34.5596 -999.0000 -999.0000 -999.0000 -999.0000    2.2624   -0.0581    0.3150    4.2086 -999.0000    3.0000 
1373.8860   17.5000   18.0962    2.9775   32.7849 -999.0000 -999.0000 -999.0000 -999.0000    2.2633   -0.0573    0.3043    4.3572 -999.0000    3.0000 
1374.0384   17.5000   18.1574    3.2192   31.6393 -999.0000 -999.0000 -999.0000 -999.0000    2.2786   -0.0548    0.2912    4.4441 -999.0000    3.0000 
1374.1908   17.5000   18.1742    3.4029   32.9291 -999.0000 -999.0000 -999.0000 -999.0000    2.2879   -0.0527    0.2954    4.4423 -999.0000    3.0000 
1374.3432   17.5000   18.1166    3.5563   35.0937 -999.0000 -999.0000 -999.0000 -999.0000    2.2809   -0.0541    0.3133    4.3608 -999.0000    3.0000 
1374.4956   17.5000   18.0577    3.6990   36.6390 -999.0000 -999.0000 -999.0000 -999.0000    2.2634   -0.0578    0.3258    4.2374 -999.0000    3.0000 
1374.6480   17.5000   18.0241    3.7064   36.5714 -999.0000 -999.0000 -999.0000 -999.0000    2.2545   -0.0608    0.3271    4.1980 -999.0000    3.0000 
1374.8004   17.5000   18.0061    3.7886   34.6636 -999.0000 -999.0000 -999.0000 -999.0000    2.2538   -0.0645    0.3160    4.3393 -999.0000    3.0000 
1374.9528   17.5000   18.0277    3.8312   32.6085 -999.0000 -999.0000 -999.0000 -999.0000    2.2650   -0.0676    0.2930    4.5964 -999.0000    3.0000 
1375.1052   17.5000   18.0553    3.8510   31.8708 -999.0000 -999.0000 -999.0000 -999.0000    2.2871   -0.0673    0.2769    4.7634 -999.0000    3.0000 
1375.2576   17.5000   18.0481    3.7068   33.0028 -999.0000 -999.0000 -999.0000 -999.0000    2.3001   -0.0655    0.2862    4.6934 -999.0000    3.0000 
1375.4100   17.5000   18.0108    3.5066   34.8046 -999.0000 -999.0000 -999.0000 -999.0000    2.2818   -0.0671    0.3107    4.4778 -999.0000    3.0000 
1375.5624   17.5000   17.9880    3.4896   35.2908 -999.0000 -999.0000 -999.0000 -999.0000    2.2452   -0.0709    0.3253    4.3759 -999.0000    3.0000 
1375.7148   17.5000   17.9772    3.6683   34.6777 -999.0000 -999.0000 -999.0000 -999.0000    2.2283   -0.0724    0.3205    4.4556 -999.0000    3.0000 
1375.8672   17.5000   17.9495    3.9527   34.0895 -999.0000 -999.0000 -999.0000 -999.0000    2.2425   -0.0696    0.3108    4.6964 -999.0000    3.0000 
1376.0196   17.5000   17.9171    4.2476   35.1400 -999.0000 -999.0000 -999.0000 -999.0000    2.2595   -0.0662    0.2999    4.8194 -999.0000    3.0000 
1376.1720   17.5000   17.9243    4.2145   37.9687 -999.0000 -999.0000 -999.0000 -999.0000    2.2518   -0.0675    0.2943    4.7398 -999.0000    3.0000 
1376.3244   17.5000   17.9772    3.9685   39.8352 -999.0000 -999.0000 -999.0000 -999.0000    2.2340   -0.0705    0.2915    4.5116 -999.0000    3.0000 
1376.4768   17.5000   18.0096    3.8643   39.4987 -999.0000 -999.0000 -999.0000 -999.0000    2.2309   -0.0694    0.2976    4.2065 -999.0000    3.0000 
1376.6292   17.5000   17.9988    3.5371   39.5379 -999.0000 -999.0000 -999.0000 -999.0000    2.2384   -0.0677    0.3124    4.0397 -999.0000    3.0000 
1376.7816   17.5000   17.9928    2.9864   39.6399 -999.0000 -999.0000 -999.0000 -999.0000    2.2369   -0.0694    0.3280    4.0560 -999.0000    3.0000 
1376.9340   17.5000   18.0024    2.4518   38.7366 -999.0000 -999.0000 -999.0000 -999.0000    2.2296   -0.0712    0.3286    4.2434 -999.0000    3.0000 
1377.0864   17.5000   18.0433    1.8164   35.5751 -999.0000 -999.0000 -999.0000 -999.0000    2.2288   -0.0720    0.3118    4.4805 -999.0000    3.0000 
1377.2388   17.5000   18.1010    1.1022   32.3908 -999.0000 -999.0000 -999.0000 -999.0000    2.2398   -0.0715    0.2965    4.6379 -999.0000    3.0000 
1377.3912   17.5000   18.1286    0.3688   30.6352 -999.0000 -999.0000 -999.0000 -999.0000    2.2519   -0.0676    0.2969    4.6761 -999.0000    3.0000 
1377.5436   17.5000   18.1022   -0.4606   30.0838 -999.0000 -999.0000 -999.0000 -999.0000    2.2475   -0.0654    0.3054    4.6267 -999.0000    3.0000 
1377.6960   17.5000   18.1358   -1.1108   30.0380 -999.0000 -999.0000 -999.0000 -999.0000    2.2317   -0.0661    0.3166    4.5470 -999.0000    3.0000 
1377.8484   17.5000   18.2127   -1.2257   30.8170 -999.0000 -999.0000 -999.0000 -999.0000    2.2267   -0.0659    0.3300    4.5720 -999.0000    3.0000 
1378.0008   17.5000   18.2247   -1.0149   31.3509 -999.0000 -999.0000 -999.0000 -999.0000    2.2378   -0.0638    0.3381    4.5848 -999.0000    3.0000 
1378.1532   17.5000   18.1563   -0.8811   30.8962 -999.0000 -999.0000 -999.0000 -999.0000    2.2416   -0.0629    0.3385    4.5465 -999.0000    3.0000 
1378.3056   17.5000   18.0842   -0.9298   29.5074 -999.0000 -999.0000 -999.0000 -999.0000    2.2230   -0.0646    0.3284    4.4514 -999.0000    3.0000 
1378.4580   17.5000   18.0878   -1.1503   29.0815 -999.0000 -999.0000 -999.0000 -999.0000    2.2005   -0.0671    0.3225    4.4315 -999.0000    3.0000 
1378.6104   17.5000   18.1214   -1.4101   30.7099 -999.0000 -999.0000 -999.0000 -999.0000    2.1922   -0.0659    0.3173    4.4858 -999.0000    3.0000 
1378.7628   17.5000   18.1094   -1.6229   31.5604 -999.0000 -999.0000 -999.0000 -999.0000    2.1907   -0.0623    0.3165    4.5105 -999.0000    3.0000 
1378.9152   17.5000   18.1454   -1.8112   29.1770 -999.0000 -999.0000 -999.0000 -999.0000    2.1868   -0.0617    0.3178    4.6401 -999.0000    3.0000 
1379.0676   17.5000   18.2284   -1.9805   24.9710 -999.0000 -999.0000 -999.0000 -999.0000    2.1954   -0.0606    0.3229    4.9176 -999.0000    3.0000 
1379.2200   17.5000   18.2944   -2.2926   22.9575 -999.0000 -999.0000 -999.0000 -999.0000    2.2202   -0.0559    0.3459    5.0126 -999.0000    3.0000 
1379.3724   17.5000   18.2488   -2.7791   23.8415 -999.0000 -999.0000 -999.0000 -999.0000    2.2331   -0.0536    0.3789    4.8253 -999.0000    3.0000 
1379.5248   17.5000   18.1611   -3.2373   25.2181 -999.0000 -999.0000 -999.0000 -999.0000    2.2190   -0.0559    0.3931    4.5627 -999.0000    3.0000 
1379.6772   17.5000   18.0878   -3.2163   25.6784 -999.0000 -999.0000 -999.0000 -999.0000    2.2022   -0.0596    0.3769    4.5466 -999.0000    3.0000 
1379.8296   17.5000   18.0805   -2.7826   26.6528 -999.0000 -999.0000 -999.0000 -999.0000    2.2053   -0.0614    0.3455    4.6388 -999.0000    3.0000 
1379.9820   17.5000   18.1045   -2.0796   28.7841 -999.0000 -999.0000 -999.0000 -999.0000    2.2181   -0.0615    0.3309    4.6589 -999.0000    3.0000 
1380.1344   17.5000   18.0805   -1.4946   30.8751 -999.0000 -999.0000 -999.0000 -999.0000    2.2189   -0.0611    0.3349    4.6097 -999.0000    3.0000 
1380.2868   17.5000   18.0878   -1.1571   30.7764 -999.0000 -999.0000 -999.0000 -999.0000    2.2040   -0.0633    0.3544    4.5796 -999.0000    3.0000 
1380.4392   17.5000   18.1719   -0.6262   29.0380 -999.0000 -999.0000 -999.0000 -999.0000    2.1955   -0.0650    0.3691    4.6416 -999.0000    3.0000 
1380.5916   17.5000   18.2741    0.0387   27.3029 -999.0000 -999.0000 -999.0000 -999.0000    2.2106   -0.0629    0.3709    4.7647 -999.0000    3.0000 
1380.7440   17.5000   18.3089    0.7822   27.1075 -999.0000 -999.0000 -999.0000 -999.0000    2.2338   -0.0595    0.3620    4.8071 -999.0000    3.0000 
1380.8964   17.5000   18.2404    1.7005   27.6910 -999.0000 -999.0000 -999.0000 -999.0000    2.2468   -0.0595    0.3579    4.7868 -999.0000    3.0000 
1381.0488   17.5000   18.1827    2.7848   29.4428 -999.0000 -999.0000 -999.0000 -999.0000    2.2481   -0.0598    0.3587    4.6458 -999.0000    3.0000 
