~VERSION INFORMATION
 VERS.                 2.0:   CWLS LOG ASCII STANDARD - VERSION 2.0
 WRAP.                  NO:   SINGLE LINE PER DEPTH STEP
 CREA.                 01/17/2018 13:40:30
#CREATED USING DSPetro VERSION 5000.10.1.3 BY H191660 ON 01/17/2018 13:40:30
~WELL INFORMATION
#MNEM.UNIT       DATA                          DESCRIPTION MNEMONIC
#---------      ---------------------------   --------------------------
 STRT    .M         0.0000                    : START DEPTH
 STOP    .M         3457.9560                 : STOP DEPTH
 STEP    .M         0.1524                    : STEP VALUE
 NULL    .      -999.0000                     : NULL VALUE
 DATE    .      01/17/2018                    : LAS file Creation Date
 WELL .      2717_Robot-1A               : Well Name
 COMP .      Neftex Exploration Insights : Company
 FLD  .                                  : Field
 UWI  .      ZAUWL_005614                : Unique Well Identifier (UWI)
 LOC  .                                  : Location
 RWS  .      -999                        : Def_Rw
 WST  .      -999                        : Def_Rwt
 SRVC .                                  : Contractor
~CURVE INFORMATION
#MNEM              UNIT       API CODE   Curve Type Comments
#----------  --------------- ----------  ---------- -----------
 DEPTH      .M                         : Depth       
 BS         .in                        : BitSize     
 CAL_INCH   .inch                      : caliper     Caliper Log - A representation of the measured diameter of a borehole along its depth
 SP_MV1     .mv                        : SP          Spontaneous Potential - Records the electrical potential produced by the interaction of formation water, conductive drilling mud, and certain ion-sele
 GR_API     .API                       : gammaRay    Gamma Ray (API) - Measures the intensity of natural gamma-ray radiation emitted from formations containing radioactive elements, such as K, Th and U
 LLD_OHMM   .ohmm                      : deepRes     Laterlog Deep Resistivity - Measurement made several feet into the formation; generally considered a measurement of the undisturbed formation
 LLS_OHMM   .ohmm                      : shalRes     Laterlog Shallow Resistivity - one to two feet into the formation; generally considered to measure the formation
 MSFL_OHMM  .ohmm                      : microRes    Micro-Spherically Focused Log - Measurement involves only the first few inches of the formation immediately adjacent to the borehole
 DT_US_FT   .us/ft                     : sonic       Interval Transit Time: Compressional Wave - Evaluates the time it takes for a compressional wave to traverse a fixed distance
 RHOB_G_CC  .g/cc                      : density     Bulk Density - Measures the density of bulk material, including any void space or other materials contained in the subject volume
 DRHO_G_CC  .g/cc                      : drho        Density Correction - Investigates the correction to the Bulk Density log; used as an indication of hole condition to validate the Bulk Density measure
 NPHI_V_V   .dec                       : Neutron     
 PEF_B_E    .b/e-                      : PEF         Photoelectric Factor - A log of photoelectric absorption properties. Often expressed in an approximation unit barns/electron (b/e-)
 LITH       .                          : LITH        Lithology Curve
 LITH_v2    .                          : LITH        Lithology Curve
~A  DEPTH     BS     CAL_INCH   SP_MV1    GR_API   LLD_OHMM  LLS_OHMM MSFL_OHM   DT_US_FT RHOB_G_C  DRHO_G_C   NPHI_V_V  PEF_B_E     LITH    LITH_v2  
# ...
3093.5676    8.5000   11.8125   -0.8353  137.2982   14.8411   13.5631   14.3082   72.8560    2.6245   -0.0185    0.2059    2.9945   37.0000   37.0000 
3093.7200    8.5000   11.8125   -1.4071  136.7033   15.4861   13.5321   13.7174   73.0862    2.6172   -0.0199    0.2020    2.9134   37.0000   37.0000 
3093.8724    8.5000   11.8251   -1.6429  138.8263   15.0707   13.5584   14.7483   73.0194    2.6171   -0.0191    0.1970    3.1018   37.0000   37.0000 
3094.0248    8.5000   11.8546   -1.6573  140.5668   14.2576   13.4123   16.2960   73.0866    2.6192   -0.0183    0.2016    3.4317   37.0000   37.0000 
3094.1772    8.5000   11.8762   -1.7439  139.7971   14.1692   13.4093   16.7899   73.4711    2.6176   -0.0189    0.2138    3.6142   37.0000   37.0000 
3094.3296    8.5000   11.8973   -1.8591  136.2884   14.8481   13.3962   16.2143   73.8172    2.6144   -0.0176    0.2183    3.6123   37.0000   37.0000 
3094.4820    8.5000   11.9063   -1.6284  133.7619   15.0198   13.4438   15.4452   73.9711    2.6120   -0.0152    0.2141    3.4470   37.0000   37.0000 
3094.6344    8.5000   11.9063   -1.2295  135.2876   14.6129   13.5711   14.8015   73.8845    2.6080   -0.0146    0.2103    3.2665   37.0000   37.0000 
3094.7868    8.5000   11.9135   -0.9409  137.0000   14.5490   13.7428   13.2395   73.6155    2.6051   -0.0148    0.2069    3.1290   37.0000   37.0000 
3094.9392    8.5000   11.9447   -0.7295  137.0953   14.7630   13.8481   12.8568   73.4422    2.6067   -0.0140    0.1969    3.0463   37.0000   37.0000 
3095.0916    8.5000   11.9856   -0.7728  136.2990   15.3413   13.8665   14.4655   73.2211    2.6156   -0.0113    0.1868    3.0307   37.0000   37.0000 
3095.2440    8.5000   12.0072   -0.9841  138.0878   16.1018   14.0426   15.7037   72.9039    2.6263   -0.0091    0.1874    3.0032   37.0000   37.0000 
3095.3964    8.5000   12.0349   -1.0806  142.7010   16.3368   14.4014   16.8154   72.5961    2.6334   -0.0074    0.1940    3.0181   37.0000   37.0000 
3095.5488    8.5000   12.0691   -1.2918  145.2488   16.0115   14.6527   17.4661   72.1056    2.6321   -0.0057    0.1926    2.9388   37.0000   37.0000 
3095.7012    8.5000   12.0841   -1.5517  144.5388   16.0875   14.8384   16.9937   71.4233    2.6270   -0.0062    0.1868    2.8011   37.0000   37.0000 
3095.8536    8.5000   12.1040   -1.9168  142.7686   16.9619   14.7235   16.9646   71.1733    2.6256   -0.0093    0.1871    2.7317   37.0000   37.0000 
3096.0060    8.5000   12.1514   -2.1284  139.2686   17.3719   14.6296   17.2180   71.3845    2.6346   -0.0115    0.1850    2.8978   37.0000   37.0000 
3096.1584    8.5000   12.1947   -2.0996  134.7607   17.0318   14.7257   17.6904   71.5866    2.6496   -0.0138    0.1826    3.3413   37.0000   37.0000 
3096.3108    8.5000   12.2332   -1.9362  132.1444   16.8306   14.7562   19.4441   71.7017    2.6607   -0.0170    0.1834    3.7649   37.0000   37.0000 
3096.4632    8.5000   12.2542   -1.4936  132.9252   16.5554   14.7654   21.8851   71.4711    2.6691   -0.0189    0.1841    3.9603   37.0000   37.0000 
3096.6156    8.5000   12.2777   -0.6961  135.5641   16.4768   14.6853   20.6129   71.2021    2.6676   -0.0198    0.1841    3.9011   37.0000   37.0000 
3096.7680    8.5000   12.3257   -0.1668  135.4351   16.5936   14.2608   19.0518   71.4905    2.6552   -0.0202    0.1828    3.6547   37.0000   37.0000 
3096.9204    8.5000   12.3696    0.1694  136.3833   16.4794   13.9113   17.6434   72.2500    2.6380   -0.0192    0.1892    3.4869   37.0000   37.0000 
3097.0728    8.5000   12.4249    0.3909  137.4719   15.9132   13.6017   16.5097   73.0384    2.6267   -0.0174    0.1981    3.2921   37.0000   37.0000 
3097.2252    8.5000   12.4814    0.4962  136.8631   15.6727   13.4419   16.4331   73.3074    2.6273   -0.0148    0.1986    3.1113   37.0000   37.0000 
3097.3776    8.5000   12.5511    0.1698  133.2706   16.2491   13.7287   17.1687   72.8078    2.6345   -0.0116    0.1949    3.0251   37.0000   37.0000 
3097.5300    8.5000   12.6232    0.0254  129.5182   17.1182   14.1053   18.1816   72.1250    2.6385   -0.0089    0.1877    3.0287   37.0000   37.0000 
3097.6824    8.5000   12.6965   -0.1288  125.7029   17.2670   14.5408   18.3145   71.4711    2.6300   -0.0085    0.1782    3.0061   37.0000   37.0000 
3097.8348    8.5000   12.7801   -0.7869  121.9266   17.5692   14.8704   18.1456   70.6922    2.6193   -0.0095    0.1734    2.8656   37.0000   37.0000 
3097.9872    8.5000   12.8534   -1.1476  119.4167   18.2106   14.8644   19.2902   65.4474    2.6174   -0.0103    0.1788    2.8246   37.0000   37.0000 
3098.1396    8.5000   12.9183   -1.2248  122.5332   18.1430   14.6935   20.2689   59.3655    2.6270   -0.0121    0.1871    3.0045   37.0000   37.0000 
3098.2920    8.5000   12.9856   -1.2002  128.7799   17.5855   14.3834   19.5461   65.8798    2.6319   -0.0145    0.1946    3.1902   37.0000   37.0000 
3098.4444    8.5000   13.0631   -0.6478  134.0307   17.1326   14.0069   17.4351   70.6151    2.6279   -0.0160    0.1936    3.3069   37.0000   37.0000 
3098.5968    8.5000   13.1274   -0.0034  133.5672   16.4888   13.6894   15.5108   70.7314    2.6252   -0.0165    0.1919    3.3419   37.0000   37.0000 
3098.7492    8.5000   13.1791    0.3905  128.9555   15.8554   13.4834   14.3204   71.3358    2.6282   -0.0152    0.1905    3.2436   37.0000   37.0000 
3098.9016    8.5000   13.2458    0.4004  122.9197   16.5089   13.2511   13.4517   71.1155    2.6322   -0.0105    0.1896    2.9661   37.0000   37.0000 
3099.0540    8.5000   13.3263    0.4365  118.6873   16.8112   13.1826   11.3128   70.7310    2.6341   -0.0075    0.1892    2.7427   37.0000   37.0000 
3099.2064    8.5000   13.4117    0.5901  117.0498   16.5197   13.1159   10.3452   70.6535    2.6339   -0.0073    0.1867    2.7596   37.0000   37.0000 
3099.3588    8.5000   13.4970    0.5615  118.5186   16.8285   12.9749    7.9181   70.2021    2.6338   -0.0071    0.1851    2.8834   37.0000   37.0000 
3099.5112    8.5000   13.5661    0.5205  120.5099   16.3726   12.9562    4.4693   69.9039    2.6272   -0.0072    0.1836    2.9216   37.0000   37.0000 
3099.6636    8.5000   13.6382    0.4052  120.2765   16.7013   13.0507    4.4451   69.7017    2.6200   -0.0090    0.1730    2.8489   37.0000   37.0000 
3099.8160    8.5000   13.7212    0.2610  115.6015   17.2306   13.0143    7.7479   69.3849    2.6151   -0.0113    0.1592    2.7613   37.0000   37.0000 
3099.9684    8.5000   13.7933    0.1744  110.2168   16.6911   12.8994    9.4926   69.4422    2.6084   -0.0131    0.1526    2.6495   37.0000   37.0000 
3100.1208    8.5000   13.8768    0.1746  108.4302   17.0979   12.9256    8.9869   69.5672    2.6055   -0.0137    0.1541    2.6515   37.0000   37.0000 
3100.2732    8.5000   13.9741    0.5399  111.8651   17.0578   13.0165    8.3283   69.3845    2.6099   -0.0158    0.1611    2.6875   37.0000   37.0000 
3100.4256    8.5000   14.0216    1.0155  115.7777   16.4872   12.7348    8.6084   69.1349    2.6184   -0.0159    0.1703    2.7588   37.0000   37.0000 
3100.5780    8.5000   14.0727    1.3814  115.5178   16.7454   12.4690    7.7433   69.2884    2.6225   -0.0120    0.1810    2.7223   37.0000   37.0000 
3100.7304    8.5000   14.1382    2.0444  111.1588   17.3641   12.2229    7.1750   69.3845    2.6122   -0.0067    0.1798    2.7968   37.0000   37.0000 
3100.8828    8.5000   14.2452    2.3472  106.8809   16.3845   11.7861    5.4045   69.3849    2.5864   -0.0031    0.1669    3.0977   37.0000   37.0000 
3101.0352    8.5000   14.4339    2.2156  105.8131   15.4688   11.4584    2.5463   69.6440    2.5499    0.0053    0.1579    3.5311   37.0000   37.0000 
3101.1876    8.5000   14.6863    2.3810  106.9229   15.8243   11.3179    1.9945   69.5672    2.5141    0.0240    0.1678    3.8326   37.0000   37.0000 
3101.3400    8.5000   14.9566    2.3354  108.0672   16.2080   11.3524    2.3332   69.4138    2.4858    0.0450    0.1851    3.8009   37.0000   37.0000 
3101.4924    8.5000   15.0985    1.9678  109.1926   15.6674   11.2949    1.9152   69.6729    2.4729    0.0633    0.1913    3.5993   37.0000   37.0000 
