~VERSION INFORMATION
 VERS.                 2.0:   CWLS LOG ASCII STANDARD - VERSION 2.0
 WRAP.                  NO:   SINGLE LINE PER DEPTH STEP
 CREA.                 01/17/2018 13:40:30
#CREATED USING DSPetro VERSION 5000.10.1.3 BY H191660 ON 01/17/2018 13:40:30
~WELL INFORMATION
#MNEM.UNIT       DATA                          DESCRIPTION MNEMONIC
#---------      ---------------------------   --------------------------
 STRT    .M         0.0000                    : START DEPTH
 STOP    .M         3457.9560                 : STOP DEPTH
 STEP    .M         0.1524                    : STEP VALUE
 NULL    .      -999.0000                     : NULL VALUE
 DATE    .      01/17/2018                    : LAS file Creation Date
 WELL .      2717_Robot-1A               : Well Name
 COMP .      Neftex Exploration Insights : Company
 FLD  .                                  : Field
 UWI  .      ZAUWL_005614                : Unique Well Identifier (UWI)
 LOC  .                                  : Location
 RWS  .      -999                        : Def_Rw
 WST  .      -999                        : Def_Rwt
 SRVC .                                  : Contractor
~CURVE INFORMATION
#MNEM              UNIT       API CODE   Curve Type Comments
#----------  --------------- ----------  ---------- -----------
 DEPTH      .M                         : Depth       
 BS         .in                        : BitSize     
 CAL_INCH   .inch                      : caliper     Caliper Log - A representation of the measured diameter of a borehole along its depth
 SP_MV1     .mv                        : SP          Spontaneous Potential - Records the electrical potential produced by the interaction of formation water, conductive drilling mud, and certain ion-sele
 GR_API     .API                       : gammaRay    Gamma Ray (API) - Measures the intensity of natural gamma-ray radiation emitted from formations containing radioactive elements, such as K, Th and U
 LLD_OHMM   .ohmm                      : deepRes     Laterlog Deep Resistivity - Measurement made several feet into the formation; generally considered a measurement of the undisturbed formation
 LLS_OHMM   .ohmm                      : shalRes     Laterlog Shallow Resistivity - one to two feet into the formation; generally considered to measure the formation
 MSFL_OHMM  .ohmm                      : microRes    Micro-Spherically Focused Log - Measurement involves only the first few inches of the formation immediately adjacent to the borehole
 DT_US_FT   .us/ft                     : sonic       Interval Transit Time: Compressional Wave - Evaluates the time it takes for a compressional wave to traverse a fixed distance
 RHOB_G_CC  .g/cc                      : density     Bulk Density - Measures the density of bulk material, including any void space or other materials contained in the subject volume
 DRHO_G_CC  .g/cc                      : drho        Density Correction - Investigates the correction to the Bulk Density log; used as an indication of hole condition to validate the Bulk Density measure
 NPHI_V_V   .dec                       : Neutron     
 PEF_B_E    .b/e-                      : PEF         Photoelectric Factor - A log of photoelectric absorption properties. Often expressed in an approximation unit barns/electron (b/e-)
 LITH       .                          : LITH        Lithology Curve
 LITH_v2    .                          : LITH        Lithology Curve
~A  DEPTH     BS     CAL_INCH   SP_MV1    GR_API   LLD_OHMM  LLS_OHMM MSFL_OHM   DT_US_FT RHOB_G_C  DRHO_G_C   NPHI_V_V  PEF_B_E     LITH    LITH_v2  
# ...
1114.6536   17.5000   22.5313    4.6017   14.2427 -999.0000 -999.0000 -999.0000 -999.0000    1.7221   -0.0030    0.3499    3.4853 -999.0000    3.0000 
1114.8060   17.5000   22.5313    4.5069   15.1657 -999.0000 -999.0000 -999.0000 -999.0000    1.7202   -0.0040    0.3416    3.4654 -999.0000    3.0000 
1114.9584   17.5000   22.5313    4.5713   14.5027 -999.0000 -999.0000 -999.0000 -999.0000    1.7223   -0.0044    0.3398    3.4416 -999.0000    3.0000 
1115.1108   17.5000   22.5313    4.6392   13.6809 -999.0000 -999.0000 -999.0000 -999.0000    1.7324   -0.0038    0.3410    3.4659 -999.0000    3.0000 
1115.2632   17.5000   22.5313    4.5862   13.6472 -999.0000 -999.0000 -999.0000 -999.0000    1.7428   -0.0038    0.3473    3.5373 -999.0000    3.0000 
1115.4156   17.5000   22.5313    4.6703   14.1814 -999.0000 -999.0000 -999.0000 -999.0000    1.7488   -0.0038    0.3579    3.6471 -999.0000    3.0000 
1115.5680   17.5000   22.5313    4.9524   13.7404 -999.0000 -999.0000 -999.0000 -999.0000    1.7485   -0.0033    0.3742    3.7040 -999.0000    3.0000 
1115.7204   17.5000   22.5313    5.5420   12.9198 -999.0000 -999.0000 -999.0000 -999.0000    1.7418   -0.0040    0.3855    3.6638 -999.0000    3.0000 
1115.8728   17.5000   22.5313    6.0142   12.5665 -999.0000 -999.0000 -999.0000 -999.0000    1.7305   -0.0053    0.3896    3.5687 -999.0000    3.0000 
1116.0252   17.5000   22.5313    5.9636   12.5918 -999.0000 -999.0000 -999.0000 -999.0000    1.7156   -0.0061    0.3819    3.4895 -999.0000    3.0000 
1116.1776   17.5000   22.5313    5.8531   13.2599 -999.0000 -999.0000 -999.0000 -999.0000    1.7019   -0.0061    0.3734    3.4537 -999.0000    3.0000 
1116.3300   17.5000   22.5313    5.7986   14.2944 -999.0000 -999.0000 -999.0000 -999.0000    1.6943   -0.0055    0.3733    3.4560 -999.0000    3.0000 
1116.4824   17.5000   22.5313    5.6726   16.0334 -999.0000 -999.0000 -999.0000 -999.0000    1.6909   -0.0052    0.3831    3.4572 -999.0000    3.0000 
1116.6348   17.5000   22.5313    5.5123   17.7489 -999.0000 -999.0000 -999.0000 -999.0000    1.6885   -0.0059    0.4097    3.4551 -999.0000    3.0000 
1116.7872   17.5000   22.5313    5.4392   19.0189 -999.0000 -999.0000 -999.0000 -999.0000    1.6847   -0.0077    0.4264    3.4235 -999.0000    3.0000 
1116.9396   17.5000   22.5313    5.6141   19.2220 -999.0000 -999.0000 -999.0000 -999.0000    1.6769   -0.0100    0.4369    3.3848 -999.0000    3.0000 
1117.0920   17.5000   22.5313    5.9791   17.9763 -999.0000 -999.0000 -999.0000 -999.0000    1.6640   -0.0123    0.4407    3.3531 -999.0000    3.0000 
1117.2444   17.5000   22.5313    6.4936   16.4689 -999.0000 -999.0000 -999.0000 -999.0000    1.6480   -0.0142    0.4334    3.3391 -999.0000    3.0000 
1117.3968   17.5000   22.5313    7.0832   16.4875 -999.0000 -999.0000 -999.0000 -999.0000    1.6379   -0.0154    0.4258    3.3179 -999.0000    3.0000 
1117.5492   17.5000   22.5313    7.4403   17.3640 -999.0000 -999.0000 -999.0000 -999.0000    1.6365   -0.0162    0.4167    3.2841 -999.0000    3.0000 
1117.7016   17.5000   22.5313    7.4182   18.0192 -999.0000 -999.0000 -999.0000 -999.0000    1.6453   -0.0161    0.4171    3.2849 -999.0000    3.0000 
1117.8540   17.5000   22.5313    7.1709   18.3977 -999.0000 -999.0000 -999.0000 -999.0000    1.6620   -0.0155    0.4147    3.3594 -999.0000    3.0000 
1118.0064   17.5000   22.5313    6.9035   18.8081 -999.0000 -999.0000 -999.0000 -999.0000    1.6837   -0.0148    0.3995    3.4810 -999.0000    3.0000 
1118.1588   17.5000   22.5313    6.6190   19.2939 -999.0000 -999.0000 -999.0000 -999.0000    1.6997   -0.0146    0.3811    3.4794 -999.0000    3.0000 
1118.3112   17.5000   22.5313    6.5169   19.0219 -999.0000 -999.0000 -999.0000 -999.0000    1.6948   -0.0152    0.3748    3.3455 -999.0000    3.0000 
1118.4636   17.5000   22.5313    6.5784   18.1881 -999.0000 -999.0000 -999.0000 -999.0000    1.6673   -0.0174    0.3966    3.1643 -999.0000    3.0000 
1118.6160   17.5000   22.5313    6.8249   16.9189 -999.0000 -999.0000 -999.0000 -999.0000    1.6313   -0.0201    0.4359    3.0625 -999.0000    3.0000 
1118.7684   17.5000   22.5313    7.2083   16.2671 -999.0000 -999.0000 -999.0000 -999.0000    1.6083   -0.0206    0.4567    3.0950 -999.0000    3.0000 
1118.9208   17.5000   22.5313    7.6753   15.7027 -999.0000 -999.0000 -999.0000 -999.0000    1.6093   -0.0181    0.4539    3.2324 -999.0000    3.0000 
1119.0732   17.5000   22.5313    8.4217   15.0563 -999.0000 -999.0000 -999.0000 -999.0000    1.6296   -0.0141    0.4454    3.3865 -999.0000    3.0000 
1119.2256   17.5000   22.5313    9.0302   14.1190 -999.0000 -999.0000 -999.0000 -999.0000    1.6545   -0.0093    0.4403    3.4953 -999.0000    3.0000 
1119.3780   17.5000   22.5313    9.1738   13.1607 -999.0000 -999.0000 -999.0000 -999.0000    1.6713   -0.0055    0.4284    3.5345 -999.0000    3.0000 
1119.5304   17.5000   22.5313    9.2546   13.0317 -999.0000 -999.0000 -999.0000 -999.0000    1.6770   -0.0036    0.4232    3.4615 -999.0000    3.0000 
1119.6828   17.5000   22.5313    9.5788   13.4994 -999.0000 -999.0000 -999.0000 -999.0000    1.6682   -0.0044    0.4320    3.2770 -999.0000    3.0000 
1119.8352   17.5000   22.5313    9.9293   13.4222 -999.0000 -999.0000 -999.0000 -999.0000    1.6431   -0.0066    0.4426    3.0359 -999.0000    3.0000 
1119.9876   17.5000   22.5313   10.2349   13.1680 -999.0000 -999.0000 -999.0000 -999.0000    1.6056   -0.0101    0.4482    2.8244 -999.0000    3.0000 
1120.1400   17.5000   22.5313   10.5582   13.2862 -999.0000 -999.0000 -999.0000 -999.0000    1.5663   -0.0144    0.4486    2.6866 -999.0000    3.0000 
1120.2924   17.5000   22.5313   10.7589   14.5754 -999.0000 -999.0000 -999.0000 -999.0000    1.5334   -0.0180    0.4615    2.6474 -999.0000    3.0000 
1120.4448   17.5000   22.5313   10.8295   15.4207 -999.0000 -999.0000 -999.0000 -999.0000    1.5190   -0.0182    0.4730    2.7098 -999.0000    3.0000 
1120.5972   17.5000   22.5313   10.7788   14.7200 -999.0000 -999.0000 -999.0000 -999.0000    1.5255   -0.0171    0.4807    2.8015 -999.0000    3.0000 
1120.7496   17.5000   22.5313   10.8858   14.0017 -999.0000 -999.0000 -999.0000 -999.0000    1.5445   -0.0161    0.4767    2.8413 -999.0000    3.0000 
1120.9020   17.5000   22.5313   11.2108   14.1579 -999.0000 -999.0000 -999.0000 -999.0000    1.5612   -0.0147    0.4548    2.8284 -999.0000    3.0000 
1121.0544   17.5000   22.5313   11.8314   14.6247 -999.0000 -999.0000 -999.0000 -999.0000    1.5697   -0.0114    0.4386    2.8008 -999.0000    3.0000 
1121.2068   17.5000   22.5313   12.8348   15.9793 -999.0000 -999.0000 -999.0000 -999.0000    1.5691   -0.0110    0.4373    2.7733 -999.0000    3.0000 
1121.3592   17.5000   22.5313   14.2034   18.3033 -999.0000 -999.0000 -999.0000 -999.0000    1.5643   -0.0121    0.4425    2.7330 -999.0000    3.0000 
1121.5116   17.5000   22.5313   15.5368   20.5745 -999.0000 -999.0000 -999.0000 -999.0000    1.5685   -0.0101    0.4400    2.7110 -999.0000    3.0000 
1121.6640   17.5000   22.5313   16.0760   21.8779 -999.0000 -999.0000 -999.0000 -999.0000    1.5810   -0.0071    0.4285    2.7191 -999.0000    3.0000 
1121.8164   17.5000   22.5313   15.5872   21.5144 -999.0000 -999.0000 -999.0000 -999.0000    1.5863   -0.0085    0.4289    2.7113 -999.0000    3.0000 
1121.9688   17.5000   22.5313   14.2635   19.8960 -999.0000 -999.0000 -999.0000 -999.0000    1.5723   -0.0115    0.4448    2.6889 -999.0000    3.0000 
1122.1212   17.5000   22.5313   12.6357   16.9724 -999.0000 -999.0000 -999.0000 -999.0000    1.5445   -0.0152    0.4558    2.7146 -999.0000    3.0000 
1122.2736   17.5000   22.5313   11.1962   14.4137 -999.0000 -999.0000 -999.0000 -999.0000    1.5238   -0.0209    0.4536    2.8501 -999.0000    3.0000 
1122.4260   17.5000   22.5313   10.0444   13.9689 -999.0000 -999.0000 -999.0000 -999.0000    1.5284   -0.0250    0.4429    3.0096 -999.0000    3.0000 
1122.5784   17.5000   22.5313    9.2192   14.9595 -999.0000 -999.0000 -999.0000 -999.0000    1.5581   -0.0249    0.4346    3.1090 -999.0000    3.0000 
