~VERSION INFORMATION
 VERS.                 2.0:   CWLS LOG ASCII STANDARD - VERSION 2.0
 WRAP.                  NO:   SINGLE LINE PER DEPTH STEP
 CREA.                 01/17/2018 13:40:30
#CREATED USING DSPetro VERSION 5000.10.1.3 BY H191660 ON 01/17/2018 13:40:30
~WELL INFORMATION
#MNEM.UNIT       DATA                          DESCRIPTION MNEMONIC
#---------      ---------------------------   --------------------------
 STRT    .M         0.0000                    : START DEPTH
 STOP    .M         3457.9560                 : STOP DEPTH
 STEP    .M         0.1524                    : STEP VALUE
 NULL    .      -999.0000                     : NULL VALUE
 DATE    .      01/17/2018                    : LAS file Creation Date
 WELL .      2717_Robot-1A               : Well Name
 COMP .      Neftex Exploration Insights : Company
 FLD  .                                  : Field
 UWI  .      ZAUWL_005614                : Unique Well Identifier (UWI)
 LOC  .                                  : Location
 RWS  .      -999                        : Def_Rw
 WST  .      -999                        : Def_Rwt
 SRVC .                                  : Contractor
~CURVE INFORMATION
#MNEM              UNIT       API CODE   Curve Type Comments
#----------  --------------- ----------  ---------- -----------
 DEPTH      .M                         : Depth       
 BS         .in                        : BitSize     
 CAL_INCH   .inch                      : caliper     Caliper Log - A representation of the measured diameter of a borehole along its depth
 SP_MV1     .mv                        : SP          Spontaneous Potential - Records the electrical potential produced by the interaction of formation water, conductive drilling mud, and certain ion-sele
 GR_API     .API                       : gammaRay    Gamma Ray (API) - Measures the intensity of natural gamma-ray radiation emitted from formations containing radioactive elements, such as K, Th and U
 LLD_OHMM   .ohmm                      : deepRes     Laterlog Deep Resistivity - Measurement made several feet into the formation; generally considered a measurement of the undisturbed formation
 LLS_OHMM   .ohmm                      : shalRes     Laterlog Shallow Resistivity - one to two feet into the formation; generally considered to measure the formation
 MSFL_OHMM  .ohmm                      : microRes    Micro-Spherically Focused Log - Measurement involves only the first few inches of the formation immediately adjacent to the borehole
 DT_US_FT   .us/ft                     : sonic       Interval Transit Time: Compressional Wave - Evaluates the time it takes for a compressional wave to traverse a fixed distance
 RHOB_G_CC  .g/cc                      : density     Bulk Density - Measures the density of bulk material, including any void space or other materials contained in the subject volume
 DRHO_G_CC  .g/cc                      : drho        Density Correction - Investigates the correction to the Bulk Density log; used as an indication of hole condition to validate the Bulk Density measure
 NPHI_V_V   .dec                       : Neutron     
 PEF_B_E    .b/e-                      : PEF         Photoelectric Factor - A log of photoelectric absorption properties. Often expressed in an approximation unit barns/electron (b/e-)
 LITH       .                          : LITH        Lithology Curve
 LITH_v2    .                          : LITH        Lithology Curve
~A  DEPTH     BS     CAL_INCH   SP_MV1    GR_API   LLD_OHMM  LLS_OHMM MSFL_OHM   DT_US_FT RHOB_G_C  DRHO_G_C   NPHI_V_V  PEF_B_E     LITH    LITH_v2  
# ...
2827.0200    8.5000    8.4988   40.2891   68.7949    5.0663    3.5226    2.9608   72.8078    2.4392    0.0137    0.1138    2.9922   36.0000   36.0000 
2827.1724    8.5000    8.4483   39.6145   67.5401    5.4362    3.7358    2.7429   72.7112    2.4430    0.0104    0.1141    3.0312   36.0000   36.0000 
2827.3248    8.5000    8.4375   38.9433   70.7395    5.7149    3.9504    3.0989   72.3465    2.4565    0.0079    0.1166    3.0286   36.0000   36.0000 
2827.4772    8.5000    8.4375   38.8706   72.9608    5.8411    3.8920    3.7512   72.3267    2.4704    0.0046    0.1152    2.9451   36.0000   36.0000 
2827.6296    8.5000    8.4375   39.6192   71.5131    5.1900    3.6446    3.5859   72.4521    2.4749    0.0034    0.1104    2.7981   36.0000   36.0000 
2827.7820    8.5000    8.4375   40.0522   67.1763    4.8060    3.4073    2.8060   72.9616    2.4626    0.0006    0.1094    2.7045   36.0000   36.0000 
2827.9344    8.5000    8.4375   39.3815   63.5290    4.5090    3.1733    2.4035   73.6440    2.4466   -0.0024    0.1089    2.6684   36.0000   36.0000 
2828.0868    8.5000    8.4375   38.8917   61.0771    4.0747    2.9932    2.3434   73.9039    2.4402   -0.0016    0.1043    2.7219   36.0000   36.0000 
2828.2392    8.5000    8.4375   38.7873   59.2816    4.1919    2.9944    2.1369   73.8267    2.4414    0.0001    0.0977    2.8273   36.0000   36.0000 
2828.3916    8.5000    8.4375   38.6301   57.2032    3.9751    3.0551    2.1835   73.3461    2.4405   -0.0001    0.0922    2.8674   36.0000   36.0000 
2828.5440    8.5000    8.4375   38.3972   53.8279    3.9867    3.2025    2.3523   72.5384    2.4431    0.0011    0.0901    2.8964   36.0000   36.0000 
2828.6964    8.5000    8.4375   37.7409   51.4352    4.2530    3.3508    2.6352   71.6444    2.4519    0.0037    0.0906    2.9205   36.0000   36.0000 
2828.8488    8.5000    8.4375   37.0067   50.9795    4.1967    3.3029    3.0226   71.0289    2.4543    0.0026    0.0925    2.9805   36.0000   36.0000 
2829.0012    8.5000    8.4375   37.0608   52.5020    4.2880    3.2489    2.8125   70.7983    2.4451   -0.0013    0.0914    2.9962   36.0000   36.0000 
2829.1536    8.5000    8.4483   36.2449   54.1660    4.2234    3.3201    2.2436   70.8267    2.4354   -0.0045    0.0864    2.9483   36.0000   36.0000 
2829.3060    8.5000    8.4844   35.0180   55.8681    4.6335    3.4862    2.3459   70.6250    2.4420   -0.0055    0.0845    2.8462   36.0000   36.0000 
2829.4584    8.5000    8.5205   35.3867   58.1802    4.9339    3.7297    3.1503   70.5676    2.4575   -0.0054    0.0914    2.7354   36.0000   36.0000 
2829.6108    8.5000    8.5511   36.6113   62.2567    5.2602    3.9968    3.4449   71.1345    2.4667   -0.0032    0.1075    2.7023   36.0000   36.0000 
2829.7632    8.5000    8.6064   36.2838   70.1995    5.5498    4.1405    2.9076   71.8944    2.4688    0.0015    0.1225    2.8191   36.0000   36.0000 
2829.9156    8.5000    8.6635   35.2470   78.2051    5.4344    4.1380    2.9614   72.7884    2.4764    0.0073    0.1309    2.9843   36.0000   36.0000 
2830.0680    8.5000    8.7248   34.4909   80.2524    5.7459    4.2053    3.6542   73.3940    2.4869    0.0119    0.1340    3.1063   36.0000   36.0000 
2830.2204    8.5000    8.7692   33.6759   74.5520    5.8179    4.3748    3.5389   73.2306    2.4867    0.0140    0.1317    3.0561   36.0000   36.0000 
2830.3728    8.5000    8.7620   32.8617   66.0111    5.7898    4.4911    3.2367   72.3267    2.4711    0.0130    0.1232    2.9571   36.0000   36.0000 
2830.5252    8.5000    8.7320   32.1332   60.5247    5.4283    4.3972    3.1329   71.2793    2.4551    0.0089    0.1071    2.8492   36.0000   36.0000 
2830.6776    8.5000    8.7145   31.6038   61.7636    5.3779    4.3050    3.2889   70.6824    2.4533    0.0041    0.0909    2.7496   36.0000   36.0000 
2830.8300    8.5000    8.7109   31.0037   73.1833    5.5014    4.4984    3.2736   70.0388    2.4618    0.0001    0.0842    2.6282   36.0000   36.0000 
2830.9824    8.5000    8.7109   30.3003   90.6691    6.1728    4.9948    3.1991   69.9233    2.4746   -0.0020    0.0976    2.5910   36.0000   36.0000 
2831.1348    8.5000    8.7109   29.5379  104.8786    6.9516    5.6632    3.3785   70.3556    2.4880   -0.0017    0.1221    2.8664   36.0000   36.0000 
2831.2872    8.5000    8.7109   28.4749  104.9695    7.3409    5.9864    4.1365   70.8271    2.5001   -0.0002    0.1330    3.3325   36.0000   36.0000 
2831.4396    8.5000    8.7109   27.1179   93.8875    6.8011    5.6653    5.0254   71.9426    2.4944    0.0001    0.1238    3.3441   33.9209   37.0000 
2831.5920    8.5000    8.7109   26.0923   81.2979    5.9250    5.0706    4.2151   73.9134    2.4700   -0.0002    0.1151    2.9442   31.3892   37.0000 
2831.7444    8.5000    8.7217   25.7830   79.0647    5.4570    4.6821    2.6070   75.5957    2.4479   -0.0003    0.1317    2.6665   34.6899   37.0000 
2831.8968    8.5000    8.7758   25.6199   84.5995    5.3285    4.6670    1.5673   75.9901    2.4471    0.0003    0.1515    2.7393   37.0000   37.0000 
2832.0492    8.5000    8.8557   24.9807   89.8904    5.7280    4.8234    1.2203   75.3750    2.4596    0.0011    0.1568    2.8165   37.0000   37.0000 
2832.2016    8.5000    8.9213   24.5090   95.4225    6.0098    5.0759    1.3943   74.6444    2.4675    0.0019    0.1485    2.7248   37.0000   37.0000 
2832.3540    8.5000    9.0295   24.1527  100.8224    6.3981    5.4387    2.0703   74.1922    2.4729    0.0018    0.1273    2.6876   37.0000   37.0000 
2832.5064    8.5000    9.1677   23.6539  103.5645    6.6684    5.8324    2.7689   73.7500    2.4853    0.0020    0.1032    2.7741   37.0000   37.0000 
2832.6588    8.5000    9.2927   23.3841  102.3050    7.3249    6.3143    4.3216   73.1634    2.5021    0.0042    0.0819    2.7614   37.0000   37.0000 
2832.8112    8.5000    9.4183   23.0856  104.6171    8.1781    7.0355    6.1624   72.4039    2.5090    0.0100    0.0835    2.7019   37.0000   37.0000 
2832.9636    8.5000    9.6376   22.4808  110.0886    9.0956    7.8476    5.1539   71.7983    2.5109    0.0168    0.1062    2.9155   37.0000   37.0000 
2833.1160    8.5000    9.8774   21.6667  107.7031    9.3106    8.1280    3.5207   71.6250    2.5153    0.0219    0.1237    3.3191   37.0000   37.0000 
2833.2684    8.5000   10.0150   20.6796   95.4719    9.0811    7.9314    3.6425   71.5961    2.5179    0.0236    0.1230    3.3343   37.0000   37.0000 
2833.4208    8.5000   10.1298   19.6251   86.9288    9.5810    8.2295    4.1333   71.3556    2.5080    0.0198    0.1171    3.0159   37.0000   37.0000 
2833.5732    8.5000   10.3481   18.8945   91.8078   10.2003    8.7079    3.9277   70.7789    2.4961    0.0143    0.1217    2.9730   37.0000   37.0000 
2833.7256    8.5000   10.7362   18.9021  100.7917    9.8944    8.3289    4.7281   70.4426    2.4924    0.0120    0.1320    3.4382   37.0000   37.0000 
2833.8780    8.5000   11.1610   18.9582  104.1707    8.9558    7.7594    5.0071   71.0194    2.4859    0.0143    0.1317    3.9648   37.0000   37.0000 
2834.0304    8.5000   11.4771   18.6274  102.0253    8.7499    7.5272    3.1388   72.1634    2.4745    0.0218    0.1310    4.3357   37.0000   37.0000 
2834.1828    8.5000   11.7164   18.1187  101.3760    8.4014    7.3741    2.2750   72.9612    2.4743    0.0305    0.1427    4.9583   37.0000   37.0000 
2834.3352    8.5000   12.0301   17.6435  104.2838    8.3264    7.2337    2.5205   73.0000    2.4886    0.0378    0.1624    5.7664   37.0000   37.0000 
2834.4876    8.5000   12.3761   17.2912  108.2112    8.3926    7.3427    2.5593   72.7789    2.4992    0.0475    0.1781    6.1566   37.0000   37.0000 
2834.6400    8.5000   12.5102   17.2389  110.8598    8.8216    7.7267    2.1851   72.4806    2.4913    0.0576    0.1842    5.9475   37.0000   37.0000 
2834.7924    8.5000   12.5115   17.1219  111.3076    9.2829    8.0973    2.0565   72.1060    2.4761    0.0644    0.1831    5.7285   37.0000   37.0000 
2834.9448    8.5000   12.5931   16.5795  110.5864    8.8710    7.9365    2.7207   72.3560    2.4777    0.0688    0.1765    5.6559   37.0000   37.0000 
