~VERSION INFORMATION
 VERS.                 2.0:   CWLS LOG ASCII STANDARD - VERSION 2.0
 WRAP.                  NO:   SINGLE LINE PER DEPTH STEP
 CREA.                 01/17/2018 13:40:30
#CREATED USING DSPetro VERSION 5000.10.1.3 BY H191660 ON 01/17/2018 13:40:30
~WELL INFORMATION
#MNEM.UNIT       DATA                          DESCRIPTION MNEMONIC
#---------      ---------------------------   --------------------------
 STRT    .M         0.0000                    : START DEPTH
 STOP    .M         3457.9560                 : STOP DEPTH
 STEP    .M         0.1524                    : STEP VALUE
 NULL    .      -999.0000                     : NULL VALUE
 DATE    .      01/17/2018                    : LAS file Creation Date
 WELL .      2717_Robot-1A               : Well Name
 COMP .      Neftex Exploration Insights : Company
 FLD  .                                  : Field
 UWI  .      ZAUWL_005614                : Unique Well Identifier (UWI)
 LOC  .                                  : Location
 RWS  .      -999                        : Def_Rw
 WST  .      -999                        : Def_Rwt
 SRVC .                                  : Contractor
~CURVE INFORMATION
#MNEM              UNIT       API CODE   Curve Type Comments
#----------  --------------- ----------  ---------- -----------
 DEPTH      .M                         : Depth       
 BS         .in                        : BitSize     
 CAL_INCH   .inch                      : caliper     Caliper Log - A representation of the measured diameter of a borehole along its depth
 SP_MV1     .mv                        : SP          Spontaneous Potential - Records the electrical potential produced by the interaction of formation water, conductive drilling mud, and certain ion-sele
 GR_API     .API                       : gammaRay    Gamma Ray (API) - Measures the intensity of natural gamma-ray radiation emitted from formations containing radioactive elements, such as K, Th and U
 LLD_OHMM   .ohmm                      : deepRes     Laterlog Deep Resistivity - Measurement made several feet into the formation; generally considered a measurement of the undisturbed formation
 LLS_OHMM   .ohmm                      : shalRes     Laterlog Shallow Resistivity - one to two feet into the formation; generally considered to measure the formation
 MSFL_OHMM  .ohmm                      : microRes    Micro-Spherically Focused Log - Measurement involves only the first few inches of the formation immediately adjacent to the borehole
 DT_US_FT   .us/ft                     : sonic       Interval Transit Time: Compressional Wave - Evaluates the time it takes for a compressional wave to traverse a fixed distance
 RHOB_G_CC  .g/cc                      : density     Bulk Density - Measures the density of bulk material, including any void space or other materials contained in the subject volume
 DRHO_G_CC  .g/cc                      : drho        Density Correction - Investigates the correction to the Bulk Density log; used as an indication of hole condition to validate the Bulk Density measure
 NPHI_V_V   .dec                       : Neutron     
 PEF_B_E    .b/e-                      : PEF         Photoelectric Factor - A log of photoelectric absorption properties. Often expressed in an approximation unit barns/electron (b/e-)
 LITH       .                          : LITH        Lithology Curve
 LITH_v2    .                          : LITH        Lithology Curve
~A  DEPTH     BS     CAL_INCH   SP_MV1    GR_API   LLD_OHMM  LLS_OHMM MSFL_OHM   DT_US_FT RHOB_G_C  DRHO_G_C   NPHI_V_V  PEF_B_E     LITH    LITH_v2  
# ...
3440.8872    8.5000   11.5462   82.1339   65.0649   31.3705   26.7339    0.4645   67.3944    2.1943    0.2067    0.0347    4.1547   11.0000   11.0000 
3441.0396    8.5000   11.6791   82.3383   59.2555   35.7836   30.8372    0.4412   67.6056    2.1554    0.1848    0.0391    4.1939   11.0000   11.0000 
3441.1920    8.5000   11.6184   82.1725   57.7023   37.2641   32.5243    0.4750   67.7983    2.1095    0.1500    0.0465    4.3404   11.0000   11.0000 
3441.3444    8.5000   11.5757   81.9958   58.3203   36.7816   32.4952    0.5058   68.0190    2.0606    0.1243    0.0500    4.4251   11.0000   11.0000 
3441.4968    8.5000   11.4043   81.7263   59.8477   35.4705   31.9700    0.4432   68.1349    2.0239    0.1140    0.0518    4.2906   11.0000   11.0000 
3441.6492    8.5000   11.1775   81.0777   60.1419   32.1055   29.5761    0.3565   68.3362    2.0387    0.1139    0.0540    4.0562   11.0000   11.0000 
3441.8016    8.5000   11.3329   80.7508   60.6138   27.5714   25.4173    0.4091   68.2694    2.0868    0.1187    0.0579    4.1192   11.0000   11.0000 
3441.9540    8.5000   11.6100   81.0631   63.5944   25.6039   23.2898    0.5903   68.2211    2.1013    0.1172    0.0621    4.5283   11.0000   11.0000 
3442.1064    8.5000   11.9250   81.6425   68.2183   26.0434   23.2565    0.6756   68.0767    2.0257    0.0982    0.0668    5.0829   11.0000   11.0000 
3442.2588    8.5000   12.2137   82.3010   70.3345   27.5297   24.4327    0.6144   67.7888    1.9133    0.0703    0.0701    5.4795   11.0000   11.0000 
3442.4112    8.5000   12.1322   82.6060   67.1368   30.3427   27.7096    0.4966   67.7112    1.8312    0.0474    0.0674    5.4571   11.0000   11.0000 
3442.5636    8.5000   11.8937   82.2604   61.6662   32.7937   30.9641    0.3538   67.3078    1.8220    0.0452    0.0592    5.0349   11.0000   11.0000 
3442.7160    8.5000   11.6651   81.9755   58.4539   32.7152   31.0742    0.3013   66.7500    1.8939    0.0685    0.0511    4.6506   11.0000   11.0000 
3442.8684    8.5000   11.3270   81.8394   60.2528   34.5324   31.6389    0.3178   66.3655    2.0007    0.1002    0.0452    4.4667   11.0000   11.0000 
3443.0208    8.5000   11.0366   81.4322   64.6128   37.6038   33.9646    0.3448   65.9324    2.0832    0.1274    0.0380    4.4216   11.0000   11.0000 
3443.1732    8.5000   10.9419   80.9718   67.0075   40.6397   36.2332    0.3631   65.3948    2.1164    0.1468    0.0298    4.4379   11.0000   11.0000 
3443.3256    8.5000   11.1465   80.6870   65.7367   43.8761   38.4059    0.3687   65.6056    2.0996    0.1468    0.0262    4.5457   11.0000   11.0000 
3443.4780    8.5000   11.2140   80.5956   64.8459   47.8048   41.3155    0.3855   65.8556    2.0612    0.1342    0.0267    4.6784   11.0000   11.0000 
3443.6304    8.5000   11.2267   80.5788   65.2411   51.1714   43.6420    0.3920   65.8849    2.0318    0.1261    0.0271    4.6761   11.0000   11.0000 
3443.7828    8.5000   11.4206   80.5763   66.4225   53.7368   45.5847    0.3628   66.0285    2.0242    0.1233    0.0268    4.6076   11.0000   11.0000 
3443.9352    8.5000   11.4133   80.5643   66.8797   53.3163   45.6722    0.3257   65.6828    2.0302    0.1175    0.0269    4.5270   11.0000   11.0000 
3444.0876    8.5000   11.0246   80.5439   67.5490   48.2145   42.6749    0.3269   65.1828    2.0537    0.1200    0.0278    4.4054   11.0000   11.0000 
3444.2400    8.5000   10.5379   80.5367   69.4029   44.4653   39.8572    0.3398   64.9616    2.0922    0.1309    0.0287    4.2551   11.0000   11.0000 
3444.3924    8.5000   10.1569 -999.0000   70.1491   41.6355   37.8397    0.3521   64.8845    2.1270    0.1406    0.0302    4.0690   11.0000   11.0000 
3444.5448    8.5000    9.9592 -999.0000   69.7977   39.9957   36.9730    0.3569   64.8271    2.1511    0.1481    0.0329    3.9645   11.0000   11.0000 
3444.6972    8.5000    9.9273 -999.0000   68.5095   39.8334   36.8473    0.3618   64.9229    2.1666    0.1552    0.0357    3.9171   11.0000   11.0000 
3444.8496    8.5000    9.9723 -999.0000   67.3277   39.8541   36.5841    0.3772   64.7789    2.1775    0.1612    0.0357    3.9163   11.0000   11.0000 
3445.0020    8.5000    9.8744 -999.0000   68.0002   39.1738   36.2767    0.3703   64.5866    2.1821    0.1651    0.0350    3.9825   11.0000   11.0000 
3445.1544    8.5000    9.6858 -999.0000   69.7017   38.1559   35.7097    0.3558   64.5095    2.1774    0.1640    0.0345    4.0043   11.0000   11.0000 
3445.3068    8.5000    9.5612 -999.0000   70.3212   37.6126   34.8347    0.3734   64.3366    2.1825    0.1650    0.0342    3.8751   11.0000   11.0000 
3445.4592    8.5000    9.5049 -999.0000   68.9088   36.8629   34.1227    0.4330   64.2500    2.2182    0.1760    0.0337    3.6070   11.0000   11.0000 
3445.6116    8.5000    9.5942 -999.0000   68.0107   35.9258   33.3590    0.5040   64.3944    2.2790    0.1979    0.0312    3.4203   11.0000   11.0000 
3445.7640    8.5000    9.7279 -999.0000   69.8416   36.1603   33.0854    0.5142   64.7884    2.3371    0.2215    0.0288    3.3973   11.0000   11.0000 
3445.9164    8.5000    9.9975 -999.0000   72.1335   37.9494   34.2836    0.4766   65.1250    2.3764    0.2456    0.0266    3.4612   11.0000   11.0000 
3446.0688    8.5000   10.1924 -999.0000   71.4656   39.9171   35.8193    0.4452   65.5771    2.4005    0.2672    0.0267    3.5156   11.0000   11.0000 
3446.2212    8.5000   10.2818 -999.0000   68.9288   40.4088   36.4419    0.4124   66.2112    2.4084    0.2786    0.0300    3.5933   11.0000   11.0000 
3446.3736    8.5000   10.2591 -999.0000   67.7164   40.4416   36.8473    0.4089   66.3461    2.3981    0.2777    0.0340    3.7468   11.0000   11.0000 
3446.5260    8.5000   10.2109 -999.0000   68.0728   40.5106   36.8411    0.4938   66.0672    2.3725    0.2666    0.0369    3.9596   11.0000   11.0000 
3446.6784    8.5000   10.1929 -999.0000   68.7536   39.7922   36.0053    0.6264   65.5672    2.3368    0.2486    0.0365    3.9762   11.0000   11.0000 
3446.8308    8.5000   10.1200 -999.0000   68.0489   38.4201   34.9478    0.8296   64.9616    2.3111    0.2335    0.0334    3.8024   11.0000   11.0000 
3446.9832    8.5000    9.8667 -999.0000   67.6151   37.5006   34.1521    1.1459   64.6733    2.3056    0.2243    0.0309    3.6669   11.0000   11.0000 
3447.1356    8.5000    9.6977 -999.0000   67.3847   37.3978   33.7134    1.4491   64.7884    2.2970    0.2126    0.0292    3.7988   11.0000   11.0000 
3447.2880    8.5000    9.7009 -999.0000   67.1203   37.8334   33.8646    1.7085   64.8750    2.2618    0.1942    0.0283    4.0385   11.0000   11.0000 
3447.4404    8.5000    9.9801 -999.0000 -999.0000   39.0131   34.8193    2.6537 -999.0000    2.2013    0.1708    0.0256    4.1151   11.0000   11.0000 
3447.5928    8.5000   10.1651 -999.0000 -999.0000   40.7568   36.3303    5.0680 -999.0000    2.1468    0.1462    0.0229    4.1704   11.0000   11.0000 
3447.7452    8.5000   10.1414 -999.0000 -999.0000   41.5959   37.3338    8.7759 -999.0000    2.1087    0.1247    0.0220    4.3783   11.0000   11.0000 
3447.8976    8.5000   10.3180 -999.0000 -999.0000   41.8638   37.6782   12.1433 -999.0000    2.0649    0.1067    0.0201    4.7302   11.0000   11.0000 
3448.0500    8.5000   10.7735 -999.0000 -999.0000   42.9428   37.6513   13.6980 -999.0000    2.0008    0.0886    0.0171    5.0624   11.0000   11.0000 
3448.2024    8.5000   11.3329 -999.0000 -999.0000   46.6630   38.5420    9.4611 -999.0000    1.9295    0.0696    0.0154    5.2768   11.0000   11.0000 
3448.3548    8.5000   11.7596 -999.0000 -999.0000   51.9722   42.2289    6.2884 -999.0000    1.8698    0.0491    0.0155    5.4554   11.0000   11.0000 
3448.5072    8.5000   12.0108 -999.0000 -999.0000   53.6676   45.8073    6.7045 -999.0000    1.8272    0.0309    0.0188    5.5390   11.0000   11.0000 
3448.6596    8.5000   12.1261 -999.0000 -999.0000   50.6448   45.2515    8.8253 -999.0000    1.7986    0.0205    0.0269    5.4966   11.0000   11.0000 
3448.8120    8.5000   11.8748 -999.0000 -999.0000   46.9667   42.9782   13.3207 -999.0000    1.8002    0.0289    0.0365    5.2632   11.0000   11.0000 
