~VERSION INFORMATION
 VERS.                 2.0:   CWLS LOG ASCII STANDARD - VERSION 2.0
 WRAP.                  NO:   SINGLE LINE PER DEPTH STEP
 CREA.                 01/17/2018 13:40:30
#CREATED USING DSPetro VERSION 5000.10.1.3 BY H191660 ON 01/17/2018 13:40:30
~WELL INFORMATION
#MNEM.UNIT       DATA                          DESCRIPTION MNEMONIC
#---------      ---------------------------   --------------------------
 STRT    .M         0.0000                    : START DEPTH
 STOP    .M         3457.9560                 : STOP DEPTH
 STEP    .M         0.1524                    : STEP VALUE
 NULL    .      -999.0000                     : NULL VALUE
 DATE    .      01/17/2018                    : LAS file Creation Date
 WELL .      2717_Robot-1A               : Well Name
 COMP .      Neftex Exploration Insights : Company
 FLD  .                                  : Field
 UWI  .      ZAUWL_005614                : Unique Well Identifier (UWI)
 LOC  .                                  : Location
 RWS  .      -999                        : Def_Rw
 WST  .      -999                        : Def_Rwt
 SRVC .                                  : Contractor
~CURVE INFORMATION
#MNEM              UNIT       API CODE   Curve Type Comments
#----------  --------------- ----------  ---------- -----------
 DEPTH      .M                         : Depth       
 BS         .in                        : BitSize     
 CAL_INCH   .inch                      : caliper     Caliper Log - A representation of the measured diameter of a borehole along its depth
 SP_MV1     .mv                        : SP          Spontaneous Potential - Records the electrical potential produced by the interaction of formation water, conductive drilling mud, and certain ion-sele
 GR_API     .API                       : gammaRay    Gamma Ray (API) - Measures the intensity of natural gamma-ray radiation emitted from formations containing radioactive elements, such as K, Th and U
 LLD_OHMM   .ohmm                      : deepRes     Laterlog Deep Resistivity - Measurement made several feet into the formation; generally considered a measurement of the undisturbed formation
 LLS_OHMM   .ohmm                      : shalRes     Laterlog Shallow Resistivity - one to two feet into the formation; generally considered to measure the formation
 MSFL_OHMM  .ohmm                      : microRes    Micro-Spherically Focused Log - Measurement involves only the first few inches of the formation immediately adjacent to the borehole
 DT_US_FT   .us/ft                     : sonic       Interval Transit Time: Compressional Wave - Evaluates the time it takes for a compressional wave to traverse a fixed distance
 RHOB_G_CC  .g/cc                      : density     Bulk Density - Measures the density of bulk material, including any void space or other materials contained in the subject volume
 DRHO_G_CC  .g/cc                      : drho        Density Correction - Investigates the correction to the Bulk Density log; used as an indication of hole condition to validate the Bulk Density measure
 NPHI_V_V   .dec                       : Neutron     
 PEF_B_E    .b/e-                      : PEF         Photoelectric Factor - A log of photoelectric absorption properties. Often expressed in an approximation unit barns/electron (b/e-)
 LITH       .                          : LITH        Lithology Curve
 LITH_v2    .                          : LITH        Lithology Curve
~A  DEPTH     BS     CAL_INCH   SP_MV1    GR_API   LLD_OHMM  LLS_OHMM MSFL_OHM   DT_US_FT RHOB_G_C  DRHO_G_C   NPHI_V_V  PEF_B_E     LITH    LITH_v2  
# ...
1284.2748   17.5000   22.5313    6.4952   13.9781 -999.0000 -999.0000 -999.0000 -999.0000    1.5055   -0.0084    0.4979    2.4045 -999.0000    3.0000 
1284.4272   17.5000   22.5313    6.2731   13.8256 -999.0000 -999.0000 -999.0000 -999.0000    1.4983   -0.0122    0.4910    2.4259 -999.0000    3.0000 
1284.5796   17.5000   22.5313    6.1803   13.9715 -999.0000 -999.0000 -999.0000 -999.0000    1.4813   -0.0204    0.4871    2.4476 -999.0000    3.0000 
1284.7320   17.5000   22.5313    6.1409   14.7431 -999.0000 -999.0000 -999.0000 -999.0000    1.4651   -0.0286    0.5018    2.4573 -999.0000    3.0000 
1284.8844   17.5000   22.5313    6.0780   15.2725 -999.0000 -999.0000 -999.0000 -999.0000    1.4483   -0.0357    0.5219    2.4500 -999.0000    3.0000 
1285.0368   17.5000   22.5313    6.0907   15.6334 -999.0000 -999.0000 -999.0000 -999.0000    1.4257   -0.0427    0.5343    2.4341 -999.0000    3.0000 
1285.1892   17.5000   22.5313    5.9466   15.0160 -999.0000 -999.0000 -999.0000 -999.0000    1.4006   -0.0483    0.5311    2.4037 -999.0000    3.0000 
1285.3416   17.5000   22.5313    5.6674   15.0754 -999.0000 -999.0000 -999.0000 -999.0000    1.3947   -0.0476    0.5481    2.3818 -999.0000    3.0000 
1285.4940   17.5000   22.5313    5.3821   15.3787 -999.0000 -999.0000 -999.0000 -999.0000    1.4169   -0.0430    0.5635    2.4238 -999.0000    3.0000 
1285.6464   17.5000   22.5313    5.2505   15.5475 -999.0000 -999.0000 -999.0000 -999.0000    1.4642   -0.0343    0.5452    2.5117 -999.0000    3.0000 
1285.7988   17.5000   22.5313    5.3184   15.5123 -999.0000 -999.0000 -999.0000 -999.0000    1.5159   -0.0239    0.5208    2.5837 -999.0000    3.0000 
1285.9512   17.5000   22.5313    5.4265   15.2595 -999.0000 -999.0000 -999.0000 -999.0000    1.5454   -0.0164    0.4920    2.6163 -999.0000    3.0000 
1286.1036   17.5000   22.5313    5.5005   15.2927 -999.0000 -999.0000 -999.0000 -999.0000    1.5464   -0.0151    0.4771    2.6143 -999.0000    3.0000 
1286.2560   17.5000   22.5313    5.4968   15.0132 -999.0000 -999.0000 -999.0000 -999.0000    1.5245   -0.0202    0.4765    2.5657 -999.0000    3.0000 
1286.4084   17.5000   22.5313    5.2481   15.0947 -999.0000 -999.0000 -999.0000 -999.0000    1.4911   -0.0268    0.4781    2.5089 -999.0000    3.0000 
1286.5608   17.5000   22.5313    4.9050   15.2929 -999.0000 -999.0000 -999.0000 -999.0000    1.4699   -0.0292    0.4909    2.4815 -999.0000    3.0000 
1286.7132   17.5000   22.5313    4.6406   14.9837 -999.0000 -999.0000 -999.0000 -999.0000    1.4588   -0.0313    0.4940    2.4601 -999.0000    3.0000 
1286.8656   17.5000   22.5313    4.3785   13.7951 -999.0000 -999.0000 -999.0000 -999.0000    1.4426   -0.0357    0.4995    2.4262 -999.0000    3.0000 
1287.0180   17.5000   22.5313    4.1185   13.1544 -999.0000 -999.0000 -999.0000 -999.0000    1.4237   -0.0367    0.4939    2.3904 -999.0000    3.0000 
1287.1704   17.5000   22.5313    3.9669   13.6125 -999.0000 -999.0000 -999.0000 -999.0000    1.4114   -0.0368    0.4907    2.4023 -999.0000    3.0000 
1287.3228   17.5000   22.5313    3.7379   15.0637 -999.0000 -999.0000 -999.0000 -999.0000    1.4197   -0.0388    0.4948    2.4312 -999.0000    3.0000 
1287.4752   17.5000   22.5313    3.5218   16.0290 -999.0000 -999.0000 -999.0000 -999.0000    1.4546   -0.0349    0.5057    2.4705 -999.0000    3.0000 
1287.6276   17.5000   22.5313    3.5703   16.1575 -999.0000 -999.0000 -999.0000 -999.0000    1.4987   -0.0280    0.5165    2.4968 -999.0000    3.0000 
1287.7800   17.5000   22.5313    3.7303   15.4752 -999.0000 -999.0000 -999.0000 -999.0000    1.5186   -0.0261    0.5076    2.4902 -999.0000    3.0000 
1287.9324   17.5000   22.5313    3.8786   14.7966 -999.0000 -999.0000 -999.0000 -999.0000    1.5078   -0.0249    0.4815    2.4802 -999.0000    3.0000 
1288.0848   17.5000   22.5313    3.8612   14.2812 -999.0000 -999.0000 -999.0000 -999.0000    1.4959   -0.0232    0.4443    2.5009 -999.0000    3.0000 
1288.2372   17.5000   22.5313    3.6479   14.3020 -999.0000 -999.0000 -999.0000 -999.0000    1.5070   -0.0243    0.4306    2.5871 -999.0000    3.0000 
1288.3896   17.5000   22.5313    3.4395   14.5034 -999.0000 -999.0000 -999.0000 -999.0000    1.5408   -0.0226    0.4436    2.6639 -999.0000    3.0000 
1288.5420   17.5000   22.5313    3.4335   14.6994 -999.0000 -999.0000 -999.0000 -999.0000    1.5662   -0.0154    0.4674    2.6494 -999.0000    3.0000 
1288.6944   17.5000   22.5313    3.6673   14.2241 -999.0000 -999.0000 -999.0000 -999.0000    1.5644   -0.0104    0.4745    2.5771 -999.0000    3.0000 
1288.8468   17.5000   22.5313    4.0361   13.6749 -999.0000 -999.0000 -999.0000 -999.0000    1.5567   -0.0077    0.4734    2.5362 -999.0000    3.0000 
1288.9992   17.5000   22.5313    4.2777   13.0825 -999.0000 -999.0000 -999.0000 -999.0000    1.5615   -0.0039    0.4627    2.5817 -999.0000    3.0000 
1289.1516   17.5000   22.5313    4.3807   12.6786 -999.0000 -999.0000 -999.0000 -999.0000    1.5768   -0.0011    0.4567    2.6574 -999.0000    3.0000 
1289.3040   17.5000   22.5313    4.4743   11.8131 -999.0000 -999.0000 -999.0000 -999.0000    1.5880    0.0016    0.4660    2.7150 -999.0000    3.0000 
1289.4564   17.5000   22.5313    4.5058   11.8959 -999.0000 -999.0000 -999.0000 -999.0000    1.5898    0.0044    0.4889    2.7356 -999.0000    3.0000 
1289.6088   17.5000   22.5313    4.7131   12.4745 -999.0000 -999.0000 -999.0000 -999.0000    1.5859    0.0058    0.5102    2.7582 -999.0000    3.0000 
1289.7612   17.5000   22.5313    5.0519   13.9542 -999.0000 -999.0000 -999.0000 -999.0000    1.5767    0.0023    0.5154    2.7497 -999.0000    3.0000 
1289.9136   17.5000   22.5313    5.2569   15.3418 -999.0000 -999.0000 -999.0000 -999.0000    1.5572   -0.0035    0.5006    2.7290 -999.0000    3.0000 
1290.0660   17.5000   22.5313    5.2646   16.2636 -999.0000 -999.0000 -999.0000 -999.0000    1.5402   -0.0093    0.4821    2.7186 -999.0000    3.0000 
1290.2184   17.5000   22.5313    5.1188   16.0010 -999.0000 -999.0000 -999.0000 -999.0000    1.5374   -0.0142    0.4651    2.7533 -999.0000    3.0000 
1290.3708   17.5000   22.5313    5.0711   15.1545 -999.0000 -999.0000 -999.0000 -999.0000    1.5487   -0.0180    0.4619    2.8367 -999.0000    3.0000 
1290.5232   17.5000   22.5313    5.0978   13.8435 -999.0000 -999.0000 -999.0000 -999.0000    1.5642   -0.0186    0.4696    2.9053 -999.0000    3.0000 
1290.6756   17.5000   22.5313    5.2317   12.9147 -999.0000 -999.0000 -999.0000 -999.0000    1.5722   -0.0172    0.4764    2.9184 -999.0000    3.0000 
1290.8280   17.5000   22.5313    5.2461   12.7378 -999.0000 -999.0000 -999.0000 -999.0000    1.5723   -0.0182    0.4618    2.9064 -999.0000    3.0000 
1290.9804   17.5000   22.5313    5.0071   13.2708 -999.0000 -999.0000 -999.0000 -999.0000    1.5706   -0.0213    0.4471    2.9243 -999.0000    3.0000 
1291.1328   17.5000   22.5313    4.6290   13.4498 -999.0000 -999.0000 -999.0000 -999.0000    1.5711   -0.0232    0.4410    2.9441 -999.0000    3.0000 
1291.2852   17.5000   22.5313    4.2620   13.0249 -999.0000 -999.0000 -999.0000 -999.0000    1.5746   -0.0227    0.4468    2.9534 -999.0000    3.0000 
1291.4376   17.5000   22.5313    4.2127   13.3712 -999.0000 -999.0000 -999.0000 -999.0000    1.5779   -0.0214    0.4481    2.9502 -999.0000    3.0000 
1291.5900   17.5000   22.5313    4.4494   14.5490 -999.0000 -999.0000 -999.0000 -999.0000    1.5868   -0.0186    0.4311    3.0026 -999.0000    3.0000 
1291.7424   17.5000   22.5313    4.7745   14.9786 -999.0000 -999.0000 -999.0000 -999.0000    1.6113   -0.0139    0.4038    3.0924 -999.0000    3.0000 
1291.8948   17.5000   22.5313    5.0365   14.1676 -999.0000 -999.0000 -999.0000 -999.0000    1.6479   -0.0103    0.3858    3.1896 -999.0000    3.0000 
1292.0472   17.5000   22.5313    5.1200   12.9923 -999.0000 -999.0000 -999.0000 -999.0000    1.6876   -0.0081    0.3848    3.2533 -999.0000    3.0000 
1292.1996   17.5000   22.5313    5.0517   12.2418 -999.0000 -999.0000 -999.0000 -999.0000    1.7098   -0.0077    0.3939    3.2092 -999.0000    3.0000 
