~VERSION INFORMATION
 VERS.                 2.0:   CWLS LOG ASCII STANDARD - VERSION 2.0
 WRAP.                  NO:   SINGLE LINE PER DEPTH STEP
 CREA.                 01/02/2018 09:37:14
#CREATED USING DSPetro VERSION 5000.10.1.3 BY H191660 ON 01/02/2018 09:37:14
~WELL INFORMATION
#MNEM.UNIT       DATA                          DESCRIPTION MNEMONIC
#---------      ---------------------------   --------------------------
 STRT    .M         0.0000                    : START DEPTH
 STOP    .M         3599.9928                 : STOP DEPTH
 STEP    .M         0.1524                    : STEP VALUE
 NULL    .      -999.0000                     : NULL VALUE
 DATE    .      01/02/2018                    : LAS file Creation Date
 WELL .      2881_Sirius-1-ESSO          : Well Name
 COMP .      Neftex Exploration Insights : Company
 FLD  .      SIRIUS (ESSO)               : Field
 UWI  .      ZAUWL_005217                : Unique Well Identifier (UWI)
 LOC  .                                  : Location
 RWS  .      0                           : Def_Rw
 WST  .      0                           : Def_Rwt
 MDEC .      0                           : Magnetic Declination
 SRVC .      SCH                         : Contractor
~CURVE INFORMATION
#MNEM              UNIT       API CODE   Curve Type Comments
#----------  --------------- ----------  ---------- -----------
 DEPTH      .M                         : Depth       
 BitSize    .in                        : BitSize     
 CAL_INCH   .inch                      : caliper     Caliper Log - A representation of the measured diameter of a borehole along its depth
 GR_API     .API                       : gammaRay    Gamma Ray (API) - Measures the intensity of natural gamma-ray radiation emitted from formations containing radioactive elements, such as K, Th and U
 SP_MV      .mv                        : SP          Spontaneous Potential - Records the electrical potential produced by the interaction of formation water, conductive drilling mud, and certain ion-sele
 ILD_OHMM   .ohmm                      : deepRes     Deep Induction Resistivity - Measurement made an induction log, made several feet into the formation
 SFLU_OHMM  .ohmm                      : shalRes     Shallow Spherically Focused Resistivity - A shallow resistivty measurement derived from the the Phasor Dual Induction - SFR tool
 MSFL_OHMM  .ohmm                      : microRes    Micro-Spherically Focused Log - Measurement involves only the first few inches of the formation immediately adjacent to the borehole
 DT_US_FT   .us/ft                     : sonic       Interval Transit Time: Compressional Wave - Evaluates the time it takes for a compressional wave to traverse a fixed distance
 RHOB_G_CC  .g/cc                      : density     Bulk Density - Measures the density of bulk material, including any void space or other materials contained in the subject volume
 DRHO_G_CC  .g/cc                      : drho        Density Correction - Investigates the correction to the Bulk Density log; used as an indication of hole condition to validate the Bulk Density measure
 NPHI_v_v   .dec                       : Neutron     
 PEF_B_E    .b/e-                      : PEF         Photoelectric Factor - A log of photoelectric absorption properties. Often expressed in an approximation unit barns/electron (b/e-)
 LITH       .                          : LITH        Lithology Curve
 LITH_v2    .                          : LITH        Lithology Curve
~A  DEPTH  BitSize   CAL_INCH   GR_API    SP_MV    ILD_OHMM SFLU_OHM  MSFL_OHM   DT_US_FT RHOB_G_C  DRHO_G_C   NPHI_v_v  PEF_B_E     LITH    LITH_v2  
# ...
2083.9176   18.0000   13.8359   90.0625    1.5320    0.9858    1.2461    1.5430  140.1250    2.0176    0.2437    0.4590    1.7402 -999.0000 -999.0000 
2084.0700   18.0000   13.4531  103.3750   -1.4526    0.9419    0.9902    1.3288  145.5000    1.9668    0.2334    0.4395    1.6631 -999.0000 -999.0000 
2084.2224   18.0000   13.9922  128.0000   -1.4684    0.9023    0.8623    1.3698  145.7500    1.9453    0.2158    0.4082    1.6240 -999.0000 -999.0000 
2084.3748   18.0000   13.5938  159.2500   -2.2811    0.8560    0.8340    1.2041  146.1250    1.9551    0.2319    0.4404    1.5947 -999.0000 -999.0000 
2084.5272   18.0000   13.8438  177.1250    2.9687    0.8120    0.8604    1.3730  149.0000    1.9238    0.2007    0.4780    1.6455 -999.0000 -999.0000 
2084.6796   18.0000   13.5938  184.0000    4.0154    0.7910    0.8447    1.2855  149.0000    1.9150    0.1938    0.5366    1.7412 -999.0000 -999.0000 
2084.8320   18.0000   13.4844  176.6250    0.2339    0.7749    0.8311    1.2314  147.1250    1.9590    0.1958    0.5015    1.8115 -999.0000 -999.0000 
2084.9844   18.0000   13.5313  177.8750   -2.5163    0.7617    0.8159    1.2087  149.5000    2.0156    0.2075    0.5190    1.8125 -999.0000 -999.0000 
2085.1368   18.0000   13.3906  179.0000   -0.7665    0.7583    0.8203    1.3600  149.3750    2.0156    0.1787    0.4858    1.7568 -999.0000 -999.0000 
2085.2892   18.0000   13.4844  178.6250   -1.7667    0.7642    0.8203    1.1068  149.7500    1.9668    0.1563    0.5298    1.7275 -999.0000 -999.0000 
2085.4416   18.0000   13.5469  174.8750   -2.2669    0.7788    0.7988    1.1302  150.3750    1.9580    0.1685    0.4985    1.8047 -999.0000 -999.0000 
2085.5940   18.0000   13.3750  171.2500   -1.7671    0.7920    0.8066    1.2253  148.7500    1.9834    0.1934    0.5034    1.7734 -999.0000 -999.0000 
2085.7464   18.0000   13.7266  178.1250   -1.7524    0.7979    0.8521    1.2415  144.7500    2.0156    0.2051    0.5278    1.7441 -999.0000 -999.0000 
2085.8988   18.0000   14.9766  187.8750   -1.4604    0.8003    0.9087    1.3805  144.0000    2.0000    0.1885    0.5596    1.6602 -999.0000 -999.0000 
2086.0512   18.0000   14.1797  196.2500   -0.4183    0.8027    0.9478    1.3343  142.1250    1.9443    0.1416    0.5874    1.6602 -999.0000 -999.0000 
2086.2036   18.0000   14.0000  196.5000    0.1237    0.8037    0.9609    1.4365  143.3750    1.9209    0.1079    0.5430    1.7207 -999.0000 -999.0000 
2086.3560   18.0000   13.6172  196.7500    0.4158    0.8047    0.8950    1.4248  149.0000    1.9580    0.1133    0.5137    1.7764 -999.0000 -999.0000 
2086.5084   18.0000   13.4766  196.5000    0.9579    0.8022    0.8379    1.2591  149.1250    2.0117    0.1318    0.5210    1.8125 -999.0000 -999.0000 
2086.6608   18.0000   13.5313  202.7500   -0.2501    0.7979    0.8174    1.1396  149.1250    2.0293    0.1367    0.5176    1.7969 -999.0000 -999.0000 
2086.8132   18.0000   13.4766  201.3750   -1.4580    0.7930    0.8188    1.1680  150.0000    2.0137    0.1304    0.5620    1.7363 -999.0000 -999.0000 
2086.9656   18.0000   13.3906  204.7500   -1.1504    0.7979    0.8301    1.3057  150.0000    1.9688    0.1377    0.5542    1.6357 -999.0000 -999.0000 
2087.1180   18.0000   13.5313  206.0000   -0.5926    0.8384    0.7988    1.2751  149.1250    1.9277    0.1597    0.5688    1.6523 -999.0000 -999.0000 
2087.2704   18.0000   13.5781  209.8750   -1.5818    0.9219    0.7710    1.2174  141.5000    1.8799    0.1401    0.5425    1.6641 -999.0000 -999.0000 
2087.4228   18.0000   13.8125  204.2500   -2.0398    0.9941    0.9243    1.4941  133.7500    1.8838    0.1250    0.5195    1.7383 -999.0000 -999.0000 
2087.5752   18.0000   13.5781  190.3750   -2.9977    1.0225    1.1768    2.4089  125.5625    1.8955    0.0962    0.4932    1.7354 -999.0000 -999.0000 
2087.7276   18.0000   13.5781  167.8750   -3.2056    1.0664    1.2686    2.4661  121.7500    1.9150    0.0942    0.5186    1.8076 -999.0000 -999.0000 
2087.8800   18.0000   13.7109  143.7500   -4.1636    1.1514    1.3828    2.4427  122.3750    1.9570    0.0996    0.4805    2.0918 -999.0000 -999.0000 
2088.0324   18.0000   13.4844  126.1250   -3.3715    1.2910    1.4512    2.5879  123.3750    2.0137    0.0791    0.4331    2.2734 -999.0000 -999.0000 
2088.1848   18.0000   13.4844  119.1250   -2.5861    1.4329    1.4854    2.5748  123.0059    2.1289    0.1035    0.4058    2.3730 -999.0000 -999.0000 
2088.3372   18.0000   13.5078  115.8750   -4.7481    1.5316    1.5087    2.5356  125.0000    2.1777    0.1084    0.4097    2.3008 -999.0000 -999.0000 
2088.4896   18.0000   13.5313  112.1875    0.9902    1.5793    1.4941    2.6878  122.7384    2.2168    0.1572    0.4146    2.2422 -999.0000 -999.0000 
2088.6420   18.0000   13.5078  109.8125   -0.4377    1.6007    1.5168    2.6478  121.5651    2.1914    0.1582    0.4033    2.2207 -999.0000 -999.0000 
2088.7944   18.0000   13.4844  108.5625    1.8232    1.6075    1.5331    2.7431  121.7500    2.2266    0.1909    0.4102    2.2246 -999.0000 -999.0000 
2088.9468   18.0000   13.4766  110.9375    1.7822    1.6113    1.5843    2.7988  121.1753    2.2207    0.1792    0.4175    2.3086 -999.0000 -999.0000 
2089.0992   18.0000   13.5000  110.1875   -2.3065    1.6073    1.6492    2.6391  120.5625    2.2461    0.1875    0.4009    2.2773 -999.0000 -999.0000 
2089.2516   18.0000   13.5078  107.4375   -0.8135    1.6035    1.6830    2.4551  121.1924    2.1992    0.1372    0.3984    2.2363 -999.0000 -999.0000 
2089.4040   18.0000   13.6172  100.3125   -2.8180    1.6170    1.6953    2.0419  121.3996    2.1777    0.1260    0.4028    2.1641 -999.0000 -999.0000 
2089.5564   18.0000   13.6641   96.3125    2.3304    1.6409    1.6731    2.6853  122.1937    2.1465    0.1226    0.3882    2.1172 -999.0000 -999.0000 
2089.7088   18.0000   13.7656   97.5000    2.1069    1.6494    1.6232    2.6582  122.3750    2.1836    0.1787    0.3955    2.0527 -999.0000 -999.0000 
2089.8612   18.0000   13.7656  102.8750   -4.3662    1.6427    1.6025    2.7008  121.4599    2.2227    0.2109    0.3955    2.0449 -999.0000 -999.0000 
2090.0136   18.0000   13.8438  102.0625   -5.0906    1.5966    1.6085    2.7939  118.8174    2.2578    0.2344    0.3906    2.0645 -999.0000 -999.0000 
2090.1660   18.0000   13.8672  102.8125   -5.7646    1.5293    1.7451    2.9889  114.7500    2.2266    0.2104    0.3931    2.0918 -999.0000 -999.0000 
2090.3184   18.0000   13.8359   99.0625   -6.0280    1.5099    1.8047    2.9737  118.9305    2.2363    0.2300    0.4058    2.1250 -999.0000 -999.0000 
2090.4708   18.0000   13.8672  102.3125   -6.7925    1.5127    1.5584    2.8214  122.3750    2.2754    0.2349    0.3965    2.2578 -999.0000 -999.0000 
2090.6232   18.0000   14.0391   99.8750   -8.4773    1.4974    1.3418    2.3530  122.3290    2.3320    0.2324    0.3867    2.3164 -999.0000 -999.0000 
2090.7756   18.0000   14.3125   94.2500   -9.7038    1.4653    1.2451    1.3677  121.2051    2.3516    0.1909    0.3809    2.3652 -999.0000 -999.0000 
2090.9280   18.0000   15.0938   81.4375  -11.0724    1.3880    1.3871    2.5573  115.0428    2.3242    0.1523    0.3896    2.3438 -999.0000 -999.0000 
2091.0804   18.0000   16.3750   65.8750  -10.7139    1.2747    1.5801    2.3502  107.3750    2.2441    0.1211    0.3696    2.3008 -999.0000 -999.0000 
2091.2328   18.0000   17.1719   53.3125   -9.7371    1.2337    1.5463    1.9416  109.8701    2.1680    0.1177    0.3638    2.2539 -999.0000 -999.0000 
2091.3852   18.0000   16.6094   45.5625   -9.6794    1.1829    1.4501    1.7281  121.7549    2.1348    0.1206    0.3789    2.3086 -999.0000 -999.0000 
2091.5376   18.0000   16.1250   48.7813   -9.6229    1.1337    1.2992    1.2822  126.3648    2.1797    0.1318    0.3789    2.3125 -999.0000 -999.0000 
2091.6900   18.0000   14.2891   49.2813  -10.4221    1.0966    1.1324    1.3878  124.0000    2.1875    0.1240    0.3789    2.3320 -999.0000 -999.0000 
2091.8424   18.0000   14.0234   51.1250  -10.8002    1.0850    1.0436    1.7488  125.0139    2.1348    0.1099    0.3799    2.1875 -999.0000 -999.0000 
