~VERSION INFORMATION
 VERS.                 2.0:   CWLS LOG ASCII STANDARD - VERSION 2.0
 WRAP.                  NO:   SINGLE LINE PER DEPTH STEP
 CREA.                 01/02/2018 09:37:14
#CREATED USING DSPetro VERSION 5000.10.1.3 BY H191660 ON 01/02/2018 09:37:14
~WELL INFORMATION
#MNEM.UNIT       DATA                          DESCRIPTION MNEMONIC
#---------      ---------------------------   --------------------------
 STRT    .M         0.0000                    : START DEPTH
 STOP    .M         3599.9928                 : STOP DEPTH
 STEP    .M         0.1524                    : STEP VALUE
 NULL    .      -999.0000                     : NULL VALUE
 DATE    .      01/02/2018                    : LAS file Creation Date
 WELL .      2881_Sirius-1-ESSO          : Well Name
 COMP .      Neftex Exploration Insights : Company
 FLD  .      SIRIUS (ESSO)               : Field
 UWI  .      ZAUWL_005217                : Unique Well Identifier (UWI)
 LOC  .                                  : Location
 RWS  .      0                           : Def_Rw
 WST  .      0                           : Def_Rwt
 MDEC .      0                           : Magnetic Declination
 SRVC .      SCH                         : Contractor
~CURVE INFORMATION
#MNEM              UNIT       API CODE   Curve Type Comments
#----------  --------------- ----------  ---------- -----------
 DEPTH      .M                         : Depth       
 BitSize    .in                        : BitSize     
 CAL_INCH   .inch                      : caliper     Caliper Log - A representation of the measured diameter of a borehole along its depth
 GR_API     .API                       : gammaRay    Gamma Ray (API) - Measures the intensity of natural gamma-ray radiation emitted from formations containing radioactive elements, such as K, Th and U
 SP_MV      .mv                        : SP          Spontaneous Potential - Records the electrical potential produced by the interaction of formation water, conductive drilling mud, and certain ion-sele
 ILD_OHMM   .ohmm                      : deepRes     Deep Induction Resistivity - Measurement made an induction log, made several feet into the formation
 SFLU_OHMM  .ohmm                      : shalRes     Shallow Spherically Focused Resistivity - A shallow resistivty measurement derived from the the Phasor Dual Induction - SFR tool
 MSFL_OHMM  .ohmm                      : microRes    Micro-Spherically Focused Log - Measurement involves only the first few inches of the formation immediately adjacent to the borehole
 DT_US_FT   .us/ft                     : sonic       Interval Transit Time: Compressional Wave - Evaluates the time it takes for a compressional wave to traverse a fixed distance
 RHOB_G_CC  .g/cc                      : density     Bulk Density - Measures the density of bulk material, including any void space or other materials contained in the subject volume
 DRHO_G_CC  .g/cc                      : drho        Density Correction - Investigates the correction to the Bulk Density log; used as an indication of hole condition to validate the Bulk Density measure
 NPHI_v_v   .dec                       : Neutron     
 PEF_B_E    .b/e-                      : PEF         Photoelectric Factor - A log of photoelectric absorption properties. Often expressed in an approximation unit barns/electron (b/e-)
 LITH       .                          : LITH        Lithology Curve
 LITH_v2    .                          : LITH        Lithology Curve
~A  DEPTH  BitSize   CAL_INCH   GR_API    SP_MV    ILD_OHMM SFLU_OHM  MSFL_OHM   DT_US_FT RHOB_G_C  DRHO_G_C   NPHI_v_v  PEF_B_E     LITH    LITH_v2  
# ...
2342.3880   12.2500   12.2578   25.9375   -1.6345    0.9561    1.1221    2.5436   87.7500 -999.0000 -999.0000    0.2813 -999.0000 -999.0000 -999.0000 
2342.5404   12.2500   12.2578   26.4844   -0.7632    0.9517    1.3105    3.3190   87.0000 -999.0000 -999.0000    0.2612 -999.0000 -999.0000 -999.0000 
2342.6928   12.2500   12.2266   28.4688   -0.2668    0.9448    1.3818    3.2305   92.3750 -999.0000 -999.0000    0.2822 -999.0000 -999.0000 -999.0000 
2342.8452   12.2500   12.2344   30.4219   -0.5204    0.9502    1.2803    2.7174  100.0000 -999.0000 -999.0000    0.2900 -999.0000 -999.0000 -999.0000 
2342.9976   12.2500   12.2578   27.8438   -0.5240    0.9580    1.1797    2.5495  103.7500 -999.0000 -999.0000    0.2974 -999.0000 -999.0000 -999.0000 
2343.1500   12.2500   12.2578   28.6563   -0.1527    0.9590    1.1250    2.6061  104.0000 -999.0000 -999.0000    0.2925 -999.0000 -999.0000 -999.0000 
2343.3024   12.2500   12.2578   28.3594   -0.4063    0.9536    1.1055    2.6602  103.7500 -999.0000 -999.0000    0.3096 -999.0000 -999.0000 -999.0000 
2343.4548   12.2500   12.2578   31.5000   -0.1599    0.9478    1.0703    2.6022  104.1875 -999.0000 -999.0000    0.3062 -999.0000 -999.0000 -999.0000 
2343.6072   12.2500   12.2578   28.3594    0.0865    0.9316    1.0527    2.4414  103.7500 -999.0000 -999.0000    0.3047 -999.0000 -999.0000 -999.0000 
2343.7596   12.2500   12.2578   32.0938    0.4578    0.9146    1.0771    2.5306  102.0000 -999.0000 -999.0000    0.2837 -999.0000 -999.0000 -999.0000 
2343.9120   12.2500   12.2578   36.7500    0.3292    0.9019    1.1406    2.7624  102.5625 -999.0000 -999.0000    0.2852 -999.0000 -999.0000 -999.0000 
2344.0644   12.2500   12.2578   46.8750    0.5756    0.8984    1.1475    2.4811  103.1875 -999.0000 -999.0000    0.2925 -999.0000 -999.0000 -999.0000 
2344.2168   12.2500   12.2578   53.2188    0.5719    0.8984    1.0605    2.2363  104.5625 -999.0000 -999.0000    0.3057 -999.0000 -999.0000 -999.0000 
2344.3692   12.2500   12.2578   60.1875   -0.0567    0.8936 -999.0000    2.2201  105.0000 -999.0000 -999.0000    0.3096 -999.0000 -999.0000 -999.0000 
2344.5216   12.2500   12.2578   64.2500   -0.6853    0.8779    1.0010    2.2220  105.5625 -999.0000 -999.0000    0.3193 -999.0000 -999.0000 -999.0000 
2344.6740   12.2500   12.2578   67.0625   -1.1889    0.8574    1.0225    2.3008  107.0000 -999.0000 -999.0000    0.3242 -999.0000 -999.0000 -999.0000 
2344.8264   12.2500   12.2578   70.6250   -0.8176    0.8403    1.0381    2.2669  107.1875 -999.0000 -999.0000    0.3496 -999.0000 -999.0000 -999.0000 
2344.9788   12.2500   12.2578   71.0625   -0.6962    0.8252    1.0283    2.1738  108.0000 -999.0000 -999.0000    0.3413 -999.0000 -999.0000 -999.0000 
2345.1312   12.2500   12.2578   72.6875   -0.3248    0.8105    0.9805    2.0788  109.3750 -999.0000 -999.0000    0.3423 -999.0000 -999.0000 -999.0000 
2345.2836   12.2500   12.2578   65.9375   -0.7034    0.7998    0.9453    2.1100  110.7500 -999.0000 -999.0000    0.3271 -999.0000 -999.0000 -999.0000 
2345.4360   12.2500   12.2578   64.6875   -0.8321    0.7876    0.9175    2.0140  112.1875 -999.0000 -999.0000    0.3486 -999.0000 -999.0000 -999.0000 
2345.5884   12.2500   12.2578   58.5000   -0.5857    0.7744    0.9077    1.8815  112.3750 -999.0000 -999.0000    0.3457 -999.0000 -999.0000 -999.0000 
2345.7408   12.2500   12.2578   62.8750   -0.8393    0.7681    0.8960    1.8903  112.3750 -999.0000 -999.0000    0.3384 -999.0000 -999.0000 -999.0000 
2345.8932   12.2500   12.2578   62.6875   -0.0930    0.7661    0.8911    1.9053  112.1875 -999.0000 -999.0000    0.3447 -999.0000 -999.0000 -999.0000 
2346.0456   12.2500   12.2578   65.4375    0.2784    0.7661    0.8916    1.9307  112.3750 -999.0000 -999.0000    0.3413 -999.0000 -999.0000 -999.0000 
2346.1980   12.2500   12.2422   66.9375    0.2748    0.7700    0.9053    1.9430  111.7500 -999.0000 -999.0000    0.3501 -999.0000 -999.0000 -999.0000 
2346.3504   12.2500   12.2578   67.8125    0.0212    0.7778    0.9238    1.9222  110.7500 -999.0000 -999.0000    0.3433 -999.0000 -999.0000 -999.0000 
2346.5028   12.2500   12.2578   71.6875    0.2675    0.7852    0.9336    1.9570  110.1875 -999.0000 -999.0000    0.3481 -999.0000 -999.0000 -999.0000 
2346.6552   12.2500   12.2578   74.2500   -0.2361    0.7920    0.9263    1.9847  110.1875 -999.0000 -999.0000    0.3594 -999.0000 -999.0000 -999.0000 
2346.8076   12.2500   12.2578   76.8125   -0.6147    0.8032    0.9272    2.0150  109.7500 -999.0000 -999.0000    0.3613 -999.0000 -999.0000 -999.0000 
2346.9600   12.2500   12.2578   82.0625   -0.3683    0.8140    0.9360    1.9964  110.0000 -999.0000 -999.0000    0.3921 -999.0000 -999.0000 -999.0000 
2347.1124   12.2500   12.2578   89.4375   -0.6220    0.8242    0.9536    2.0391  110.1875 -999.0000 -999.0000    0.3604 -999.0000 -999.0000 -999.0000 
2347.2648   12.2500   12.2578   94.5000   -0.6256    0.8398    0.9512    2.0130  110.1875 -999.0000 -999.0000    0.3633 -999.0000 -999.0000 -999.0000 
2347.4172   12.2500   12.2578   95.5625   -1.1292    0.8545    0.9580    2.0332  109.7500 -999.0000 -999.0000    0.3408 -999.0000 -999.0000 -999.0000 
2347.5696   12.2500   12.2578   87.5000   -1.0079    0.8652    0.9736    2.0762  109.3750 -999.0000 -999.0000    0.3462 -999.0000 -999.0000 -999.0000 
2347.7220   12.2500   12.2578   84.0000   -0.8865    0.8687    1.0205    2.1497  108.1875 -999.0000 -999.0000    0.3398 -999.0000 -999.0000 -999.0000 
2347.8744   12.2500   12.2578   77.1875   -0.8901    0.8711    1.0645    2.3034  106.0000 -999.0000 -999.0000    0.3242 -999.0000 -999.0000 -999.0000 
2348.0268   12.2500   12.2578   77.6250   -0.6437    0.8682    1.1025    2.1966  104.5625 -999.0000 -999.0000    0.3340 -999.0000 -999.0000 -999.0000 
2348.1792   12.2500   12.2578   78.6875   -0.8974    0.8643    1.0889    2.1738  105.0000 -999.0000 -999.0000    0.3203 -999.0000 -999.0000 -999.0000 
2348.3316   12.2500   12.2578   78.9375   -0.9010    0.8638    1.0322    2.0010  107.0000 -999.0000 -999.0000    0.3286 -999.0000 -999.0000 -999.0000 
2348.4840   12.2500   12.2578   79.0000   -1.0296    0.8647    0.9536    1.9290  109.5625 -999.0000 -999.0000    0.3330 -999.0000 -999.0000 -999.0000 
2348.6364   12.2500   12.2578   79.6250   -0.7832    0.8555    0.9131    1.9535  110.1875 -999.0000 -999.0000    0.3506 -999.0000 -999.0000 -999.0000 
2348.7888   12.2500   12.2578   82.6875   -0.5369    0.8433    0.9404    2.1309  109.1875 -999.0000 -999.0000    0.3574 -999.0000 -999.0000 -999.0000 
2348.9412   12.2500   12.2578   83.0625   -0.6655    0.8301    0.9868    2.1758  108.7500 -999.0000 -999.0000    0.3491 -999.0000 -999.0000 -999.0000 
2349.0936   12.2500   12.2578   80.5000   -0.7941    0.8213    1.0029    2.0124  108.3750 -999.0000 -999.0000    0.3423 -999.0000 -999.0000 -999.0000 
2349.2460   12.2500   12.2578   80.0000   -1.1728    0.8203    0.9814    2.0306  108.7500 -999.0000 -999.0000    0.3389 -999.0000 -999.0000 -999.0000 
2349.3984   12.2500   12.2578   74.4375   -1.1764    0.8213    0.9717    2.0003  108.7500 -999.0000 -999.0000    0.3345 -999.0000 -999.0000 -999.0000 
2349.5508   12.2500   12.2578   76.6875   -0.8050    0.8232    0.9639    2.0866  108.5625 -999.0000 -999.0000    0.3242 -999.0000 -999.0000 -999.0000 
2349.7032   12.2500   12.2578   77.3125   -0.4336    0.8198    0.9590    2.0690  108.0000 -999.0000 -999.0000    0.3413 -999.0000 -999.0000 -999.0000 
2349.8556   12.2500   12.2578   79.0625   -1.0623    0.8203    0.9551    2.0309  108.1875 -999.0000 -999.0000    0.3618 -999.0000 -999.0000 -999.0000 
2350.0080   12.2500   12.2578   77.6250   -0.0659    0.8242    0.9546    2.2188  108.3750 -999.0000 -999.0000    0.3638 -999.0000 -999.0000 -999.0000 
2350.1604   12.2500   12.2578   73.4375   -0.1945    0.8340    0.9478    2.0762  108.7500 -999.0000 -999.0000    0.3374 -999.0000 -999.0000 -999.0000 
2350.3128   12.2500   12.2578   75.0625   -0.6981    0.8447    0.9624    2.0306  108.7500 -999.0000 -999.0000    0.3281 -999.0000 -999.0000 -999.0000 
