~VERSION INFORMATION
 VERS.                 2.0:   CWLS LOG ASCII STANDARD - VERSION 2.0
 WRAP.                  NO:   SINGLE LINE PER DEPTH STEP
 CREA.                 01/02/2018 09:37:14
#CREATED USING DSPetro VERSION 5000.10.1.3 BY H191660 ON 01/02/2018 09:37:14
~WELL INFORMATION
#MNEM.UNIT       DATA                          DESCRIPTION MNEMONIC
#---------      ---------------------------   --------------------------
 STRT    .M         0.0000                    : START DEPTH
 STOP    .M         3599.9928                 : STOP DEPTH
 STEP    .M         0.1524                    : STEP VALUE
 NULL    .      -999.0000                     : NULL VALUE
 DATE    .      01/02/2018                    : LAS file Creation Date
 WELL .      2881_Sirius-1-ESSO          : Well Name
 COMP .      Neftex Exploration Insights : Company
 FLD  .      SIRIUS (ESSO)               : Field
 UWI  .      ZAUWL_005217                : Unique Well Identifier (UWI)
 LOC  .                                  : Location
 RWS  .      0                           : Def_Rw
 WST  .      0                           : Def_Rwt
 MDEC .      0                           : Magnetic Declination
 SRVC .      SCH                         : Contractor
~CURVE INFORMATION
#MNEM              UNIT       API CODE   Curve Type Comments
#----------  --------------- ----------  ---------- -----------
 DEPTH      .M                         : Depth       
 BitSize    .in                        : BitSize     
 CAL_INCH   .inch                      : caliper     Caliper Log - A representation of the measured diameter of a borehole along its depth
 GR_API     .API                       : gammaRay    Gamma Ray (API) - Measures the intensity of natural gamma-ray radiation emitted from formations containing radioactive elements, such as K, Th and U
 SP_MV      .mv                        : SP          Spontaneous Potential - Records the electrical potential produced by the interaction of formation water, conductive drilling mud, and certain ion-sele
 ILD_OHMM   .ohmm                      : deepRes     Deep Induction Resistivity - Measurement made an induction log, made several feet into the formation
 SFLU_OHMM  .ohmm                      : shalRes     Shallow Spherically Focused Resistivity - A shallow resistivty measurement derived from the the Phasor Dual Induction - SFR tool
 MSFL_OHMM  .ohmm                      : microRes    Micro-Spherically Focused Log - Measurement involves only the first few inches of the formation immediately adjacent to the borehole
 DT_US_FT   .us/ft                     : sonic       Interval Transit Time: Compressional Wave - Evaluates the time it takes for a compressional wave to traverse a fixed distance
 RHOB_G_CC  .g/cc                      : density     Bulk Density - Measures the density of bulk material, including any void space or other materials contained in the subject volume
 DRHO_G_CC  .g/cc                      : drho        Density Correction - Investigates the correction to the Bulk Density log; used as an indication of hole condition to validate the Bulk Density measure
 NPHI_v_v   .dec                       : Neutron     
 PEF_B_E    .b/e-                      : PEF         Photoelectric Factor - A log of photoelectric absorption properties. Often expressed in an approximation unit barns/electron (b/e-)
 LITH       .                          : LITH        Lithology Curve
 LITH_v2    .                          : LITH        Lithology Curve
~A  DEPTH  BitSize   CAL_INCH   GR_API    SP_MV    ILD_OHMM SFLU_OHM  MSFL_OHM   DT_US_FT RHOB_G_C  DRHO_G_C   NPHI_v_v  PEF_B_E     LITH    LITH_v2  
# ...
2213.1528   12.2500   12.3438   91.3750   -2.7636    0.8975    1.0029    2.1901  113.0000 -999.0000 -999.0000    0.3799 -999.0000 -999.0000 -999.0000 
2213.3052   12.2500   12.3438   93.4375   -2.2715    0.8706    0.9927    2.1497  116.7500 -999.0000 -999.0000    0.3804 -999.0000 -999.0000 -999.0000 
2213.4576   12.2500   12.3438  101.7500   -2.1544    0.8457    0.9780    2.1283  115.7500 -999.0000 -999.0000    0.3960 -999.0000 -999.0000 -999.0000 
2213.6100   12.2500   12.3438  108.0625   -2.6623    0.8320    0.9639    2.1400  122.0000 -999.0000 -999.0000    0.3809 -999.0000 -999.0000 -999.0000 
2213.7624   12.2500   12.3438  106.0000   -1.9202    0.8315    0.9590    2.1113  122.3750 -999.0000 -999.0000    0.3745 -999.0000 -999.0000 -999.0000 
2213.9148   12.2500   12.3438  107.6250   -1.1781    0.8398    0.9756    2.1745  121.3750 -999.0000 -999.0000    0.3706 -999.0000 -999.0000 -999.0000 
2214.0672   12.2500   12.3438  109.9375   -0.9360    0.8550    0.9937    2.2070  120.3750 -999.0000 -999.0000    0.3809 -999.0000 -999.0000 -999.0000 
2214.2196   12.2500   12.3438  113.2500   -0.6939    0.8794    1.0098    2.2552  120.1875 -999.0000 -999.0000    0.3804 -999.0000 -999.0000 -999.0000 
2214.3720   12.2500   12.3438  109.9375   -0.3268    0.8965    1.0283    2.3385  118.7500 -999.0000 -999.0000    0.3696 -999.0000 -999.0000 -999.0000 
2214.5244   12.2500   12.3438  104.6250   -0.0847    0.8921    1.1152    2.3190  114.5625 -999.0000 -999.0000    0.3540 -999.0000 -999.0000 -999.0000 
2214.6768   12.2500   12.3438   96.1250    0.0324    0.8760    1.2578    2.7565  113.7500 -999.0000 -999.0000    0.3330 -999.0000 -999.0000 -999.0000 
2214.8292   12.2500   12.3438   88.4375    0.3995    0.8584    1.2939    3.0319  113.7500 -999.0000 -999.0000    0.3262 -999.0000 -999.0000 -999.0000 
2214.9816   12.2500   12.3438   84.0625    0.3916    0.8428    1.1289    2.2598  115.1875 -999.0000 -999.0000    0.3325 -999.0000 -999.0000 -999.0000 
2215.1340   12.2500   12.3438   83.0000    0.5087    0.8276    0.9907    2.0371  118.7500 -999.0000 -999.0000    0.3486 -999.0000 -999.0000 -999.0000 
2215.2864   12.2500   12.3438   83.3125    0.3758    0.8105    0.8970    1.9935  121.7500 -999.0000 -999.0000    0.3584 -999.0000 -999.0000 -999.0000 
2215.4388   12.2500   12.3438   81.4375    0.2429    0.7852    0.8545    1.9648  122.5625 -999.0000 -999.0000    0.3677 -999.0000 -999.0000 -999.0000 
2215.5912   12.2500   12.3438   76.5625   -0.2715    0.7505    0.8589    1.9867  122.7500 -999.0000 -999.0000    0.3730 -999.0000 -999.0000 -999.0000 
2215.7436   12.2500   12.3438   75.1875   -0.8038    0.7246    0.8691    1.9714  122.5625 -999.0000 -999.0000    0.3628 -999.0000 -999.0000 -999.0000 
2215.8960   12.2500   12.3438   78.5625   -0.9611    0.7109    0.8750    1.9395  123.1875 -999.0000 -999.0000    0.3594 -999.0000 -999.0000 -999.0000 
2216.0484   12.2500   12.3438   82.8125   -0.9934    0.7021    0.8833    1.9219  122.5625 -999.0000 -999.0000    0.3521 -999.0000 -999.0000 -999.0000 
2216.2008   12.2500   12.3438   81.3750   -0.5258    0.7021    0.8931    1.9144  122.3750 -999.0000 -999.0000    0.3730 -999.0000 -999.0000 -999.0000 
2216.3532   12.2500   12.3438   76.5625   -0.5581    0.7065    0.8901    1.8760  122.1875 -999.0000 -999.0000    0.3721 -999.0000 -999.0000 -999.0000 
2216.5056   12.2500   12.3438   77.1875   -0.7154    0.7124    0.8701    1.8079  121.7500 -999.0000 -999.0000    0.3862 -999.0000 -999.0000 -999.0000 
2216.6580   12.2500   12.3516   78.8125   -0.7478    0.7158    0.8623    1.8558  122.0000 -999.0000 -999.0000    0.3838 -999.0000 -999.0000 -999.0000 
2216.8104   12.2500   12.3516   80.0000   -1.2801    0.7168    0.8813    1.9001  121.5625 -999.0000 -999.0000    0.3877 -999.0000 -999.0000 -999.0000 
2216.9628   12.2500   12.3516   78.9375   -1.8124    0.7163    0.8970    1.9303  121.3750 -999.0000 -999.0000    0.3555 -999.0000 -999.0000 -999.0000 
2217.1152   12.2500   12.3516   78.9375   -2.3448    0.7178    0.8911    1.9131  121.5625 -999.0000 -999.0000    0.3364 -999.0000 -999.0000 -999.0000 
2217.2676   12.2500   12.3516   78.4375   -2.2521    0.7207    0.8662    1.9030  121.3750 -999.0000 -999.0000    0.3306 -999.0000 -999.0000 -999.0000 
2217.4200   12.2500   12.3672   78.2500   -2.1594    0.7212    0.8594    1.9095  121.5625 -999.0000 -999.0000    0.3369 -999.0000 -999.0000 -999.0000 
2217.5724   12.2500   12.3672   76.7500   -2.0668    0.7222    0.8638    1.8590  122.1875 -999.0000 -999.0000    0.3477 -999.0000 -999.0000 -999.0000 
2217.7248   12.2500   12.3672   73.8750   -1.8491    0.7197    0.8677    1.8939  122.1875 -999.0000 -999.0000    0.3496 -999.0000 -999.0000 -999.0000 
2217.8772   12.2500   12.3672   77.0000   -1.8814    0.7192    0.8677    1.8636  122.0000 -999.0000 -999.0000    0.3672 -999.0000 -999.0000 -999.0000 
2218.0296   12.2500   12.3750   73.6250   -1.6638    0.7212    0.8701    1.8574  121.3750 -999.0000 -999.0000    0.3540 -999.0000 -999.0000 -999.0000 
2218.1820   12.2500   12.3672   76.5625   -2.0711    0.7246    0.8740    1.9040  121.1875 -999.0000 -999.0000    0.3599 -999.0000 -999.0000 -999.0000 
2218.3344   12.2500   12.3672   73.6250   -1.8534    0.7285    0.8726    1.8841  120.1875 -999.0000 -999.0000    0.3491 -999.0000 -999.0000 -999.0000 
2218.4868   12.2500   12.3672   81.6875   -1.5107    0.7344    0.8706    1.8600  120.7500 -999.0000 -999.0000    0.3438 -999.0000 -999.0000 -999.0000 
2218.6392   12.2500   12.3672   82.9375   -0.9181    0.7388    0.8677    1.8630  120.5625 -999.0000 -999.0000    0.3433 -999.0000 -999.0000 -999.0000 
2218.7916   12.2500   12.3750   86.4375   -0.9504    0.7388    0.8794    1.8770  120.1875 -999.0000 -999.0000    0.3423 -999.0000 -999.0000 -999.0000 
2218.9440   12.2500   12.3672   84.5000   -0.4827    0.7397    0.8970    1.9489  121.5625 -999.0000 -999.0000    0.3428 -999.0000 -999.0000 -999.0000 
2219.0964   12.2500   12.3672   86.5000   -0.1401    0.7412    0.9023    2.2083  123.0000 -999.0000 -999.0000    0.3262 -999.0000 -999.0000 -999.0000 
2219.2488   12.2500   12.3672   86.3125   -0.7974    0.7417    0.9058    1.9635  125.3750 -999.0000 -999.0000    0.3364 -999.0000 -999.0000 -999.0000 
2219.4012   12.2500   12.3672   86.5625   -0.8297    0.7417    0.8784    2.0697  127.3750 -999.0000 -999.0000    0.3818 -999.0000 -999.0000 -999.0000 
2219.5536   12.2500   12.3672   85.5625   -1.1121    0.7402    0.8857    2.0189  127.3750 -999.0000 -999.0000    0.4106 -999.0000 -999.0000 -999.0000 
2219.7060   12.2500   12.3750   85.5625   -1.0194    0.7344    0.8892    1.9880  126.7500 -999.0000 -999.0000    0.4170 -999.0000 -999.0000 -999.0000 
2219.8584   12.2500   12.3672   85.5000   -1.6767    0.7271    0.8916    1.9346  126.0000 -999.0000 -999.0000    0.3867 -999.0000 -999.0000 -999.0000 
2220.0108   12.2500   12.3672   84.1250   -2.3341    0.7246    0.8735    1.9759  126.5625 -999.0000 -999.0000    0.3877 -999.0000 -999.0000 -999.0000 
2220.1632   12.2500   12.3672   83.4375   -2.4914    0.7236    0.8740    1.9466  126.3750 -999.0000 -999.0000    0.3940 -999.0000 -999.0000 -999.0000 
2220.3156   12.2500   12.3672   84.6875   -2.2737    0.7227    0.8794    1.9609  126.7500 -999.0000 -999.0000    0.3926 -999.0000 -999.0000 -999.0000 
2220.4680   12.2500   12.3672   90.2500   -2.8061    0.7227    0.8945    1.9450  127.0000 -999.0000 -999.0000    0.3784 -999.0000 -999.0000 -999.0000 
2220.6204   12.2500   12.3672   92.1875   -3.7134    0.7241    0.8960    1.9860  126.7500 -999.0000 -999.0000    0.3696 -999.0000 -999.0000 -999.0000 
2220.7728   12.2500   12.3672   93.0000   -3.4957    0.7236    0.8955    1.9951  126.7500 -999.0000 -999.0000    0.3979 -999.0000 -999.0000 -999.0000 
2220.9252   12.2500   12.3672   86.5625   -2.4030    0.7241    0.8975    2.0280  127.1875 -999.0000 -999.0000    0.4116 -999.0000 -999.0000 -999.0000 
2221.0776   12.2500   12.3672   82.5625   -1.4354    0.7222    0.9038    2.0625  127.7500 -999.0000 -999.0000    0.3979 -999.0000 -999.0000 -999.0000 
