~VERSION INFORMATION
 VERS.                 2.0:   CWLS LOG ASCII STANDARD - VERSION 2.0
 WRAP.                  NO:   SINGLE LINE PER DEPTH STEP
 CREA.                 01/02/2018 09:37:14
#CREATED USING DSPetro VERSION 5000.10.1.3 BY H191660 ON 01/02/2018 09:37:14
~WELL INFORMATION
#MNEM.UNIT       DATA                          DESCRIPTION MNEMONIC
#---------      ---------------------------   --------------------------
 STRT    .M         0.0000                    : START DEPTH
 STOP    .M         3599.9928                 : STOP DEPTH
 STEP    .M         0.1524                    : STEP VALUE
 NULL    .      -999.0000                     : NULL VALUE
 DATE    .      01/02/2018                    : LAS file Creation Date
 WELL .      2881_Sirius-1-ESSO          : Well Name
 COMP .      Neftex Exploration Insights : Company
 FLD  .      SIRIUS (ESSO)               : Field
 UWI  .      ZAUWL_005217                : Unique Well Identifier (UWI)
 LOC  .                                  : Location
 RWS  .      0                           : Def_Rw
 WST  .      0                           : Def_Rwt
 MDEC .      0                           : Magnetic Declination
 SRVC .      SCH                         : Contractor
~CURVE INFORMATION
#MNEM              UNIT       API CODE   Curve Type Comments
#----------  --------------- ----------  ---------- -----------
 DEPTH      .M                         : Depth       
 BitSize    .in                        : BitSize     
 CAL_INCH   .inch                      : caliper     Caliper Log - A representation of the measured diameter of a borehole along its depth
 GR_API     .API                       : gammaRay    Gamma Ray (API) - Measures the intensity of natural gamma-ray radiation emitted from formations containing radioactive elements, such as K, Th and U
 SP_MV      .mv                        : SP          Spontaneous Potential - Records the electrical potential produced by the interaction of formation water, conductive drilling mud, and certain ion-sele
 ILD_OHMM   .ohmm                      : deepRes     Deep Induction Resistivity - Measurement made an induction log, made several feet into the formation
 SFLU_OHMM  .ohmm                      : shalRes     Shallow Spherically Focused Resistivity - A shallow resistivty measurement derived from the the Phasor Dual Induction - SFR tool
 MSFL_OHMM  .ohmm                      : microRes    Micro-Spherically Focused Log - Measurement involves only the first few inches of the formation immediately adjacent to the borehole
 DT_US_FT   .us/ft                     : sonic       Interval Transit Time: Compressional Wave - Evaluates the time it takes for a compressional wave to traverse a fixed distance
 RHOB_G_CC  .g/cc                      : density     Bulk Density - Measures the density of bulk material, including any void space or other materials contained in the subject volume
 DRHO_G_CC  .g/cc                      : drho        Density Correction - Investigates the correction to the Bulk Density log; used as an indication of hole condition to validate the Bulk Density measure
 NPHI_v_v   .dec                       : Neutron     
 PEF_B_E    .b/e-                      : PEF         Photoelectric Factor - A log of photoelectric absorption properties. Often expressed in an approximation unit barns/electron (b/e-)
 LITH       .                          : LITH        Lithology Curve
 LITH_v2    .                          : LITH        Lithology Curve
~A  DEPTH  BitSize   CAL_INCH   GR_API    SP_MV    ILD_OHMM SFLU_OHM  MSFL_OHM   DT_US_FT RHOB_G_C  DRHO_G_C   NPHI_v_v  PEF_B_E     LITH    LITH_v2  
# ...
3360.1152    8.5000    8.3281   77.8125    2.3569    3.6797    5.1445    5.6862   88.1875    2.3672    0.0024    0.2783    2.5645   37.0000   37.0000 
3360.2676    8.5000    8.3594   72.1875    2.5776    3.6191    4.9609    3.6895   86.7500    2.3418    0.0010    0.2988    2.5059   37.0000   37.0000 
3360.4200    8.5000    8.3594   68.8750    3.2672    3.5859    4.6211    4.1706   84.5625    2.3145    0.0044    0.2930    2.5879   37.0000   37.0000 
3360.5724    8.5000    8.3516   69.5625    4.1130    3.6875    4.1250    4.1667   84.5625    2.2754    0.0020    0.2744    2.8027   36.0000   36.0000 
3360.7248    8.5000    8.3438   65.5625    4.5839    4.0234    3.5078    3.5436   89.5625    2.2891    0.0098    0.2627    2.8418   36.0000   36.0000 
3360.8772    8.5000    8.3516   62.7500    4.3047    4.4180    3.3594    3.4512   99.3750    2.2930    0.0093    0.2520    2.6406   36.0000   36.0000 
3361.0296    8.5000    8.3594   56.7813    3.3692    4.8984    4.4219    3.2214  107.5625    2.3066    0.0107    0.2573    2.6309   36.0000   36.0000 
3361.1820    8.5000    8.3672   54.2813    2.8087    5.4102    8.1406    7.6875  117.3750    2.2988    0.0059    0.2588    2.5059   36.0000   36.0000 
3361.3344    8.5000    8.3750   55.0000    1.9514    5.9023   14.1094   27.3828  121.7500    2.2813    0.0044    0.2690    2.1582   36.0000   36.0000 
3361.4868    8.5000    8.4141   59.2188    1.2973    6.5156   18.3438   24.7500  124.0000    2.1914    0.0000    0.3359    1.5498   37.0000   38.0000 
3361.6392    8.5000    8.4375   69.3125    0.3462    7.3203   21.2656   29.7656  124.0000    1.9609   -0.0024    0.4404    1.3369   10.0000   38.0000 
3361.7916    8.5000    8.5313   78.0625   -0.3081    7.8008   18.6719   65.2291  118.1875    1.7910    0.0024    0.5068    1.1748   10.0000   38.0000 
3361.9440    8.5000    8.4844   87.9375   -0.8529    8.0859   13.8359   25.7891  114.1875    1.7432    0.0229    0.5122    1.2607   10.0000   38.0000 
3362.0964    8.5000    8.5156   86.7500   -0.6320    8.1953   10.3047   11.1120  110.0000    1.7783    0.0186    0.5249    1.2666   10.0000   38.0000 
3362.2488    8.5000    8.5234   92.8750   -1.3018    8.0313    8.0703    9.1094  104.3750    1.8252    0.0322    0.5386    1.2813   10.0000   38.0000 
3362.4012    8.5000    8.5156  103.1250   -1.3311    7.6055    7.5820   10.7917   95.5625    1.8203    0.0156    0.5327    1.3408   10.0000   38.0000 
3362.5536    8.5000    8.5313  115.0000   -1.3759    7.0508    8.0859   10.7344   90.1875    1.8867    0.0142    0.4609    1.7236   10.0000   38.0000 
3362.7060    8.5000    8.5156  128.2500   -0.6551    6.6719    8.9063    9.6667   86.3750    2.0371    0.0029    0.4209    2.2344   10.0000   38.0000 
3362.8584    8.5000    8.5156  128.0000    0.2845    6.4922    9.4141    9.7214   82.3750    2.2363    0.0005    0.3911    2.2715   10.0000   37.0000 
3363.0108    8.5000    8.4922  125.6250    1.3647    6.4609    9.4141    8.1680   81.7500    2.3438   -0.0024    0.3564    2.3535   37.0000   37.0000 
3363.1632    8.5000    8.4766  113.8750    1.5542    6.5898    9.1563    8.7266   84.3750    2.3848   -0.0029    0.3350    2.4609   37.0000   37.0000 
3363.3156    8.5000    8.4922  108.8125    2.0094    6.7383    8.8906    7.7240   83.5625    2.4141   -0.0015    0.3062    2.6113   37.0000   37.0000 
3363.4680    8.5000    8.4844  107.6250    1.8552    6.8008    8.5313    7.1979   81.3750    2.4160   -0.0015    0.3110    2.5527   37.0000   37.0000 
3363.6204    8.5000    8.4688  104.1250    1.0604    6.6836    8.4141    9.2891   81.0000    2.4199   -0.0010    0.2876    2.5137   37.0000   37.0000 
3363.7728    8.5000    8.4453  100.5000    0.1250    6.4336    8.4844    9.6380   81.3750    2.4258    0.0005    0.2720    2.4961   37.0000   37.0000 
3363.9252    8.5000    8.4453  102.0000   -0.1290    6.0273    7.8750    7.3477   81.1875    2.4297    0.0034    0.2529    2.5742   37.0000   37.0000 
3364.0776    8.5000    8.4531  106.3750   -0.2142    5.6172    6.4688    6.7422   82.7500    2.4414    0.0073    0.2500    2.7090   37.0000   37.0000 
3364.2300    8.5000    8.4063  102.5000    0.4350    5.2188    5.5898    5.7826   83.0000    2.4453    0.0078    0.2754    2.9395   37.0000   37.0000 
3364.3824    8.5000    8.3672   84.9375    0.9437    4.9375    5.0313    4.9622   83.3750    2.4531    0.0103    0.2871    3.1543   37.0000   37.0000 
3364.5348    8.5000    8.3203   65.8125    1.7179    4.6992    4.5391    4.8255   84.0000    2.4629    0.0122    0.2759    3.0664   36.0000   36.0000 
3364.6872    8.5000    8.2891   54.5313    2.6327    4.5430    4.1445    4.0052   83.7500    2.4746    0.0117    0.2368    2.7031   36.0000   36.0000 
3364.8396    8.5000    8.2813   55.5313    3.5320    4.4453    3.8984    3.8236   84.5625    2.4492    0.0088    0.2153    2.4531   36.0000   36.0000 
3364.9920    8.5000    8.2813   53.0938    4.6968    4.3281    3.9609    3.7194   84.3750    2.4102    0.0039    0.2012    2.2871   36.0000   36.0000 
3365.1444    8.5000    8.2891   51.0313    5.3616    4.2070    4.2227    3.7025   84.0000    2.3789    0.0054    0.1992    2.3027   36.0000   36.0000 
3365.2968    8.5000    8.3047   43.7813    5.8625    4.1641    4.5195    4.3665   83.3750    2.3555    0.0044    0.2012    2.3477   27.0000   27.0000 
3365.4492    8.5000    8.2891   42.5938    6.1445    4.1445    4.4727    4.7786   83.5625    2.3516    0.0137    0.1953    2.4590   27.0000   27.0000 
3365.6016    8.5000    8.3047   43.9375    6.5585    4.1250    4.2227    4.2367   83.7496    2.3340    0.0142    0.1953    2.5684   27.0000   27.0000 
3365.7540    8.5000    8.2969   44.4375    6.8093    4.1172    4.2265    3.7298   84.0000    2.3438    0.0195    0.1895    2.7402   27.0000   27.0000 
3365.9064    8.5000    8.2891   45.6250    7.4324    4.1211    4.2852    4.5473   83.5651    2.3398    0.0137    0.2007    2.7305   27.0000   27.0000 
3366.0588    8.5000    8.2969   46.6250    7.6772    4.1056    4.2542    4.6940   83.1904    2.3398    0.0176    0.1997    2.6152   27.0000   27.0000 
3366.2112    8.5000    8.3047   47.8438    7.8359    4.1055    4.0562    3.7845   82.7534    2.3398    0.0259    0.2031    2.5176   27.0000   27.0000 
3366.3636    8.5000    8.2891   47.8125    7.3728    4.1325    3.8303    3.6574   82.5643    2.3438    0.0229    0.1992    2.5645   27.0000   27.0000 
3366.5160    8.5000    8.3047   43.2188    6.4116    4.2139    3.6891    3.5404   82.3750    2.3516    0.0127    0.2061    2.7227   27.0000   27.0000 
3366.6684    8.5000    8.2891   39.9375    6.1822    4.2227    3.6719    4.2814   82.7449    2.3594    0.0078    0.2104    2.6895   27.0000   27.0000 
3366.8208    8.5000    8.2891   36.0313    6.3001    4.1641    4.0103    4.5000   83.7344    2.3398    0.0039    0.2168    2.6660   27.0000   27.0000 
3366.9732    8.5000    8.2813   32.0313    5.9493    4.1871    4.5299    3.9487   84.1798    2.3242    0.0024    0.2075    2.6387   27.0000   27.0000 
3367.1256    8.5000    8.2813   34.5938    6.8314    4.2526    4.7773    3.6875   84.3750    2.3125    0.0024    0.1958    2.7207   27.0000   27.0000 
3367.2780    8.5000    8.2891   37.2813    7.8589    4.3418    4.3722    3.9661   84.0081    2.3242    0.0010    0.1968    2.7832   27.0000   27.0000 
3367.4304    8.5000    8.2891   42.3125    8.0376    4.5081    4.0059    3.9303   83.2050    2.3398    0.0024    0.2090    2.9414   27.0000   27.0000 
3367.5828    8.5000    8.2813   41.2500    7.5812    4.5938    3.9492    4.4561   81.7837    2.3457    0.0059    0.2192    2.8574   27.0000   27.0000 
3367.7352    8.5000    8.2813   41.3125    7.1142    4.5024    4.3642    4.7111   81.5673    2.3398    0.0132    0.2153    2.7617   27.0000   27.0000 
3367.8876    8.5000    8.2891   41.8750    6.4876    4.4430    4.8081    5.2292   81.3750    2.3262    0.0239    0.2109    2.6152   27.0000   27.0000 
3368.0400    8.5000    8.2891   44.7188    5.8872    4.4073    4.8555    4.6781   81.7390    2.3301    0.0244    0.2080    2.6973   27.0000   27.0000 
