~VERSION INFORMATION
 VERS.                 2.0:   CWLS LOG ASCII STANDARD - VERSION 2.0
 WRAP.                  NO:   SINGLE LINE PER DEPTH STEP
 CREA.                 01/02/2018 09:37:14
#CREATED USING DSPetro VERSION 5000.10.1.3 BY H191660 ON 01/02/2018 09:37:14
~WELL INFORMATION
#MNEM.UNIT       DATA                          DESCRIPTION MNEMONIC
#---------      ---------------------------   --------------------------
 STRT    .M         0.0000                    : START DEPTH
 STOP    .M         3599.9928                 : STOP DEPTH
 STEP    .M         0.1524                    : STEP VALUE
 NULL    .      -999.0000                     : NULL VALUE
 DATE    .      01/02/2018                    : LAS file Creation Date
 WELL .      2881_Sirius-1-ESSO          : Well Name
 COMP .      Neftex Exploration Insights : Company
 FLD  .      SIRIUS (ESSO)               : Field
 UWI  .      ZAUWL_005217                : Unique Well Identifier (UWI)
 LOC  .                                  : Location
 RWS  .      0                           : Def_Rw
 WST  .      0                           : Def_Rwt
 MDEC .      0                           : Magnetic Declination
 SRVC .      SCH                         : Contractor
~CURVE INFORMATION
#MNEM              UNIT       API CODE   Curve Type Comments
#----------  --------------- ----------  ---------- -----------
 DEPTH      .M                         : Depth       
 BitSize    .in                        : BitSize     
 CAL_INCH   .inch                      : caliper     Caliper Log - A representation of the measured diameter of a borehole along its depth
 GR_API     .API                       : gammaRay    Gamma Ray (API) - Measures the intensity of natural gamma-ray radiation emitted from formations containing radioactive elements, such as K, Th and U
 SP_MV      .mv                        : SP          Spontaneous Potential - Records the electrical potential produced by the interaction of formation water, conductive drilling mud, and certain ion-sele
 ILD_OHMM   .ohmm                      : deepRes     Deep Induction Resistivity - Measurement made an induction log, made several feet into the formation
 SFLU_OHMM  .ohmm                      : shalRes     Shallow Spherically Focused Resistivity - A shallow resistivty measurement derived from the the Phasor Dual Induction - SFR tool
 MSFL_OHMM  .ohmm                      : microRes    Micro-Spherically Focused Log - Measurement involves only the first few inches of the formation immediately adjacent to the borehole
 DT_US_FT   .us/ft                     : sonic       Interval Transit Time: Compressional Wave - Evaluates the time it takes for a compressional wave to traverse a fixed distance
 RHOB_G_CC  .g/cc                      : density     Bulk Density - Measures the density of bulk material, including any void space or other materials contained in the subject volume
 DRHO_G_CC  .g/cc                      : drho        Density Correction - Investigates the correction to the Bulk Density log; used as an indication of hole condition to validate the Bulk Density measure
 NPHI_v_v   .dec                       : Neutron     
 PEF_B_E    .b/e-                      : PEF         Photoelectric Factor - A log of photoelectric absorption properties. Often expressed in an approximation unit barns/electron (b/e-)
 LITH       .                          : LITH        Lithology Curve
 LITH_v2    .                          : LITH        Lithology Curve
~A  DEPTH  BitSize   CAL_INCH   GR_API    SP_MV    ILD_OHMM SFLU_OHM  MSFL_OHM   DT_US_FT RHOB_G_C  DRHO_G_C   NPHI_v_v  PEF_B_E     LITH    LITH_v2  
# ...
1704.2892   18.0000   20.9063   28.6250  -12.1875    0.9185    1.0020    2.0794  137.1250    1.5576    0.0317    0.4780    1.2773 -999.0000 -999.0000 
1704.4416   18.0000   20.9063   30.6563  -12.6721    0.9150    0.9829    1.6413  140.7500    1.5068    0.0068    0.5459    1.2695 -999.0000 -999.0000 
1704.5940   18.0000   20.9063   32.6875  -12.6879    0.9048    0.9487    1.8177  141.3750    1.4922    0.0024    0.5156    1.3037 -999.0000 -999.0000 
1704.7464   18.0000   20.9063   31.5469  -14.2037    0.8989    0.9268    2.0674  139.1250    1.4941    0.0029    0.5254    1.3311 -999.0000 -999.0000 
1704.8988   18.0000   20.9219   31.0469   -8.7195    0.8901    0.8887    1.6296  140.7500    1.5020    0.0044    0.5029    1.3281 -999.0000 -999.0000 
1705.0512   18.0000   20.9063   29.9219   -5.9541    0.8726    0.8706    1.5648  138.5000    1.5127    0.0078    0.5586    1.2861 -999.0000 -999.0000 
1705.2036   18.0000   20.9063   30.3906   -7.6887    0.8569    0.8809    2.3945  139.3750    1.5117    0.0083    0.5649    1.2549 -999.0000 -999.0000 
1705.3560   18.0000   20.9063   30.4688   -6.4545    0.8428    0.8853    2.1468  140.7500    1.5098    0.0132    0.5376    1.2422 -999.0000 -999.0000 
1705.5084   18.0000   20.9063   31.8906  -11.4391    0.8296    0.8716    1.1517  141.1250    1.5020    0.0132    0.5088    1.2373 -999.0000 -999.0000 
1705.6608   18.0000   20.9063   29.3750   -6.4236    0.8267    0.8462    1.0540  144.5000    1.5156    0.0273    0.5259    1.2217 -999.0000 -999.0000 
1705.8132   18.0000   20.9063   29.0938   -3.6895    0.8330    0.8276    1.1279  147.0000    1.5088    0.0205    0.5386    1.2559 -999.0000 -999.0000 
1705.9656   18.0000   20.9063   27.2500   -1.1740    0.8359    0.8247    1.2731  146.5000    1.5078    0.0215    0.5552    1.3994 -999.0000 -999.0000 
1706.1180   18.0000   20.9063   29.5469   -6.9399    0.8384    0.8169    1.1852  146.0000    1.5205    0.0117    0.5088    1.6875 -999.0000 -999.0000 
1706.2704   18.0000   20.9063   27.9375   -7.4244    0.8496    0.8032    1.1458  146.5000    1.6445    0.0718    0.4961    1.9639 -999.0000 -999.0000 
1706.4228   18.0000   20.9219   27.1875   -9.9403    0.8555    0.8188    0.8784  143.3750    1.7969    0.1528    0.4468    1.8418 -999.0000 -999.0000 
1706.5752   18.0000   20.9219   25.7813  -10.6749    0.8574    0.8418    1.2165  140.0000    1.8662    0.2056    0.5063    1.6328 -999.0000 -999.0000 
1706.7276   18.0000   20.9063   27.8750  -10.6907    0.8721    0.8867    2.2643  137.3750    1.7432    0.1406    0.5127    1.4854 -999.0000 -999.0000 
1706.8800   18.0000   20.9219   31.8594  -10.7065    0.8867    0.8789    2.1149  137.0000    1.6035    0.0566    0.5591    1.4453 -999.0000 -999.0000 
1707.0324   18.0000   20.9063   34.9063  -10.7223    0.9063    0.8687    1.7008  139.5000    1.5400    0.0195    0.5327    1.4580 -999.0000 -999.0000 
1707.1848   18.0000   20.9063   35.6250  -11.2382    0.9209    0.8643    1.4193  142.0000    1.5303    0.0117    0.5645    1.4697 -999.0000 -999.0000 
1707.3372   18.0000   20.9063   33.7188   -9.0196    0.9155    0.8760    1.2985  143.1250    1.5410    0.0146    0.5679    1.4023 -999.0000 -999.0000 
1707.4896   18.0000   20.9063   34.8438  -10.7698    0.9082    0.8950    1.3242  142.3750    1.5420    0.0156    0.5454    1.3320 -999.0000 -999.0000 
1707.6420   18.0000   20.9063   34.8750  -10.7700    0.8945    0.9102    1.1452  141.1250    1.5400    0.0220    0.5122    1.2979 -999.0000 -999.0000 
1707.7944   18.0000   20.9063   34.2500  -10.5202    0.8848    0.9146    1.0592  140.1250    1.5303    0.0269    0.4917    1.3848 -999.0000 -999.0000 
1707.9468   18.0000   20.9063   34.2813  -11.0048    0.8804    0.8940    0.9727  140.7500    1.5254    0.0195    0.4648    1.5859 -999.0000 -999.0000 
1708.0992   18.0000   20.9063   36.9063  -10.7394    0.8955    0.8408    0.9108  141.0000    1.5732    0.0337    0.4385    1.8740 -999.0000 -999.0000 
1708.2516   18.0000   20.9063   38.9063  -10.4739    0.9004    0.8228    0.9368  140.5000    1.6494    0.0557    0.4072    2.1348 -999.0000 -999.0000 
1708.4040   18.0000   20.9063   36.8125  -10.4585    0.9063    0.8262    1.3610  141.3750    1.8086    0.1274    0.3853    2.2227 -999.0000 -999.0000 
1708.5564   18.0000   20.8594   34.4375  -10.4743    0.9116    0.8608    1.6413  141.5000    1.9834    0.1948    0.3730    2.1055 -999.0000 -999.0000 
1708.7088   18.0000   20.8125   33.5625  -11.4589    0.9165    0.8955    1.6549  141.1250    2.1328    0.2329    0.3535    2.0195 -999.0000 -999.0000 
1708.8612   18.0000   20.2344   33.8438   -7.9747    0.9248    0.9546    1.9255  143.5000    2.2148    0.2427    0.3491    2.0723 -999.0000 -999.0000 
1709.0136   18.0000   19.1250   34.5000   -6.2405    0.9395    0.9976    1.9173  146.3750    2.1797    0.2354    0.3237    2.1406 -999.0000 -999.0000 
1709.1660   18.0000   19.0781   31.2969   -2.2251    0.9497    1.0244    1.9945  145.3750    2.1445    0.2700    0.3501    2.2090 -999.0000 -999.0000 
1709.3184   18.0000   19.0000   30.4219   -5.7097    0.9473    1.0205    2.2266  144.0000    2.0566    0.2676    0.3726    2.3105 -999.0000 -999.0000 
1709.4708   18.0000   19.4219   26.5156   -3.4755    0.9478    0.9902    2.4199  142.0000    1.9785    0.2354    0.4116    2.3809 -999.0000 -999.0000 
1709.6232   18.0000   20.2344   27.3750   -6.9913    0.9473    0.9565    2.2148  139.7500    1.9424    0.2100    0.3911    2.2949 -999.0000 -999.0000 
1709.7756   18.0000   20.5469   28.4531   -6.7259    0.9380    0.9307    2.2357  139.7500    1.9531    0.2158    0.4028    1.9971 -999.0000 -999.0000 
1709.9280   18.0000   19.8750   33.0625   -5.9605    0.9263    0.9102    1.5921  143.7500    1.9121    0.2139    0.4033    1.7979 -999.0000 -999.0000 
1710.0804   18.0000   20.3281   34.0313   -7.2263    0.9199    0.8706    1.1335  143.3750    1.7930    0.1548    0.4355    1.6211 -999.0000 -999.0000 
1710.2328   18.0000   20.8125   33.2188   -5.7421    0.9097    0.8955    1.5583  143.0000    1.6885    0.1035    0.4644    1.5518 -999.0000 -999.0000 
1710.3852   18.0000   20.9063   34.4063   -4.7580    0.9082    0.8804    2.1979  143.3750    1.6270    0.0732    0.4858    1.5771 -999.0000 -999.0000 
1710.5376   18.0000   20.9063   33.6875  -10.7426    0.9214    0.9165    1.6709  144.1250    1.6084    0.0610    0.4956    1.7090 -999.0000 -999.0000 
1710.6900   18.0000   20.9063   31.5781  -11.2740    0.9443    0.8857    1.6136  144.1250    1.6611    0.0747    0.4541    1.9111 -999.0000 -999.0000 
1710.8424   18.0000   20.9063   25.8281  -11.5086    0.9541    0.8882    1.5091  143.3750    1.8164    0.1392    0.4126    1.9004 -999.0000 -999.0000 
1710.9948   18.0000   20.9063   24.4844  -11.9932    0.9502    0.9365    1.6950  139.0000    2.0195    0.2349    0.3574    1.8730 -999.0000 -999.0000 
1711.1472   18.0000   20.3281   23.3594  -12.0246    0.9277    1.0127    2.0983  137.3750    2.1211    0.2959    0.3462    1.9004 -999.0000 -999.0000 
1711.2996   18.0000   19.7031   24.0469  -12.5092    0.9077    1.0654    2.0345  137.1250    2.1094    0.2993    0.3623    2.0488 -999.0000 -999.0000 
1711.4520   18.0000   19.3125   22.6406  -12.2438    0.9019    1.0020    1.9717  140.0000    2.0371    0.2700    0.3862    2.1270 -999.0000 -999.0000 
1711.6044   18.0000   18.9844   23.0938  -11.5252    0.8955    0.9609    2.0456  138.7500    1.9482    0.2227    0.4033    2.1055 -999.0000 -999.0000 
1711.7568   18.0000   19.5625   21.9375  -12.0254    0.8843    0.9102    2.0833  138.7500    1.8701    0.1807    0.4141    2.0879 -999.0000 -999.0000 
1711.9092   18.0000   20.2188   23.4063  -12.2756    0.8779    0.8687    1.9531  140.3750    1.8193    0.1597    0.4136    2.0156 -999.0000 -999.0000 
1712.0616   18.0000   20.9063   25.3281  -12.2602    0.8667    0.8560    1.8750  141.0000    1.8193    0.1816    0.3945    2.0176 -999.0000 -999.0000 
1712.2140   18.0000   20.2031   25.5938  -11.7448    0.8564    0.8447    1.9837  140.5000    1.8271    0.1948    0.3896    1.9277 -999.0000 -999.0000 
