~VERSION INFORMATION
 VERS.                 2.0:   CWLS LOG ASCII STANDARD - VERSION 2.0
 WRAP.                  NO:   SINGLE LINE PER DEPTH STEP
 CREA.                 01/02/2018 09:37:14
#CREATED USING DSPetro VERSION 5000.10.1.3 BY H191660 ON 01/02/2018 09:37:14
~WELL INFORMATION
#MNEM.UNIT       DATA                          DESCRIPTION MNEMONIC
#---------      ---------------------------   --------------------------
 STRT    .M         0.0000                    : START DEPTH
 STOP    .M         3599.9928                 : STOP DEPTH
 STEP    .M         0.1524                    : STEP VALUE
 NULL    .      -999.0000                     : NULL VALUE
 DATE    .      01/02/2018                    : LAS file Creation Date
 WELL .      2881_Sirius-1-ESSO          : Well Name
 COMP .      Neftex Exploration Insights : Company
 FLD  .      SIRIUS (ESSO)               : Field
 UWI  .      ZAUWL_005217                : Unique Well Identifier (UWI)
 LOC  .                                  : Location
 RWS  .      0                           : Def_Rw
 WST  .      0                           : Def_Rwt
 MDEC .      0                           : Magnetic Declination
 SRVC .      SCH                         : Contractor
~CURVE INFORMATION
#MNEM              UNIT       API CODE   Curve Type Comments
#----------  --------------- ----------  ---------- -----------
 DEPTH      .M                         : Depth       
 BitSize    .in                        : BitSize     
 CAL_INCH   .inch                      : caliper     Caliper Log - A representation of the measured diameter of a borehole along its depth
 GR_API     .API                       : gammaRay    Gamma Ray (API) - Measures the intensity of natural gamma-ray radiation emitted from formations containing radioactive elements, such as K, Th and U
 SP_MV      .mv                        : SP          Spontaneous Potential - Records the electrical potential produced by the interaction of formation water, conductive drilling mud, and certain ion-sele
 ILD_OHMM   .ohmm                      : deepRes     Deep Induction Resistivity - Measurement made an induction log, made several feet into the formation
 SFLU_OHMM  .ohmm                      : shalRes     Shallow Spherically Focused Resistivity - A shallow resistivty measurement derived from the the Phasor Dual Induction - SFR tool
 MSFL_OHMM  .ohmm                      : microRes    Micro-Spherically Focused Log - Measurement involves only the first few inches of the formation immediately adjacent to the borehole
 DT_US_FT   .us/ft                     : sonic       Interval Transit Time: Compressional Wave - Evaluates the time it takes for a compressional wave to traverse a fixed distance
 RHOB_G_CC  .g/cc                      : density     Bulk Density - Measures the density of bulk material, including any void space or other materials contained in the subject volume
 DRHO_G_CC  .g/cc                      : drho        Density Correction - Investigates the correction to the Bulk Density log; used as an indication of hole condition to validate the Bulk Density measure
 NPHI_v_v   .dec                       : Neutron     
 PEF_B_E    .b/e-                      : PEF         Photoelectric Factor - A log of photoelectric absorption properties. Often expressed in an approximation unit barns/electron (b/e-)
 LITH       .                          : LITH        Lithology Curve
 LITH_v2    .                          : LITH        Lithology Curve
~A  DEPTH  BitSize   CAL_INCH   GR_API    SP_MV    ILD_OHMM SFLU_OHM  MSFL_OHM   DT_US_FT RHOB_G_C  DRHO_G_C   NPHI_v_v  PEF_B_E     LITH    LITH_v2  
# ...
2851.2516    8.5000   10.1250  141.3750    2.1068    1.6436    2.5703    3.0241  106.1875    2.4004    0.0239    0.4023    3.9531   37.0000   37.0000 
2851.4040    8.5000   10.0625  132.0000    1.2401    1.5000    2.5605    2.9512  104.5625    2.4180    0.0410    0.4072    3.9453   37.0000   37.0000 
2851.5564    8.5000   10.0156  130.8750    0.2483    1.4590    2.3359    3.8164   97.3750    2.4336    0.0605    0.3765    3.9453   37.0000   37.0000 
2851.7088    8.5000    9.9688  126.8125   -0.4934    1.5029    1.7422    2.5241   96.1875    2.4648    0.0591    0.3623    4.3164   37.0000   37.0000 
2851.8612    8.5000    9.9609  132.0000   -0.7352    1.5352    1.3916    0.8589   97.7500    2.4805    0.0288    0.3452    4.1602   37.0000   37.0000 
2852.0136    8.5000    9.9609  130.8750   -0.7269    1.5508    1.7471    4.1270   95.5625    2.5000    0.0156    0.3730    4.1133   37.0000   37.0000 
2852.1660    8.5000    9.8828  130.0000   -0.5937    1.5703    2.7598    4.6901   97.3750    2.4824    0.0078    0.3740    3.3555   37.0000   37.0000 
2852.3184    8.5000    9.8594  129.2500   -1.2105    1.6660    3.5273    5.1237   97.1875    2.4668    0.0127    0.3667    3.2656   37.0000   37.0000 
2852.4708    8.5000    9.8438  130.5000   -1.7044    1.9219    3.3750    5.0404   97.3750    2.4570    0.0063    0.3784    3.3711   37.0000   37.0000 
2852.6232    8.5000    9.8203  132.3750   -1.8702    2.1719    3.0605    4.3346   98.1875    2.4609    0.0083    0.3789    3.6035   37.0000   37.0000 
2852.7756    8.5000    9.8125  129.6250   -1.7861    2.3086    3.0020    4.6393   98.5625    2.4473    0.0063    0.3823    3.7070   37.0000   37.0000 
2852.9280    8.5000    9.8125  126.1875   -1.2020    2.3730    2.9980    4.2474   99.1875    2.4355    0.0029    0.3525    3.4648   37.0000   37.0000 
2853.0804    8.5000    9.7734  128.2500   -0.8365    2.3633    2.9648    4.7578   98.3750    2.4316    0.0029    0.3647    3.6172   37.0000   37.0000 
2853.2328    8.5000    9.7734  130.5000   -0.7524    2.3301    2.8594    4.4479   98.5625    2.4336    0.0054    0.3579    3.6621   37.0000   37.0000 
2853.3852    8.5000    9.8047  133.5000   -0.7933    2.3770    2.8750    4.2943   98.7500    2.4160   -0.0005    0.3540    3.9590   37.0000   37.0000 
2853.5376    8.5000    9.6406  131.7500   -0.3341    2.5293    3.1406    4.4870   97.3750    2.4180   -0.0059    0.3394    3.8164   37.0000   37.0000 
2853.6900    8.5000    9.6172  129.8750   -0.0938    2.5391    3.4180    4.6432   98.3750    2.4160   -0.0112    0.3462    3.3516   37.0000   37.0000 
2853.8424    8.5000    9.6094  128.6250   -0.1347    2.3984    3.4004    4.7604   99.0000    2.4297   -0.0029    0.3481    3.1855   37.0000   37.0000 
2853.9948    8.5000    9.6094  130.5000   -0.5192    2.1914    3.2910    4.2539   98.3750    2.4375    0.0029    0.3472    3.2168   37.0000   37.0000 
2854.1472    8.5000    9.5547  133.2500   -0.0914    1.8506    3.3066    4.1133   98.0000    2.4375    0.0107    0.3477    3.4766   37.0000   37.0000 
2854.2996    8.5000    9.5078  132.3750   -0.3822    1.4541    3.3379    2.9909   98.0000    2.4355    0.0098    0.3506    3.5000   37.0000   37.0000 
2854.4520    8.5000    9.4922  131.7500   -0.6731    1.3281    3.0488    3.9688   98.1875    2.4219    0.0098    0.3706    3.4219   37.0000   37.0000 
2854.6044    8.5000    9.4531  130.1250   -1.2140    1.3867    1.8477    4.6654   98.1875    2.4238    0.0034    0.3584    3.3555   37.0000   37.0000 
2854.7568    8.5000    9.4531  133.0000   -1.0048    1.3936    1.2344    3.1543   98.1875    2.4258    0.0054    0.3608    3.3789   37.0000   37.0000 
2854.9092    8.5000    9.4531  128.6250   -1.2644    1.4014    1.4443    3.5391   97.7500    2.4414    0.0054    0.3472    3.5273   37.0000   37.0000 
2855.0616    8.5000    9.4531  128.6250   -0.7116    1.3945    2.1699    5.2773   97.5625    2.4336    0.0039    0.3672    3.7266   37.0000   37.0000 
2855.2140    8.5000    9.4844  124.6250   -0.2211    1.3691    2.8906    4.8203   98.0000    2.4395   -0.0005    0.3755    3.6992   37.0000   37.0000 
2855.3664    8.5000    9.5078  128.1250   -0.5120    1.5479    3.0293    4.5247   98.1875    2.4258   -0.0059    0.3887    3.5332   37.0000   37.0000 
2855.5188    8.5000    9.5078  126.1875   -0.7717    1.9082    3.2324    4.7695   98.7500    2.4238   -0.0107    0.3726    3.3203   37.0000   37.0000 
2855.6712    8.5000    9.5078  126.2500   -1.4375    2.2852    3.5293    5.2188   98.5625    2.4121   -0.0117    0.3818    3.3633   37.0000   37.0000 
2855.8236    8.5000    9.5078  126.9375   -0.9471    2.6270    3.6875    5.5313   97.1875    2.4199   -0.0098    0.3784    3.6055   37.0000   37.0000 
2855.9760    8.5000    9.5078  131.1250   -0.8629    2.9355    3.7695    6.0000   97.5625    2.4219   -0.0034    0.3696    3.7344   37.0000   37.0000 
2856.1284    8.5000    9.5000  132.8750   -1.2476    3.1836    3.7070    6.1615   97.0000    2.4316   -0.0029    0.3696    3.6563   37.0000   37.0000 
2856.2808    8.5000    9.4844  136.6250   -0.9135    3.0293    3.5781    5.5000   97.5625    2.4355   -0.0034    0.3701    3.4473   37.0000   37.0000 
2856.4332    8.5000    9.4844  134.3750   -1.2668    2.9512    3.6113    5.9336   97.5625    2.4434   -0.0020    0.3789    3.4434   37.0000   37.0000 
2856.5856    8.5000    9.3828  136.3750   -0.7764    2.9023    3.6914    5.4102   97.7500    2.4414    0.0000    0.3667    3.3672   37.0000   37.0000 
2856.7380    8.5000    9.3203  130.1250   -0.6923    2.8711    3.5918    5.3438   98.1875    2.4277   -0.0005    0.3574    3.2363   37.0000   37.0000 
2856.8904    8.5000    9.3203  128.2500   -0.4519    2.9004    3.4453    4.7552   97.5625    2.4219   -0.0020    0.3467    3.2793   37.0000   37.0000 
2857.0428    8.5000    9.3281  127.6250   -0.7428    2.9355    3.3711    5.1289   96.7500    2.4180   -0.0024    0.3276    3.5039   37.0000   37.0000 
2857.1952    8.5000    9.2969  129.3750   -0.6586    2.9570    3.4043    4.7669   96.7500    2.4238    0.0049    0.3320    3.6465   37.0000   37.0000 
2857.3476    8.5000    9.2891  130.1250   -0.8245    2.9707    3.5469    4.4095   96.1875    2.4297    0.0112    0.3262    3.6758   37.0000   37.0000 
2857.5000    8.5000    9.2969  129.2500   -0.2091    2.9551    3.7461    5.7474   95.7500    2.4238    0.0088    0.3462    3.6543   37.0000   37.0000 
2857.6524    8.5000    9.2969  125.7500   -0.8437    2.9512    3.9277    4.7734   96.1875    2.4199    0.0000    0.3521    3.7012   37.0000   37.0000 
2857.8048    8.5000    9.2891  129.0000   -0.3846    2.9688    3.9512    5.5638   96.5625    2.4199   -0.0068    0.3765    3.7246   37.0000   37.0000 
2857.9572    8.5000    9.2891  128.2500   -0.3005    2.9648    3.9824    5.6107   96.7500    2.4297   -0.0020    0.3896    3.6895   37.0000   37.0000 
2858.1096    8.5000    9.2031  127.1250   -0.7475    2.9414    3.9531    5.5898   97.3750    2.4297    0.0010    0.3843    3.6719   37.0000   37.0000 
2858.2620    8.5000    9.1406  123.8125   -0.4134    2.9063    3.9063    5.5508   98.0000    2.4277    0.0068    0.3809    3.7676   37.0000   37.0000 
2858.4144    8.5000    9.1406  128.1250   -0.4542    2.8594    3.8242    5.1484   97.5625    2.4277    0.0078    0.3862    3.6367   37.0000   37.0000 
2858.5668    8.5000    9.1406  134.2500   -0.1514    2.7441    3.6875    5.4310   98.7500    2.4297    0.0103    0.3760    3.4863   37.0000   37.0000 
2858.7192    8.5000    9.1406  139.1250   -0.0673    2.6738    3.4063    4.8893  101.1875    2.4473    0.0122    0.3916    3.3633   37.0000   37.0000 
2858.8716    8.5000    9.1328  138.2500    0.3919    2.6211    3.1270    4.0690  102.1875    2.4297    0.0112    0.3940    3.4551   37.0000   37.0000 
2859.0240    8.5000    9.1563  142.1250    0.8198    2.5938    2.8340    4.2461  104.0000    2.4199    0.0093    0.4175    3.6602   37.0000   37.0000 
2859.1764    8.5000    9.1406  145.7500   -0.0336    2.5977    2.7207    4.3372  103.5625    2.3984    0.0054    0.4248    3.5957   37.0000   37.0000 
