~VERSION INFORMATION
 VERS.                 2.0:   CWLS LOG ASCII STANDARD - VERSION 2.0
 WRAP.                  NO:   SINGLE LINE PER DEPTH STEP
 CREA.                 01/02/2018 09:37:14
#CREATED USING DSPetro VERSION 5000.10.1.3 BY H191660 ON 01/02/2018 09:37:14
~WELL INFORMATION
#MNEM.UNIT       DATA                          DESCRIPTION MNEMONIC
#---------      ---------------------------   --------------------------
 STRT    .M         0.0000                    : START DEPTH
 STOP    .M         3599.9928                 : STOP DEPTH
 STEP    .M         0.1524                    : STEP VALUE
 NULL    .      -999.0000                     : NULL VALUE
 DATE    .      01/02/2018                    : LAS file Creation Date
 WELL .      2881_Sirius-1-ESSO          : Well Name
 COMP .      Neftex Exploration Insights : Company
 FLD  .      SIRIUS (ESSO)               : Field
 UWI  .      ZAUWL_005217                : Unique Well Identifier (UWI)
 LOC  .                                  : Location
 RWS  .      0                           : Def_Rw
 WST  .      0                           : Def_Rwt
 MDEC .      0                           : Magnetic Declination
 SRVC .      SCH                         : Contractor
~CURVE INFORMATION
#MNEM              UNIT       API CODE   Curve Type Comments
#----------  --------------- ----------  ---------- -----------
 DEPTH      .M                         : Depth       
 BitSize    .in                        : BitSize     
 CAL_INCH   .inch                      : caliper     Caliper Log - A representation of the measured diameter of a borehole along its depth
 GR_API     .API                       : gammaRay    Gamma Ray (API) - Measures the intensity of natural gamma-ray radiation emitted from formations containing radioactive elements, such as K, Th and U
 SP_MV      .mv                        : SP          Spontaneous Potential - Records the electrical potential produced by the interaction of formation water, conductive drilling mud, and certain ion-sele
 ILD_OHMM   .ohmm                      : deepRes     Deep Induction Resistivity - Measurement made an induction log, made several feet into the formation
 SFLU_OHMM  .ohmm                      : shalRes     Shallow Spherically Focused Resistivity - A shallow resistivty measurement derived from the the Phasor Dual Induction - SFR tool
 MSFL_OHMM  .ohmm                      : microRes    Micro-Spherically Focused Log - Measurement involves only the first few inches of the formation immediately adjacent to the borehole
 DT_US_FT   .us/ft                     : sonic       Interval Transit Time: Compressional Wave - Evaluates the time it takes for a compressional wave to traverse a fixed distance
 RHOB_G_CC  .g/cc                      : density     Bulk Density - Measures the density of bulk material, including any void space or other materials contained in the subject volume
 DRHO_G_CC  .g/cc                      : drho        Density Correction - Investigates the correction to the Bulk Density log; used as an indication of hole condition to validate the Bulk Density measure
 NPHI_v_v   .dec                       : Neutron     
 PEF_B_E    .b/e-                      : PEF         Photoelectric Factor - A log of photoelectric absorption properties. Often expressed in an approximation unit barns/electron (b/e-)
 LITH       .                          : LITH        Lithology Curve
 LITH_v2    .                          : LITH        Lithology Curve
~A  DEPTH  BitSize   CAL_INCH   GR_API    SP_MV    ILD_OHMM SFLU_OHM  MSFL_OHM   DT_US_FT RHOB_G_C  DRHO_G_C   NPHI_v_v  PEF_B_E     LITH    LITH_v2  
# ...
3489.3504    8.5000    8.5703   76.8125   11.7337    8.3906   52.7188   24.0911 -999.0000    2.7852   -0.0049    0.2139    9.5703   23.0000   23.0000 
3489.5028    8.5000    8.5469   80.1875   11.2003    7.8906   15.6016    4.9310 -999.0000    2.8438   -0.0098    0.2095    6.6133   23.0000   23.0000 
3489.6552    8.5000    8.5078   76.1875   10.0498    7.5547    8.0859    3.7188 -999.0000    2.7305    0.0005    0.1973    4.5664   23.0000   23.0000 
3489.8076    8.5000    8.5234   74.6250    8.3992    7.0039    5.4961    4.2956 -999.0000    2.5918    0.0068    0.1558    3.5859   37.0000   37.0000 
3489.9600    8.5000    8.5703   72.8125    6.8737    6.5000    4.8438    4.9531 -999.0000    2.5254    0.0166    0.1265    3.5215   37.0000   37.0000 
3490.1124    8.5000    8.5703   70.4375    6.3482    5.6523    5.0742    4.9141 -999.0000    2.5352    0.0142    0.1172    3.8379   37.0000   37.0000 
3490.2648    8.5000    8.5469   66.8750    5.5726    5.0117    5.6641    5.0430 -999.0000    2.5859    0.0117    0.1167    4.4883   37.0000   37.0000 
3490.4172    8.5000    8.5391   68.6875    5.5471    4.7891    5.6875    5.2747 -999.0000    2.6426    0.0068    0.1455    4.2031   37.0000   37.0000 
3490.5696    8.5000    8.5391   68.1875    5.1465    4.8516    5.4336    5.1836 -999.0000    2.6230    0.0010    0.1948    3.9492   37.0000   37.0000 
3490.7220    8.5000    8.4844   71.1250    5.2460    4.9453    5.3242    4.9792 -999.0000    2.5430   -0.0039    0.2324    3.3750   37.0000   37.0000 
3490.8744    8.5000    8.4844   68.3750    5.4392    4.9336    4.8086    4.9206 -999.0000    2.4414   -0.0029    0.2354    2.9551   37.0000   37.0000 
3491.0268    8.5000    8.4922   69.5000    5.4137    4.9180    5.2656    4.8542 -999.0000    2.3711   -0.0020    0.2222    2.7871   37.0000   36.0000 
3491.1792    8.5000    8.4844   66.6250    5.3881    4.9688    6.2422    4.8255 -999.0000    2.3555    0.0000    0.2158    2.8242   37.0000   36.0000 
3491.3316    8.5000    8.4922   66.1250    5.6125    5.1172    6.2813    4.8151 -999.0000    2.3672    0.0024    0.2178    3.0859   37.0000   36.0000 
3491.4840    8.5000    8.4844   65.4375    6.4308    5.4883    5.1523    4.8411 -999.0000    2.3906    0.0078    0.2217    3.1270   37.0000   36.0000 
3491.6364    8.5000    8.4844   69.4375    7.4052    5.8086    4.5586    4.8151 -999.0000    2.3906    0.0093    0.2266    3.0508   37.0000   36.0000 
3491.7888    8.5000    8.4844   69.8125    8.2547    5.7578    5.4219    4.7630 -999.0000    2.3672    0.0063    0.2300    3.0742   37.0000   36.0000 
3491.9412    8.5000    8.4844   71.6875    8.6979    5.6211    8.1250    4.7760 -999.0000    2.3359   -0.0005    0.2305    2.9297   37.0000   36.0000 
3492.0936    8.5000    8.4922   73.1250    8.0160    5.5781    9.6953    4.7695 -999.0000    2.3164    0.0000    0.2354    3.0645   37.0000   36.0000 
3492.2460    8.5000    8.4922   75.3125    7.1155    5.5039    7.9805    4.7904 -999.0000    2.3281    0.0020    0.2373    3.0898   37.0000   36.0000 
3492.3984    8.5000    8.4922   75.4375    6.9649    5.3125    6.2344    4.7891 -999.0000    2.3477    0.0073    0.2378    3.5293   37.0000   36.0000 
3492.5508    8.5000    8.4922   72.7500    7.3145    5.1250    5.7422    4.7539 -999.0000    2.3770    0.0137    0.2280    3.4629   37.0000   36.0000 
3492.7032    8.5000    8.4922   69.1875    7.0389    4.6484    6.1094    4.7721 -999.0000    2.3730    0.0117    0.2300    3.2109   37.0000   36.0000 
3492.8556    8.5000    8.4922   70.0000    6.5134    4.0781    6.2070    4.7839 -999.0000    2.3398    0.0034    0.2339    2.9746   37.0000   36.0000 
3493.0080    8.5000    8.4922   71.0625    5.9878    3.5410    5.7188    4.7565 -999.0000    2.3262    0.0010    0.2505    3.0059   37.0000   36.0000 
3493.1604    8.5000    8.4922   77.2500    6.1810    3.1836    4.7305    4.7956 -999.0000    2.3457    0.0029    0.2559    3.1797   37.0000   36.0000 
3493.3128    8.5000    8.4922   75.1875    6.5305    2.9121    3.8145    4.7734 -999.0000    2.4023    0.0044    0.2539    3.5195   37.0000   37.0000 
3493.4652    8.5000    8.5234   73.4375    5.8799    2.6953    2.9512    4.7747 -999.0000    2.4629    0.0034    0.2466    3.3613   37.0000   37.0000 
3493.6176    8.5000    8.6016   67.6250    5.4481    2.5332    2.3848    4.7656 -999.0000    2.4727    0.0020    0.2397    3.3652   37.0000   37.0000 
3493.7700    8.5000    8.6797   68.3750    4.9226    2.3711    2.2188    4.7669 -999.0000    2.4766    0.0127    0.2446    3.2070   37.0000   37.0000 
3493.9224    8.5000    8.7031   66.9375    5.1470    2.2441    2.4219    4.7539 -999.0000    2.4551    0.0151    0.2354    3.1660   37.0000   37.0000 
3494.0748    8.5000    8.6875   69.1250    5.3402    2.1250    2.8477    4.8073 -999.0000    2.4570    0.0142    0.2397    2.7988   37.0000   37.0000 
3494.2272    8.5000    8.6875   70.0000    5.4397    2.1133    3.0371    4.7734 -999.0000    2.3750    0.0059    0.2271    2.5605   37.0000   37.0000 
3494.3796    8.5000    8.6641   73.0625    4.9142    2.1211    3.0508    4.7630 -999.0000    2.2109    0.0063    0.2295    2.4688   37.0000   37.0000 
3494.5320    8.5000    8.7266   73.8125    4.1073    2.1172    3.0547    4.7591 -999.0000    2.1465    0.0249    0.2275    2.5000   37.0000   37.0000 
3494.6844    8.5000    8.6797   73.8125    3.3318    2.1211    3.1484    4.8047 -999.0000    2.1914    0.0483    0.2432    2.7188   37.0000   37.0000 
3494.8368    8.5000    8.6484   73.8125    2.5562    2.1406    2.7969    4.9648 -999.0000    2.3223    0.0386    0.2617    3.0195   37.0000   37.0000 
3494.9892    8.5000    8.5859   73.8125    2.0307    2.2383    2.3555    4.9883 -999.0000    2.4316    0.0332    0.2568    3.1406   37.0000   37.0000 
3495.1416    8.5000    8.6094   73.8125    1.7552    2.4121    2.2324    4.9883 -999.0000    2.4297    0.0186    0.2520    3.1563   37.0000   37.0000 
3495.2940    8.5000    8.6875   73.8125    1.1983    2.6191    2.6250    4.9883 -999.0000    2.4648    0.0498    0.2422    3.0313   37.0000   37.0000 
3495.4464    8.5000    8.6797   73.8125    0.6728    2.8945    3.2500    4.9883 -999.0000    2.4824    0.0483    0.2490    3.1406   37.0000   37.0000 
3495.5988    8.5000    8.6719   73.8125    0.5223    3.2031    4.1094    4.9883 -999.0000    2.5391    0.0483    0.2412    3.1641   37.0000   37.0000 
3495.7512    8.5000    8.6641   73.8125    1.1217    3.5234    5.5469    4.9883 -999.0000    2.5410    0.0103    0.2446    3.1777   37.0000   37.0000 
3495.9036    8.5000    8.5938   73.8125    1.8462    3.8770    6.7578    4.9883 -999.0000    2.5332    0.0127    0.2393    2.9238   37.0000   37.0000 
3496.0560    8.5000    8.6484   73.8125    2.6956    4.2461    6.2695    4.9883 -999.0000    2.4980    0.0122    0.2329    2.7832   37.0000   37.0000 
3496.2084    8.5000    8.6484 -999.0000    3.1389    4.4883    5.0469    4.9883 -999.0000    2.4824    0.0244    0.2285    2.8145   37.0000   37.0000 
3496.3608    8.5000    8.6484 -999.0000    3.5742    4.3945    4.6367    4.9883 -999.0000    2.4844    0.0117    0.2295    2.8145   37.0000   37.0000 
3496.5132    8.5000    8.6484 -999.0000    3.0409    4.3008    4.4570    4.9883 -999.0000    2.4785    0.0049    0.2407    2.8887   37.0000   37.0000 
3496.6656    8.5000    8.6094 -999.0000    2.3825    4.2148    4.5352 -999.0000 -999.0000    2.4805   -0.0015    0.2388    2.6973 -999.0000 -999.0000 
3496.8180    8.5000    8.6484 -999.0000    2.0992    4.1328    4.7188 -999.0000 -999.0000    2.4746   -0.0020    0.2383    2.6270 -999.0000 -999.0000 
3496.9704    8.5000    8.6484 -999.0000    2.5658    4.0664    5.0547 -999.0000 -999.0000    2.4570   -0.0049    0.2344    2.5527 -999.0000 -999.0000 
3497.1228    8.5000    8.6484 -999.0000    3.7824    4.0469    5.3867 -999.0000 -999.0000    2.4492   -0.0015    0.2339    2.4980 -999.0000 -999.0000 
3497.2752    8.5000    8.6484 -999.0000    4.6241    4.0078    5.5898 -999.0000 -999.0000    2.4434   -0.0039    0.2339    2.5234 -999.0000 -999.0000 
