~VERSION INFORMATION
 VERS.                 2.0:   CWLS LOG ASCII STANDARD - VERSION 2.0
 WRAP.                  NO:   SINGLE LINE PER DEPTH STEP
 CREA.                 01/02/2018 09:37:14
#CREATED USING DSPetro VERSION 5000.10.1.3 BY H191660 ON 01/02/2018 09:37:14
~WELL INFORMATION
#MNEM.UNIT       DATA                          DESCRIPTION MNEMONIC
#---------      ---------------------------   --------------------------
 STRT    .M         0.0000                    : START DEPTH
 STOP    .M         3599.9928                 : STOP DEPTH
 STEP    .M         0.1524                    : STEP VALUE
 NULL    .      -999.0000                     : NULL VALUE
 DATE    .      01/02/2018                    : LAS file Creation Date
 WELL .      2881_Sirius-1-ESSO          : Well Name
 COMP .      Neftex Exploration Insights : Company
 FLD  .      SIRIUS (ESSO)               : Field
 UWI  .      ZAUWL_005217                : Unique Well Identifier (UWI)
 LOC  .                                  : Location
 RWS  .      0                           : Def_Rw
 WST  .      0                           : Def_Rwt
 MDEC .      0                           : Magnetic Declination
 SRVC .      SCH                         : Contractor
~CURVE INFORMATION
#MNEM              UNIT       API CODE   Curve Type Comments
#----------  --------------- ----------  ---------- -----------
 DEPTH      .M                         : Depth       
 BitSize    .in                        : BitSize     
 CAL_INCH   .inch                      : caliper     Caliper Log - A representation of the measured diameter of a borehole along its depth
 GR_API     .API                       : gammaRay    Gamma Ray (API) - Measures the intensity of natural gamma-ray radiation emitted from formations containing radioactive elements, such as K, Th and U
 SP_MV      .mv                        : SP          Spontaneous Potential - Records the electrical potential produced by the interaction of formation water, conductive drilling mud, and certain ion-sele
 ILD_OHMM   .ohmm                      : deepRes     Deep Induction Resistivity - Measurement made an induction log, made several feet into the formation
 SFLU_OHMM  .ohmm                      : shalRes     Shallow Spherically Focused Resistivity - A shallow resistivty measurement derived from the the Phasor Dual Induction - SFR tool
 MSFL_OHMM  .ohmm                      : microRes    Micro-Spherically Focused Log - Measurement involves only the first few inches of the formation immediately adjacent to the borehole
 DT_US_FT   .us/ft                     : sonic       Interval Transit Time: Compressional Wave - Evaluates the time it takes for a compressional wave to traverse a fixed distance
 RHOB_G_CC  .g/cc                      : density     Bulk Density - Measures the density of bulk material, including any void space or other materials contained in the subject volume
 DRHO_G_CC  .g/cc                      : drho        Density Correction - Investigates the correction to the Bulk Density log; used as an indication of hole condition to validate the Bulk Density measure
 NPHI_v_v   .dec                       : Neutron     
 PEF_B_E    .b/e-                      : PEF         Photoelectric Factor - A log of photoelectric absorption properties. Often expressed in an approximation unit barns/electron (b/e-)
 LITH       .                          : LITH        Lithology Curve
 LITH_v2    .                          : LITH        Lithology Curve
~A  DEPTH  BitSize   CAL_INCH   GR_API    SP_MV    ILD_OHMM SFLU_OHM  MSFL_OHM   DT_US_FT RHOB_G_C  DRHO_G_C   NPHI_v_v  PEF_B_E     LITH    LITH_v2  
# ...
2471.6232   12.2500   12.3359  100.0000   -4.0215    0.8770    1.1631    2.1029  114.5625 -999.0000 -999.0000    0.3540 -999.0000 -999.0000 -999.0000 
2471.7756   12.2500   12.3359   96.3750   -4.6848    0.9180    1.0830    2.0716  115.5625 -999.0000 -999.0000    0.3530 -999.0000 -999.0000 -999.0000 
2471.9280   12.2500   12.3125   92.1250   -4.5981    0.9746    1.0127    2.4564  115.5625 -999.0000 -999.0000    0.3701 -999.0000 -999.0000 -999.0000 
2472.0804   12.2500   12.3125   90.2500   -4.3864    1.0254    1.0918    2.3932  113.5625 -999.0000 -999.0000    0.3472 -999.0000 -999.0000 -999.0000 
2472.2328   12.2500   12.3125   89.8750   -5.2997    1.0850    1.2227    2.7109  109.5625 -999.0000 -999.0000    0.3384 -999.0000 -999.0000 -999.0000 
2472.3852   12.2500   12.3125   88.2500   -5.3381    1.1582    1.2822    2.8743  106.5625 -999.0000 -999.0000    0.3237 -999.0000 -999.0000 -999.0000 
2472.5376   12.2500   12.3047   92.6250   -5.0014    1.1963    1.3320    2.6178  101.1875 -999.0000 -999.0000    0.3267 -999.0000 -999.0000 -999.0000 
2472.6900   12.2500   12.3047   90.8125   -4.1647    1.2012    1.4961    2.8743   95.7500 -999.0000 -999.0000    0.3013 -999.0000 -999.0000 -999.0000 
2472.8424   12.2500   12.3125   93.6875   -3.2030    1.1885    1.6445    4.1159   95.1875 -999.0000 -999.0000    0.2793 -999.0000 -999.0000 -999.0000 
2472.9948   12.2500   12.3359   93.6875   -2.1163    1.1641    1.5322    4.0228   96.7500 -999.0000 -999.0000    0.2754 -999.0000 -999.0000 -999.0000 
2473.1472   12.2500   12.3438  101.3750   -1.1547    1.1367    1.2861    2.8105  100.0000 -999.0000 -999.0000    0.2954 -999.0000 -999.0000 -999.0000 
2473.2996   12.2500   12.3516  103.0000   -0.9430    1.1094    1.1494    2.4779  104.0000 -999.0000 -999.0000    0.3164 -999.0000 -999.0000 -999.0000 
2473.4520   12.2500   12.3438  100.1875   -1.2313    1.0703    1.1074    2.3457  105.3750 -999.0000 -999.0000    0.3252 -999.0000 -999.0000 -999.0000 
2473.6044   12.2500   12.3516   96.7500   -1.3946    1.0225    1.1201    2.3236  106.0000 -999.0000 -999.0000    0.3047 -999.0000 -999.0000 -999.0000 
2473.7568   12.2500   12.3516   96.1250   -1.4329    0.9814    1.1348    2.3620  105.3750 -999.0000 -999.0000    0.2910 -999.0000 -999.0000 -999.0000 
2473.9092   12.2500   12.3516  100.3750   -2.0962    0.9507    1.1270    2.3053  105.7500 -999.0000 -999.0000    0.2983 -999.0000 -999.0000 -999.0000 
2474.0616   12.2500   12.3516  104.1250   -1.7596    0.9282    1.1162    2.2402  107.3750 -999.0000 -999.0000    0.3105 -999.0000 -999.0000 -999.0000 
2474.2140   12.2500   12.3516  106.2500   -3.0479    0.9116    1.0986    2.2552  107.3750 -999.0000 -999.0000    0.3164 -999.0000 -999.0000 -999.0000 
2474.3664   12.2500   12.3438  108.9375   -3.9612    0.9043    1.0801    2.2083  109.0000 -999.0000 -999.0000    0.3203 -999.0000 -999.0000 -999.0000 
2474.5188   12.2500   12.3516  109.3125   -4.3745    0.9014    1.0527    2.1309  108.7500 -999.0000 -999.0000    0.3213 -999.0000 -999.0000 -999.0000 
2474.6712   12.2500   12.3516  110.7500   -4.1628    0.8999    1.0527    2.2279  108.0000 -999.0000 -999.0000    0.3320 -999.0000 -999.0000 -999.0000 
2474.8236   12.2500   12.3516  111.1875   -3.4512    0.8960    1.0713    2.1784  107.5625 -999.0000 -999.0000    0.3218 -999.0000 -999.0000 -999.0000 
2474.9760   12.2500   12.3516  113.4375   -2.9895    0.8950    1.0771    2.2604  108.1875 -999.0000 -999.0000    0.3633 -999.0000 -999.0000 -999.0000 
2475.1284   12.2500   12.3516  118.3750   -2.7778    0.8970    1.0830    2.2767  108.0000 -999.0000 -999.0000    0.3535 -999.0000 -999.0000 -999.0000 
2475.2808   12.2500   12.3516  119.8750   -3.6911    0.8994    1.1182    2.3971  107.3750 -999.0000 -999.0000    0.3652 -999.0000 -999.0000 -999.0000 
2475.4332   12.2500   12.3516  116.1250   -4.1044    0.9004    1.2051    2.5104  106.1875 -999.0000 -999.0000    0.3154 -999.0000 -999.0000 -999.0000 
2475.5856   12.2500   12.3516  107.8125   -4.2678    0.9102    1.2363    2.4036  104.1875 -999.0000 -999.0000    0.3271 -999.0000 -999.0000 -999.0000 
2475.7380   12.2500   12.3672   99.9375   -4.0561    0.9346    1.1504    2.2467  108.3750 -999.0000 -999.0000    0.3354 -999.0000 -999.0000 -999.0000 
2475.8904   12.2500   12.3672   95.7500   -3.4694    0.9775    1.0957    2.2305  104.7500 -999.0000 -999.0000    0.3721 -999.0000 -999.0000 -999.0000 
2476.0428   12.2500   12.3672   96.5000   -3.3827    1.0400    1.0732    2.2656  103.7500 -999.0000 -999.0000    0.3506 -999.0000 -999.0000 -999.0000 
2476.1952   12.2500   12.3672   93.8750   -3.5460    1.1348    1.0771    2.4297  102.1875 -999.0000 -999.0000    0.3286 -999.0000 -999.0000 -999.0000 
2476.3476   12.2500   12.3828   89.3125   -3.4593    1.2598    1.1035    2.7878   97.5625 -999.0000 -999.0000    0.2915 -999.0000 -999.0000 -999.0000 
2476.5000   12.2500   12.4063   83.0000   -2.3727    1.4063    1.2090    3.2188   87.1875 -999.0000 -999.0000    0.2759 -999.0000 -999.0000 -999.0000 
2476.6524   12.2500   12.4766   77.7500   -1.9110    1.5889    1.5127    5.3548   72.3750 -999.0000 -999.0000    0.2202 -999.0000 -999.0000 -999.0000 
2476.8048   12.2500   12.5469   75.8750   -1.5743    1.8799    2.4004  178.5938   62.7813 -999.0000 -999.0000    0.1543 -999.0000 -999.0000 -999.0000 
2476.9572   12.2500   12.5313   72.0000   -1.6126    2.2813    6.1445  683.1665   52.7813 -999.0000 -999.0000    0.0972 -999.0000 -999.0000 -999.0000 
2477.1096   12.2500   12.5313   72.0000   -0.6509    2.7734   27.0000  441.1665   51.1875 -999.0000 -999.0000    0.0840 -999.0000 -999.0000 -999.0000 
2477.2620   12.2500   12.6016   74.7500   -0.8143    3.1211  230.6250  205.3750   53.7813 -999.0000 -999.0000    0.0825 -999.0000 -999.0000 -999.0000 
2477.4144   12.2500   12.6719   77.2500   -1.6026    3.1465 2000.0000  184.0625   58.0000 -999.0000 -999.0000    0.0942 -999.0000 -999.0000 -999.0000 
2477.5668   12.2500   12.5859   81.9375   -1.8909    2.8965 2000.0000   41.9219   63.3750 -999.0000 -999.0000    0.1074 -999.0000 -999.0000 -999.0000 
2477.7192   12.2500   12.4063   82.6875   -1.9292    2.5273   24.9531   32.2448   73.5625 -999.0000 -999.0000    0.1528 -999.0000 -999.0000 -999.0000 
2477.8716   12.2500   12.3984   90.8125   -2.8425    2.2598    4.5313    8.1862   84.1875 -999.0000 -999.0000    0.2305 -999.0000 -999.0000 -999.0000 
2478.0240   12.2500   12.4063   91.3125   -3.3808    2.1191    2.1094    3.7233   94.5625 -999.0000 -999.0000    0.2979 -999.0000 -999.0000 -999.0000 
2478.1764   12.2500   12.4219   90.8125   -3.1692    2.0840    1.6729    3.0254  100.1875 -999.0000 -999.0000    0.3320 -999.0000 -999.0000 -999.0000 
2478.3288   12.2500   12.4609   85.8750   -3.4575    2.0938    1.8145    3.0788   97.3750 -999.0000 -999.0000    0.2998 -999.0000 -999.0000 -999.0000 
2478.4812   12.2500   12.4922   86.8750   -3.8708    2.2070    2.2969    5.1094   90.3750 -999.0000 -999.0000    0.2715 -999.0000 -999.0000 -999.0000 
2478.6336   12.2500   12.5234   84.8750   -3.4091    2.4629    3.0391    6.7174   83.3750 -999.0000 -999.0000    0.2114 -999.0000 -999.0000 -999.0000 
2478.7860   12.2500   12.5547   86.3125   -2.9474    2.9043    4.1641    8.6589   77.3750 -999.0000 -999.0000    0.1494 -999.0000 -999.0000 -999.0000 
2478.9384   12.2500   12.5703   81.0625   -1.2358    3.6172    7.2461  107.4010   69.1875 -999.0000 -999.0000    0.0815 -999.0000 -999.0000 -999.0000 
2479.0908   12.2500   12.5703   79.5000   -1.1491    4.3789   19.0625  408.6665   64.7500 -999.0000 -999.0000    0.0557 -999.0000 -999.0000 -999.0000 
2479.2432   12.2500   12.5859   76.1875   -0.4374    4.7773   91.9375  322.5000   60.5938 -999.0000 -999.0000    0.0615 -999.0000 -999.0000 -999.0000 
2479.3956   12.2500   12.5313   82.1875    0.5243    4.7031   53.1250  170.7500   64.1875 -999.0000 -999.0000    0.0991 -999.0000 -999.0000 -999.0000 
2479.5480   12.2500   12.5156   92.2500    0.9864    4.3594   11.6797   28.0182   74.0000 -999.0000 -999.0000    0.1626 -999.0000 -999.0000 -999.0000 
