~VERSION INFORMATION
 VERS.                 2.0:   CWLS LOG ASCII STANDARD - VERSION 2.0
 WRAP.                  NO:   SINGLE LINE PER DEPTH STEP
 CREA.                 01/02/2018 09:37:14
#CREATED USING DSPetro VERSION 5000.10.1.3 BY H191660 ON 01/02/2018 09:37:14
~WELL INFORMATION
#MNEM.UNIT       DATA                          DESCRIPTION MNEMONIC
#---------      ---------------------------   --------------------------
 STRT    .M         0.0000                    : START DEPTH
 STOP    .M         3599.9928                 : STOP DEPTH
 STEP    .M         0.1524                    : STEP VALUE
 NULL    .      -999.0000                     : NULL VALUE
 DATE    .      01/02/2018                    : LAS file Creation Date
 WELL .      2881_Sirius-1-ESSO          : Well Name
 COMP .      Neftex Exploration Insights : Company
 FLD  .      SIRIUS (ESSO)               : Field
 UWI  .      ZAUWL_005217                : Unique Well Identifier (UWI)
 LOC  .                                  : Location
 RWS  .      0                           : Def_Rw
 WST  .      0                           : Def_Rwt
 MDEC .      0                           : Magnetic Declination
 SRVC .      SCH                         : Contractor
~CURVE INFORMATION
#MNEM              UNIT       API CODE   Curve Type Comments
#----------  --------------- ----------  ---------- -----------
 DEPTH      .M                         : Depth       
 BitSize    .in                        : BitSize     
 CAL_INCH   .inch                      : caliper     Caliper Log - A representation of the measured diameter of a borehole along its depth
 GR_API     .API                       : gammaRay    Gamma Ray (API) - Measures the intensity of natural gamma-ray radiation emitted from formations containing radioactive elements, such as K, Th and U
 SP_MV      .mv                        : SP          Spontaneous Potential - Records the electrical potential produced by the interaction of formation water, conductive drilling mud, and certain ion-sele
 ILD_OHMM   .ohmm                      : deepRes     Deep Induction Resistivity - Measurement made an induction log, made several feet into the formation
 SFLU_OHMM  .ohmm                      : shalRes     Shallow Spherically Focused Resistivity - A shallow resistivty measurement derived from the the Phasor Dual Induction - SFR tool
 MSFL_OHMM  .ohmm                      : microRes    Micro-Spherically Focused Log - Measurement involves only the first few inches of the formation immediately adjacent to the borehole
 DT_US_FT   .us/ft                     : sonic       Interval Transit Time: Compressional Wave - Evaluates the time it takes for a compressional wave to traverse a fixed distance
 RHOB_G_CC  .g/cc                      : density     Bulk Density - Measures the density of bulk material, including any void space or other materials contained in the subject volume
 DRHO_G_CC  .g/cc                      : drho        Density Correction - Investigates the correction to the Bulk Density log; used as an indication of hole condition to validate the Bulk Density measure
 NPHI_v_v   .dec                       : Neutron     
 PEF_B_E    .b/e-                      : PEF         Photoelectric Factor - A log of photoelectric absorption properties. Often expressed in an approximation unit barns/electron (b/e-)
 LITH       .                          : LITH        Lithology Curve
 LITH_v2    .                          : LITH        Lithology Curve
~A  DEPTH  BitSize   CAL_INCH   GR_API    SP_MV    ILD_OHMM SFLU_OHM  MSFL_OHM   DT_US_FT RHOB_G_C  DRHO_G_C   NPHI_v_v  PEF_B_E     LITH    LITH_v2  
# ...
2980.4868    8.5000    8.7344  115.1250    0.1635    2.4023    3.1660    6.1016   95.5625    2.6152    0.0117    0.3325    4.4102   22.0000   37.0000 
2980.6392    8.5000    8.7344  119.8125    0.2759    2.3789    3.0430    5.4766   95.3750    2.5625    0.0029    0.3457    3.6367   22.0000   37.0000 
2980.7916    8.5000    8.7578  114.9375    0.2633    2.3457    3.0391    5.0755   95.5625    2.5527    0.0112    0.3657    3.4863   22.0000   37.0000 
2980.9440    8.5000    8.7578  111.2500    0.6569    2.3340    3.0938    5.1602   95.3750    2.4980    0.0029    0.3691    3.4043   22.0000   37.0000 
2981.0964    8.5000    8.7578  110.1875    0.3943    2.3418    3.0566    5.0352   95.5625    2.5176    0.0088    0.3716    3.5410   22.0000   37.0000 
2981.2488    8.5000    8.7578  113.9375    0.0067    2.3711    3.0059    5.0352   95.3750    2.5352    0.0063    0.3916    3.6445   22.0000   37.0000 
2981.4012    8.5000    8.7578  115.2500   -1.1309    2.4199    3.0664    4.9336   94.1875    2.5410   -0.0005    0.4023    3.5430   22.0000   37.0000 
2981.5536    8.5000    8.7578  107.6875   -0.8936    2.4746    3.2324    5.4388   94.0000    2.5313   -0.0034    0.3921    3.8301   22.0000   37.0000 
2981.7060    8.5000    8.7578  103.3750   -1.0312    2.5117    3.2930    5.3620   92.3750    2.5352   -0.0107    0.3711    3.6426   22.0000   37.0000 
2981.8584    8.5000    8.7578   97.8125   -0.7938    2.5293    3.4375    5.4779   91.7500    2.5547   -0.0049    0.3560    3.7500   22.0000   37.0000 
2982.0108    8.5000    8.7578   99.3125   -0.1814    2.5254    3.5957    6.1484   91.3750    2.5645   -0.0044    0.3481    3.5625   22.0000   37.0000 
2982.1632    8.5000    8.7656   97.3125    0.0560    2.4941    3.7051    6.8034   91.0000    2.5488    0.0000    0.3369    3.8633   22.0000   37.0000 
2982.3156    8.5000    8.7578   98.6875    0.2933    2.4746    3.5293    5.8125   91.7500    2.5566    0.0005    0.3408    4.2344   22.0000   37.0000 
2982.4680    8.5000    8.7578   99.2500    0.6557    2.4707    3.2891    5.2630   94.3750    2.5527    0.0020    0.3433    3.8906   22.0000   37.0000 
2982.6204    8.5000    8.7578  104.8750    0.8931    2.4727    3.0625    4.7201   96.0000    2.5332    0.0010    0.3457    3.8047   22.0000   37.0000 
2982.7728    8.5000    8.7656  112.0000    1.0055    2.4766    2.9160    5.0234   96.3750    2.5078    0.0010    0.3638    3.2520   22.0000   37.0000 
2982.9252    8.5000    8.7734  116.5000    0.4929    2.4824    2.9180    5.3802   95.7500    2.4941    0.0029    0.3682    2.9844   22.0000   37.0000 
2983.0776    8.5000    8.7891  117.8750    0.2302    2.4961    3.0195    5.8164   94.1875    2.4863    0.0000    0.3867    2.8242   22.0000   37.0000 
2983.2300    8.5000    8.7891  109.3750    0.3426    2.5059    3.2227    6.1354   92.5625    2.4922   -0.0015    0.3604    2.9844   22.0000   37.0000 
2983.3824    8.5000    8.7891  108.6875    0.1112    2.5215    3.4707    6.3060   90.5625    2.5078    0.0005    0.3506    3.3047   22.0000   37.0000 
2983.5348    8.5000    8.7891  105.2500   -0.2764    2.5313    3.7051    6.4714   89.5625    2.5293   -0.0005    0.3291    3.4180   22.0000   37.0000 
2983.6872    8.5000    8.7891  106.3750   -0.9141    2.5488    3.8125    6.4740   90.7500    2.5605    0.0039    0.3457    3.6152   22.0000   37.0000 
2983.8396    8.5000    8.7891  104.8125   -1.0517    2.5664    3.6719    5.7734   92.0000    2.5840    0.0063    0.3447    3.6523   22.0000   37.0000 
2983.9920    8.5000    8.7891  104.6250   -1.5643    2.5801    3.3477    5.3490   93.5625    2.5918    0.0127    0.3457    3.4707   22.0000   37.0000 
2984.1444    8.5000    8.7891  109.7500   -1.8269    2.6035    3.0664    5.3620   94.1875    2.5664    0.0068    0.3340    3.3672   22.0000   37.0000 
2984.2968    8.5000    8.7891  106.6875   -2.7146    2.6289    2.9707    5.3867   93.7500    2.5254   -0.0024    0.3555    3.3223   22.0000   37.0000 
2984.4492    8.5000    8.7891  103.6250   -2.9772    2.6348    3.0996    5.6979   92.7500    2.5195   -0.0015    0.3589    3.4258   22.0000   37.0000 
2984.6016    8.5000    8.7891  101.9375   -2.7398    2.6484    3.4043    6.1458   91.1875    2.5215   -0.0020    0.3604    3.3418   22.0000   37.0000 
2984.7540    8.5000    8.7891  104.5625   -1.6274    2.6543    3.7168    6.8411   90.0000    2.5313   -0.0020    0.3296    3.4023   22.0000   37.0000 
2984.9064    8.5000    8.7891  103.8125   -0.7650    2.6367    4.0117    6.3255   88.1875    2.5371    0.0010    0.3252    3.7324   22.0000   37.0000 
2985.0588    8.5000    8.7969  101.9375   -0.2777    2.6094    4.1133    6.4740   87.5625    2.5664    0.0112    0.3140    3.9160   22.0000   22.0000 
2985.2112    8.5000    8.8125  101.6875   -0.0403    2.5645    3.8867    6.4974   89.5625    2.5801    0.0142    0.3169    4.1133   22.0000   37.0000 
2985.3636    8.5000    8.7969  107.5625   -0.0529    2.4961    3.4199    5.4870   91.0000    2.5977    0.0117    0.3135    3.8848   22.0000   37.0000 
2985.5160    8.5000    8.7891  109.1250    0.1845    2.4160    2.9844    4.8320   94.1875    2.5684    0.0029    0.3291    3.7617   22.0000   37.0000 
2985.6684    8.5000    8.7578  110.3125    0.2032    2.3496    2.7285    4.5521   95.5625    2.5488   -0.0010    0.3584    3.6680   22.0000   37.0000 
2985.8208    8.5000    8.7656  108.2500    0.5342    2.3105    2.6445    4.1628   96.7500    2.5293   -0.0005    0.3760    3.7891   22.0000   37.0000 
2985.9732    8.5000    8.7891  113.5000    0.3966    2.3203    2.6484    4.0716   97.1875    2.5293    0.0068    0.3750    3.7793   22.0000   37.0000 
2986.1256    8.5000    8.8203  116.5000    0.2840    2.3652    2.7813    4.4961   96.1875    2.5234    0.0146    0.3682    3.4609   22.0000   37.0000 
2986.2780    8.5000    8.8516  114.0625    0.2464    2.4258    3.1016    4.9896   94.1875    2.5254    0.0249    0.3604    3.3242   22.0000   37.0000 
2986.4304    8.5000    8.8516  105.8125    0.2337    2.4883    3.4805    5.5534   91.5625    2.5195    0.0146    0.3530    3.4707   22.0000   37.0000 
2986.5828    8.5000    8.8516   98.6250    0.0961    2.5410    3.7656    5.8125   89.3750    2.5391    0.0083    0.3618    3.6953   22.0000   37.0000 
2986.7352    8.5000    8.8516   96.3125    0.0835    2.5840    3.9102    6.0417   89.0000    2.5508    0.0010    0.3452    3.7773   22.0000   37.0000 
2986.8876    8.5000    8.8516   98.1875    0.0709    2.6133    3.9063    5.4479   89.0000    2.5645   -0.0039    0.3433    3.8184   22.0000   37.0000 
2987.0400    8.5000    8.8516  103.5000   -0.1917    2.6309    3.7891    5.7044   90.3750    2.5762   -0.0029    0.3311    3.9551   22.0000   37.0000 
2987.1924    8.5000    8.8516  110.8125   -0.7044    2.6270    3.5684    5.2852   92.1875    2.5527   -0.0078    0.3438    3.9180   22.0000   37.0000 
2987.3448    8.5000    8.8516  114.5000   -0.8420    2.6016    3.2734    4.9427   94.5625    2.5469   -0.0073    0.3579    3.8398   22.0000   37.0000 
2987.4972    8.5000    8.8594  113.8750   -0.8546    2.5469    3.0566    4.6745   94.1875    2.5254   -0.0068    0.3594    4.0000   22.0000   37.0000 
2987.6496    8.5000    8.8672  116.0625   -0.6172    2.4824    3.0137    5.0924   93.5625    2.5273   -0.0039    0.3594    4.0859   22.0000   37.0000 
2987.8020    8.5000    8.8672  108.8750   -0.2549    2.4277    3.1113    5.5586   92.5625    2.5098   -0.0039    0.3643    4.3398   22.0000   37.0000 
2987.9544    8.5000    8.8672  107.3750    0.2325    2.4063    3.1895    5.2383   92.3750    2.5254   -0.0049    0.3516    4.2109   22.0000   37.0000 
2988.1068    8.5000    8.8438  103.0625    0.5949    2.4316    3.1250    5.0130   93.5625    2.5527   -0.0024    0.3691    4.1289   22.0000   37.0000 
2988.2592    8.5000    8.8438  107.6250    0.3323    2.4785    3.0098    4.6159   94.7500    2.5586   -0.0020    0.3506    3.9121   22.0000   37.0000 
2988.4116    8.5000    8.8438  102.6875    0.1947    2.4980    3.0391    4.6107   92.5625    2.5410   -0.0063    0.3647    3.8457   22.0000   37.0000 
