~VERSION INFORMATION
 VERS.                 2.0:   CWLS LOG ASCII STANDARD - VERSION 2.0
 WRAP.                  NO:   SINGLE LINE PER DEPTH STEP
 CREA.                 01/02/2018 09:37:14
#CREATED USING DSPetro VERSION 5000.10.1.3 BY H191660 ON 01/02/2018 09:37:14
~WELL INFORMATION
#MNEM.UNIT       DATA                          DESCRIPTION MNEMONIC
#---------      ---------------------------   --------------------------
 STRT    .M         0.0000                    : START DEPTH
 STOP    .M         3599.9928                 : STOP DEPTH
 STEP    .M         0.1524                    : STEP VALUE
 NULL    .      -999.0000                     : NULL VALUE
 DATE    .      01/02/2018                    : LAS file Creation Date
 WELL .      2881_Sirius-1-ESSO          : Well Name
 COMP .      Neftex Exploration Insights : Company
 FLD  .      SIRIUS (ESSO)               : Field
 UWI  .      ZAUWL_005217                : Unique Well Identifier (UWI)
 LOC  .                                  : Location
 RWS  .      0                           : Def_Rw
 WST  .      0                           : Def_Rwt
 MDEC .      0                           : Magnetic Declination
 SRVC .      SCH                         : Contractor
~CURVE INFORMATION
#MNEM              UNIT       API CODE   Curve Type Comments
#----------  --------------- ----------  ---------- -----------
 DEPTH      .M                         : Depth       
 BitSize    .in                        : BitSize     
 CAL_INCH   .inch                      : caliper     Caliper Log - A representation of the measured diameter of a borehole along its depth
 GR_API     .API                       : gammaRay    Gamma Ray (API) - Measures the intensity of natural gamma-ray radiation emitted from formations containing radioactive elements, such as K, Th and U
 SP_MV      .mv                        : SP          Spontaneous Potential - Records the electrical potential produced by the interaction of formation water, conductive drilling mud, and certain ion-sele
 ILD_OHMM   .ohmm                      : deepRes     Deep Induction Resistivity - Measurement made an induction log, made several feet into the formation
 SFLU_OHMM  .ohmm                      : shalRes     Shallow Spherically Focused Resistivity - A shallow resistivty measurement derived from the the Phasor Dual Induction - SFR tool
 MSFL_OHMM  .ohmm                      : microRes    Micro-Spherically Focused Log - Measurement involves only the first few inches of the formation immediately adjacent to the borehole
 DT_US_FT   .us/ft                     : sonic       Interval Transit Time: Compressional Wave - Evaluates the time it takes for a compressional wave to traverse a fixed distance
 RHOB_G_CC  .g/cc                      : density     Bulk Density - Measures the density of bulk material, including any void space or other materials contained in the subject volume
 DRHO_G_CC  .g/cc                      : drho        Density Correction - Investigates the correction to the Bulk Density log; used as an indication of hole condition to validate the Bulk Density measure
 NPHI_v_v   .dec                       : Neutron     
 PEF_B_E    .b/e-                      : PEF         Photoelectric Factor - A log of photoelectric absorption properties. Often expressed in an approximation unit barns/electron (b/e-)
 LITH       .                          : LITH        Lithology Curve
 LITH_v2    .                          : LITH        Lithology Curve
~A  DEPTH  BitSize   CAL_INCH   GR_API    SP_MV    ILD_OHMM SFLU_OHM  MSFL_OHM   DT_US_FT RHOB_G_C  DRHO_G_C   NPHI_v_v  PEF_B_E     LITH    LITH_v2  
# ...
2722.0164   12.2500   12.5547  132.8750   -0.7285    2.3047    2.7168    4.5000  105.5625 -999.0000 -999.0000    0.4404 -999.0000 -999.0000 -999.0000 
2722.1688   12.2500   12.5938  119.6250   -1.2436    2.3398    2.6816    5.0195  105.0000 -999.0000 -999.0000    0.4224 -999.0000 -999.0000 -999.0000 
2722.3212   12.2500   12.5703  120.6875   -0.5713    2.3320    2.6797    4.2057  105.1875 -999.0000 -999.0000    0.4170 -999.0000 -999.0000 -999.0000 
2722.4736   12.2500   12.5469  120.9375   -0.0239    2.3477    2.6426    4.5404  105.0000 -999.0000 -999.0000    0.4380 -999.0000 -999.0000 -999.0000 
2722.6260   12.2500   12.5469  126.0000    0.4609    2.3594    2.7148    4.1563  104.7500 -999.0000 -999.0000    0.4395 -999.0000 -999.0000 -999.0000 
2722.7784   12.2500   12.5625  124.8125    0.4458    2.3652    2.7773    4.3236  105.0000 -999.0000 -999.0000    0.4312 -999.0000 -999.0000 -999.0000 
2722.9308   12.2500   12.5938  127.1250    0.4307    2.3691    2.7871    4.6849  105.1875 -999.0000 -999.0000    0.4009 -999.0000 -999.0000 -999.0000 
2723.0832   12.2500   12.4922  130.5000    0.9155    2.3828    2.7559    4.3984  105.3750 -999.0000 -999.0000    0.3999 -999.0000 -999.0000 -999.0000 
2723.2356   12.2500   12.5469  123.0625    1.1504    2.4102    2.7070    4.3958  105.5625 -999.0000 -999.0000    0.4199 -999.0000 -999.0000 -999.0000 
2723.3880   12.2500   12.5547  123.6250    0.8852    2.4141    2.7207    4.1823  105.0000 -999.0000 -999.0000    0.4219 -999.0000 -999.0000 -999.0000 
2723.5404   12.2500   12.5625  120.5000    1.1201    2.4141    2.7832    4.3516  105.0000 -999.0000 -999.0000    0.4155 -999.0000 -999.0000 -999.0000 
2723.6928   12.2500   12.5625  126.2500    1.6049    2.4141    2.8730    4.6302  105.1875 -999.0000 -999.0000    0.4023 -999.0000 -999.0000 -999.0000 
2723.8452   12.2500   12.5625  123.3125    1.3398    2.4043    2.8789    4.3424  105.1875 -999.0000 -999.0000    0.3906 -999.0000 -999.0000 -999.0000 
2723.9976   12.2500   12.5469  125.3125    1.8246    2.3750    2.7969    4.3789  105.1875 -999.0000 -999.0000    0.3848 -999.0000 -999.0000 -999.0000 
2724.1500   12.2500   12.5234  127.4375    1.3095    2.3477    2.7461    4.4388  106.1875 -999.0000 -999.0000    0.3984 -999.0000 -999.0000 -999.0000 
2724.3024   12.2500   12.4531  128.7500    1.7943    2.3184    2.6699    4.2161  106.0000 -999.0000 -999.0000    0.4126 -999.0000 -999.0000 -999.0000 
2724.4548   12.2500   12.4922  125.9375    0.9667    2.2852    2.6172    4.2617  106.0000 -999.0000 -999.0000    0.4272 -999.0000 -999.0000 -999.0000 
2724.6072   12.2500   12.5078  123.6250    0.9515    2.2578    2.5488    4.1484  106.3750 -999.0000 -999.0000    0.4341 -999.0000 -999.0000 -999.0000 
2724.7596   12.2500   12.5703  119.5625    0.9364    2.2461    2.5234    2.7656  106.5625 -999.0000 -999.0000    0.4648 -999.0000 -999.0000 -999.0000 
2724.9120   12.2500   12.5938  120.6250    0.9213    2.2305    2.4531    3.1146  106.5625 -999.0000 -999.0000    0.4673 -999.0000 -999.0000 -999.0000 
2725.0644   12.2500   12.6016  118.6250    1.1561    2.2324    2.5273    4.3021  106.7500 -999.0000 -999.0000    0.4487 -999.0000 -999.0000 -999.0000 
2725.2168   12.2500   12.6172  124.3750    0.6410    2.2227    2.5840    4.4557  107.1875 -999.0000 -999.0000    0.3999 -999.0000 -999.0000 -999.0000 
2725.3692   12.2500   12.6016  127.1875    1.1258    2.2266    2.6797    4.3581  107.0000 -999.0000 -999.0000    0.4302 -999.0000 -999.0000 -999.0000 
2725.5216   12.2500   12.5625  128.5000    1.3607    2.2305    2.6777    4.4753  106.0000 -999.0000 -999.0000    0.4175 -999.0000 -999.0000 -999.0000 
2725.6740   12.2500   12.5859  122.6875    1.4080    2.2285    2.6660    4.7305  106.5625 -999.0000 -999.0000    0.4321 -999.0000 -999.0000 -999.0000 
2725.8264   12.2500   12.5938  116.1250   -0.3571    2.2402    2.6094    4.7331  106.3750 -999.0000 -999.0000    0.4126 -999.0000 -999.0000 -999.0000 
2725.9788   12.2500   12.5547  119.5000   -0.6223    2.2520    2.4863    4.6641  106.5625 -999.0000 -999.0000    0.4175 -999.0000 -999.0000 -999.0000 
2726.1312   12.2500   12.5938  126.2500   -0.6374    2.2480    2.4004    4.2435  106.5625 -999.0000 -999.0000    0.4287 -999.0000 -999.0000 -999.0000 
2726.2836   12.2500   12.6250  125.7500   -0.6526    2.2402    2.5293    4.1836  105.7500 -999.0000 -999.0000    0.4189 -999.0000 -999.0000 -999.0000 
2726.4360   12.2500   12.5547  123.2500   -0.1677    2.2168    2.6836    4.5534  104.7500 -999.0000 -999.0000    0.4321 -999.0000 -999.0000 -999.0000 
2726.5884   12.2500   12.5547  121.5000    0.5672    2.1895    2.7383    4.3581  104.7500 -999.0000 -999.0000    0.4170 -999.0000 -999.0000 -999.0000 
2726.7408   12.2500   12.5547  121.0000    0.0505    2.1738    2.6680    4.2448  106.0000 -999.0000 -999.0000    0.3994 -999.0000 -999.0000 -999.0000 
2726.8932   12.2500   12.5313  126.0625    0.2826    2.1484    2.5625    4.1354  105.5625 -999.0000 -999.0000    0.3911 -999.0000 -999.0000 -999.0000 
2727.0456   12.2500   12.4844  127.1875    0.7647    2.1191    2.4629    3.8665  106.7500 -999.0000 -999.0000    0.3970 -999.0000 -999.0000 -999.0000 
2727.1980   12.2500   12.4766  129.3750    1.7468    2.0859    2.3809    4.0039  106.7500 -999.0000 -999.0000    0.4097 -999.0000 -999.0000 -999.0000 
2727.3504   12.2500   12.4531  122.8125    2.2290    2.0430    2.3242    3.9603  106.1875 -999.0000 -999.0000    0.4224 -999.0000 -999.0000 -999.0000 
2727.5028   12.2500   12.4531  120.9375    2.4611    2.0098    2.1797    3.5234  106.5625 -999.0000 -999.0000    0.4263 -999.0000 -999.0000 -999.0000 
2727.6552   12.2500   12.4766  122.0000    3.1932    1.9717    2.1523    3.5449  106.5625 -999.0000 -999.0000    0.4292 -999.0000 -999.0000 -999.0000 
2727.8076   12.2500   12.5156  128.6250    2.9253    1.9287    2.2676    3.3717  106.7500 -999.0000 -999.0000    0.4253 -999.0000 -999.0000 -999.0000 
2727.9600   12.2500   12.5313  129.7500    3.4074    1.9102    2.3398    4.1256  106.3750 -999.0000 -999.0000    0.4146 -999.0000 -999.0000 -999.0000 
2728.1124   12.2500   12.5938  130.1250    3.6395    1.9141    2.2949    3.6263  107.3750 -999.0000 -999.0000    0.4131 -999.0000 -999.0000 -999.0000 
2728.2648   12.2500   12.5547  119.5625    3.3091    1.9160    2.1484    3.2292  107.7500 -999.0000 -999.0000    0.4346 -999.0000 -999.0000 -999.0000 
2728.4172   12.2500   12.5078  114.5000    3.2913    1.9316    2.0879    3.7617  107.7500 -999.0000 -999.0000    0.4346 -999.0000 -999.0000 -999.0000 
2728.5696   12.2500   12.4922  112.4375    4.0234    1.9385    2.1250    3.9206  108.3750 -999.0000 -999.0000    0.4360 -999.0000 -999.0000 -999.0000 
2728.7220   12.2500   12.5156  116.5000    3.7555    1.9199    2.2344    4.4063  108.7500 -999.0000 -999.0000    0.4019 -999.0000 -999.0000 -999.0000 
2728.8744   12.2500   12.4922  123.1250    2.9876    1.8965    2.3281    4.2539  108.7500 -999.0000 -999.0000    0.4087 -999.0000 -999.0000 -999.0000 
2729.0268   12.2500   12.4922  126.1875    2.9697    1.9063    2.3184    3.8600  108.7500 -999.0000 -999.0000    0.4067 -999.0000 -999.0000 -999.0000 
2729.1792   12.2500   12.5156  126.9375    2.4518    1.9209    2.2500    4.0612  108.7500 -999.0000 -999.0000    0.3940 -999.0000 -999.0000 -999.0000 
2729.3316   12.2500   12.5078  124.7500    1.7464    1.9287    2.2402    4.0885  109.0000 -999.0000 -999.0000    0.4146 -999.0000 -999.0000 -999.0000 
2729.4840   12.2500   12.5078  122.5625    1.2286    1.9521    2.1895    4.3659  108.5625 -999.0000 -999.0000    0.4375 -999.0000 -999.0000 -999.0000 
2729.6364   12.2500   12.4844  128.1250    0.9607    1.9668    2.1387    4.0938  108.5625 -999.0000 -999.0000    0.4639 -999.0000 -999.0000 -999.0000 
2729.7888   12.2500   12.4531  128.8750    0.6928    1.9756    2.1484    4.2891  108.5625 -999.0000 -999.0000    0.4604 -999.0000 -999.0000 -999.0000 
2729.9412   12.2500   12.4453  131.5000    0.4249    1.9854    2.2832    4.5521  108.3750 -999.0000 -999.0000    0.4512 -999.0000 -999.0000 -999.0000 
