~VERSION INFORMATION
 VERS.                 2.0:   CWLS LOG ASCII STANDARD - VERSION 2.0
 WRAP.                  NO:   SINGLE LINE PER DEPTH STEP
 CREA.                 01/02/2018 09:37:14
#CREATED USING DSPetro VERSION 5000.10.1.3 BY H191660 ON 01/02/2018 09:37:14
~WELL INFORMATION
#MNEM.UNIT       DATA                          DESCRIPTION MNEMONIC
#---------      ---------------------------   --------------------------
 STRT    .M         0.0000                    : START DEPTH
 STOP    .M         3599.9928                 : STOP DEPTH
 STEP    .M         0.1524                    : STEP VALUE
 NULL    .      -999.0000                     : NULL VALUE
 DATE    .      01/02/2018                    : LAS file Creation Date
 WELL .      2881_Sirius-1-ESSO          : Well Name
 COMP .      Neftex Exploration Insights : Company
 FLD  .      SIRIUS (ESSO)               : Field
 UWI  .      ZAUWL_005217                : Unique Well Identifier (UWI)
 LOC  .                                  : Location
 RWS  .      0                           : Def_Rw
 WST  .      0                           : Def_Rwt
 MDEC .      0                           : Magnetic Declination
 SRVC .      SCH                         : Contractor
~CURVE INFORMATION
#MNEM              UNIT       API CODE   Curve Type Comments
#----------  --------------- ----------  ---------- -----------
 DEPTH      .M                         : Depth       
 BitSize    .in                        : BitSize     
 CAL_INCH   .inch                      : caliper     Caliper Log - A representation of the measured diameter of a borehole along its depth
 GR_API     .API                       : gammaRay    Gamma Ray (API) - Measures the intensity of natural gamma-ray radiation emitted from formations containing radioactive elements, such as K, Th and U
 SP_MV      .mv                        : SP          Spontaneous Potential - Records the electrical potential produced by the interaction of formation water, conductive drilling mud, and certain ion-sele
 ILD_OHMM   .ohmm                      : deepRes     Deep Induction Resistivity - Measurement made an induction log, made several feet into the formation
 SFLU_OHMM  .ohmm                      : shalRes     Shallow Spherically Focused Resistivity - A shallow resistivty measurement derived from the the Phasor Dual Induction - SFR tool
 MSFL_OHMM  .ohmm                      : microRes    Micro-Spherically Focused Log - Measurement involves only the first few inches of the formation immediately adjacent to the borehole
 DT_US_FT   .us/ft                     : sonic       Interval Transit Time: Compressional Wave - Evaluates the time it takes for a compressional wave to traverse a fixed distance
 RHOB_G_CC  .g/cc                      : density     Bulk Density - Measures the density of bulk material, including any void space or other materials contained in the subject volume
 DRHO_G_CC  .g/cc                      : drho        Density Correction - Investigates the correction to the Bulk Density log; used as an indication of hole condition to validate the Bulk Density measure
 NPHI_v_v   .dec                       : Neutron     
 PEF_B_E    .b/e-                      : PEF         Photoelectric Factor - A log of photoelectric absorption properties. Often expressed in an approximation unit barns/electron (b/e-)
 LITH       .                          : LITH        Lithology Curve
 LITH_v2    .                          : LITH        Lithology Curve
~A  DEPTH  BitSize   CAL_INCH   GR_API    SP_MV    ILD_OHMM SFLU_OHM  MSFL_OHM   DT_US_FT RHOB_G_C  DRHO_G_C   NPHI_v_v  PEF_B_E     LITH    LITH_v2  
# ...
1833.5244   18.0000   20.9219   25.3906   -9.9282    0.7944    0.7481    0.4828  152.7476    1.4746    0.0010    0.6162    1.1943 -999.0000 -999.0000 
1833.6768   18.0000   20.9219   25.5625  -13.8107    0.8156    0.7376    0.4795  158.3359    1.4795    0.0063    0.6143    1.1914 -999.0000 -999.0000 
1833.8292   18.0000   20.9219   25.7656   -9.8547    0.8271    0.7334    0.4865  164.6696    1.4795    0.0059    0.5757    1.1934 -999.0000 -999.0000 
1833.9816   18.0000   20.9219   29.9844   -8.3423    0.8286    0.7772    0.5153  166.0000    1.4795    0.0054    0.5459    1.1924 -999.0000 -999.0000 
1834.1340   18.0000   20.9219   33.9063  -12.3398    0.8271    0.8069    0.8069  161.1068    1.4727   -0.0005    0.5273    1.1973 -999.0000 -999.0000 
1834.2864   18.0000   20.9219   36.9063  -12.8428    0.8474    0.8446    1.1939  157.1117    1.4746    0.0005    0.5029    1.1934 -999.0000 -999.0000 
1834.4388   18.0000   20.9219   41.8438  -11.6161    0.8677    0.8608    1.3083  155.7910    1.4697   -0.0039    0.4966    1.1904 -999.0000 -999.0000 
1834.5912   18.0000   20.9219   43.8750  -11.4449    0.8800    0.8317    0.8699  156.5000    1.4697   -0.0049    0.4771    1.1895 -999.0000 -999.0000 
1834.7436   18.0000   20.9219   47.0938  -12.1112    0.8852    0.8250    0.8319  154.2598    1.4707   -0.0059    0.4585    1.1963 -999.0000 -999.0000 
1834.8960   18.0000   20.9219   46.2500  -11.9557    0.8867    0.8237    1.2152  152.2654    1.4717   -0.0059    0.4229    1.1963 -999.0000 -999.0000 
1835.0484   18.0000   20.9219   46.3750  -11.9664    0.8728    0.9142    1.7534  145.7881    1.4775    0.0000    0.4453    1.1953 -999.0000 -999.0000 
1835.2008   18.0000   20.9219   45.8750  -11.8440    0.8667    0.9533    1.9714  137.1385    1.4746   -0.0029    0.4551    1.1885 -999.0000 -999.0000 
1835.3532   18.0000   20.9219   42.8438  -12.4563    0.8776    0.9368    1.7370  134.5400    1.4814    0.0049    0.4634    1.1924 -999.0000 -999.0000 
1835.5056   18.0000   20.9219   38.2813  -12.9545    0.8843    0.8994    1.6261  136.1250    1.4814    0.0049    0.3887    1.1924 -999.0000 -999.0000 
1835.6580   18.0000   20.9219   38.8750  -13.4225    0.8757    0.9231    1.6038  134.5322    1.4814    0.0054    0.3511    1.1924 -999.0000 -999.0000 
1835.8104   18.0000   20.9219   39.8125  -13.8136    0.8670    0.9732    2.4355  134.9899    1.4775    0.0024    0.3311    1.1914 -999.0000 -999.0000 
1835.9628   18.0000   20.9219   43.3125  -11.4565    0.8557    1.0029    3.0163  135.3149    1.4785    0.0020    0.3491    1.1924 -999.0000 -999.0000 
1836.1152   18.0000   20.9219   42.3750  -11.3140    0.8399    0.9854    2.3309  134.3750    1.4775    0.0005    0.3511    1.1953 -999.0000 -999.0000 
1836.2676   18.0000   20.9219   38.5000  -13.2938    0.8262    0.9577    2.1857  137.1208    1.4736   -0.0034    0.3672    1.1885 -999.0000 -999.0000 
1836.4200   18.0000   20.9219   36.1875  -11.6653    0.8203    0.9272    2.1794  138.0000    1.4727   -0.0044    0.3975    1.1865 -999.0000 -999.0000 
1836.5724   18.0000   20.9219   35.5000   -7.3302    0.8159    0.9246    2.1953  137.4662    1.4707   -0.0068    0.4014    1.1797 -999.0000 -999.0000 
1836.7248   18.0000   20.9219   35.2188   -8.1610    0.8108    0.9190    2.0581  137.5771    1.4756   -0.0034    0.3779    1.1836 -999.0000 -999.0000 
1836.8772   18.0000   20.9219   36.5625  -11.0637    0.8076    0.9111    2.0260  138.1250    1.4805   -0.0005    0.3628    1.1816 -999.0000 -999.0000 
1837.0296   18.0000   20.9219   32.3125  -14.1035    0.8205    0.9092    2.1415  136.9957    1.4854    0.0049    0.3340    1.1865 -999.0000 -999.0000 
1837.1820   18.0000   20.9219   32.5000  -14.6771    0.8443    0.9295    1.9296  135.7614    1.4814    0.0005    0.3599    1.1904 -999.0000 -999.0000 
1837.3344   18.0000   20.9219   30.1406  -15.4959    0.8801    0.9452    1.6217  134.6121    1.4766   -0.0034    0.3628    1.1904 -999.0000 -999.0000 
1837.4868   18.0000   20.9219   28.8906  -15.6439    0.9325    0.9531    1.8140  132.9663    1.4766   -0.0024    0.3740    1.1953 -999.0000 -999.0000 
1837.6392   18.0000   20.9219   26.6406  -14.7340    0.9908    0.9862    1.9504  129.9619    1.4756   -0.0029    0.3564    1.1934 -999.0000 -999.0000 
1837.7916   18.0000   20.9219   23.2344  -14.0818    1.0413    1.0732    2.1038  125.0195    1.4727   -0.0044    0.3462    1.1943 -999.0000 -999.0000 
1837.9440   18.0000   20.9219   22.1875  -14.0503    1.0863    1.1947    2.3535  119.1731    1.4746   -0.0024    0.3921    1.1895 -999.0000 -999.0000 
1838.0964   18.0000   20.9063   21.6406  -14.1916    1.1253    1.2816    2.1843  116.5625    1.4785    0.0029    0.4238    1.1885 -999.0000 -999.0000 
1838.2488   18.0000   20.9219   19.7813  -13.3274    1.1765    1.2871    1.6752  123.6091    1.4795    0.0039    0.5049    1.1904 -999.0000 -999.0000 
1838.4012   18.0000   20.9063   20.2656  -13.0625    1.2425    1.1813    1.0031  128.5184    1.4766    0.0020    0.4976    1.1914 -999.0000 -999.0000 
1838.5536   18.0000   20.9219   20.7969  -12.2775    1.2910    1.0977    0.6603  132.6720    1.4775    0.0029    0.4839    1.1895 -999.0000 -999.0000 
1838.7060   18.0000   20.9219   22.3750  -11.4268    1.3066    1.0820    0.7313  134.7500    1.4854    0.0098    0.4331    1.1826 -999.0000 -999.0000 
1838.8584   18.0000   20.9219   22.0781  -12.1745    1.2913    1.1575    0.8684  129.1582    1.4863    0.0098    0.4248    1.1807 -999.0000 -999.0000 
1839.0108   18.0000   20.9219   20.7500  -12.5077    1.2748    1.2033    1.0478  123.6740    1.4883    0.0088    0.4282    1.1846 -999.0000 -999.0000 
1839.1632   18.0000   20.9063   20.4219  -10.6442    1.2593    1.2324    1.2658  122.1875    1.4844    0.0029    0.4355    1.1914 -999.0000 -999.0000 
1839.3156   18.0000   20.9063   20.1875   -8.7953    1.2463    1.2500    1.5763  123.0195    1.4863    0.0039    0.4370    1.1943 -999.0000 -999.0000 
1839.4680   18.0000   20.9219   20.9531  -10.6934    1.2334    1.2343    1.8240  124.9362    1.4883    0.0063    0.4438    1.1934 -999.0000 -999.0000 
1839.6204   18.0000   20.9063   22.1094   -9.6872    1.2213    1.2048    1.8652  127.2848    1.4893    0.0078    0.4536    1.1895 -999.0000 -999.0000 
1839.7728   18.0000   20.9219   22.5781   -9.5695    1.2035    1.1659    1.2896  130.7617    1.4814    0.0015    0.5332    1.1895 -999.0000 -999.0000 
1839.9252   18.0000   20.9063   24.0938   -7.7775    1.1730    1.1278    0.8352  135.1102    1.4775   -0.0024    0.5684    1.2139 -999.0000 -999.0000 
1840.0776   18.0000   20.9063   26.6250   -7.5262    1.1307    1.0818    0.7170  138.1516    1.4883    0.0005    0.5366    1.2969 -999.0000 -999.0000 
1840.2300   18.0000   20.9063   26.4063  -10.6632    1.0725    1.0337    0.7160  138.3750    1.5381    0.0264    0.4341    1.4180 -999.0000 -999.0000 
1840.3824   18.0000   20.9063   26.9375   -5.9222    1.0123    1.0098    0.9105  133.5486    1.6270    0.0723    0.3677    1.4834 -999.0000 -999.0000 
1840.5348   18.0000   20.9063   22.7656   -5.1635    0.9759    1.0363    1.5061  130.4287    1.7100    0.1128    0.3608    1.4951 -999.0000 -999.0000 
1840.6872   18.0000   20.9063   21.7656   -9.9362    0.9521    1.0598    2.0843  127.8105    1.7490    0.1328    0.3774    1.5088 -999.0000 -999.0000 
1840.8396   18.0000   20.9063   19.7500  -12.0355    0.9409    1.0615    1.9929  126.0000    1.7393    0.1270    0.3687    1.5381 -999.0000 -999.0000 
1840.9920   18.0000   20.9063   19.7656  -12.5538    0.9467    1.0372    1.8371  128.8107    1.7568    0.1333    0.3433    1.5645 -999.0000 -999.0000 
1841.1444   18.0000   20.9063   18.4375  -11.9456    0.9540    1.0283    1.7271  131.4319    1.8223    0.1577    0.3174    1.5068 -999.0000 -999.0000 
1841.2968   18.0000   20.5938   17.1250  -13.9458    0.9561    1.0528    1.6937  133.4692    1.9326    0.2246    0.3208    1.5029 -999.0000 -999.0000 
1841.4492   18.0000   20.4688   15.8125  -12.1137    0.9535    1.0687    1.9706  135.0482    1.9795    0.2549    0.3120    1.4971 -999.0000 -999.0000 
