~VERSION INFORMATION
 VERS.                 2.0:   CWLS LOG ASCII STANDARD - VERSION 2.0
 WRAP.                  NO:   SINGLE LINE PER DEPTH STEP
 CREA.                 01/02/2018 09:37:14
#CREATED USING DSPetro VERSION 5000.10.1.3 BY H191660 ON 01/02/2018 09:37:14
~WELL INFORMATION
#MNEM.UNIT       DATA                          DESCRIPTION MNEMONIC
#---------      ---------------------------   --------------------------
 STRT    .M         0.0000                    : START DEPTH
 STOP    .M         3599.9928                 : STOP DEPTH
 STEP    .M         0.1524                    : STEP VALUE
 NULL    .      -999.0000                     : NULL VALUE
 DATE    .      01/02/2018                    : LAS file Creation Date
 WELL .      2881_Sirius-1-ESSO          : Well Name
 COMP .      Neftex Exploration Insights : Company
 FLD  .      SIRIUS (ESSO)               : Field
 UWI  .      ZAUWL_005217                : Unique Well Identifier (UWI)
 LOC  .                                  : Location
 RWS  .      0                           : Def_Rw
 WST  .      0                           : Def_Rwt
 MDEC .      0                           : Magnetic Declination
 SRVC .      SCH                         : Contractor
~CURVE INFORMATION
#MNEM              UNIT       API CODE   Curve Type Comments
#----------  --------------- ----------  ---------- -----------
 DEPTH      .M                         : Depth       
 BitSize    .in                        : BitSize     
 CAL_INCH   .inch                      : caliper     Caliper Log - A representation of the measured diameter of a borehole along its depth
 GR_API     .API                       : gammaRay    Gamma Ray (API) - Measures the intensity of natural gamma-ray radiation emitted from formations containing radioactive elements, such as K, Th and U
 SP_MV      .mv                        : SP          Spontaneous Potential - Records the electrical potential produced by the interaction of formation water, conductive drilling mud, and certain ion-sele
 ILD_OHMM   .ohmm                      : deepRes     Deep Induction Resistivity - Measurement made an induction log, made several feet into the formation
 SFLU_OHMM  .ohmm                      : shalRes     Shallow Spherically Focused Resistivity - A shallow resistivty measurement derived from the the Phasor Dual Induction - SFR tool
 MSFL_OHMM  .ohmm                      : microRes    Micro-Spherically Focused Log - Measurement involves only the first few inches of the formation immediately adjacent to the borehole
 DT_US_FT   .us/ft                     : sonic       Interval Transit Time: Compressional Wave - Evaluates the time it takes for a compressional wave to traverse a fixed distance
 RHOB_G_CC  .g/cc                      : density     Bulk Density - Measures the density of bulk material, including any void space or other materials contained in the subject volume
 DRHO_G_CC  .g/cc                      : drho        Density Correction - Investigates the correction to the Bulk Density log; used as an indication of hole condition to validate the Bulk Density measure
 NPHI_v_v   .dec                       : Neutron     
 PEF_B_E    .b/e-                      : PEF         Photoelectric Factor - A log of photoelectric absorption properties. Often expressed in an approximation unit barns/electron (b/e-)
 LITH       .                          : LITH        Lithology Curve
 LITH_v2    .                          : LITH        Lithology Curve
~A  DEPTH  BitSize   CAL_INCH   GR_API    SP_MV    ILD_OHMM SFLU_OHM  MSFL_OHM   DT_US_FT RHOB_G_C  DRHO_G_C   NPHI_v_v  PEF_B_E     LITH    LITH_v2  
# ...
2592.7812   12.2500   13.0938  110.8125    3.0536    2.7344    3.0039    3.4421  105.3750 -999.0000 -999.0000    0.4199 -999.0000 -999.0000 -999.0000 
2592.9336   12.2500   13.0625  115.6875    3.5141    2.7422    2.9824    3.0072  105.7500 -999.0000 -999.0000    0.3940 -999.0000 -999.0000 -999.0000 
2593.0860   12.2500   13.1406  115.9375    2.7871    2.7480    2.9102    3.6647  109.1875 -999.0000 -999.0000    0.3877 -999.0000 -999.0000 -999.0000 
2593.2384   12.2500   13.1016  116.1875    2.2476    2.7480    2.9199    3.1387  107.1875 -999.0000 -999.0000    0.3813 -999.0000 -999.0000 -999.0000 
2593.3908   12.2500   13.2578  117.0625    1.2081    2.7344    2.9512    3.2708  106.0000 -999.0000 -999.0000    0.3784 -999.0000 -999.0000 -999.0000 
2593.5432   12.2500   12.9453  113.3125    0.1060    2.7227    3.0098    2.9831  108.0000 -999.0000 -999.0000    0.4092 -999.0000 -999.0000 -999.0000 
2593.6956   12.2500   13.1953  116.0625    0.0665    2.6875    2.9590    2.9388  103.5625 -999.0000 -999.0000    0.4053 -999.0000 -999.0000 -999.0000 
2593.8480   12.2500   13.5000  112.5000    0.0270    2.6504    2.9141    4.1771  103.5625 -999.0000 -999.0000    0.3940 -999.0000 -999.0000 -999.0000 
2594.0004   12.2500   13.0391  113.7500   -0.0125    2.6152    2.9707    4.1855  104.5625 -999.0000 -999.0000    0.3667 -999.0000 -999.0000 -999.0000 
2594.1528   12.2500   13.0313  117.8750   -1.0520    2.5723    2.9355    3.3750  102.1875 -999.0000 -999.0000    0.3770 -999.0000 -999.0000 -999.0000 
2594.3052   12.2500   12.7500  117.4375   -1.5915    2.5586    2.7539    3.4375  106.3750 -999.0000 -999.0000    0.3926 -999.0000 -999.0000 -999.0000 
2594.4576   12.2500   12.8047  118.0000   -1.8811    2.5820    2.6602    3.2936  109.7500 -999.0000 -999.0000    0.3950 -999.0000 -999.0000 -999.0000 
2594.6100   12.2500   12.7266  114.0000   -1.6706    2.5859    2.7227    4.1016  108.0000 -999.0000 -999.0000    0.3882 -999.0000 -999.0000 -999.0000 
2594.7624   12.2500   12.7422  112.9375   -1.4601    2.5879    2.9355    4.1328  106.5625 -999.0000 -999.0000    0.4028 -999.0000 -999.0000 -999.0000 
2594.9148   12.2500   12.7656  110.8750   -0.7496    2.6289    3.0605    4.2878  104.0000 -999.0000 -999.0000    0.4053 -999.0000 -999.0000 -999.0000 
2595.0672   12.2500   12.7109  111.7500   -0.7891    2.6504    3.0801    4.1211  105.3750 -999.0000 -999.0000    0.3921 -999.0000 -999.0000 -999.0000 
2595.2196   12.2500   12.9922  114.6250   -1.0786    2.6523    3.0117    3.5215  106.3750 -999.0000 -999.0000    0.3940 -999.0000 -999.0000 -999.0000 
2595.3720   12.2500   13.0703  113.8750   -1.3682    2.6719    2.9727    3.5755  109.1875 -999.0000 -999.0000    0.3960 -999.0000 -999.0000 -999.0000 
2595.5244   12.2500   12.9922  114.5625   -1.3871    2.6777    2.9414    3.5020  105.7500 -999.0000 -999.0000    0.4448 -999.0000 -999.0000 -999.0000 
2595.6768   12.2500   13.0781  119.1875   -0.3856    2.6309    2.8555    3.3255  105.3750 -999.0000 -999.0000    0.4297 -999.0000 -999.0000 -999.0000 
2595.8292   12.2500   12.9531  125.1875    0.1160    2.6172    2.7324    3.1660  107.5625 -999.0000 -999.0000    0.4307 -999.0000 -999.0000 -999.0000 
2595.9816   12.2500   12.9531  122.3750    0.3676    2.6289    2.5703    3.1940  106.7500 -999.0000 -999.0000    0.4146 -999.0000 -999.0000 -999.0000 
2596.1340   12.2500   13.3438  121.7500    0.8692    2.6074    2.5703    2.9395  104.3750 -999.0000 -999.0000    0.4233 -999.0000 -999.0000 -999.0000 
2596.2864   12.2500   12.8750  117.4375    1.1208    2.6016    2.6836    3.1738  106.1875 -999.0000 -999.0000    0.4238 -999.0000 -999.0000 -999.0000 
2596.4388   12.2500   12.8359  118.5000    0.8724    2.5996    2.8555    4.1706  107.5625 -999.0000 -999.0000    0.3989 -999.0000 -999.0000 -999.0000 
2596.5912   12.2500   12.8828  114.2500    0.8739    2.5977    2.9434    3.6875  104.3750 -999.0000 -999.0000    0.3574 -999.0000 -999.0000 -999.0000 
2596.7436   12.2500   12.8906  117.5000    1.1255    2.5859    2.9707    3.5970  107.3750 -999.0000 -999.0000    0.3569 -999.0000 -999.0000 -999.0000 
2596.8960   12.2500   12.9688  122.2500    1.1271    2.5820    3.0195    3.5137  104.5625 -999.0000 -999.0000    0.3784 -999.0000 -999.0000 -999.0000 
2597.0484   12.2500   12.9609  120.5000    1.1287    2.5898    2.9980    3.5443  102.1875 -999.0000 -999.0000    0.4336 -999.0000 -999.0000 -999.0000 
2597.2008   12.2500   12.8906  116.5000    0.3803    2.5996    2.8105    3.7676  104.3750 -999.0000 -999.0000    0.4248 -999.0000 -999.0000 -999.0000 
2597.3532   12.2500   13.3438  111.1250   -0.1181    2.6133    2.5859    3.3997  102.0000 -999.0000 -999.0000    0.4004 -999.0000 -999.0000 -999.0000 
2597.5056   12.2500   12.7344  113.1250   -0.3666    2.6113    2.5000    3.5514  103.0000 -999.0000 -999.0000    0.3540 -999.0000 -999.0000 -999.0000 
2597.6580   12.2500   12.7969  115.5000   -0.1150    2.5898    2.6406    3.2578  104.7500 -999.0000 -999.0000    0.3550 -999.0000 -999.0000 -999.0000 
2597.8104   12.2500   13.0547  116.4375    0.1366    2.5820    2.7695    3.3092  103.1875 -999.0000 -999.0000    0.3994 -999.0000 -999.0000 -999.0000 
2597.9628   12.2500   12.9141  118.2500   -0.1118    2.5996    2.8418    3.0521  108.3750 -999.0000 -999.0000    0.4277 -999.0000 -999.0000 -999.0000 
2598.1152   12.2500   12.6328  120.9375   -0.6102    2.6504    2.8398    2.8438  106.0000 -999.0000 -999.0000    0.4160 -999.0000 -999.0000 -999.0000 
2598.2676   12.2500   12.6172  119.8750   -1.6086    2.6914    2.8398    3.8815  103.1875 -999.0000 -999.0000    0.3745 -999.0000 -999.0000 -999.0000 
2598.4200   12.2500   12.6406  119.7500   -2.1071    2.7324    2.8828    4.0130  103.1875 -999.0000 -999.0000    0.3521 -999.0000 -999.0000 -999.0000 
2598.5724   12.2500   12.6250  115.7500   -2.3555    2.7461    2.9180    3.9206   98.5625 -999.0000 -999.0000    0.3657 -999.0000 -999.0000 -999.0000 
2598.7248   12.2500   12.6328  115.3125   -1.6039    2.7656    3.0176    4.0723   98.1875 -999.0000 -999.0000    0.3594 -999.0000 -999.0000 -999.0000 
2598.8772   12.2500   12.6328  114.0625   -1.3523    2.7754    3.1113    3.5007  101.5625 -999.0000 -999.0000    0.4004 -999.0000 -999.0000 -999.0000 
2599.0296   12.2500   12.7969  116.3125   -0.6007    2.7852    3.1133    3.5742  104.3750 -999.0000 -999.0000    0.3936 -999.0000 -999.0000 -999.0000 
2599.1820   12.2500   12.5234  113.5000   -0.0991    2.7773    3.0957    3.3737  102.3750 -999.0000 -999.0000    0.3940 -999.0000 -999.0000 -999.0000 
2599.3344   12.2500   12.7031  114.6875   -0.3476    2.7832    3.0781    4.2591  104.7500 -999.0000 -999.0000    0.3447 -999.0000 -999.0000 -999.0000 
2599.4868   12.2500   13.4219  114.0000   -0.3460    2.7656    2.9922    3.8698   99.5625 -999.0000 -999.0000    0.3511 -999.0000 -999.0000 -999.0000 
2599.6392   12.2500   12.6953  116.6250   -0.5944    2.7676    2.9141    3.8438  104.3750 -999.0000 -999.0000    0.3613 -999.0000 -999.0000 -999.0000 
2599.7916   12.2500   12.7109  115.9375   -0.3428    2.7539    2.8105    4.2982  102.0000 -999.0000 -999.0000    0.4067 -999.0000 -999.0000 -999.0000 
2599.9440   12.2500   12.6797  117.9375   -0.3412    2.7422    2.8242    4.0651  103.1875 -999.0000 -999.0000    0.4043 -999.0000 -999.0000 -999.0000 
2600.0964   12.2500   12.7500  118.8125   -0.8396    2.7070    2.9355    3.8711  103.7500 -999.0000 -999.0000    0.4189 -999.0000 -999.0000 -999.0000 
2600.2488   12.2500   12.7734  118.5000   -0.8381    2.6621    3.0469    4.0729  103.0000 -999.0000 -999.0000    0.3984 -999.0000 -999.0000 -999.0000 
2600.4012   12.2500   12.7656  116.4375   -0.8365    2.6348    3.0371    4.0065  104.1875 -999.0000 -999.0000    0.3979 -999.0000 -999.0000 -999.0000 
2600.5536   12.2500   12.7734  115.5625   -1.5849    2.6426    2.8066    3.9896  105.0000 -999.0000 -999.0000    0.3965 -999.0000 -999.0000 -999.0000 
2600.7060   12.2500   12.6719  114.5625   -2.0833    2.6660    2.5645    3.5137  104.0000 -999.0000 -999.0000    0.4126 -999.0000 -999.0000 -999.0000 
