~VERSION INFORMATION
 VERS.                 2.0:   CWLS LOG ASCII STANDARD - VERSION 2.0
 WRAP.                  NO:   SINGLE LINE PER DEPTH STEP
 CREA.                 01/02/2018 09:37:14
#CREATED USING DSPetro VERSION 5000.10.1.3 BY H191660 ON 01/02/2018 09:37:14
~WELL INFORMATION
#MNEM.UNIT       DATA                          DESCRIPTION MNEMONIC
#---------      ---------------------------   --------------------------
 STRT    .M         0.0000                    : START DEPTH
 STOP    .M         3599.9928                 : STOP DEPTH
 STEP    .M         0.1524                    : STEP VALUE
 NULL    .      -999.0000                     : NULL VALUE
 DATE    .      01/02/2018                    : LAS file Creation Date
 WELL .      2881_Sirius-1-ESSO          : Well Name
 COMP .      Neftex Exploration Insights : Company
 FLD  .      SIRIUS (ESSO)               : Field
 UWI  .      ZAUWL_005217                : Unique Well Identifier (UWI)
 LOC  .                                  : Location
 RWS  .      0                           : Def_Rw
 WST  .      0                           : Def_Rwt
 MDEC .      0                           : Magnetic Declination
 SRVC .      SCH                         : Contractor
~CURVE INFORMATION
#MNEM              UNIT       API CODE   Curve Type Comments
#----------  --------------- ----------  ---------- -----------
 DEPTH      .M                         : Depth       
 BitSize    .in                        : BitSize     
 CAL_INCH   .inch                      : caliper     Caliper Log - A representation of the measured diameter of a borehole along its depth
 GR_API     .API                       : gammaRay    Gamma Ray (API) - Measures the intensity of natural gamma-ray radiation emitted from formations containing radioactive elements, such as K, Th and U
 SP_MV      .mv                        : SP          Spontaneous Potential - Records the electrical potential produced by the interaction of formation water, conductive drilling mud, and certain ion-sele
 ILD_OHMM   .ohmm                      : deepRes     Deep Induction Resistivity - Measurement made an induction log, made several feet into the formation
 SFLU_OHMM  .ohmm                      : shalRes     Shallow Spherically Focused Resistivity - A shallow resistivty measurement derived from the the Phasor Dual Induction - SFR tool
 MSFL_OHMM  .ohmm                      : microRes    Micro-Spherically Focused Log - Measurement involves only the first few inches of the formation immediately adjacent to the borehole
 DT_US_FT   .us/ft                     : sonic       Interval Transit Time: Compressional Wave - Evaluates the time it takes for a compressional wave to traverse a fixed distance
 RHOB_G_CC  .g/cc                      : density     Bulk Density - Measures the density of bulk material, including any void space or other materials contained in the subject volume
 DRHO_G_CC  .g/cc                      : drho        Density Correction - Investigates the correction to the Bulk Density log; used as an indication of hole condition to validate the Bulk Density measure
 NPHI_v_v   .dec                       : Neutron     
 PEF_B_E    .b/e-                      : PEF         Photoelectric Factor - A log of photoelectric absorption properties. Often expressed in an approximation unit barns/electron (b/e-)
 LITH       .                          : LITH        Lithology Curve
 LITH_v2    .                          : LITH        Lithology Curve
~A  DEPTH  BitSize   CAL_INCH   GR_API    SP_MV    ILD_OHMM SFLU_OHM  MSFL_OHM   DT_US_FT RHOB_G_C  DRHO_G_C   NPHI_v_v  PEF_B_E     LITH    LITH_v2  
# ...
3109.7220    8.5000    8.5000  132.3750   -0.5766    2.1855    2.7148    3.6810   97.7500    2.3926    0.0098    0.3369    2.9043   37.0000   37.0000 
3109.8744    8.5000    8.5234  131.3750   -0.4838    2.1074    2.6563    4.3008   97.3750    2.3984    0.0063    0.3472    2.9746   37.0000   37.0000 
3110.0268    8.5000    8.4922  129.6250   -0.5160    2.0000    2.6797    3.8405   97.5625    2.3906    0.0015    0.3501    3.1230   37.0000   37.0000 
3110.1792    8.5000    8.5000  129.1250   -0.2889    1.8857    2.7480    4.1061   98.1875    2.3984    0.0103    0.3433    3.3125   37.0000   37.0000 
3110.3316    8.5000    8.5547  128.0000   -0.1372    1.8086    2.5918    2.8815   99.3750    2.3926    0.0127    0.3486    3.4004   37.0000   37.0000 
3110.4840    8.5000    8.5000  128.3750    0.0145    1.7451    2.2207    2.6973  101.5625    2.3867    0.0220    0.3608    3.6016   37.0000   37.0000 
3110.6364    8.5000    8.4688  125.4375    0.0412    1.6738    2.0801    2.5671  101.7500    2.3965    0.0430    0.3730    3.7480   37.0000   37.0000 
3110.7888    8.5000    8.4141  126.5000    0.4429    1.6270    2.1191    3.3340  103.5625    2.4043    0.0591    0.3716    3.7246   37.0000   37.0000 
3110.9412    8.5000    8.3750  123.3750    0.7196    1.5918    2.1230    2.9414  102.0000    2.3828    0.0352    0.3525    3.4766   37.0000   37.0000 
3111.0936    8.5000    8.4609  116.6875    0.8712    1.5693    1.9961    2.5573  101.5625    2.3672    0.0137    0.3657    3.5000   37.0000   37.0000 
3111.2460    8.5000    8.5313  113.0625    0.2729    1.5801    1.9502    3.0260  102.7500    2.4121    0.0146    0.3848    4.1797   37.0000   37.0000 
3111.3984    8.5000    8.4688  115.5625   -0.0754    1.6240    2.0586    3.3040   99.7500    2.4707    0.0308    0.3862    4.2813   37.0000   37.0000 
3111.5508    8.5000    8.4609  121.2500   -0.5487    1.6572    2.1387    2.6348  102.1875    2.5254    0.0420    0.3672    4.1328   37.0000   37.0000 
3111.7032    8.5000    8.4297  125.3125   -0.3970    1.7305    2.2246    3.2559   97.3750    2.4746    0.0327    0.3462    3.5059   37.0000   37.0000 
3111.8556    8.5000    8.4141  119.3750   -0.2453    1.7930    2.3555    2.9896   96.7500    2.4316    0.0298    0.3384    3.8672   37.0000   37.0000 
3112.0080    8.5000    8.3906  126.5625   -0.7186    1.8486    2.4277    3.5352   97.0000    2.4238    0.0142    0.3237    3.7051   37.0000   37.0000 
3112.1604    8.5000    8.3906  125.5000   -1.1920    1.9600    2.5273    3.3477   98.5625    2.4492    0.0034    0.3091    3.7383   37.0000   37.0000 
3112.3128    8.5000    8.4219  133.1250   -1.4153    2.0527    2.4707    3.5046   99.7500    2.4648    0.0000    0.2881    3.3574   37.0000   37.0000 
3112.4652    8.5000    8.4922  129.3750   -1.2636    2.1328    2.3750    2.9303   97.0000    2.4336    0.0049    0.3003    3.2910   37.0000   37.0000 
3112.6176    8.5000    8.4844  127.2500   -2.1119    2.2031    2.6133    2.9961   95.5625    2.4121    0.0205    0.3159    3.2773   37.0000   37.0000 
3112.7700    8.5000    8.4375  118.9375   -3.2102    2.2578    2.9121    3.4512   94.0000    2.4199    0.0439    0.3345    3.2188   37.0000   37.0000 
3112.9224    8.5000    8.4375  116.3125   -3.9335    2.2930    3.1211    3.6660   92.7500    2.4023    0.0376    0.3213    3.2207   37.0000   37.0000 
3113.0748    8.5000    8.3672  112.6250   -4.0318    2.3242    3.1191    3.3789   94.5625    2.3906    0.0229    0.3154    3.2773   37.0000   37.0000 
3113.2272    8.5000    8.3281  112.5625   -3.8801    2.3965    3.0508    3.4245   97.0000    2.3652    0.0112    0.2988    3.3652   37.0000   37.0000 
3113.3796    8.5000    8.2969  112.2500   -3.7285    2.4648    3.0176    3.4128   98.5625    2.3438    0.0127    0.2842    3.4082   37.0000   37.0000 
3113.5320    8.5000    8.2734  107.1875   -3.8268    2.5137    2.9863    3.4401   99.0000    2.3008    0.0044    0.2637    3.2109   37.0000   37.0000 
3113.6844    8.5000    8.2813  104.9375   -4.0501    2.5469    2.9473    3.2559   98.5625    2.2676    0.0005    0.2627    3.0430   37.0000   37.0000 
3113.8368    8.5000    8.2813  104.6875   -5.0234    2.5898    2.9453    3.5072   96.5625    2.2305   -0.0156    0.2700    2.9551   37.0000   37.0000 
3113.9892    8.5000    8.2813  112.0625   -5.6217    2.6270    2.9941    3.8665   95.1875    2.2441   -0.0068    0.2788    2.9102   37.0000   37.0000 
3114.1416    8.5000    8.2813  114.8125   -5.8450    2.6699    3.1230    3.5599   93.0000    2.2520   -0.0127    0.2808    2.8535   37.0000   37.0000 
3114.2940    8.5000    8.3203  112.2500   -6.0684    2.7754    3.2832    4.2630   92.7500    2.2832   -0.0034    0.2773    2.9023   37.0000   37.0000 
3114.4464    8.5000    8.2813  108.4375   -6.2917    2.9629    3.3574    4.0586   93.1875    2.2871   -0.0049    0.2720    2.9922   37.0000   37.0000 
3114.5988    8.5000    8.2813  104.6875   -6.5150    3.1680    3.3418    3.8841   94.0000    2.2969    0.0088    0.2764    3.0430   36.0000   36.0000 
3114.7512    8.5000    8.2813  101.8125   -6.5195    3.3711    3.4063    3.5970   96.7500    2.2832    0.0117    0.2749    3.0000   36.0000   36.0000 
3114.9036    8.5000    8.2813   97.8750   -5.9928    3.5254    3.6543    4.0443   99.3750    2.2695    0.0107    0.2510    3.0020   36.0000   36.0000 
3115.0560    8.5000    8.2656   98.5625   -5.3411    3.6289    3.8066    3.7747  101.1875    2.2539    0.0054    0.2275    3.0195   36.0000   36.0000 
3115.2084    8.5000    8.2656   94.7500   -4.4394    3.6816    3.8828    3.6237  104.1875    2.2383    0.0073    0.2119    2.9844   36.0000   36.0000 
3115.3608    8.5000    8.2656   89.8125   -4.1627    3.6836    3.7656    3.6289  102.5625    2.1973    0.0020    0.2256    2.9688   36.0000   36.0000 
3115.5132    8.5000    8.2656   82.6250   -4.1361    3.5938    3.5684    3.6797  103.0000    2.1719    0.0010    0.2402    2.9609   36.0000   36.0000 
3115.6656    8.5000    8.2656   80.1250   -3.6094    3.3984    3.4199    3.7422  102.3750    2.1484   -0.0039    0.2500    2.9824   36.0000   36.0000 
3115.8180    8.5000    8.2656   82.5625   -2.9577    3.1309    3.3965    3.7943  100.3750    2.1758    0.0122    0.2563    2.9746   36.0000   36.0000 
3115.9704    8.5000    8.2656   79.5000   -2.9310    2.8828    3.3574    3.8177  100.1875    2.1816    0.0098    0.2539    3.0059   36.0000   36.0000 
3116.1228    8.5000    8.2656   71.2500   -2.7481    2.6758    3.1816    4.0872  100.3750    2.2109    0.0117    0.2510    2.8262   36.0000   36.0000 
3116.2752    8.5000    8.2656   63.2500   -3.0964    2.4785    3.0195    3.8385   99.1875    2.2109    0.0093    0.2388    2.6855   27.0000   27.0000 
3116.4276    8.5000    8.2656   60.5000   -2.9447    2.3203    2.8633    3.6309  101.1875    2.2168    0.0132    0.2300    2.5645   27.0000   27.0000 
3116.5800    8.5000    8.2813   62.0625   -3.1681    2.2090    2.7207    3.5586  102.0000    2.2129    0.0132    0.2388    2.6641   27.0000   27.0000 
3116.7324    8.5000    8.2813   61.5938   -3.3914    2.1328    2.5625    3.4030  100.5625    2.2031    0.0039    0.2432    2.7754   27.0000   27.0000 
3116.8848    8.5000    8.2813   63.4063   -3.9897    2.0938    2.4453    3.0397  100.0000    2.2031    0.0034    0.2593    2.8867   27.0000   27.0000 
3117.0372    8.5000    8.2813   66.1250   -3.8380    2.0898    2.3672    2.9128   98.3750    2.2051    0.0015    0.2539    2.9121   27.0000   27.0000 
3117.1896    8.5000    8.2813   76.5000   -3.9363    2.1250    2.3008    3.0059   96.3750    2.2109    0.0024    0.2627    3.0215   27.0000   27.0000 
3117.3420    8.5000    8.2813   82.8750   -4.2846    2.1895    2.2910    3.0417   95.7500    2.2266    0.0034    0.2686    2.9980   27.0000   27.0000 
3117.4944    8.5000    8.3047   91.6250   -3.3829    2.2793    2.3652    3.4160   93.7500    2.2324   -0.0005    0.2793    2.9199   27.0000   27.0000 
3117.6468    8.5000    8.3203  101.1875   -2.3407    2.3828    2.7676    4.8776   92.0000    2.2461    0.0024    0.2686    2.8906   27.0000   27.0000 
