~VERSION INFORMATION
 VERS.                 2.0:   CWLS LOG ASCII STANDARD - VERSION 2.0
 WRAP.                  NO:   SINGLE LINE PER DEPTH STEP
 CREA.                 01/02/2018 09:37:14
#CREATED USING DSPetro VERSION 5000.10.1.3 BY H191660 ON 01/02/2018 09:37:14
~WELL INFORMATION
#MNEM.UNIT       DATA                          DESCRIPTION MNEMONIC
#---------      ---------------------------   --------------------------
 STRT    .M         0.0000                    : START DEPTH
 STOP    .M         3599.9928                 : STOP DEPTH
 STEP    .M         0.1524                    : STEP VALUE
 NULL    .      -999.0000                     : NULL VALUE
 DATE    .      01/02/2018                    : LAS file Creation Date
 WELL .      2881_Sirius-1-ESSO          : Well Name
 COMP .      Neftex Exploration Insights : Company
 FLD  .      SIRIUS (ESSO)               : Field
 UWI  .      ZAUWL_005217                : Unique Well Identifier (UWI)
 LOC  .                                  : Location
 RWS  .      0                           : Def_Rw
 WST  .      0                           : Def_Rwt
 MDEC .      0                           : Magnetic Declination
 SRVC .      SCH                         : Contractor
~CURVE INFORMATION
#MNEM              UNIT       API CODE   Curve Type Comments
#----------  --------------- ----------  ---------- -----------
 DEPTH      .M                         : Depth       
 BitSize    .in                        : BitSize     
 CAL_INCH   .inch                      : caliper     Caliper Log - A representation of the measured diameter of a borehole along its depth
 GR_API     .API                       : gammaRay    Gamma Ray (API) - Measures the intensity of natural gamma-ray radiation emitted from formations containing radioactive elements, such as K, Th and U
 SP_MV      .mv                        : SP          Spontaneous Potential - Records the electrical potential produced by the interaction of formation water, conductive drilling mud, and certain ion-sele
 ILD_OHMM   .ohmm                      : deepRes     Deep Induction Resistivity - Measurement made an induction log, made several feet into the formation
 SFLU_OHMM  .ohmm                      : shalRes     Shallow Spherically Focused Resistivity - A shallow resistivty measurement derived from the the Phasor Dual Induction - SFR tool
 MSFL_OHMM  .ohmm                      : microRes    Micro-Spherically Focused Log - Measurement involves only the first few inches of the formation immediately adjacent to the borehole
 DT_US_FT   .us/ft                     : sonic       Interval Transit Time: Compressional Wave - Evaluates the time it takes for a compressional wave to traverse a fixed distance
 RHOB_G_CC  .g/cc                      : density     Bulk Density - Measures the density of bulk material, including any void space or other materials contained in the subject volume
 DRHO_G_CC  .g/cc                      : drho        Density Correction - Investigates the correction to the Bulk Density log; used as an indication of hole condition to validate the Bulk Density measure
 NPHI_v_v   .dec                       : Neutron     
 PEF_B_E    .b/e-                      : PEF         Photoelectric Factor - A log of photoelectric absorption properties. Often expressed in an approximation unit barns/electron (b/e-)
 LITH       .                          : LITH        Lithology Curve
 LITH_v2    .                          : LITH        Lithology Curve
~A  DEPTH  BitSize   CAL_INCH   GR_API    SP_MV    ILD_OHMM SFLU_OHM  MSFL_OHM   DT_US_FT RHOB_G_C  DRHO_G_C   NPHI_v_v  PEF_B_E     LITH    LITH_v2  
# ...
1575.0540   20.0000   20.8281   12.3516   -8.0155    0.8604    1.0859    0.9744  102.7500    1.4785    0.0029    0.5801    1.2285 -999.0000 -999.0000 
1575.2064   20.0000   20.8281   12.1953  -12.0060    0.9048    1.1602    1.2233  108.0000    1.4844    0.0078    0.5557    1.2402 -999.0000 -999.0000 
1575.3588   20.0000   19.9375   13.7266  -12.9966    0.9531    1.1650    1.4290  104.1875    1.4863    0.0078    0.5361    1.2500 -999.0000 -999.0000 
1575.5112   20.0000   19.9375   13.7422  -12.9870    1.0176    1.1289    1.2139  104.3750    1.4902    0.0107    0.5737    1.2393 -999.0000 -999.0000 
1575.6636   20.0000   20.0625   15.2266  -12.2275    1.0176    1.1387    1.1348  103.0000    1.4893    0.0088    0.5513    1.2275 -999.0000 -999.0000 
1575.8160   20.0000   20.6406   14.9844  -12.4680    1.0586    1.1621    1.1543  100.7500    1.4961    0.0161    0.5615    1.2275 -999.0000 -999.0000 
1575.9684   20.0000   19.6563   14.7500   -8.9586    1.0830    1.1836    1.7035  104.0000    1.4893    0.0103    0.5483    1.2188 -999.0000 -999.0000 
1576.1208   20.0000   20.2344   14.9531  -10.4803    1.1143    1.1768    1.7178  106.3750    1.4863    0.0088    0.5830    1.2158 -999.0000 -999.0000 
1576.2732   20.0000   20.5156   16.8906  -10.0020    1.1221    1.1436    1.5221  109.7500    1.4902    0.0137    0.5693    1.2100 -999.0000 -999.0000 
1576.4256   20.0000   18.4375   16.2344   -9.7737    1.1094    1.1289    1.6090  112.3750    1.4902    0.0137    0.5483    1.2080 -999.0000 -999.0000 
1576.5780   20.0000   16.9844   15.1953  -10.0143    1.1064    1.1221    1.0452  112.3750    1.4951    0.0190    0.5791    1.2051 -999.0000 -999.0000 
1576.7304   20.0000   16.5469   13.7188  -10.0048    1.0771    1.1221    0.6528  107.1875    1.4844    0.0088    0.6133    1.2031 -999.0000 -999.0000 
1576.8828   20.0000   14.3125   14.6250   -9.7453    1.0469    1.1426    0.8561  107.3750    1.4873    0.0117    0.6401    1.2061 -999.0000 -999.0000 
1577.0352   20.0000   14.8672   13.1250  -10.0170    1.0244    1.0986    1.1504  109.0000    1.4834    0.0078    0.5933    1.2080 -999.0000 -999.0000 
1577.1876   20.0000   15.4219   12.9375  -10.7888    0.9819    1.0654    1.1898  108.7500    1.4854    0.0107    0.5591    1.2051 -999.0000 -999.0000 
1577.3400   20.0000   16.6563   13.1172  -11.3105    0.9688    0.9917    0.8270  109.0000    1.4844    0.0107    0.5552    1.2031 -999.0000 -999.0000 
1577.4924   20.0000   16.7969   13.7500   -9.8323    0.9780    0.9722    0.6569  112.0000    1.4961    0.0229    0.5986    1.2051 -999.0000 -999.0000 
1577.6448   20.0000   18.2969   14.5469   -6.3540    0.9746    1.0186    0.6758  111.7500    1.4922    0.0186    0.5791    1.2070 -999.0000 -999.0000 
1577.7972   20.0000   16.9688   13.7109   -6.8446    0.9766    1.0361    0.6213  114.0000    1.4854    0.0112    0.5771    1.2070 -999.0000 -999.0000 
1577.9496   20.0000   16.9844   13.7188   -7.8819    0.9858    1.0439    0.6559  114.7500    1.4785    0.0039    0.5405    1.2012 -999.0000 -999.0000 
1578.1020   20.0000   17.3125   12.2188   -3.1224    1.0078    1.0967    0.7078  107.5625    1.4746    0.0010    0.5669    1.2021 -999.0000 -999.0000 
1578.2544   20.0000   17.6406   13.0703   -6.3629    1.0313    1.1318    1.0220  106.5625    1.4795    0.0054    0.5493    1.2012 -999.0000 -999.0000 
1578.4068   20.0000   17.4531   14.3672  -10.3847    1.0605    1.1641    1.4704  105.5625    1.4785    0.0039    0.5493    1.2031 -999.0000 -999.0000 
1578.5592   20.0000   17.2188   15.0156   -9.1252    1.0986    1.1045    1.6475   99.5625    1.4814    0.0073    0.5049    1.2002 -999.0000 -999.0000 
1578.7116   20.0000   17.0938   15.2344  -10.1625    1.1406    1.1348    1.7477  102.7500    1.4805    0.0059    0.4912    1.2012 -999.0000 -999.0000 
1578.8640   20.0000   17.0156   15.2344   -9.4030    1.1807    1.1162    1.7992  110.7500    1.4814    0.0073    0.5259    1.2002 -999.0000 -999.0000 
1579.0164   20.0000   17.7031   15.6953  -10.3936    1.1943    1.1172    1.7471  115.5625    1.4756    0.0015    0.5562    1.2021 -999.0000 -999.0000 
1579.1688   20.0000   18.4375   16.9688   -9.4309    1.2080    1.1641    1.6569  117.5625    1.4736   -0.0005    0.5801    1.1992 -999.0000 -999.0000 
1579.3212   20.0000   19.3906   16.5469   -8.9214    1.2275    1.2109    1.5599  120.0000    1.4736   -0.0005    0.5898    1.2012 -999.0000 -999.0000 
1579.4736   20.0000   18.7969   16.5000   -9.1620    1.2666    1.2373    1.5677  113.3750    1.4717   -0.0024    0.6060    1.1992 -999.0000 -999.0000 
1579.6260   20.0000   17.4063   15.4297   -8.4337    1.2686    1.2568    1.4372  118.0000    1.4756    0.0005    0.5825    1.1992 -999.0000 -999.0000 
1579.7784   20.0000   18.1406   15.2422   -9.9242    1.2725    1.2432    1.5628  115.7500    1.4736   -0.0010    0.5444    1.1953 -999.0000 -999.0000 
1579.9308   20.0000   19.2656   14.6484   -9.4146    1.2471    1.2012    1.3464  114.5625    1.4766    0.0024    0.5391    1.1943 -999.0000 -999.0000 
1580.0832   20.0000   18.1250   13.8125   -9.6552    1.2383    1.2285    1.2751  111.7500    1.4727   -0.0020    0.5518    1.1992 -999.0000 -999.0000 
1580.2356   20.0000   17.3281   12.7344  -10.6769    1.2129    1.2256    1.4121  112.0000    1.4766    0.0020    0.5728    1.2021 -999.0000 -999.0000 
1580.3880   20.0000   17.2500   13.8125  -10.4174    1.1748    1.2061    1.5010  112.3750    1.4785    0.0044    0.5620    1.1992 -999.0000 -999.0000 
1580.5404   20.0000   18.1094   15.5547  -11.4391    1.1182    1.2158    1.4834  113.1875    1.4824    0.0088    0.5894    1.1982 -999.0000 -999.0000 
1580.6928   20.0000   18.2188   16.0156  -11.4610    1.0459    1.0898    1.4235  115.1875    1.4834    0.0098    0.5752    1.1982 -999.0000 -999.0000 
1580.8452   20.0000   19.5000   16.2188  -12.2014    0.9980    0.9863    1.2327  119.0000    1.4814    0.0068    0.5894    1.1992 -999.0000 -999.0000 
1580.9976   20.0000   20.7656   15.5547  -10.7232    0.9448    0.9556    0.7340  119.5625    1.4844    0.0103    0.6309    1.1973 -999.0000 -999.0000 
1581.1500   20.0000   20.5469   15.1172  -10.9949    0.8726    0.9185    0.7218  117.3750    1.4854    0.0112    0.6768    1.1992 -999.0000 -999.0000 
1581.3024   20.0000   19.4688   12.5313   -9.9855    0.8354    0.8716    0.7293  114.7500    1.4922    0.0190    0.6699    1.2012 -999.0000 -999.0000 
1581.4548   20.0000   20.7813   12.1016   -9.4759    0.8076    0.8853    1.0729  111.7500    1.4854    0.0122    0.6211    1.2031 -999.0000 -999.0000 
1581.6072   20.0000   20.8594   13.8516   -8.9664    0.7871    0.8735    1.6911  113.1875    1.4834    0.0093    0.6133    1.1992 -999.0000 -999.0000 
1581.7596   20.0000   20.7188   14.9609   -7.4881    0.7744    0.8809    2.1784  114.0000    1.4824    0.0093    0.6250    1.1982 -999.0000 -999.0000 
1581.9120   20.0000   17.2500   14.5625   -7.5100    0.7764    0.8442    2.0931  114.3750    1.4775    0.0039    0.6782    1.1953 -999.0000 -999.0000 
1582.0644   20.0000   18.9844   14.3359   -9.5317    0.7813    0.8311    1.6507  117.0000    1.4746    0.0015    0.6782    1.1924 -999.0000 -999.0000 
1582.2168   20.0000   20.8594   14.5313   -5.5222    0.7900    0.8159    1.1676  123.1875    1.4707   -0.0034    0.6729    1.1904 -999.0000 -999.0000 
1582.3692   20.0000   20.8594   13.8750   -7.5595    0.8105    0.8213    1.3737  126.5625    1.4766    0.0020    0.6274    1.1904 -999.0000 -999.0000 
1582.5216   20.0000   20.8594   12.3594   -8.0657    0.8311    0.8623    1.8454  128.0000    1.4756    0.0010    0.6050    1.1943 -999.0000 -999.0000 
1582.6740   20.0000   20.8281   13.2500   -7.0718    0.8511    0.8794    2.5221  126.3750    1.4746   -0.0015    0.5620    1.1973 -999.0000 -999.0000 
1582.8264   20.0000   20.4063   15.8516   -7.3279    0.8706    0.9141    1.4805  121.7500    1.4727   -0.0039    0.5225    1.2021 -999.0000 -999.0000 
1582.9788   20.0000   18.7344   16.9375   -1.3340    0.8960    0.9297    1.0475  119.1875    1.4756   -0.0010    0.4844    1.2002 -999.0000 -999.0000 
