~VERSION INFORMATION
 VERS.                 2.0:   CWLS LOG ASCII STANDARD - VERSION 2.0
 WRAP.                  NO:   SINGLE LINE PER DEPTH STEP
 CREA.                 01/02/2018 09:37:14
#CREATED USING DSPetro VERSION 5000.10.1.3 BY H191660 ON 01/02/2018 09:37:14
~WELL INFORMATION
#MNEM.UNIT       DATA                          DESCRIPTION MNEMONIC
#---------      ---------------------------   --------------------------
 STRT    .M         0.0000                    : START DEPTH
 STOP    .M         3599.9928                 : STOP DEPTH
 STEP    .M         0.1524                    : STEP VALUE
 NULL    .      -999.0000                     : NULL VALUE
 DATE    .      01/02/2018                    : LAS file Creation Date
 WELL .      2881_Sirius-1-ESSO          : Well Name
 COMP .      Neftex Exploration Insights : Company
 FLD  .      SIRIUS (ESSO)               : Field
 UWI  .      ZAUWL_005217                : Unique Well Identifier (UWI)
 LOC  .                                  : Location
 RWS  .      0                           : Def_Rw
 WST  .      0                           : Def_Rwt
 MDEC .      0                           : Magnetic Declination
 SRVC .      SCH                         : Contractor
~CURVE INFORMATION
#MNEM              UNIT       API CODE   Curve Type Comments
#----------  --------------- ----------  ---------- -----------
 DEPTH      .M                         : Depth       
 BitSize    .in                        : BitSize     
 CAL_INCH   .inch                      : caliper     Caliper Log - A representation of the measured diameter of a borehole along its depth
 GR_API     .API                       : gammaRay    Gamma Ray (API) - Measures the intensity of natural gamma-ray radiation emitted from formations containing radioactive elements, such as K, Th and U
 SP_MV      .mv                        : SP          Spontaneous Potential - Records the electrical potential produced by the interaction of formation water, conductive drilling mud, and certain ion-sele
 ILD_OHMM   .ohmm                      : deepRes     Deep Induction Resistivity - Measurement made an induction log, made several feet into the formation
 SFLU_OHMM  .ohmm                      : shalRes     Shallow Spherically Focused Resistivity - A shallow resistivty measurement derived from the the Phasor Dual Induction - SFR tool
 MSFL_OHMM  .ohmm                      : microRes    Micro-Spherically Focused Log - Measurement involves only the first few inches of the formation immediately adjacent to the borehole
 DT_US_FT   .us/ft                     : sonic       Interval Transit Time: Compressional Wave - Evaluates the time it takes for a compressional wave to traverse a fixed distance
 RHOB_G_CC  .g/cc                      : density     Bulk Density - Measures the density of bulk material, including any void space or other materials contained in the subject volume
 DRHO_G_CC  .g/cc                      : drho        Density Correction - Investigates the correction to the Bulk Density log; used as an indication of hole condition to validate the Bulk Density measure
 NPHI_v_v   .dec                       : Neutron     
 PEF_B_E    .b/e-                      : PEF         Photoelectric Factor - A log of photoelectric absorption properties. Often expressed in an approximation unit barns/electron (b/e-)
 LITH       .                          : LITH        Lithology Curve
 LITH_v2    .                          : LITH        Lithology Curve
~A  DEPTH  BitSize   CAL_INCH   GR_API    SP_MV    ILD_OHMM SFLU_OHM  MSFL_OHM   DT_US_FT RHOB_G_C  DRHO_G_C   NPHI_v_v  PEF_B_E     LITH    LITH_v2  
# ...
1954.6824   18.0000   18.2969   24.6094  -11.2824    1.2481    1.1919    0.6830  117.3750    1.4932    0.0024    0.4214    1.1943 -999.0000 -999.0000 
1954.8348   18.0000   18.2813   24.6563  -12.6783    1.4132    1.2455    0.5903  110.5834    1.4902    0.0029    0.4243    1.2031 -999.0000 -999.0000 
1954.9872   18.0000   18.3281   22.2344  -12.8141    1.5352    1.4091    0.6960   96.2869    1.4883    0.0034    0.4072    1.2070 -999.0000 -999.0000 
1955.1396   18.0000   18.3750   21.4531  -12.0486    1.6568    2.4099    5.0199   88.4913    1.4873    0.0039    0.4331    1.2119 -999.0000 -999.0000 
1955.2920   18.0000   18.4219   21.6563  -12.7659    1.8050    3.5013   19.4088   82.0000    1.4932    0.0088    0.4336    1.2158 -999.0000 -999.0000 
1955.4444   18.0000   18.6094   22.4375  -12.8459    2.1237    3.9063    5.5400   87.0653    1.4961    0.0112    0.3823    1.2363 -999.0000 -999.0000 
1955.5968   18.0000   20.1406   24.5781  -12.3725    2.9418    2.5723    2.4456   97.7500    1.5068    0.0190    0.2983    1.2383 -999.0000 -999.0000 
1955.7492   18.0000   20.6094   24.0625  -12.1083    3.4736    2.1309    2.8042   97.2144    1.5137    0.0229    0.2720    1.2334 -999.0000 -999.0000 
1955.9016   18.0000   20.8594   25.1094  -11.8309    3.6113    2.5949    3.9281   94.3135    1.5078    0.0156    0.3057    1.2100 -999.0000 -999.0000 
1956.0540   18.0000   19.6250   22.4063  -12.3155    3.5286    3.5462    9.6611   81.2487    1.4971    0.0083    0.3696    1.2246 -999.0000 -999.0000 
1956.2064   18.0000   19.3906   22.6875   -8.3469    3.0845    4.7773   19.9167   68.5625    1.4902    0.0015    0.3784    1.2432 -999.0000 -999.0000 
1956.3588   18.0000   19.3125   22.1875  -11.8471    2.6310    4.7697   18.8416   78.4814    1.4990    0.0068    0.3564    1.2578 -999.0000 -999.0000 
1956.5112   18.0000   19.1875   23.8438   -9.6456    2.3802    3.2540    6.6753   91.2872    1.5107    0.0098    0.3311    1.2480 -999.0000 -999.0000 
1956.6636   18.0000   20.9063   24.4219   -9.3475    2.1366    2.0075    2.2442  102.3906    1.5205    0.0195    0.3525    1.2256 -999.0000 -999.0000 
1956.8160   18.0000   20.1875   23.6250  -10.5688    1.8807    1.5468    1.0952  109.9201    1.5068    0.0093    0.4077    1.2090 -999.0000 -999.0000 
1956.9684   18.0000   19.1406   22.2813  -11.5667    1.6221    1.4619    1.2523  122.1875    1.4980    0.0103    0.4570    1.1963 -999.0000 -999.0000 
1957.1208   18.0000   19.1563   20.9219  -12.0512    1.4502    1.3027    1.4183  129.5000    1.4873    0.0039    0.4819    1.1904 -999.0000 -999.0000 
1957.2732   18.0000   19.2500   22.7813  -11.8171    1.2871    1.2305    0.7516  118.7500    1.4834    0.0044    0.4761    1.1885 -999.0000 -999.0000 
1957.4256   18.0000   19.3125   24.0938  -10.3329    1.1992    1.4844    2.3841  115.0000    1.4844    0.0059    0.5098    1.1865 -999.0000 -999.0000 
1957.5780   18.0000   19.3281   26.7656  -10.0675    1.1475    1.5156    2.4707  107.3750    1.4834    0.0063    0.4878    1.1924 -999.0000 -999.0000 
1957.7304   18.0000   19.3594   29.9844  -11.8020    1.0957    1.5830    2.3099   99.3750    1.4814    0.0049    0.4331    1.2109 -999.0000 -999.0000 
1957.8828   18.0000   19.4375   38.2813  -10.3179    1.0449    1.5029    2.1667  113.3750    1.4805   -0.0010    0.3726    1.2236 -999.0000 -999.0000 
1958.0352   18.0000   19.5625   51.4688  -10.0993    1.0400    1.3135    1.9717  121.7500    1.4863    0.0005    0.3613    1.2314 -999.0000 -999.0000 
1958.1876   18.0000   19.5938   68.8750   -9.0995    1.0029    1.1660    1.9603  124.7500    1.4990    0.0083    0.3970    1.2217 -999.0000 -999.0000 
1958.3400   18.0000   19.7031   83.8750   -4.5997    0.9575    1.1357    1.9469  125.7500    1.5049    0.0146    0.4048    1.2168 -999.0000 -999.0000 
1958.4924   18.0000   19.8438   90.8125   -8.3499    0.9043    1.0908    2.1725  127.7500    1.5049    0.0132    0.4082    1.2090 -999.0000 -999.0000 
1958.6448   18.0000   19.9063   84.9375   -7.1001    0.8604    1.0400    1.8141  126.3750    1.5010    0.0083    0.4272    1.2100 -999.0000 -999.0000 
1958.7972   18.0000   20.0625   75.8125   -9.1003    0.8105    0.9956    1.7884  131.0000    1.5010    0.0078    0.4043    1.2070 -999.0000 -999.0000 
1958.9496   18.0000   20.2188   65.0000  -10.6005    0.7837    0.9780    2.1445  131.7500    1.5059    0.0142    0.4229    1.1973 -999.0000 -999.0000 
1959.1020   18.0000   20.5938   60.0625   -9.3507    0.7715    0.9448    1.9023  132.3750    1.5117    0.0200    0.4185    1.1973 -999.0000 -999.0000 
1959.2544   18.0000   20.9063   60.0313  -11.1009    0.7593    0.9180    1.7477  132.7500    1.5059    0.0161    0.4756    1.1963 -999.0000 -999.0000 
1959.4068   18.0000   20.9219   61.6875  -10.8511    0.7505    0.9106    1.9069  133.1250    1.5020    0.0137    0.4614    1.2051 -999.0000 -999.0000 
1959.5592   18.0000   20.9219   66.2500  -10.6013    0.7388    0.9219    2.0059  133.0000    1.4980    0.0127    0.4497    1.1943 -999.0000 -999.0000 
1959.7116   18.0000   20.9219   67.1250  -12.1015    0.7310    0.9497    2.2520  131.7500    1.4941    0.0098    0.4404    1.1934 -999.0000 -999.0000 
1959.8640   18.0000   20.9219   68.1875  -11.8517    0.7300    0.9736    2.1628  130.0000    1.4883    0.0049    0.4214    1.1885 -999.0000 -999.0000 
1960.0164   18.0000   20.9219   71.8125  -12.1019    0.7310    0.9556    2.1758  127.7500    1.4883    0.0059    0.4165    1.1904 -999.0000 -999.0000 
1960.1688   18.0000   20.9219   72.9375  -12.3834    0.7334    0.9282    1.6615  133.5000    1.4902    0.0083    0.4014    1.1885 -999.0000 -999.0000 
1960.3212   18.0000   20.9219   75.6250  -12.1336    0.7422    0.8965    1.1917  133.1250    1.4863    0.0059    0.4385    1.1895 -999.0000 -999.0000 
1960.4736   18.0000   20.9219   71.6875  -11.8838    0.7500    0.8779    0.9976  131.7500    1.4824    0.0010    0.4570    1.1855 -999.0000 -999.0000 
1960.6260   18.0000   20.9219   71.6875  -11.1340    0.7563    0.8750    0.9393  132.1250    1.4834    0.0034    0.4766    1.1855 -999.0000 -999.0000 
1960.7784   18.0000   20.9219   74.6875   -9.8529    0.7671    0.8911    0.8610  129.5000    1.4912    0.0117    0.5015    1.1855 -999.0000 -999.0000 
1960.9308   18.0000   20.9219   78.6875  -10.1031    0.7700    0.8838    1.1208  125.5625    1.5020    0.0249    0.4746    1.1855 -999.0000 -999.0000 
1961.0832   18.0000   20.9219   85.2500  -11.3377    0.7813    0.8809    1.0944  127.1875    1.5029    0.0254    0.4810    1.1855 -999.0000 -999.0000 
1961.2356   18.0000   20.9219   81.3750  -11.5723    0.8032    0.8774    1.5299  125.5625    1.5010    0.0239    0.4487    1.1826 -999.0000 -999.0000 
1961.3880   18.0000   20.9219   77.6250  -12.1037    0.8350    0.8745    1.7503  127.5625    1.5010    0.0234    0.5313    1.1875 -999.0000 -999.0000 
1961.5404   18.0000   20.9219   67.3125  -11.6039    0.8779    0.9126    2.1097  127.0000    1.4941    0.0161    0.5029    1.1973 -999.0000 -999.0000 
1961.6928   18.0000   20.9219   59.8750  -11.8385    0.9116    0.9634    1.2549  123.7500    1.4893    0.0103    0.4917    1.2119 -999.0000 -999.0000 
1961.8452   18.0000   20.9219   49.5313   -9.0730    0.9443    1.1201    1.6403  120.3750    1.4863    0.0039    0.4683    1.2061 -999.0000 -999.0000 
1961.9976   18.0000   20.9219   36.7813   -9.3076    0.9824    1.1758    0.8893  115.7500    1.4873    0.0054    0.4976    1.2051 -999.0000 -999.0000 
1962.1500   18.0000   20.9219   27.3281   -9.2922    1.0098    1.1650    0.6572  115.3750    1.4902    0.0063    0.5054    1.1992 -999.0000 -999.0000 
1962.3024   18.0000   20.9219   20.2188   -7.3080    1.0322    1.1309    0.6549  112.5625    1.4971    0.0112    0.4902    1.2061 -999.0000 -999.0000 
1962.4548   18.0000   20.9219   21.2969   -7.3238    1.0635    1.1016    0.9258  114.3750    1.4990    0.0127    0.4863    1.1982 -999.0000 -999.0000 
1962.6072   18.0000   20.9219   20.5000  -12.5897    1.0869    1.1299    0.9922  114.0000    1.4941    0.0112    0.4917    1.1943 -999.0000 -999.0000 
