~VERSION INFORMATION
 VERS.                 2.0:   CWLS LOG ASCII STANDARD - VERSION 2.0
 WRAP.                  NO:   SINGLE LINE PER DEPTH STEP
 CREA.                 01/02/2018 09:37:14
#CREATED USING DSPetro VERSION 5000.10.1.3 BY H191660 ON 01/02/2018 09:37:14
~WELL INFORMATION
#MNEM.UNIT       DATA                          DESCRIPTION MNEMONIC
#---------      ---------------------------   --------------------------
 STRT    .M         0.0000                    : START DEPTH
 STOP    .M         3599.9928                 : STOP DEPTH
 STEP    .M         0.1524                    : STEP VALUE
 NULL    .      -999.0000                     : NULL VALUE
 DATE    .      01/02/2018                    : LAS file Creation Date
 WELL .      2881_Sirius-1-ESSO          : Well Name
 COMP .      Neftex Exploration Insights : Company
 FLD  .      SIRIUS (ESSO)               : Field
 UWI  .      ZAUWL_005217                : Unique Well Identifier (UWI)
 LOC  .                                  : Location
 RWS  .      0                           : Def_Rw
 WST  .      0                           : Def_Rwt
 MDEC .      0                           : Magnetic Declination
 SRVC .      SCH                         : Contractor
~CURVE INFORMATION
#MNEM              UNIT       API CODE   Curve Type Comments
#----------  --------------- ----------  ---------- -----------
 DEPTH      .M                         : Depth       
 BitSize    .in                        : BitSize     
 CAL_INCH   .inch                      : caliper     Caliper Log - A representation of the measured diameter of a borehole along its depth
 GR_API     .API                       : gammaRay    Gamma Ray (API) - Measures the intensity of natural gamma-ray radiation emitted from formations containing radioactive elements, such as K, Th and U
 SP_MV      .mv                        : SP          Spontaneous Potential - Records the electrical potential produced by the interaction of formation water, conductive drilling mud, and certain ion-sele
 ILD_OHMM   .ohmm                      : deepRes     Deep Induction Resistivity - Measurement made an induction log, made several feet into the formation
 SFLU_OHMM  .ohmm                      : shalRes     Shallow Spherically Focused Resistivity - A shallow resistivty measurement derived from the the Phasor Dual Induction - SFR tool
 MSFL_OHMM  .ohmm                      : microRes    Micro-Spherically Focused Log - Measurement involves only the first few inches of the formation immediately adjacent to the borehole
 DT_US_FT   .us/ft                     : sonic       Interval Transit Time: Compressional Wave - Evaluates the time it takes for a compressional wave to traverse a fixed distance
 RHOB_G_CC  .g/cc                      : density     Bulk Density - Measures the density of bulk material, including any void space or other materials contained in the subject volume
 DRHO_G_CC  .g/cc                      : drho        Density Correction - Investigates the correction to the Bulk Density log; used as an indication of hole condition to validate the Bulk Density measure
 NPHI_v_v   .dec                       : Neutron     
 PEF_B_E    .b/e-                      : PEF         Photoelectric Factor - A log of photoelectric absorption properties. Often expressed in an approximation unit barns/electron (b/e-)
 LITH       .                          : LITH        Lithology Curve
 LITH_v2    .                          : LITH        Lithology Curve
~A  DEPTH  BitSize   CAL_INCH   GR_API    SP_MV    ILD_OHMM SFLU_OHM  MSFL_OHM   DT_US_FT RHOB_G_C  DRHO_G_C   NPHI_v_v  PEF_B_E     LITH    LITH_v2  
# ...
3230.8800    8.5000    8.2813   87.2500    1.8913    4.3251    5.0156    5.4206   86.7500    2.3516    0.0020    0.2925    3.0625   37.0000   37.0000 
3231.0324    8.5000    8.2188   94.7500    1.8415    4.4541    5.1646    5.4375   87.0149    2.3418    0.0049    0.2808    3.0332   37.0000   37.0000 
3231.1848    8.5000    8.2031  107.8750    2.1021    4.5327    5.3432    5.1311   87.1875    2.3457    0.0142    0.2837    2.9648   37.0000   37.0000 
3231.3372    8.5000    8.2578  115.7500    2.3461    4.5391    5.4900    4.7708   87.9932    2.3652    0.0239    0.2856    2.9531   37.0000   37.0000 
3231.4896    8.5000    8.2578  122.3125    2.6674    4.5616    5.6055    4.7723   89.2467    2.3867    0.0210    0.3120    3.0684   37.0000   37.0000 
3231.6420    8.5000    8.2422  118.8125    3.1439    4.6290    5.5435    5.3047   89.8916    2.3965    0.0112    0.3135    3.0488   37.0000   37.0000 
3231.7944    8.5000    8.2109  113.1875    3.6900    4.7422    5.3265    4.9466   90.3750    2.4004    0.0117    0.3032    2.7832   37.0000   37.0000 
3231.9468    8.5000    8.1875  100.8125    3.9484    4.7315    5.1289    5.2485   87.5625    2.3809    0.0049    0.2827    2.6348   37.0000   37.0000 
3232.0992    8.5000    8.1953   93.1875    4.2655    4.6219    5.3765    6.5091   87.6632    2.3535    0.0054    0.2622    2.5371   37.0000   37.0000 
3232.2516    8.5000    8.2031   90.3750    4.6612    4.3724    5.8597    6.0273   88.7058    2.3242    0.0034    0.2524    2.6934   37.0000   37.0000 
3232.4040    8.5000    8.1797   94.7500    4.3191    4.0395    6.1719    6.7995   94.1237    2.3398    0.0083    0.2563    2.9355   37.0000   37.0000 
3232.5564    8.5000    8.1563   98.6250    3.6181    3.7522    5.8644    6.5753  101.7393    2.3613    0.0093    0.2549    3.2480   37.0000   37.0000 
3232.7088    8.5000    8.1953  102.0000    2.8568    3.5657    5.0703    5.2744  106.8677    2.3711    0.0063    0.2773    3.4414   37.0000   37.0000 
3232.8612    8.5000    8.2344  104.9375    2.1565    3.4234    4.1469    3.5570  109.9402    2.3770    0.0083    0.2725    3.5527   37.0000   37.0000 
3233.0136    8.5000    8.2422  103.8750    1.6985    3.3115    3.4405    2.9017  111.1875    2.4004    0.0117    0.3223    3.5176   37.0000   37.0000 
3233.1660    8.5000    8.3672  102.4375    1.4323    3.2353    3.1094    4.0595   98.8008    2.3652    0.0103    0.4053    3.3184   37.0000   37.0000 
3233.3184    8.5000    8.5859  110.7500    1.1087    3.2013    3.0586    4.2331   93.9468    2.1836    0.0142    0.5024    3.2090   10.0000   10.0000 
3233.4708    8.5000    9.0703  120.0000    0.7187    3.1992    3.6939    3.9798   93.0000    2.1250    0.0342    0.5024    3.0684   10.0000   10.0000 
3233.6232    8.5000    8.4609  139.0000    0.3979    3.5062    4.4431    4.6213   92.1250    2.1719    0.0610    0.4565    2.8535   10.0000   10.0000 
3233.7756    8.5000    8.4063  146.8750    0.2563    3.8663    5.2449    4.9139   91.0000    2.3262    0.0537    0.4150    2.7324   37.0000   37.0000 
3233.9280    8.5000    8.3828  154.7500    0.8851    4.2949    5.6922    5.2760   93.0588    2.4277    0.0308    0.3989    2.7188   37.0000   37.0000 
3234.0804    8.5000    8.3750  151.1250    2.0404    4.6718    5.6864    4.8668   93.7500    2.4414    0.0112    0.3799    2.9063   37.0000   37.0000 
3234.2328    8.5000    8.3281  134.7500    3.3788    4.8842    5.6055    4.6341   91.5400    2.4375    0.0088    0.3486    3.0449   37.0000   37.0000 
3234.3852    8.5000    8.2813  114.1875    4.8690    4.9677    5.8891    5.8318   90.0281    2.4121    0.0117    0.3228    2.9883   37.0000   37.0000 
3234.5376    8.5000    8.2500   86.2500    5.7750    4.9844    6.0452    6.8626   88.5718    2.3809    0.0117    0.2925    3.0371   37.0000   37.0000 
3234.6900    8.5000    8.1484   81.5000    5.9599    4.9146    6.0938    7.2435   87.5625    2.3516    0.0122    0.2627    2.8242   37.0000   37.0000 
3234.8424    8.5000    8.1484   90.6250    5.6371    4.8330    5.9456    6.9200   88.0000    2.3105    0.0078    0.2622    2.7598   37.0000   37.0000 
3234.9948    8.5000    8.2188  111.4375    5.6385    4.7711    5.7479    6.5356   88.1311    2.3125    0.0151    0.2744    2.7910   37.0000   37.0000 
3235.1472    8.5000    8.2891  126.3125    4.9187    4.7172    5.6468    5.9801   88.5024    2.3477    0.0195    0.3052    2.9746   37.0000   37.0000 
3235.2996    8.5000    8.2656  128.0000    4.1470    4.6837    5.6971    5.5065   88.5024    2.4297    0.0298    0.3149    3.2363   37.0000   37.0000 
3235.4520    8.5000    8.2656  127.6875    2.8797    4.6680    5.8672    5.8394   88.0000    2.4668    0.0181    0.3184    3.1738   37.0000   37.0000 
3235.6044    8.5000    8.2109  119.6250    1.6737    4.6777    5.7377    5.7439   89.3622    2.4590    0.0103    0.3081    3.2852   37.0000   37.0000 
3235.7568    8.5000    8.2188  117.5625    0.6699    4.7145    5.5401    5.3255   90.0508    2.4355    0.0103    0.2983    3.2891   37.0000   37.0000 
3235.9092    8.5000    8.2188  113.3750    0.2142    4.7864    5.4063    6.3023   90.7500    2.4375    0.0088    0.2876    3.6367   37.0000   37.0000 
3236.0616    8.5000    8.2188  113.4375    0.1956    4.9255    5.5300    6.7644   90.0527    2.4297    0.0039    0.2827    3.6133   37.0000   37.0000 
3236.2140    8.5000    8.2422  113.0625    0.1855    5.1204    5.8475    7.2305   88.7500    2.4336    0.0024    0.2964    3.6016   37.0000   37.0000 
3236.3664    8.5000    8.2109  122.7500    0.2142    5.4206    6.2864    6.7356   91.0772    2.4023    0.0029    0.3110    2.9492   37.0000   37.0000 
3236.5188    8.5000    8.2422  126.9375    0.3593    5.9565    6.6793    6.0334   92.3464    2.3945    0.0112    0.3174    3.0684   37.0000   37.0000 
3236.6712    8.5000    8.2656  135.2500    0.8330    6.6621    7.0135    5.3555   93.6172    2.4023    0.0181    0.3179    2.9824   37.0000   37.0000 
3236.8236    8.5000    8.2500  127.2500    1.6228    7.2536    7.6598    5.4957   94.3750    2.4355    0.0298    0.3237    3.6406   37.0000   37.0000 
3236.9760    8.5000    8.2891  114.9375    2.1943    7.7325    8.5292    5.5846   94.1543    2.4531    0.0137    0.3213    3.4258   37.0000   37.0000 
3237.1284    8.5000    8.2656   99.3750    2.6444    8.0618    8.6875    4.8308   93.1641    2.4609    0.0220    0.3066    3.1504   37.0000   37.0000 
3237.2808    8.5000    8.1875   86.1875    2.9719    8.2344    7.9638    4.6120   92.0104    2.4160    0.0107    0.2764    2.9395   37.0000   37.0000 
3237.4332    8.5000    8.1953   77.9375    3.1530    8.0417    7.7891    5.2761   90.5625    2.3652    0.0249    0.2554    2.7637   37.0000   37.0000 
3237.5856    8.5000    8.1953   69.0625    2.8505    7.7146    7.7891    5.7270   91.4032    2.2969    0.0039    0.2358    2.8145   36.0000   36.0000 
3237.7380    8.5000    8.1797   68.3750    2.0352    7.3165    7.7421    5.7760   92.4072    2.2637    0.0049    0.2236    2.6660   36.0000   36.0000 
3237.8904    8.5000    8.1953   76.3125    1.5676    6.9599    7.4586    5.0920   92.5321    2.2734    0.0083    0.2280    2.6270   36.0000   36.0000 
3238.0428    8.5000    8.2031   78.6875    1.1776    6.6189    7.1272    4.8692   92.3750    2.2988    0.0156    0.2393    2.5918   36.0000   36.0000 
3238.1952    8.5000    8.2109   76.8125    0.7520    6.2708    6.8879    4.5039   93.5625    2.3594    0.0269    0.2578    2.7168   37.0000   37.0000 
3238.3476    8.5000    8.2109   69.0625    0.1685    5.8994    6.6374    4.6260   93.5625    2.3594    0.0054    0.2598    3.0098   37.0000   37.0000 
3238.5000    8.5000    8.2109   69.3750   -0.0744    5.5242    6.3114    4.8210   93.4625    2.3516    0.0029    0.2573    2.8398   37.0000   37.0000 
3238.6524    8.5000    8.2266   72.9375   -0.3397    5.1392    6.1044    4.9141   92.5022    2.3145   -0.0005    0.2627    2.7520   37.0000   37.0000 
3238.8048    8.5000    8.2422   78.1875    0.2172    4.8995    5.8245    5.1551   90.4202    2.3008    0.0068    0.2510    2.4512   36.0000   36.0000 
