~VERSION INFORMATION
 VERS.                 2.0:   CWLS LOG ASCII STANDARD - VERSION 2.0
 WRAP.                  NO:   SINGLE LINE PER DEPTH STEP
 CREA.                 13/04/2018 14:39:10
#CREATED USING DSPetro VERSION 5000.10.1.3 BY H191660 ON 13/04/2018 14:39:10
~WELL INFORMATION
#MNEM.UNIT       DATA                          DESCRIPTION MNEMONIC
#---------      ---------------------------   --------------------------
 STRT    .M         1974.9472                 : START DEPTH
 STOP    .M         3799.9372                 : STOP DEPTH
 STEP    .M         0.1524                    : STEP VALUE
 NULL    .      -999.0000                     : NULL VALUE
 DATE    .      13/04/2018                    : LAS file Creation Date
 WELL .      34-10-30     : Well Name
 COMP .                   : Company
 FLD  .      GULLFAKS SOR : Field
 UWI  .      YNOWL_341030 : Unique Well Identifier (UWI)
 LOC  .                   : Location
 RWS  .      0            : Def_Rw
 WST  .      0            : Def_Rwt
 MDEC .      0            : Magnetic Declination
 SRVC .      SCH          : Contractor
~CURVE INFORMATION
#MNEM                 UNIT       API CODE   Curve Type Comments
#----------     --------------- ----------  ---------- -----------
 DEPTH         .M                         : Depth       
 CAL_INCH      .inch                      :             Caliper Log - A representation of the measured diameter of a borehole along its depth
 GR_API        .API                       : GammaRay    Gamma Ray (API) - Measures the intensity of natural gamma-ray radiation emitted from formations containing radioactive elements, such as K, Th and U
 DT_US_FT      .us/ft                     :             Interval Transit Time: Compressional Wave - Evaluates the time it takes for a compressional wave to traverse a fixed distance
 RD_OHMM       .ohmm                      :             Unspecified Deep Resistivity - No accroynm or method of attainment is specified - units of ohmm
 RM_OHMM       .ohm.m                     :             Unspecified Medium Resistivity - No accroynm or method of attainment is specified
 RS_OHMM       .ohmm                      :             Unspecified Shallow Resistivity - No accroynm or method of attainment is specified
 NEUT_P_RATIO  .ratio                     :             Unspecified Neutron Porosity Log - No accroynm or method of attainment is specified
 RHOB_G_CC     .g/cc                      :             Bulk Density - Measures the density of bulk material, including any void space or other materials contained in the subject volume
 LITH_v1       .                          :             LITH        Lithology Curve
 Comp_Core_log .                          :             
~A  DEPTH  CAL_INCH   GR_API   DT_US_FT  RD_OHMM   RM_OHMM   RS_OHMM  NEUT_P_R~ RHOB_G_C~  LITH_v1  Comp+Cor~ 
# ...
3176.4688    8.0493   43.8564   97.6497  113.5929  129.9231    8.3374    0.1328    2.2371   33.0000   27.0000 
3176.6212    8.0768   39.7441   99.9583   62.8427  129.3791   11.9595    0.1351    2.2484   33.0000   27.0000 
3176.7736    8.0807   40.6405  102.0317   57.5000  107.0362   12.1607    0.1803    2.2605   27.0000   27.0000 
3176.9260    8.0808   42.9544  103.0143   52.6498  101.9834   12.2392    0.2106    2.2692   36.0000   27.0000 
3177.0784    8.0799   45.7858   99.4000   78.3942   54.1402   10.4470    0.1867    2.2332   27.0000   27.0000 
3177.2308    8.0711   45.4393   99.9390   93.3662   46.5792    9.4006    0.1640    2.2020   33.0000   27.0000 
3177.3832    7.8476   44.8850  101.2416   96.2171   42.4244    7.9654    0.1350    2.1859   33.0000   27.0000 
3177.5356    8.2218   40.2454  102.5862   99.0222   30.4248    9.5483    0.1154    2.1042   33.0000   27.0000 
3177.6880   13.4850   35.5740   99.9497   17.0329   27.0814    0.5075    0.1920    2.1015   33.0000   27.0000 
3177.8404   13.9711   35.4392   98.1040    8.4444   26.5063    0.2339    0.2350    2.1167   33.0000   27.0000 
3177.9928   14.3690   37.0752   95.3278    6.1932   24.0244    0.2305    0.3212    2.1400   11.0000   27.0000 
3178.1452   15.9676   47.8594   91.4868    3.1128    5.3529    0.2274    0.4467    2.1871   11.0000   27.0000 
3178.2976   16.0449   47.3266   95.4598    2.8269    3.6994    0.2253    0.4685    2.1877   11.0000   27.0000 
3178.4500   16.0795   44.4444   98.2134    3.0053    2.4610    0.2265    0.4689    2.1823   11.0000   27.0000 
3178.6024   17.0214   39.7599  106.1416    2.9107    2.6788    0.2301    0.4501    2.1628   11.0000   27.0000 
3178.7548   16.9416   41.8139  106.2899    2.8745    2.8691    0.2540    0.4295    2.1462   11.0000   27.0000 
3178.9072   16.8055   42.5186  105.5632    2.8226    2.9261    0.2750    0.3960    2.1432   11.0000   27.0000 
3179.0596   14.7464   47.8338   96.6826    2.0543    4.0160    0.6475    0.3418    2.1095   11.0000   27.0000 
3179.2120   12.3107   55.8807   92.9773    2.2676    4.9972    0.4248    0.3429    2.1203   11.0000   27.0000 
3179.3644   12.2519   60.3170   99.0483    2.5190    5.1377    0.4079    0.3492    2.1774   11.0000   27.0000 
3179.5168   12.2717   64.9592  100.7467    2.7851    5.2287    0.3834    0.3447    2.1909   11.0000   37.0000 
3179.6692    9.3856   83.3322   97.8052    3.4712    4.7856   12.0889    0.3347    2.4443   11.0000   37.0000 
3179.8216    9.1873   83.9230   93.9967    5.4958    4.9426    8.3360    0.3236    2.5287   11.0000   37.0000 
3179.9740    9.1035   85.4680   92.1758    8.0545    5.5889   10.5157    0.2851    2.5915   11.0000   37.0000 
3180.1264    8.8089   87.7054   78.3569   11.8552   11.6474   10.2427    0.2400    2.5856   37.0000   37.0000 
3180.2788    8.8778   80.8570   75.7261   14.3729   12.7673   14.6754    0.2152    2.5832   37.0000   37.0000 
3180.4312    8.8801   82.4102   74.5747   16.8444   14.1088   14.3599    0.1951    2.5707   37.0000   37.0000 
3180.5836    8.6946   76.2767   73.9752   19.6122   19.4479   14.2034    0.1816    2.4644   37.0000   37.0000 
3180.7360    8.5529   69.7331   80.7606   21.5671   18.9925   12.3151    0.1794    2.3973   36.0000   38.0000 
3180.8884    8.5504   66.3130   83.3584   20.4254   18.4323   12.2591    0.1782    2.3911   36.0000   38.0000 
3181.0408    8.5601   64.3740   87.1261   19.9322   17.8827   10.2627    0.1772    2.3850   36.0000   38.0000 
3181.1932    8.3372   62.1684   91.2628   20.6567   17.5076    7.8904    0.1792    2.3697   36.0000   38.0000 
3181.3456    8.3257   63.4752   92.7510   19.7618   18.3170    8.4715    0.1821    2.3452   36.0000   38.0000 
3181.4980    8.3256   63.1154   92.7917   19.5271   18.7375    8.0967    0.1821    2.3348   36.0000   37.0000 
3181.6504    8.3256   59.4768   95.9479   20.1514   21.5578    7.3808    0.2099    2.3109   36.0000   37.0000 
3181.8028    8.3256   59.8918   95.2324   20.5973   22.3210    6.8465    0.2305    2.3358   36.0000   37.0000 
3181.9552    8.3106   60.5249   96.3413   21.2635   22.5148    5.9496    0.2367    2.3492   36.0000   37.0000 
3182.1076    8.2947   69.7614   89.9818   22.7624   24.2241    7.4351    0.2063    2.4014   36.0000   11.0000 
3182.2600    8.2956   68.3462   97.8844   22.2752   33.3765   12.7347    0.1865    2.3811   36.0000   11.0000 
3182.4124    8.3150   65.9692   95.0026   22.0869   35.9302   13.2710    0.1775    2.3213   36.0000   11.0000 
3182.5648    8.3251   62.1034   93.8240   22.3433   37.8480   13.8004    0.1800    2.2833   27.0000   27.0000 
3182.7172    8.3180   57.0564   97.7915   24.2734   39.7118    9.3481    0.1834    2.2660   27.0000   27.0000 
3182.8696    8.3043   53.3781  100.0549   26.9760   39.3782    7.9511    0.1713    2.2556   27.0000   27.0000 
3183.0220    8.2667   52.7499  101.0959   30.7090   37.2785    6.8053    0.1570    2.2644   33.0000   27.0000 
3183.1744    8.2316   51.3424   97.9688   34.4720   42.3255    8.2947    0.1584    2.2732   27.0000   27.0000 
3183.3268    8.2065   48.2081   98.2351   33.3658   46.7113    9.1483    0.1594    2.2720   27.0000   27.0000 
3183.4792    8.1911   50.0161   97.4810   31.5873   50.3933    9.3016    0.1596    2.2695   27.0000   27.0000 
3183.6316    8.3023   50.5378   98.3067   32.3603   52.8586    6.9794    0.1605    2.2690   27.0000   27.0000 
3183.7840    8.3153   47.8340   99.0237   32.5459   54.3201    9.4123    0.1647    2.2393   33.0000   27.0000 
3183.9364    8.3205   46.6552   99.6779   32.3415   55.3236    9.4286    0.1592    2.2275   33.0000   27.0000 
3184.0888    8.3108   46.0735   99.9261   31.6912   56.0840    9.4717    0.1535    2.2349   33.0000   27.0000 
3184.2412    8.2755   45.1458  100.5241   32.5253   43.3008    6.3934    0.1451    2.2525   33.0000   27.0000 
3184.3936    8.2395   45.6586   99.1113   31.8455   41.0145    7.2816    0.1460    2.2665   33.0000   27.0000 
3184.5460    8.2075   47.5605   96.9314   25.5223   40.0791    7.7415    0.1530    2.2559   33.0000   27.0000 
3184.6984    8.2029   46.4449   94.3157   24.0246   45.1465    9.9690    0.1597    2.2447   33.0000   27.0000 
3184.8508    8.2301   45.9281   93.5655   24.6318   48.6211   12.4024    0.1571    2.2485   33.0000   27.0000 
3185.0032    8.2818   45.8087   93.0870   25.3152   51.2378   20.0124    0.1545    2.2551   33.0000   27.0000 
3185.1556    8.3195   49.5049   79.2849   31.3564   45.1261    6.1297    0.1392    2.2695   33.0000   27.0000 
3185.3080    8.2930   47.7719   69.7601   38.3235   41.3310    5.6100    0.1357    2.2878   33.0000   27.0000 
3185.4604    8.2809   46.2191   67.5083   35.9601   42.8902    5.5124    0.1359    2.3017   33.0000   27.0000 
3185.6128    8.2806   44.8459   66.7466   33.8133   44.0748    5.4276    0.1354    2.3165   33.0000   27.0000 
3185.7652    8.2806   46.6864   65.6568   31.4674   46.0668    7.8626    0.1258    2.3612   27.0000   27.0000 
3185.9176    8.2806   46.8030   70.3188   33.2448   37.0919    7.0668    0.1124    2.4108   27.0000   27.0000 
3186.0700    8.2848   46.7441   71.1058   34.8351   31.5718    7.0705    0.0966    2.4553   27.0000   27.0000 
3186.2224    8.3121   39.0969   79.5507   46.4539   26.2395    4.4700    0.0829    2.4888   27.0000   27.0000 
3186.3748    8.3204   36.4608   81.7342   52.1314   24.7007    4.6481    0.0912    2.4920   27.0000   27.0000 
3186.5272    8.3336   34.0427   75.9649   56.7860   24.0051    5.3052    0.0974    2.5010   27.0000   27.0000 
3186.6796    8.4034   30.9092   93.5148   33.7412   22.5918    8.6038    0.2874    2.5105   11.0000   27.0000 
3186.8320    9.0061   33.0524   92.1803   19.9662   21.8657    6.2923    0.2946    2.5101   11.0000   27.0000 
3186.9844    9.1608   36.3554   93.8245   16.7775   18.7863    5.4862    0.2960    2.5085   11.0000   27.0000 
3187.1368    9.6413   40.4682   90.3485   14.8704   16.3964    4.6999    0.2970    2.4982   11.0000   27.0000 
3187.2892   10.9256   45.1092   73.6291   13.6147   10.3864    6.3706    0.1804    2.4950   11.0000   27.0000 
3187.4416   11.0014   40.9589   74.7800   15.2485    9.6817    4.0563    0.1647    2.3886   36.0000   27.0000 
