~VERSION INFORMATION
 VERS.                 2.0:   CWLS LOG ASCII STANDARD - VERSION 2.0
 WRAP.                  NO:   SINGLE LINE PER DEPTH STEP
 CREA.                 13/04/2018 14:39:10
#CREATED USING DSPetro VERSION 5000.10.1.3 BY H191660 ON 13/04/2018 14:39:10
~WELL INFORMATION
#MNEM.UNIT       DATA                          DESCRIPTION MNEMONIC
#---------      ---------------------------   --------------------------
 STRT    .M         1974.9472                 : START DEPTH
 STOP    .M         3799.9372                 : STOP DEPTH
 STEP    .M         0.1524                    : STEP VALUE
 NULL    .      -999.0000                     : NULL VALUE
 DATE    .      13/04/2018                    : LAS file Creation Date
 WELL .      34-10-30     : Well Name
 COMP .                   : Company
 FLD  .      GULLFAKS SOR : Field
 UWI  .      YNOWL_341030 : Unique Well Identifier (UWI)
 LOC  .                   : Location
 RWS  .      0            : Def_Rw
 WST  .      0            : Def_Rwt
 MDEC .      0            : Magnetic Declination
 SRVC .      SCH          : Contractor
~CURVE INFORMATION
#MNEM                 UNIT       API CODE   Curve Type Comments
#----------     --------------- ----------  ---------- -----------
 DEPTH         .M                         : Depth       
 CAL_INCH      .inch                      :             Caliper Log - A representation of the measured diameter of a borehole along its depth
 GR_API        .API                       : GammaRay    Gamma Ray (API) - Measures the intensity of natural gamma-ray radiation emitted from formations containing radioactive elements, such as K, Th and U
 DT_US_FT      .us/ft                     :             Interval Transit Time: Compressional Wave - Evaluates the time it takes for a compressional wave to traverse a fixed distance
 RD_OHMM       .ohmm                      :             Unspecified Deep Resistivity - No accroynm or method of attainment is specified - units of ohmm
 RM_OHMM       .ohm.m                     :             Unspecified Medium Resistivity - No accroynm or method of attainment is specified
 RS_OHMM       .ohmm                      :             Unspecified Shallow Resistivity - No accroynm or method of attainment is specified
 NEUT_P_RATIO  .ratio                     :             Unspecified Neutron Porosity Log - No accroynm or method of attainment is specified
 RHOB_G_CC     .g/cc                      :             Bulk Density - Measures the density of bulk material, including any void space or other materials contained in the subject volume
 LITH_v1       .                          :             LITH        Lithology Curve
 Comp_Core_log .                          :             
~A  DEPTH  CAL_INCH   GR_API   DT_US_FT  RD_OHMM   RM_OHMM   RS_OHMM  NEUT_P_R~ RHOB_G_C~  LITH_v1  Comp+Cor~ 
# ...
2575.7080   13.0826   50.4246  104.8339    1.4939    1.8761    3.0138    0.3242    2.4545   37.0000   37.0000 
2575.8604   13.0827   52.8861  104.9090    1.5134    1.9261    3.2342    0.3245    2.4487   37.0000   37.0000 
2576.0128   13.0827   54.2447  104.9149    1.5305    1.9646    3.3546    0.3257    2.4436   37.0000   37.0000 
2576.1652   13.0827   54.9808  104.9956    1.5465    1.9416    3.4153    0.3145    2.4410   37.0000   37.0000 
2576.3176   13.0828   54.2577  106.5866    1.5626    1.9239    3.0688    0.3411    2.4456   37.0000   37.0000 
2576.4700   13.0828   52.9161  106.9870    1.5790    1.9438    3.1285    0.3462    2.4521   37.0000   37.0000 
2576.6224   13.0828   54.8194  106.9181    1.5955    1.9845    3.6597    0.3482    2.4409   37.0000   37.0000 
2576.7748   13.0829   53.7967  106.6256    1.6092    2.0304    3.2924    0.3325    2.4448   37.0000   37.0000 
2576.9272   13.0829   52.2776  106.3252    1.6112    1.9930    3.2280    0.3292    2.4480   37.0000   37.0000 
2577.0796   13.0829   49.2884  105.4083    1.6112    1.9484    3.2058    0.3333    2.4522   37.0000   37.0000 
2577.2320   13.0830   46.8236  104.6836    1.6569    1.9134    3.4202    0.3089    2.4305   22.0000   37.0000 
2577.3844   13.0830   54.2252  104.6627    1.6365    2.0977    3.5124    0.3126    2.4201   22.0000   37.0000 
2577.5368   13.0830   55.0479  104.6624    1.6166    2.1061    3.5368    0.3175    2.4244   22.0000   37.0000 
2577.6892   13.0830   52.6913  105.0288    1.5812    2.0799    3.3677    0.3223    2.4369   37.0000   37.0000 
2577.8416   13.0831   48.7911  105.4464    1.5428    1.8568    3.2378    0.3280    2.4337   37.0000   37.0000 
2577.9940   13.0831   49.1853  105.6867    1.5164    1.8077    3.1170    0.3141    2.4316   22.0000   37.0000 
2578.1464   13.0831   53.4403  105.9052    1.4962    1.7657    3.0657    0.3270    2.4291   37.0000   37.0000 
2578.2988   13.0832   49.4593  105.4256    1.4868    1.7277    2.9953    0.3216    2.4419   37.0000   37.0000 
2578.4512   13.0832   48.0081  105.3146    1.4865    1.7174    2.9092    0.3321    2.4361   37.0000   37.0000 
2578.6036   13.0832   45.7472  105.6506    1.5032    1.7053    2.8412    0.3543    2.4324   37.0000   37.0000 
2578.7560   13.0833   42.1361  100.2576    1.4912    1.7702    2.6026    0.3793    2.4477   37.0000   37.0000 
2578.9084   13.0833   40.0039   96.5183    1.4558    2.1034    2.9239    0.3340    2.4684   37.0000   37.0000 
2579.0608   13.0833   39.0322   96.2481    1.4528    2.2224    4.8422    0.3193    2.5087   37.0000   37.0000 
2579.2132   13.0833   41.1339   95.8061    1.4447    2.2721    3.9176    0.3044    2.5565   37.0000   37.0000 
2579.3656   13.0834   43.5302  102.0178    1.4362    1.7426    2.8330    0.3117    2.6731   22.0000   37.0000 
2579.5180   13.0834   45.0865  104.7374    1.4380    1.6576    2.9332    0.3170    2.6130   22.0000   37.0000 
2579.6704   13.0834   45.3129  105.8802    1.4381    1.6059    3.2089    0.3242    2.6014   22.0000   37.0000 
2579.8228   13.0835   53.9977  106.5250    1.3900    1.6113    3.1654    0.3157    2.4977   37.0000   37.0000 
2579.9752   13.0835   56.8294  106.3137    1.3873    1.6115    3.0408    0.3297    2.4341   37.0000   37.0000 
2580.1276   13.0835   59.3099  106.0483    1.3885    1.6186    3.0504    0.3215    2.4299   37.0000   37.0000 
2580.2800   13.0836   56.1577  105.3919    1.4001    1.6903    3.3350    0.3269    2.4606   37.0000   37.0000 
2580.4324   13.0836   55.0373  104.5122    1.4183    1.9145    3.6584    0.3172    2.4576   37.0000   37.0000 
2580.5848   13.0836   54.9464  103.9692    1.4440    1.9622    3.6633    0.3130    2.4553   37.0000   37.0000 
2580.7372   13.0837   56.7613  103.6967    1.4852    1.9658    3.7984    0.3060    2.4572   37.0000   37.0000 
2580.8896   13.0837   59.5821  103.6577    1.5439    1.9659    3.5698    0.2965    2.4537   22.0000   37.0000 
2581.0420   13.0837   63.0752  103.6566    1.5521    1.9659    3.5738    0.3019    2.4508   22.0000   37.0000 
2581.1944   13.0837   68.4146  103.6563    1.5567    1.9550    3.6671    0.3306    2.4369   37.0000   37.0000 
2581.3468   13.0838   67.2159  103.6561    1.5568    1.9261    3.7426    0.3297    2.4399   37.0000   37.0000 
2581.4992   13.0838   64.7411  103.6558    1.5525    1.8789    3.7903    0.3283    2.4445   37.0000   37.0000 
2581.6516   13.0838   61.6603  103.6556    1.5438    1.8468    3.8386    0.3190    2.4578   37.0000   37.0000 
2581.8040   13.0693   64.9306  103.2951    1.5535    1.8314    3.5560    0.3406    2.4494   37.0000   37.0000 
2581.9564   13.0125   68.4212  102.6646    1.5735    1.9498    3.5120    0.3398    2.4426   37.0000   37.0000 
2582.1088   13.0041   69.2964  102.0628    1.6053    2.0042    3.4305    0.3380    2.4621   37.0000   37.0000 
2582.2612   13.0089   69.8071  100.0778    1.6622    2.1104    6.9102    0.3327    2.4956   22.0000   37.0000 
2582.4136   13.0576   65.1585   96.9133    1.7196    2.2313    2.6345    0.3159    2.5692   22.0000   37.0000 
2582.5660   13.0327   59.4789   96.0115    1.7576    2.3390    2.9674    0.3046    2.5692   22.0000   37.0000 
2582.7184   13.0058   52.4139   97.5248    1.8637    2.5260    3.7569    0.2788    2.5653   22.0000   37.0000 
2582.8708   13.0041   46.0652   97.5702    1.9467    2.7671    6.1356    0.2903    2.5044   37.0000   37.0000 
2583.0232   13.0041   44.5001   98.8721    1.9937    2.7819    5.2835    0.2818    2.4939   37.0000   37.0000 
2583.1756   13.0041   43.5299  100.1779    2.0341    2.7449    4.6311    0.2740    2.4832   22.0000   37.0000 
2583.3280   13.0042   40.7789  100.8831    2.2104    2.7081    4.9401    0.2876    2.4640   22.0000   37.0000 
2583.4804   13.0042   43.4901  101.2328    2.2900    2.7001    5.0423    0.2963    2.4526   22.0000   37.0000 
2583.6328   13.0112   42.8450  101.5339    2.3192    2.6896    5.1649    0.2965    2.4500   22.0000   37.0000 
2583.7852   13.0725   44.0635  101.4870    2.3367    2.6765    6.3460    0.2892    2.4787   37.0000   37.0000 
2583.9376   12.9723   45.2884  100.0913    2.2855    3.1135    7.8830    0.2679    2.5400   22.0000   37.0000 
2584.0900   12.9936   46.2342   98.7727    2.2634    3.0276    6.0425    0.2671    2.5981   22.0000   37.0000 
2584.2424   12.9944   49.4785  100.8380    2.2348    2.7126    5.2181    0.2665    2.6282   22.0000   37.0000 
2584.3948   12.9679   46.6166  102.9315    2.1248    2.4781    4.9478    0.2912    2.5350   22.0000   37.0000 
2584.5472   12.9645   45.8873  103.8421    2.0751    2.4002    4.7532    0.2983    2.4965   37.0000   37.0000 
2584.6996   12.9644   46.9925  104.2676    2.0395    2.3588    4.6025    0.2847    2.4795   22.0000   37.0000 
2584.8520   12.9645   50.4117  103.3448    1.8434    2.1833    4.4104    0.2929    2.4620   22.0000   37.0000 
2585.0044   12.9645   48.2996  105.1867    1.7870    2.1071    4.2082    0.3024    2.4615   37.0000   37.0000 
2585.1568   12.9645   48.5046  105.5336    1.7731    2.0567    3.8847    0.3111    2.4615   37.0000   37.0000 
2585.3092   12.9749   48.6950  106.0511    1.7677    2.0132    3.3131    0.3177    2.4583   37.0000   37.0000 
2585.4616   12.9908   53.7990  104.7679    1.7676    1.9216    2.7740    0.3125    2.4623   37.0000   37.0000 
2585.6140   13.0042   52.2981  103.6561    1.7701    1.9900    3.9687    0.3090    2.4607   37.0000   37.0000 
2585.7664   13.0047   49.9566  103.0766    1.7921    2.1789    4.0903    0.3142    2.4524   37.0000   37.0000 
2585.9188   13.0047   50.3136  102.8445    1.8285    2.3391    4.2119    0.3072    2.4415   22.0000   37.0000 
2586.0712   13.0047   50.4069  102.4389    1.8616    2.4218    4.3728    0.2961    2.4319   22.0000   37.0000 
2586.2236   13.0048   50.6324  102.0752    1.9202    2.5086    4.5679    0.2735    2.4365   22.0000   37.0000 
2586.3760   13.0048   48.0900  103.1165    1.9958    2.6199    4.3964    0.2859    2.4422   22.0000   37.0000 
2586.5284   13.0048   49.1398  101.8525    2.0318    2.3913    4.3232    0.2962    2.4465   22.0000   37.0000 
2586.6808   13.0121   50.0481  102.5210    2.0328    2.3538    4.2727    0.2948    2.4417   22.0000   37.0000 
