~VERSION INFORMATION
 VERS.                 2.0:   CWLS LOG ASCII STANDARD - VERSION 2.0
 WRAP.                  NO:   SINGLE LINE PER DEPTH STEP
 CREA.                 13/04/2018 14:39:10
#CREATED USING DSPetro VERSION 5000.10.1.3 BY H191660 ON 13/04/2018 14:39:10
~WELL INFORMATION
#MNEM.UNIT       DATA                          DESCRIPTION MNEMONIC
#---------      ---------------------------   --------------------------
 STRT    .M         1974.9472                 : START DEPTH
 STOP    .M         3799.9372                 : STOP DEPTH
 STEP    .M         0.1524                    : STEP VALUE
 NULL    .      -999.0000                     : NULL VALUE
 DATE    .      13/04/2018                    : LAS file Creation Date
 WELL .      34-10-30     : Well Name
 COMP .                   : Company
 FLD  .      GULLFAKS SOR : Field
 UWI  .      YNOWL_341030 : Unique Well Identifier (UWI)
 LOC  .                   : Location
 RWS  .      0            : Def_Rw
 WST  .      0            : Def_Rwt
 MDEC .      0            : Magnetic Declination
 SRVC .      SCH          : Contractor
~CURVE INFORMATION
#MNEM                 UNIT       API CODE   Curve Type Comments
#----------     --------------- ----------  ---------- -----------
 DEPTH         .M                         : Depth       
 CAL_INCH      .inch                      :             Caliper Log - A representation of the measured diameter of a borehole along its depth
 GR_API        .API                       : GammaRay    Gamma Ray (API) - Measures the intensity of natural gamma-ray radiation emitted from formations containing radioactive elements, such as K, Th and U
 DT_US_FT      .us/ft                     :             Interval Transit Time: Compressional Wave - Evaluates the time it takes for a compressional wave to traverse a fixed distance
 RD_OHMM       .ohmm                      :             Unspecified Deep Resistivity - No accroynm or method of attainment is specified - units of ohmm
 RM_OHMM       .ohm.m                     :             Unspecified Medium Resistivity - No accroynm or method of attainment is specified
 RS_OHMM       .ohmm                      :             Unspecified Shallow Resistivity - No accroynm or method of attainment is specified
 NEUT_P_RATIO  .ratio                     :             Unspecified Neutron Porosity Log - No accroynm or method of attainment is specified
 RHOB_G_CC     .g/cc                      :             Bulk Density - Measures the density of bulk material, including any void space or other materials contained in the subject volume
 LITH_v1       .                          :             LITH        Lithology Curve
 Comp_Core_log .                          :             
~A  DEPTH  CAL_INCH   GR_API   DT_US_FT  RD_OHMM   RM_OHMM   RS_OHMM  NEUT_P_R~ RHOB_G_C~  LITH_v1  Comp+Cor~ 
# ...
2097.3244   14.0915   43.3369  108.6284    1.9070    2.1898    3.0014    0.3014    2.3707   22.0000   37.0000 
2097.4768   14.2673   44.1183  107.8924    1.9096    2.1867    3.2195    0.3177    2.3676   22.0000   37.0000 
2097.6292   14.7826   45.5027  109.0039    1.9571    2.0850    2.8649    0.3365    2.3651   37.0000   37.0000 
2097.7816   14.4626   46.5036  108.0884    1.9653    2.0446    2.9725    0.3503    2.3631   37.0000   37.0000 
2097.9340   14.2828   46.5321  107.4768    2.0266    2.0690    3.3103    0.3231    2.3572   22.0000   37.0000 
2098.0864   14.4137   44.6336  107.1720    2.0549    2.1400    2.7967    0.2962    2.3515   22.0000   37.0000 
2098.2388   14.3483   44.2228  107.1637    2.0765    2.1883    3.1938    0.2705    2.3474   22.0000   37.0000 
2098.3912   14.2537   43.1454  107.3388    2.0923    2.5085    3.9031    0.2444    2.3368   22.0000   37.0000 
2098.5436   14.1992   38.9675  108.2451    2.1083    2.7691    3.6949    0.2811    2.3238   22.0000   37.0000 
2098.6960   14.2725   40.3028  109.3413    2.1418    2.5113    3.3122    0.3066    2.3356   22.0000   37.0000 
2098.8484   14.3870   41.8815  109.5869    2.1774    2.3784    3.1207    0.3175    2.3464   22.0000   37.0000 
2099.0008   14.6159   43.5270  108.9750    2.2232    2.1227    2.9590    0.3003    2.3334   22.0000   37.0000 
2099.1532   14.4041   45.1109  109.4774    2.1825    2.3627    3.2902    0.2872    2.3211   22.0000   37.0000 
2099.3056   14.4186   42.6722  108.9727    2.1710    2.5598    4.0170    0.2804    2.3169   22.0000   37.0000 
2099.4580   14.4556   41.8657  110.5907    2.1223    2.4698    3.3456    0.3024    2.3151   22.0000   37.0000 
2099.6104   14.5071   45.2952  111.1508    2.1153    2.3726    2.8756    0.3089    2.3211   22.0000   37.0000 
2099.7628   14.5691   47.5039  110.8478    2.1151    2.3014    3.1747    0.3010    2.3255   22.0000   37.0000 
2099.9152   14.5725   50.8099  109.6371    2.1071    2.2642    3.1795    0.2881    2.3217   22.0000   37.0000 
2100.0676   14.9707   49.1697  107.6821    2.0915    2.3405    3.1235    0.3092    2.3177   22.0000   37.0000 
2100.2200   14.6717   47.7860  108.2643    2.0908    2.2448    3.0925    0.3057    2.3154   22.0000   37.0000 
2100.3724   14.9514   47.2951  107.9353    2.0908    2.1988    3.2901    0.2970    2.3150   22.0000   37.0000 
2100.5248   15.2343   48.0568  109.1712    2.0908    2.1714    3.0607    0.2747    2.3308   22.0000   37.0000 
2100.6772   14.5530   49.7929  108.6662    2.0908    2.1922    3.1141    0.2831    2.3464   22.0000   37.0000 
2100.8296   14.5179   47.6032  105.9551    2.0850    2.2360    3.1246    0.2973    2.3555   22.0000   37.0000 
2100.9820   14.5079   45.6035  111.5399    2.0330    2.4130    3.6975    0.3082    2.3465   22.0000   37.0000 
2101.1344   14.4998   43.7716  111.1096    2.0609    2.3827    3.1007    0.3132    2.3380   22.0000   37.0000 
2101.2868   14.4667   45.0329  109.8292    2.1033    2.3243    2.5978    0.3156    2.3294   22.0000   37.0000 
2101.4392   14.4189   46.4482  112.1385    2.1566    2.0485    2.0276    0.3219    2.3057   22.0000   37.0000 
2101.5916   14.5671   47.0763  107.2718    2.1223    2.1882    3.1546    0.2924    2.3050   22.0000   37.0000 
2101.7440   14.6651   43.3013  108.1278    2.1153    2.2360    2.5905    0.2754    2.3074   22.0000   37.0000 
2101.8964   14.7222   42.3155  109.6635    2.1151    2.2634    2.1610    0.2682    2.3156   22.0000   37.0000 
2102.0488   14.8049   42.0679  109.0204    2.0482    2.2585    2.1608    0.2938    2.3223   22.0000   37.0000 
2102.2012   14.8896   41.3038  107.7456    2.0017    2.0615    3.1438    0.3173    2.3118   22.0000   37.0000 
2102.3536   14.9750   46.9003  111.1056    1.9746    2.0268    2.4366    0.3248    2.3070   22.0000   37.0000 
2102.5060   14.7153   50.4920  111.9201    1.8784    1.8319    1.5487    0.3137    2.3034   22.0000   37.0000 
2102.6584   14.6395   49.1443  111.7640    1.8290    1.8352    1.8486    0.3097    2.3129   22.0000   37.0000 
2102.8108   14.6494   47.9771  111.1853    1.7907    1.8827    2.1967    0.3275    2.3200   22.0000   37.0000 
2102.9632   14.7447   47.9681  109.6696    1.7090    1.9574    2.6951    0.3403    2.3299   22.0000   37.0000 
2103.1156   14.6644   47.1471  109.9892    1.6995    1.7722    2.1635    0.3522    2.3405   37.0000   37.0000 
2103.2680   14.7552   44.1477  110.1619    1.6992    1.7269    1.8799    0.3397    2.3202   22.0000   37.0000 
2103.4204   14.7931   42.3683  109.9325    1.7087    1.7088    1.7305    0.3293    2.3102   22.0000   37.0000 
2103.5728   15.0256   41.4871  109.0672    1.6004    1.6342    2.1639    0.3179    2.3009   22.0000   37.0000 
2103.7252   14.4887   40.8010  112.4454    1.5979    1.9068    1.8854    0.3348    2.2433   22.0000   37.0000 
2103.8776   14.1957   42.9422  114.8424    1.6039    1.9150    1.2204    0.3569    2.2184   22.0000   37.0000 
2104.0300   14.4303   45.9530  116.9100    1.5442    1.6936    1.3813    0.3826    2.2070   22.0000   37.0000 
2104.1824   14.3346   50.2196  117.6061    1.5230    1.6321    1.5805    0.3822    2.2230   22.0000   37.0000 
2104.3348   14.3704   49.6238  116.4529    1.5113    1.6144    1.7837    0.3751    2.2379   22.0000   37.0000 
2104.4872   14.4599   48.7443  116.0047    1.4737    1.5637    1.7185    0.3587    2.2511   22.0000   37.0000 
2104.6396   15.0063   46.5847  115.5642    1.4511    1.5051    1.5958    0.3074    2.2613   22.0000   37.0000 
2104.7920   14.8963   45.6813  114.8136    1.4462    1.5143    1.6645    0.3076    2.2692   22.0000   37.0000 
2104.9444   14.6999   47.1822  114.2251    1.4438    1.5313    1.7492    0.3082    2.2786   22.0000   37.0000 
2105.0968   14.4969   47.9474  116.6361    1.4339    1.5491    1.8341    0.3060    2.2824   22.0000   37.0000 
2105.2492   14.3322   47.3014  112.9306    1.4350    1.7100    2.0826    0.3443    2.3051   22.0000   37.0000 
2105.4016   14.7307   47.4027  111.9022    1.4417    1.8102    2.1291    0.3666    2.3055   22.0000   37.0000 
2105.5540   14.9120   46.1192  113.3274    1.4460    1.7280    1.7570    0.3486    2.3045   22.0000   37.0000 
2105.7064   14.8581   44.3043  114.6113    1.4547    1.6195    1.7166    0.3363    2.2875   22.0000   37.0000 
2105.8588   14.6817   43.1508  114.9898    1.4729    1.5366    1.6428    0.3319    2.2920   22.0000   37.0000 
2106.0112   14.5099   42.9702  114.4357    1.4375    1.4608    1.5670    0.3098    2.3116   22.0000   37.0000 
2106.1636   14.3106   42.5438  110.7345    1.3501    1.5974    2.0379    0.3364    2.3603   22.0000   37.0000 
2106.3160   14.1938   48.2974  111.5213    1.3398    1.6245    2.0274    0.3594    2.3601   37.0000   37.0000 
2106.4684   14.2519   48.5295  112.5080    1.3358    1.6410    1.9922    0.3719    2.3547   37.0000   37.0000 
2106.6208   14.2817   49.5897  115.3273    1.3415    1.5124    1.9282    0.3821    2.3319   37.0000   37.0000 
2106.7732   14.3877   50.8085  118.1152    1.3493    1.4055    1.6474    0.3662    2.2945   22.0000   37.0000 
2106.9256   14.2808   49.7695  119.4218    1.3495    1.3859    1.6506    0.3523    2.2969   22.0000   37.0000 
2107.0780   14.4280   49.7616  117.1924    1.3399    1.5000    2.0395    0.3311    2.2999   22.0000   37.0000 
2107.2304   14.4438   45.5928  117.5793    1.3342    1.5337    2.2603    0.3342    2.2881   22.0000   37.0000 
2107.3828   14.4915   45.2867  117.1397    1.3286    1.5382    1.9117    0.3404    2.2819   22.0000   37.0000 
2107.5352   14.5308   44.7957  116.7204    1.3043    1.5866    1.7217    0.3489    2.2703   22.0000   37.0000 
2107.6876   14.5323   53.0418  117.6135    1.3327    1.5341    1.9522    0.3600    2.2762   22.0000   37.0000 
2107.8400   14.5877   57.9550  118.3594    1.3435    1.5125    1.9987    0.3706    2.2820   22.0000   37.0000 
2107.9924   14.6429   58.0331  118.5869    1.3531    1.4992    2.0334    0.3739    2.2848   22.0000   37.0000 
2108.1448   14.5260   57.9099  116.8057    1.3420    1.5011    1.9021    0.3758    2.2988   22.0000   37.0000 
2108.2972   14.7847   53.0236  114.9292    1.3342    1.5547    1.8436    0.3512    2.2992   22.0000   37.0000 
