~VERSION INFORMATION
 VERS.                 2.0:   CWLS LOG ASCII STANDARD - VERSION 2.0
 WRAP.                  NO:   SINGLE LINE PER DEPTH STEP
 CREA.                 13/04/2018 14:39:10
#CREATED USING DSPetro VERSION 5000.10.1.3 BY H191660 ON 13/04/2018 14:39:10
~WELL INFORMATION
#MNEM.UNIT       DATA                          DESCRIPTION MNEMONIC
#---------      ---------------------------   --------------------------
 STRT    .M         1974.9472                 : START DEPTH
 STOP    .M         3799.9372                 : STOP DEPTH
 STEP    .M         0.1524                    : STEP VALUE
 NULL    .      -999.0000                     : NULL VALUE
 DATE    .      13/04/2018                    : LAS file Creation Date
 WELL .      34-10-30     : Well Name
 COMP .                   : Company
 FLD  .      GULLFAKS SOR : Field
 UWI  .      YNOWL_341030 : Unique Well Identifier (UWI)
 LOC  .                   : Location
 RWS  .      0            : Def_Rw
 WST  .      0            : Def_Rwt
 MDEC .      0            : Magnetic Declination
 SRVC .      SCH          : Contractor
~CURVE INFORMATION
#MNEM                 UNIT       API CODE   Curve Type Comments
#----------     --------------- ----------  ---------- -----------
 DEPTH         .M                         : Depth       
 CAL_INCH      .inch                      :             Caliper Log - A representation of the measured diameter of a borehole along its depth
 GR_API        .API                       : GammaRay    Gamma Ray (API) - Measures the intensity of natural gamma-ray radiation emitted from formations containing radioactive elements, such as K, Th and U
 DT_US_FT      .us/ft                     :             Interval Transit Time: Compressional Wave - Evaluates the time it takes for a compressional wave to traverse a fixed distance
 RD_OHMM       .ohmm                      :             Unspecified Deep Resistivity - No accroynm or method of attainment is specified - units of ohmm
 RM_OHMM       .ohm.m                     :             Unspecified Medium Resistivity - No accroynm or method of attainment is specified
 RS_OHMM       .ohmm                      :             Unspecified Shallow Resistivity - No accroynm or method of attainment is specified
 NEUT_P_RATIO  .ratio                     :             Unspecified Neutron Porosity Log - No accroynm or method of attainment is specified
 RHOB_G_CC     .g/cc                      :             Bulk Density - Measures the density of bulk material, including any void space or other materials contained in the subject volume
 LITH_v1       .                          :             LITH        Lithology Curve
 Comp_Core_log .                          :             
~A  DEPTH  CAL_INCH   GR_API   DT_US_FT  RD_OHMM   RM_OHMM   RS_OHMM  NEUT_P_R~ RHOB_G_C~  LITH_v1  Comp+Cor~ 
# ...
3654.8524    6.5897  115.8124   76.5804    4.0897    5.4975    6.6427    0.1645    2.6415   37.0000   36.0000 
3655.0048    6.5986  116.9346   77.9821    4.0858    4.4758    5.0994    0.2139    2.6376   37.0000   36.0000 
3655.1572    6.6077  115.0667   78.6160    4.0750    4.6194    4.7926    0.2104    2.6346   37.0000   36.0000 
3655.3096    6.6274  116.1656   78.1284    4.0550    4.7203    4.8742    0.2051    2.6257   37.0000   36.0000 
3655.4620    6.6377  117.4284   73.4379    4.0430    6.0379    5.1332    0.1667    2.6193   37.0000   36.0000 
3655.6144    6.6380  114.6838   71.7917    4.0426    6.2233    5.3518    0.1402    2.6174   37.0000   36.0000 
3655.7668    6.6380  109.9256   71.1202    4.0313    6.3572    5.6935    0.1331    2.6187   37.0000   27.0000 
3655.9192    6.6380  104.0875   70.5674    4.1862    6.5506    6.0167    0.1249    2.6196   37.0000   27.0000 
3656.0716    6.6380   99.0896   70.9785    4.7943    6.8114    6.2236    0.1388    2.6218   37.0000   27.0000 
3656.2240    6.6381   97.4145   71.4338    4.9278    6.6592    6.0473    0.1517    2.6272   37.0000   27.0000 
3656.3764    6.6381   96.1985   71.5216    5.0691    6.5783    6.0334    0.1582    2.6330   37.0000   27.0000 
3656.5288    6.6381   93.5268   70.9941    5.2471    6.5317    6.0331    0.1467    2.6499   37.0000   27.0000 
3656.6812    6.6381   91.3231   70.3146    5.4638    7.3666    7.4606    0.1343    2.6472   37.0000   27.0000 
3656.8336    6.6381   92.7960   69.4005    5.5457    7.7333    7.7463    0.1282    2.6486   37.0000   27.0000 
3656.9860    6.6001   90.5679   68.7988    5.9361    7.9825    7.3398    0.1224    2.6528   37.0000   27.0000 
3657.1384    6.6030   88.5083   68.5601    6.1535    8.2196    6.8636    0.1164    2.6326   37.0000   27.0000 
3657.2908    6.6003   87.5898   69.1203    6.3102    8.6384    7.8894    0.1073    2.6202   37.0000   27.0000 
3657.4432    6.5351   82.0081   67.6807    6.5122    9.3744    8.4471    0.0920    2.6012   36.0000   27.0000 
3657.5956    6.5089   84.0276   68.3925    6.9901    9.3222    7.9469    0.0934    2.5814   36.0000   27.0000 
3657.7480    6.4972   84.0604   68.7125    7.1668    9.3398    8.3195    0.0961    2.5788   36.0000   27.0000 
3657.9004    6.4850   84.0916   68.7215    7.2514    9.3991    8.7050    0.0972    2.5722   36.0000   27.0000 
3658.0528    6.4784   86.7021   68.3587    7.7778    9.4933    8.8389    0.0930    2.5595   36.0000   27.0000 
3658.2052    6.4015   82.7112   67.9363    8.1674   10.6865    8.2814    0.0865    2.5368   36.0000   27.0000 
3658.3576    6.3983   81.8703   67.6994    8.3834   11.2093    8.8195    0.0819    2.5297   36.0000   27.0000 
3658.5100    6.3983   76.1991   67.1098    8.7492   11.5572   10.1895    0.0788    2.5335   36.0000   27.0000 
3658.6624    6.3886   77.3496   66.7584    8.7264   11.5024    9.6371    0.0861    2.5360   36.0000   27.0000 
3658.8148    6.3689   77.6252   66.4799    8.8816   11.4363   10.0244    0.0899    2.5384   36.0000   27.0000 
3658.9672    6.3587   82.2673   67.1207    9.1133   11.4024   11.1410    0.0939    2.5412   36.0000   27.0000 
3659.1196    6.3584   78.2332   66.3000    8.8329   12.8231    9.6642    0.0826    2.5587   36.0000   27.0000 
3659.2720    6.3660   78.1290   65.8373    8.6871   12.9940   11.6079    0.0750    2.5793   36.0000   27.0000 
3659.4244    6.3586   78.1550   65.8079    8.6062   13.2892   12.8687    0.0723    2.5791   36.0000   27.0000 
3659.5768    6.3108   80.7175   66.6573    8.5074   12.9338   15.1619    0.0748    2.5795   36.0000   27.0000 
3659.7292    6.2890   81.9337   67.7919    8.4511   11.3207    8.4001    0.0891    2.5494   36.0000   27.0000 
3659.8816    6.2787   77.9601   69.9128    8.4494    9.7071    7.2399    0.0929    2.5434   36.0000   27.0000 
3660.0340    6.2565   76.6902   69.7665    8.4493    9.9641    6.7529    0.0941    2.5182   36.0000   27.0000 
3660.1864    6.2390   77.0270   69.5312    8.4256   10.2088    7.2483    0.0935    2.5054   36.0000   27.0000 
3660.3388    6.2385   76.1209   69.2332    8.3779   10.4351    7.6280    0.0919    2.5027   36.0000   27.0000 
3660.4912    6.2385   73.4032   68.9831    8.4023   12.1481    9.9177    0.0891    2.4987   36.0000   27.0000 
3660.6436    6.2385   70.4306   68.0859    8.6390   12.6685    8.8472    0.0851    2.5205   36.0000   27.0000 
3660.7960    6.2385   74.7883   68.4499    8.6459   12.4863    8.2264    0.0809    2.4989   36.0000   27.0000 
3660.9484    6.2386   76.4268   67.9098    8.6601   12.3552    8.1404    0.0785    2.4942   36.0000   27.0000 
3661.1008    6.2386   80.3620   68.3791    8.7286   12.2541   10.6860    0.0828    2.5103   36.0000   27.0000 
3661.2532    6.2386   84.6483   68.7175    8.7455   11.5284   10.1677    0.1035    2.5180   36.0000   27.0000 
3661.4056    6.2386   89.2698   68.4036    8.8434   11.0421    9.0219    0.1124    2.5284   36.0000   27.0000 
3661.5580    6.2386   86.4715   68.0972    8.9466   11.0745   12.2427    0.1042    2.5815   36.0000   27.0000 
3661.7104    6.2386   83.3708   67.7838    8.7370   11.3260   10.3500    0.0971    2.5904   36.0000   27.0000 
3661.8628    6.2386   80.1997   67.2373    8.7085   11.6885   10.5035    0.0901    2.5845   36.0000   27.0000 
3662.0152    6.2387   77.0372   66.4998    8.1907   12.4073   11.2979    0.0787    2.5804   36.0000   27.0000 
3662.1676    6.2387   74.2369   67.1958    7.5689   13.2736   13.6380    0.0849    2.5715   36.0000   27.0000 
3662.3200    6.2387   80.9606   68.0133    7.0846   12.4400   13.9390    0.0956    2.5878   36.0000   27.0000 
3662.4724    6.2387   87.8910   69.1790    6.8298   12.1849   13.9066    0.1114    2.6023   37.0000   36.0000 
3662.6248    6.2387  101.8011   70.7841    6.2076    7.9528    8.3941    0.1413    2.6232   37.0000   36.0000 
3662.7772    6.2387  111.8064   72.1338    6.1547    7.0761    6.5295    0.1740    2.6458   37.0000   36.0000 
3662.9296    6.2387  113.9063   72.7947    6.1365    6.3543    6.0864    0.1892    2.6567   37.0000   36.0000 
3663.0820    6.2388  102.9161   70.7372    5.9918    6.6496    6.9522    0.1823    2.6643   37.0000   36.0000 
3663.2344    6.2388   94.6619   70.0870    6.1630    7.1653    7.9085    0.1748    2.6499   37.0000   36.0000 
3663.3868    6.2388   91.0044   69.3248    6.2669    7.6457    8.5323    0.1707    2.6462   37.0000   27.0000 
3663.5392    6.2388   83.9243   67.2074    6.7151   10.9441   10.4583    0.1597    2.6408   37.0000   27.0000 
3663.6916    6.2388   66.6652   66.0147    8.8345   16.6731   12.9593    0.1123    2.6090   37.0000   27.0000 
3663.8440    6.2388   66.0502   66.4570    9.4038   18.4968   13.6671    0.0890    2.5708   37.0000   27.0000 
3663.9964    6.2485   65.5247   66.7629   10.1220   19.9571   14.7608    0.0824    2.5116   36.0000   27.0000 
3664.1488    6.1836   71.7832   67.9908   10.6820   20.7296   11.5606    0.0788    2.4999   36.0000   27.0000 
3664.3012    6.1596   69.6585   69.0355   12.2492   17.4835   10.0019    0.0879    2.4646   36.0000   27.0000 
3664.4536    6.1589   65.9502   69.9558   12.8153   15.5579    9.7875    0.0957    2.4621   36.0000   27.0000 
3664.6060    6.1245   63.3470   68.9306   13.3168   13.8015   10.1606    0.0944    2.4660   36.0000   27.0000 
3664.7584    6.1191   63.8559   69.2632   13.5274   13.2062    9.8468    0.0927    2.4556   36.0000   27.0000 
3664.9108    6.1190   64.4541   69.2998   13.5474   13.1392    9.4557    0.0899    2.4461   36.0000   27.0000 
3665.0632    6.1190   65.3209   69.5590   14.6119   12.2399    8.2680    0.0817    2.4393   36.0000   27.0000 
3665.2156    6.1190   52.0573   67.1106   14.7256   22.0473   11.6622    0.0693    2.4338   36.0000   27.0000 
3665.3680    6.1190   51.4374   66.1109   14.5782   23.4372   15.1519    0.0584    2.4827   36.0000   27.0000 
3665.5204    6.1190   50.8061   65.7843   14.5339   28.2214   18.2947    0.0549    2.4905   36.0000   27.0000 
3665.6728    6.1190   58.3544   65.4928   14.5320   24.5649   22.3110    0.0633    2.4984   36.0000   27.0000 
3665.8252    6.1191   64.1884   67.1376   14.5376   16.9781   13.7482    0.0737    2.4697   36.0000   27.0000 
