~VERSION INFORMATION
 VERS.                 2.0:   CWLS LOG ASCII STANDARD - VERSION 2.0
 WRAP.                  NO:   SINGLE LINE PER DEPTH STEP
 CREA.                 13/04/2018 14:39:10
#CREATED USING DSPetro VERSION 5000.10.1.3 BY H191660 ON 13/04/2018 14:39:10
~WELL INFORMATION
#MNEM.UNIT       DATA                          DESCRIPTION MNEMONIC
#---------      ---------------------------   --------------------------
 STRT    .M         1974.9472                 : START DEPTH
 STOP    .M         3799.9372                 : STOP DEPTH
 STEP    .M         0.1524                    : STEP VALUE
 NULL    .      -999.0000                     : NULL VALUE
 DATE    .      13/04/2018                    : LAS file Creation Date
 WELL .      34-10-30     : Well Name
 COMP .                   : Company
 FLD  .      GULLFAKS SOR : Field
 UWI  .      YNOWL_341030 : Unique Well Identifier (UWI)
 LOC  .                   : Location
 RWS  .      0            : Def_Rw
 WST  .      0            : Def_Rwt
 MDEC .      0            : Magnetic Declination
 SRVC .      SCH          : Contractor
~CURVE INFORMATION
#MNEM                 UNIT       API CODE   Curve Type Comments
#----------     --------------- ----------  ---------- -----------
 DEPTH         .M                         : Depth       
 CAL_INCH      .inch                      :             Caliper Log - A representation of the measured diameter of a borehole along its depth
 GR_API        .API                       : GammaRay    Gamma Ray (API) - Measures the intensity of natural gamma-ray radiation emitted from formations containing radioactive elements, such as K, Th and U
 DT_US_FT      .us/ft                     :             Interval Transit Time: Compressional Wave - Evaluates the time it takes for a compressional wave to traverse a fixed distance
 RD_OHMM       .ohmm                      :             Unspecified Deep Resistivity - No accroynm or method of attainment is specified - units of ohmm
 RM_OHMM       .ohm.m                     :             Unspecified Medium Resistivity - No accroynm or method of attainment is specified
 RS_OHMM       .ohmm                      :             Unspecified Shallow Resistivity - No accroynm or method of attainment is specified
 NEUT_P_RATIO  .ratio                     :             Unspecified Neutron Porosity Log - No accroynm or method of attainment is specified
 RHOB_G_CC     .g/cc                      :             Bulk Density - Measures the density of bulk material, including any void space or other materials contained in the subject volume
 LITH_v1       .                          :             LITH        Lithology Curve
 Comp_Core_log .                          :             
~A  DEPTH  CAL_INCH   GR_API   DT_US_FT  RD_OHMM   RM_OHMM   RS_OHMM  NEUT_P_R~ RHOB_G_C~  LITH_v1  Comp+Cor~ 
# ...
3777.2296    5.5146   81.1462   74.9963    9.3191   41.1418   19.2825    0.0865    2.6642   -1.0000   27.0000 
3777.3820    5.5145   83.6782   75.3198    9.5770   36.0484   20.3275    0.0688    2.6437   -1.0000   27.0000 
3777.5344    5.5145  101.1507   75.6529    8.6795   12.3045   39.0721    0.0257    2.6368   -1.0000   27.0000 
3777.6868    5.5145  104.0368   75.0148    9.0856   10.1831   43.5677    0.0435    2.5980   -1.0000   27.0000 
3777.8392    5.5145  107.8721   74.9953    9.9674    7.7297   50.1314    0.0487    2.5787   -1.0000   27.0000 
3777.9916    5.5145  120.7969   75.5139    7.7340    7.9284   63.6616    0.1059    2.5905   -1.0000   27.0000 
3778.1440    5.5145  114.2897   75.6576    7.3678    9.7678   66.7206    0.1394    2.5842   -1.0000   27.0000 
3778.2964    5.5144  108.9644   75.6612    7.1262   11.0199   68.8709    0.1460    2.5912   -1.0000   27.0000 
3778.4488    5.5144  103.4016   75.6609    6.9958   15.3932   69.0474    0.1472    2.5958   -1.0000   27.0000 
3778.6012    5.5144   87.0798   75.7251    6.8563   18.4513   69.1176    0.0833    2.6330   -1.0000   27.0000 
3778.7536    5.5144   84.2790   75.8395    7.3699   11.6929   69.9229    0.0710    2.6358   -1.0000   27.0000 
3778.9060    5.5144   80.2150   75.8273    7.3854    7.6394   70.8467    0.0584    2.6406   -1.0000   27.0000 
3779.0584    5.5144   83.7661   75.6647    6.9979    7.7712   71.5910    0.1035    2.6265   -1.0000   27.0000 
3779.2108    5.5143   86.3386   75.6596    6.5463    7.9323   71.4322    0.1225    2.6209   -1.0000   27.0000 
3779.3632    5.5143   84.6355   75.6594    5.9317    8.3941   71.9156    0.1356    2.6083   -1.0000   27.0000 
3779.5156    5.5143   84.1753   75.6591    6.2571    7.3945   72.4027    0.1436    2.5965   -1.0000   27.0000 
3779.6680    5.5143   83.4321   75.6589    6.7786    7.9997   72.1104    0.1380    2.5851   -1.0000   27.0000 
3779.8204    5.5143   84.9101   75.6586    6.8607    8.9575   71.4031    0.1482    2.5857   -1.0000   27.0000 
3779.9728    5.5143   85.4590   75.6584    6.8627    9.3301   71.3829    0.1575    2.5865   -1.0000   27.0000 
3780.1252    5.5143   82.7955   75.7212    6.8245    9.1593   71.3835    0.1785    2.5914   -1.0000   27.0000 
3780.2776    5.5142   80.7098   75.8342    6.9938    9.1029   71.3841    0.1949    2.6004   -1.0000   27.0000 
3780.4300    5.5142   78.3040   75.8247    7.1612    9.3645   71.3848    0.1975    2.5875   -1.0000   27.0000 
3780.5824    5.5142   76.1132   75.6622    8.5943   10.3561   71.3854    0.1751    2.5842   -1.0000   27.0000 
3780.7348    5.5142   74.2713   75.6571    9.2512   11.1507   71.3860    0.1629    2.5759   -1.0000   27.0000 
3780.8872    5.5142   78.0563   75.6569    9.6173   11.8027   71.4512    0.1434    2.5865   -1.0000   27.0000 
3781.0396    5.5142   80.9517   75.6566   10.7643   12.2776   71.5892    0.1156    2.6003   -1.0000   27.0000 
3781.1920    5.5141   77.7551   75.6563   11.6194   12.8260   18.8700    0.0877    2.5894   -1.0000   27.0000 
3781.3444    5.5141   77.6576   75.6561   11.2401   12.4648   17.3028    0.0821    2.5797   -1.0000   27.0000 
3781.4968    5.5141   77.4754   75.6558   11.0760   12.2057   17.3029    0.0843    2.5734   -1.0000   27.0000 
3781.6492    5.5141   79.0592   75.6556   11.4561   12.0241   17.3031    0.0944    2.5926   -1.0000   27.0000 
3781.8016    5.5141   80.0071   75.6553   11.7454   13.6992   17.3032    0.1039    2.5895   -1.0000   27.0000 
3781.9540    5.5141   80.2161   75.6551   11.9101   15.0941   17.3034    0.1064    2.5823   -1.0000   27.0000 
3782.1064    5.5140   77.0637   75.6548   12.0331   14.8616   17.3035    0.1081    2.5777   -1.0000   27.0000 
3782.2588    5.5140   78.8219   75.6546   12.5351   14.8745   17.3037    0.1084    2.5380   -1.0000   27.0000 
3782.4112    5.5140   80.7293   75.6543   13.2174   15.2333   17.3038    0.1101    2.5248   -1.0000   27.0000 
3782.5636    5.5140   84.9746   75.6541   15.5312   19.0004   17.3040    0.1129    2.4747   -1.0000   27.0000 
3782.7160    5.5140   77.2653   75.6538   13.1766   15.2116   17.3041    0.1152    2.4967   -1.0000   27.0000 
3782.8684    5.5140   78.2273   75.6536   12.9391   14.6809   17.3043    0.1164    2.4747   -1.0000   27.0000 
3783.0208    5.5139   79.0112   75.6533   12.8048   13.7900   17.3044    0.1164    2.4676   -1.0000   27.0000 
3783.1732    5.5139   77.5152   75.6530   12.7526   12.9420   17.3046    0.1148    2.4502   -1.0000   27.0000 
3783.3256    5.5139   81.5318   75.6528   12.8229   12.8521   17.3047    0.1185    2.4723   -1.0000   27.0000 
3783.4780    5.5139   83.1173   75.6525   12.7535   13.1530   17.3049    0.1194    2.4491   -1.0000   27.0000 
3783.6304    5.5139   80.7768   75.6523   12.6439   12.8003   17.3089    0.1179    2.4608   -1.0000   27.0000 
3783.7828    5.5139   77.7727   75.6520   12.4293   12.9190   17.3295    0.1164    2.4774   -1.0000   27.0000 
3783.9352    5.5138   73.0431   75.6518   12.0869   13.1002   17.3303    0.1137    2.4808   -1.0000   27.0000 
3784.0876    5.5138   77.9167   75.6515   11.6328   12.2112   17.3304    0.1160    2.4891   -1.0000   27.0000 
3784.2400    5.5138   85.2001   75.6513   11.0736   14.6541   17.3306    0.1175    2.5168   -1.0000   27.0000 
3784.3924    5.5138   82.0910   75.6510   11.0420   14.9709   17.3308    0.1178    2.5316   -1.0000   27.0000 
3784.5448    5.5138   80.0595   75.6508   11.0416   15.1954   17.3309    0.1171    2.5356   -1.0000   27.0000 
3784.6972    5.5138   77.5433   75.6505   11.0417   15.5244   17.3311    0.1161    2.5357   -1.0000 -999.0000 
3784.8496    5.5137   80.9082   75.6502   11.0418   14.7513   17.3312    0.1155    2.5106   -1.0000 -999.0000 
3785.0020    5.5137   85.9799   75.6500   11.0713   14.8108   17.3314    0.1139    2.5114   -1.0000 -999.0000 
3785.1544    5.5137   89.5627   75.6497   10.5452   16.1799   17.3244    0.1121    2.5285   -1.0000 -999.0000 
3785.3068    5.5137   87.8612   75.6495   10.4548   15.6824   17.3171    0.1111    2.5185   -1.0000 -999.0000 
3785.4592    5.5137   84.0082   75.6492   10.3205   14.8383   17.3098    0.1113    2.5069   -1.0000 -999.0000 
3785.6116    5.5137   75.8338   75.6490   10.1458   12.6664   17.2850    0.1126    2.5232   -1.0000 -999.0000 
3785.7640    5.5136   74.2580   75.6487    9.9879   10.8258   17.3307    0.1121    2.5370   -1.0000 -999.0000 
3785.9164    5.5136   75.9877   75.6485   10.0389   10.6364   17.3323    0.1134    2.5195   -1.0000 -999.0000 
3786.0688    5.5136   77.9970   75.6482   10.0412   10.4990   17.3229    0.1143    2.5007   -1.0000 -999.0000 
3786.2212    5.5136   82.5158   75.6480   10.0132   10.9652   17.3080    0.1167    2.4780   -1.0000 -999.0000 
3786.3736    5.5136   86.3045   75.6477   10.0190   10.7181   17.3078    0.1155    2.4610   -1.0000 -999.0000 
3786.5260    5.5136   86.4132   75.6475    9.9417   10.4475   17.3079    0.1146    2.4623   -1.0000 -999.0000 
3786.6784    5.5135   80.1689   75.6472    9.8174   10.7667   17.3081    0.1143    2.4683   -1.0000 -999.0000 
3786.8308    5.5135   78.0894   75.6469    9.7369   10.6841   17.2840    0.1143    2.4703   -1.0000 -999.0000 
3786.9832    5.5135   78.0939   75.6467    9.7560   10.4178 -999.0000    0.1146    2.4731   -1.0000 -999.0000 
3787.1356    5.5135   80.9902   75.6464   10.0337   10.5866 -999.0000    0.1151    2.4999   -1.0000 -999.0000 
3787.2880    5.5135   83.2226   75.6462    9.7513   10.7860 -999.0000    0.1109    2.4949   -1.0000 -999.0000 
3787.4404    5.5135   82.0110   75.6459    9.7292   10.4389 -999.0000    0.1111    2.4908   -1.0000 -999.0000 
3787.5928    5.5134   81.9731   75.6457    9.7289   10.3449 -999.0000    0.1111    2.4913   -1.0000 -999.0000 
3787.7452    5.5134   81.9731   75.6454    9.7290   10.3939 -999.0000    0.1111    2.4851   -1.0000 -999.0000 
3787.8976    5.5114   81.9732   75.6452    9.7291   10.3741 -999.0000    0.1111    2.4922   -1.0000 -999.0000 
3788.0500    5.5133   81.9732   75.6449    9.7292   10.3225 -999.0000    0.1111    2.5014   -1.0000 -999.0000 
3788.2024    5.5134   81.9732   75.6447    9.7292   10.4206 -999.0000    0.1111    2.5124   -1.0000 -999.0000 
