~VERSION INFORMATION
 VERS.                 2.0:   CWLS LOG ASCII STANDARD - VERSION 2.0
 WRAP.                  NO:   SINGLE LINE PER DEPTH STEP
 CREA.                 13/04/2018 14:39:10
#CREATED USING DSPetro VERSION 5000.10.1.3 BY H191660 ON 13/04/2018 14:39:10
~WELL INFORMATION
#MNEM.UNIT       DATA                          DESCRIPTION MNEMONIC
#---------      ---------------------------   --------------------------
 STRT    .M         1974.9472                 : START DEPTH
 STOP    .M         3799.9372                 : STOP DEPTH
 STEP    .M         0.1524                    : STEP VALUE
 NULL    .      -999.0000                     : NULL VALUE
 DATE    .      13/04/2018                    : LAS file Creation Date
 WELL .      34-10-30     : Well Name
 COMP .                   : Company
 FLD  .      GULLFAKS SOR : Field
 UWI  .      YNOWL_341030 : Unique Well Identifier (UWI)
 LOC  .                   : Location
 RWS  .      0            : Def_Rw
 WST  .      0            : Def_Rwt
 MDEC .      0            : Magnetic Declination
 SRVC .      SCH          : Contractor
~CURVE INFORMATION
#MNEM                 UNIT       API CODE   Curve Type Comments
#----------     --------------- ----------  ---------- -----------
 DEPTH         .M                         : Depth       
 CAL_INCH      .inch                      :             Caliper Log - A representation of the measured diameter of a borehole along its depth
 GR_API        .API                       : GammaRay    Gamma Ray (API) - Measures the intensity of natural gamma-ray radiation emitted from formations containing radioactive elements, such as K, Th and U
 DT_US_FT      .us/ft                     :             Interval Transit Time: Compressional Wave - Evaluates the time it takes for a compressional wave to traverse a fixed distance
 RD_OHMM       .ohmm                      :             Unspecified Deep Resistivity - No accroynm or method of attainment is specified - units of ohmm
 RM_OHMM       .ohm.m                     :             Unspecified Medium Resistivity - No accroynm or method of attainment is specified
 RS_OHMM       .ohmm                      :             Unspecified Shallow Resistivity - No accroynm or method of attainment is specified
 NEUT_P_RATIO  .ratio                     :             Unspecified Neutron Porosity Log - No accroynm or method of attainment is specified
 RHOB_G_CC     .g/cc                      :             Bulk Density - Measures the density of bulk material, including any void space or other materials contained in the subject volume
 LITH_v1       .                          :             LITH        Lithology Curve
 Comp_Core_log .                          :             
~A  DEPTH  CAL_INCH   GR_API   DT_US_FT  RD_OHMM   RM_OHMM   RS_OHMM  NEUT_P_R~ RHOB_G_C~  LITH_v1  Comp+Cor~ 
# ...
2330.9536   12.8472   50.7182  124.1250    0.9908    1.2191    2.2376    0.3696    2.4047   37.0000   37.0000 
2331.1060   12.8296   48.9396  124.1250    0.9888    1.2059    1.2570    0.4174    2.4772   22.0000   37.0000 
2331.2584   12.8373   48.6023  124.1250    0.9887    1.2027    1.2488    0.4229    2.4903   22.0000   37.0000 
2331.4108   12.9686   49.5649  124.1250    0.9887    1.2026    1.2615    0.4196    2.4959   22.0000   37.0000 
2331.5632   12.8872   48.4406  124.3499    0.9887    1.2144    1.4167    0.3674    2.4999   22.0000   37.0000 
2331.7156   12.8559   51.7718  124.9409    0.9935    1.2051    1.2509    0.4043    2.3019   37.0000   37.0000 
2331.8680   12.9128   53.8476  124.1004    1.0037    1.2021    1.1706    0.4152    2.2975   37.0000   37.0000 
2332.0204   13.0226   52.3952  123.8808    1.0114    1.1927    1.2924    0.4196    2.2990   37.0000   37.0000 
2332.1728   13.1731   48.7023  124.6842    1.0117    1.1724    1.0993    0.3914    2.2975   37.0000   37.0000 
2332.3252   12.8376   49.4590  124.2359    1.0117    1.2068    1.1627    0.3923    2.2937   37.0000   37.0000 
2332.4776   12.8275   50.7157  122.9870    1.0117    1.2202    1.3366    0.3931    2.2907   37.0000   37.0000 
2332.6300   12.8427   51.6302  121.4294    1.0117    1.2477    1.2899    0.3650    2.2737   22.0000   37.0000 
2332.7824   12.9150   49.1426  120.5660    1.0117    1.2450    1.2410    0.3600    2.2692   22.0000   37.0000 
2332.9348   12.9709   47.0842  121.6746    1.0117    1.2466    1.2520    0.3549    2.2697   22.0000   37.0000 
2333.0872   13.3367   44.7384  120.9799    1.0117    1.2074    1.3021    0.3767    2.2716   22.0000   37.0000 
2333.2396   13.1608   42.8965  122.7688    1.0117    1.1761    1.0739    0.3719    2.2652   22.0000   37.0000 
2333.3920   13.0992   44.8468  123.5743    1.0117    1.1752    1.1544    0.3643    2.2693   22.0000   37.0000 
2333.5444   13.0198   43.7531  123.3981    1.0117    1.1722    1.2138    0.3576    2.2759   22.0000   37.0000 
2333.6968   13.2457   47.4819  122.4411    1.0117    1.2463    1.2447    0.3608    2.3001   22.0000   37.0000 
2333.8492   12.9625   46.3799  121.1698    1.0117    1.2528    1.2517    0.3652    2.3314   22.0000   37.0000 
2334.0016   12.7777   49.3179  119.8304    1.0117    1.2574    1.4933    0.3701    2.3743   37.0000   37.0000 
2334.1540   12.7212   49.0421  120.9020    1.0111    1.2223    1.3081    0.4000    2.4107   22.0000   37.0000 
2334.3064   12.7476   49.7094  121.4907    1.0031    1.2028    1.2122    0.4091    2.3932   22.0000   37.0000 
2334.4588   12.8204   50.8723  123.8066    0.9928    1.1809    1.2045    0.4110    2.3510   37.0000   37.0000 
2334.6112   12.7082   48.3521  122.0136    0.9826    1.1894    1.2880    0.3935    2.2740   22.0000   37.0000 
2334.7636   12.6171   46.5076  122.8754    0.9803    1.2006    1.2290    0.3816    2.2764   22.0000   37.0000 
2334.9160   12.5352   45.3885  123.4713    0.9863    1.1835    1.2415    0.3766    2.2807   22.0000   37.0000 
2335.0684   12.5100   44.7979  123.8638    0.9974    1.1726    1.2580    0.3754    2.2824   22.0000   37.0000 
2335.2208   12.5724   46.4201  119.8029    1.0198    1.1702    1.2349    0.4006    2.2769   37.0000   37.0000 
2335.3732   12.6703   43.0699  116.0760    1.0233    1.2321    1.2342    0.4005    2.2954   37.0000   37.0000 
2335.5256   12.7259   44.3027  112.6998    1.0234    1.3962    2.3571    0.3993    2.3101   37.0000   37.0000 
2335.6780   12.4847   45.8137  110.6821    1.0495    1.3605    1.7710    0.3816    2.4865   37.0000   37.0000 
2335.8304   12.6272   46.9186  113.0091    1.0506    1.3340    1.4052    0.3769    2.5237   22.0000   37.0000 
2335.9828   13.4385   47.4473  115.9938    1.0562    1.3035    1.4347    0.3759    2.4692   22.0000   37.0000 
2336.1352   12.6759   50.3313  119.0730    1.0803    1.2750    1.4177    0.3555    2.4489   22.0000   37.0000 
2336.2876   13.2352   53.9269  120.9548    1.0840    1.2463    1.2088    0.3704    2.3458   37.0000   37.0000 
2336.4400   13.1348   52.9191  121.8317    1.0841    1.2233    1.2738    0.3845    2.3246   37.0000   37.0000 
2336.5924   12.9026   52.2295  122.0363    1.0837    1.2167    1.3250    0.4013    2.3109   37.0000   37.0000 
2336.7448   12.5090   51.4902  121.0706    1.0617    1.2910    1.3797    0.3752    2.2906   22.0000   37.0000 
2336.8972   12.5494   44.8171  121.1886    1.0594    1.3492    1.4268    0.3853    2.2991   22.0000   37.0000 
2337.0496   12.5034   42.6523  119.6703    1.0580    1.4453    2.1370    0.3841    2.3325   22.0000   37.0000 
2337.2020   13.1324   44.6834  120.7102    1.0497    1.3380    0.9392    0.4031    2.3748   22.0000   37.0000 
2337.3544   13.4147   46.3252  121.6180    1.0474    1.2630    0.9738    0.4121    2.3750   22.0000   37.0000 
2337.5068   13.0875   49.3264  122.5954    1.0488    1.2026    1.0988    0.3869    2.3693   22.0000   37.0000 
2337.6592   12.7752   52.3566  123.4342    1.0313    1.1214    1.2305    0.3730    2.2809   22.0000   37.0000 
2337.8116   12.5247   54.1069  120.9496    0.9802    1.1750    1.3218    0.3817    2.2846   22.0000   37.0000 
2337.9640   12.5620   52.2091  123.2958    0.9773    1.1938    1.3226    0.3920    2.2878   22.0000   37.0000 
2338.1164   12.5868   51.5492  123.6985    0.9773    1.2021    1.3337    0.3996    2.2939   37.0000   37.0000 
2338.2688   12.5216   55.5372  125.8124    0.9773    1.1743    1.2775    0.3961    2.3039   37.0000   37.0000 
2338.4212   12.5078   54.4060  124.1755    0.9773    1.1897    1.2623    0.3922    2.2903   22.0000   37.0000 
2338.5736   12.5270   50.2061  125.1770    0.9801    1.2141    1.2498    0.3756    2.2771   22.0000   37.0000 
2338.7260   12.5906   45.6432  123.8326    1.0041    1.2381    1.2984    0.3851    2.2856   22.0000   37.0000 
2338.8784   12.5564   44.4382  124.1963    1.0115    1.2447    1.2828    0.3928    2.2963   37.0000   37.0000 
2339.0308   12.5203   44.4670  122.8326    1.0117    1.2449    1.4699    0.4046    2.3218   37.0000   37.0000 
2339.1832   12.5078   46.7752  123.4390    1.0186    1.2910    1.2778    0.4130    2.3638   37.0000   37.0000 
2339.3356   12.5272   46.7179  121.5970    1.0233    1.2833    1.3780    0.3928    2.3533   37.0000   37.0000 
2339.4880   12.5629   47.1031  121.0561    1.0234    1.2683    1.4707    0.3863    2.3654   37.0000   37.0000 
2339.6404   12.5965   47.3823  121.3253    1.0249    1.2557    1.5517    0.3892    2.3869   22.0000   37.0000 
2339.7928   12.5213   47.9521  121.7785    1.0467    1.2522    1.4232    0.3811    2.4171   22.0000   37.0000 
2339.9452   12.5078   46.6438  119.6777    1.0270    1.2591    1.3706    0.3829    2.4362   22.0000   37.0000 
2340.0976   12.5463   45.6837  118.5727    1.0438    1.2556    1.3399    0.3855    2.3761   37.0000   37.0000 
2340.2500   12.5912   50.2167  120.0728    1.0307    1.2475    1.3101    0.3754    2.3354   37.0000   37.0000 
2340.4024   12.5925   51.5670  120.4100    1.0236    1.2450    1.2919    0.3802    2.3244   37.0000   37.0000 
2340.5548   12.5511   52.8556  120.9639    1.0263    1.2432    1.3744    0.3757    2.3190   22.0000   37.0000 
2340.7072   12.5136   54.7875  121.9853    1.0010    1.2838    1.3441    0.3923    2.3115   37.0000   37.0000 
2340.8596   12.6181   50.6765  122.6361    0.9903    1.2400    1.3191    0.4024    2.3060   37.0000   37.0000 
2341.0120   12.7196   50.8322  122.7877    0.9897    1.2159    1.2965    0.4076    2.3123   37.0000   37.0000 
2341.1644   12.6311   51.0865  122.8726    0.9943    1.1963    1.1986    0.4114    2.3091   37.0000   37.0000 
2341.3168   12.5326   50.1834  123.1178    1.0516    1.1354    1.2177    0.3902    2.3015   37.0000   37.0000 
2341.4692   12.5081   47.7959  121.6443    1.0683    1.1336    1.2166    0.4061    2.2915   37.0000   18.0000 
2341.6216   12.5518   43.1652  117.3723    1.0871    1.1404    1.2199    0.4031    2.2852   37.0000   18.0000 
2341.7740   12.6597   38.2363  112.9277    1.0975    1.4929    3.1273    0.3475    2.3527   22.0000   18.0000 
2341.9264   12.8033   38.7108  112.0636    1.1070    1.6749    3.0737    0.3239    2.3996   22.0000   18.0000 
