~VERSION INFORMATION
 VERS.                 2.0:   CWLS LOG ASCII STANDARD - VERSION 2.0
 WRAP.                  NO:   SINGLE LINE PER DEPTH STEP
 CREA.                 13/04/2018 14:39:10
#CREATED USING DSPetro VERSION 5000.10.1.3 BY H191660 ON 13/04/2018 14:39:10
~WELL INFORMATION
#MNEM.UNIT       DATA                          DESCRIPTION MNEMONIC
#---------      ---------------------------   --------------------------
 STRT    .M         1974.9472                 : START DEPTH
 STOP    .M         3799.9372                 : STOP DEPTH
 STEP    .M         0.1524                    : STEP VALUE
 NULL    .      -999.0000                     : NULL VALUE
 DATE    .      13/04/2018                    : LAS file Creation Date
 WELL .      34-10-30     : Well Name
 COMP .                   : Company
 FLD  .      GULLFAKS SOR : Field
 UWI  .      YNOWL_341030 : Unique Well Identifier (UWI)
 LOC  .                   : Location
 RWS  .      0            : Def_Rw
 WST  .      0            : Def_Rwt
 MDEC .      0            : Magnetic Declination
 SRVC .      SCH          : Contractor
~CURVE INFORMATION
#MNEM                 UNIT       API CODE   Curve Type Comments
#----------     --------------- ----------  ---------- -----------
 DEPTH         .M                         : Depth       
 CAL_INCH      .inch                      :             Caliper Log - A representation of the measured diameter of a borehole along its depth
 GR_API        .API                       : GammaRay    Gamma Ray (API) - Measures the intensity of natural gamma-ray radiation emitted from formations containing radioactive elements, such as K, Th and U
 DT_US_FT      .us/ft                     :             Interval Transit Time: Compressional Wave - Evaluates the time it takes for a compressional wave to traverse a fixed distance
 RD_OHMM       .ohmm                      :             Unspecified Deep Resistivity - No accroynm or method of attainment is specified - units of ohmm
 RM_OHMM       .ohm.m                     :             Unspecified Medium Resistivity - No accroynm or method of attainment is specified
 RS_OHMM       .ohmm                      :             Unspecified Shallow Resistivity - No accroynm or method of attainment is specified
 NEUT_P_RATIO  .ratio                     :             Unspecified Neutron Porosity Log - No accroynm or method of attainment is specified
 RHOB_G_CC     .g/cc                      :             Bulk Density - Measures the density of bulk material, including any void space or other materials contained in the subject volume
 LITH_v1       .                          :             LITH        Lithology Curve
 Comp_Core_log .                          :             
~A  DEPTH  CAL_INCH   GR_API   DT_US_FT  RD_OHMM   RM_OHMM   RS_OHMM  NEUT_P_R~ RHOB_G_C~  LITH_v1  Comp+Cor~ 
# ...
2453.3308   12.9475   45.2610  113.4722    1.3495    1.4293    2.0969    0.3431    2.4117   37.0000   37.0000 
2453.4832   12.9337   47.1033  112.2436    1.3495    1.4335    2.0969    0.3500    2.4108   37.0000   37.0000 
2453.6356   12.8983   44.0001  109.1304    1.3419    1.5311    2.1114    0.3401    2.4226   37.0000   37.0000 
2453.7880   12.8353   37.6547  106.7543    1.3357    1.7552    3.7238    0.3308    2.4306   37.0000   37.0000 
2453.9404   12.7773   39.7991  106.3257    1.3340    1.8545    2.4585    0.3322    2.4253   37.0000   37.0000 
2454.0928   12.8390   43.9971  106.1305    1.3340    1.9057    1.8184    0.3164    2.4143   22.0000   37.0000 
2454.2452   12.9286   50.1641  111.3991    1.3340    1.6039    2.0334    0.2950    2.3973   22.0000   37.0000 
2454.3976   12.9470   47.1002  113.8889    1.3340    1.5005    2.0403    0.3111    2.3840   22.0000   37.0000 
2454.5500   12.8747   42.9814  115.0104    1.3191    1.3979    2.0431    0.3376    2.3775   22.0000   37.0000 
2454.7024   12.9273   39.4637  114.9679    1.3040    1.4257    1.3923    0.3690    2.3726   37.0000   37.0000 
2454.8548   12.9421   39.7671  114.9600    1.3036    1.4515    1.5619    0.3666    2.3751   37.0000   37.0000 
2455.0072   12.8584   40.6050  114.5073    1.3091    1.4913    1.7682    0.3643    2.3848   37.0000   37.0000 
2455.1596   12.8292   42.3550  113.4007    1.3581    1.5843    2.0925    0.3498    2.3931   37.0000   37.0000 
2455.3120   12.8032   43.6809  112.7273    1.3901    1.6633    2.4125    0.3446    2.3917   37.0000   37.0000 
2455.4644   12.7676   43.5168  112.7348    1.4190    1.6892    2.0915    0.3432    2.3905   37.0000   37.0000 
2455.6168   12.7516   43.8870  112.3958    1.4537    1.7136    2.0075    0.3335    2.3989   37.0000   37.0000 
2455.7692   12.8611   44.2925  111.8642    1.4936    1.7520    2.5008    0.3213    2.4015   22.0000   37.0000 
2455.9216   12.9425   45.4847  111.3415    1.4968    1.7973    2.8762    0.3116    2.4086   22.0000   37.0000 
2456.0740   13.0008   46.6826  110.0808    1.4939    1.8304    2.6808    0.3087    2.4132   22.0000   37.0000 
2456.2264   12.8326   47.5078  107.9376    1.4778    1.7852    2.7894    0.3242    2.4016   22.0000   37.0000 
2456.3788   12.8275   46.9378  108.4324    1.4581    1.7534    2.5884    0.3286    2.3998   22.0000   37.0000 
2456.5312   12.8730   46.8010  109.1407    1.4283    1.7271    2.3727    0.3326    2.4032   37.0000   37.0000 
2456.6836   12.9565   43.7470  111.1660    1.3589    1.5435    2.4819    0.3472    2.4098   37.0000   37.0000 
2456.8360   13.0935   42.9280  112.6347    1.3290    1.4488    2.1560    0.3595    2.4053   37.0000   37.0000 
2456.9884   13.1946   45.1217  113.0312    1.3116    1.4320    1.9930    0.3630    2.4020   37.0000   37.0000 
2457.1408   13.1066   46.3580  113.2845    1.3038    1.4165    1.8985    0.3646    2.3970   37.0000   37.0000 
2457.2932   12.9671   47.1176  112.5046    1.3080    1.3994    2.0730    0.3663    2.3919   37.0000   37.0000 
2457.4456   12.9016   48.0015  111.3224    1.3213    1.4386    2.0714    0.3924    2.3848   37.0000   37.0000 
2457.5980   12.8521   48.7595  109.9158    1.3514    1.4601    2.0505    0.4187    2.3776   37.0000   37.0000 
2457.7504   12.8712   46.2074  111.6876    1.3894    1.5292    1.5554    0.4012    2.3656   37.0000   37.0000 
2457.9028   12.9171   45.4772  111.4832    1.4168    1.5818    1.8572    0.3881    2.3685   37.0000   37.0000 
2458.0552   12.9952   44.5580  110.4411    1.4533    1.6260    2.4092    0.3542    2.3830   37.0000   37.0000 
2458.2076   12.7013   46.5219  109.6549    1.5490    1.9149    2.7801    0.3629    2.3969   37.0000   37.0000 
2458.3600   12.8750   47.3244  109.1396    1.5453    1.8637    2.6337    0.3687    2.4048   37.0000   37.0000 
2458.5124   12.9340   49.2861  110.8838    1.5345    1.7909    2.4653    0.3429    2.3969   37.0000   37.0000 
2458.6648   13.0295   48.6761  111.5640    1.5233    1.7130    2.3626    0.3304    2.3929   22.0000   37.0000 
2458.8172   13.2411   52.5612  111.9339    1.4550    1.5848    2.4335    0.3186    2.3878   22.0000   37.0000 
2458.9696   13.2929   52.8368  112.0330    1.4089    1.5533    2.1113    0.3440    2.3853   37.0000   37.0000 
2459.1220   13.2926   52.9651  110.9085    1.3778    1.4881    1.9720    0.3498    2.3842   37.0000   37.0000 
2459.2744   13.1919   55.6927  112.6457    1.2784    1.4924    2.1914    0.3533    2.3821   37.0000   37.0000 
2459.4268   13.1540   56.5577  113.4121    1.2547    1.4968    2.2518    0.3515    2.3808   37.0000   37.0000 
2459.5792   13.1088   57.5039  113.7239    1.2347    1.4823    2.1132    0.3478    2.3800   37.0000   37.0000 
2459.7316   12.9570   56.8636  114.1946    1.2204    1.3955    2.1841    0.3389    2.3848   22.0000   37.0000 
2459.8840   12.9552   57.8684  112.9135    1.2422    1.4071    2.0761    0.3307    2.3914   22.0000   37.0000 
2460.0364   12.9477   58.7707  112.2986    1.2568    1.4289    2.2514    0.3423    2.3993   37.0000   37.0000 
2460.1888   12.8679   59.4494  111.2447    1.2727    1.4537    2.3545    0.3475    2.4018   37.0000   37.0000 
2460.3412   12.7315   56.9067  109.5900    1.2990    1.6476    2.4538    0.3532    2.4062   37.0000   37.0000 
2460.4936   12.8942   55.4071  110.5667    1.3299    1.6818    2.5476    0.3417    2.4107   37.0000   37.0000 
2460.6460   12.9461   53.8270  112.0000    1.4127    1.7147    2.6114    0.3292    2.4024   22.0000   37.0000 
2460.7984   12.8638   54.0864  111.6758    1.4432    1.7516    2.6554    0.3150    2.4011   22.0000   37.0000 
2460.9508   12.8673   54.6655  111.0427    1.4652    1.7695    2.7059    0.3153    2.4050   22.0000   37.0000 
2461.1032   12.8487   55.7496  110.2161    1.5038    1.7789    2.7709    0.3180    2.4089   22.0000   37.0000 
2461.2556   12.8326   50.3557  109.5403    1.5513    1.7793    2.5857    0.3030    2.4148   22.0000   37.0000 
2461.4080   12.8276   48.8221  109.1564    1.5847    1.7793    2.6459    0.2973    2.4137   22.0000   37.0000 
2461.5604   12.8275   52.8984  108.5591    1.5857    1.7793    2.6279    0.3201    2.4123   22.0000   37.0000 
2461.7128   12.8216   53.9414  108.6226    1.5915    1.7944    2.6149    0.3311    2.4101   37.0000   37.0000 
2461.8652   12.7545   51.4579  108.7059    1.6035    1.9174    2.8510    0.3364    2.4115   37.0000   37.0000 
2462.0176   12.7912   50.9966  107.8991    1.6041    1.9530    2.8343    0.3248    2.4151   37.0000   37.0000 
2462.1700   12.7682   52.3653  107.8750    1.6017    1.9771    2.6943    0.3145    2.4431   37.0000   37.0000 
2462.3224   12.8031   49.9618  106.1578    1.5876    2.0094    3.2693    0.3060    2.4833   37.0000   37.0000 
2462.4748   12.8123   48.2633  105.1501    1.5714    2.0763    2.9145    0.3010    2.5101   22.0000   37.0000 
2462.6272   12.7426   46.8043  103.9110    1.5480    2.1679    2.4120    0.2790    2.5197   22.0000   37.0000 
2462.7796   12.7349   45.9310  107.7595    1.4834    2.3215    2.8647    0.2818    2.5289   22.0000   37.0000 
2462.9320   12.9656   48.4396  114.0019    1.4550    1.7558    2.4824    0.3190    2.4179   22.0000   37.0000 
2463.0844   12.9579   50.3580  115.6893    1.4463    1.6622    2.3564    0.3330    2.3975   22.0000   37.0000 
2463.2368   12.9969   51.6811  116.1137    1.4411    1.5419    2.2690    0.3388    2.3935   37.0000   37.0000 
2463.3892   13.1966   49.1275  113.9400    1.4302    1.4346    2.2459    0.3258    2.3901   22.0000   37.0000 
2463.5416   13.1220   46.7163  113.6322    1.4295    1.5026    2.4098    0.3102    2.3995   22.0000   37.0000 
2463.6940   13.0401   43.8033  113.2014    1.4394    1.5461    2.4114    0.2917    2.4065   22.0000   37.0000 
2463.8464   12.9889   44.2687  110.9418    1.4722    1.7376    3.3704    0.2980    2.4023   22.0000   37.0000 
2463.9988   12.9875   44.6960  111.2324    1.5060    1.8194    3.9249    0.3005    2.3993   22.0000   18.0000 
2464.1512   12.9790   45.3861  111.7759    1.5440    1.8621    2.7150    0.2965    2.3910   22.0000   18.0000 
2464.3036   12.9223   48.6839  110.3350    1.7107    2.0943    2.9462    0.2891    2.4186   22.0000   18.0000 
