~VERSION INFORMATION
 VERS.                 2.0:   CWLS LOG ASCII STANDARD - VERSION 2.0
 WRAP.                  NO:   SINGLE LINE PER DEPTH STEP
 CREA.                 13/04/2018 14:39:10
#CREATED USING DSPetro VERSION 5000.10.1.3 BY H191660 ON 13/04/2018 14:39:10
~WELL INFORMATION
#MNEM.UNIT       DATA                          DESCRIPTION MNEMONIC
#---------      ---------------------------   --------------------------
 STRT    .M         1974.9472                 : START DEPTH
 STOP    .M         3799.9372                 : STOP DEPTH
 STEP    .M         0.1524                    : STEP VALUE
 NULL    .      -999.0000                     : NULL VALUE
 DATE    .      13/04/2018                    : LAS file Creation Date
 WELL .      34-10-30     : Well Name
 COMP .                   : Company
 FLD  .      GULLFAKS SOR : Field
 UWI  .      YNOWL_341030 : Unique Well Identifier (UWI)
 LOC  .                   : Location
 RWS  .      0            : Def_Rw
 WST  .      0            : Def_Rwt
 MDEC .      0            : Magnetic Declination
 SRVC .      SCH          : Contractor
~CURVE INFORMATION
#MNEM                 UNIT       API CODE   Curve Type Comments
#----------     --------------- ----------  ---------- -----------
 DEPTH         .M                         : Depth       
 CAL_INCH      .inch                      :             Caliper Log - A representation of the measured diameter of a borehole along its depth
 GR_API        .API                       : GammaRay    Gamma Ray (API) - Measures the intensity of natural gamma-ray radiation emitted from formations containing radioactive elements, such as K, Th and U
 DT_US_FT      .us/ft                     :             Interval Transit Time: Compressional Wave - Evaluates the time it takes for a compressional wave to traverse a fixed distance
 RD_OHMM       .ohmm                      :             Unspecified Deep Resistivity - No accroynm or method of attainment is specified - units of ohmm
 RM_OHMM       .ohm.m                     :             Unspecified Medium Resistivity - No accroynm or method of attainment is specified
 RS_OHMM       .ohmm                      :             Unspecified Shallow Resistivity - No accroynm or method of attainment is specified
 NEUT_P_RATIO  .ratio                     :             Unspecified Neutron Porosity Log - No accroynm or method of attainment is specified
 RHOB_G_CC     .g/cc                      :             Bulk Density - Measures the density of bulk material, including any void space or other materials contained in the subject volume
 LITH_v1       .                          :             LITH        Lithology Curve
 Comp_Core_log .                          :             
~A  DEPTH  CAL_INCH   GR_API   DT_US_FT  RD_OHMM   RM_OHMM   RS_OHMM  NEUT_P_R~ RHOB_G_C~  LITH_v1  Comp+Cor~ 
# ...
2698.0852   12.7380   36.9341   86.4941    1.9624    3.7396    6.5855    0.2866    2.6454   22.0000   37.0000 
2698.2376   12.7424   34.5300   85.9703    1.9641    3.9128    5.4501    0.3022    2.6555   22.0000   37.0000 
2698.3900   12.8401   38.2448   90.7532    1.9929    3.2057    3.6071    0.3010    2.5903   22.0000   18.0000 
2698.5424   12.8474   41.6856   93.3322    1.9644    2.7376    3.6137    0.3004    2.5612   37.0000   18.0000 
2698.6948   12.8524   43.4202   95.4800    1.9380    2.4922    3.7662    0.3026    2.5376   37.0000   18.0000 
2698.8472   12.8682   43.4688   98.8733    1.7930    1.9181    3.8537    0.3053    2.5152   37.0000   18.0000 
2698.9996   12.8870   41.2838  100.8201    1.6595    1.9012    3.8241    0.3084    2.4972   37.0000   18.0000 
2699.1520   12.8875   42.6361   99.9039    1.6213    1.9012    3.7319    0.3110    2.4991   37.0000   18.0000 
2699.3044   12.9064   43.9922  100.5800    1.5879    1.9012    3.6942    0.3125    2.5021   37.0000   18.0000 
2699.4568   12.9421   42.9388  102.5666    1.5541    1.8960    3.8433    0.3145    2.5056   37.0000   37.0000 
2699.6092   12.9668   43.9829  102.0840    1.5235    1.9660    3.9488    0.2947    2.5115   37.0000   37.0000 
2699.7616   12.9849   45.1853  101.7225    1.5004    1.9626    3.7716    0.2882    2.5072   37.0000   37.0000 
2699.9140   13.0010   46.7814  100.8183    1.4874    1.9154    3.7837    0.2850    2.4977   37.0000   37.0000 
2700.0664   13.0073   48.4213  101.3050    1.4720    1.9323    3.8433    0.2987    2.4944   37.0000   37.0000 
2700.2188   13.0104   45.3729  102.1887    1.4457    1.9725    3.9487    0.3015    2.4939   37.0000   37.0000 
2700.3712   13.0387   48.9974  102.9374    1.4215    1.8690    3.6332    0.3725    2.4950   37.0000   37.0000 
2700.5236   13.0832   58.9262  103.1179    1.4040    1.7279    3.4036    0.3652    2.4878   37.0000   37.0000 
2700.6760   13.1106   59.2179  103.4139    1.3932    1.7142    3.4349    0.3545    2.4851   37.0000   37.0000 
2700.8284   13.1221   58.6682  103.7014    1.3891    1.7093    3.4882    0.3335    2.4857   37.0000   37.0000 
2700.9808   13.1272   58.8840  102.6983    1.3917    1.7137    3.6206    0.3115    2.4907   37.0000   37.0000 
2701.1332   13.1273   57.0777  101.8963    1.3970    1.8063    3.7340    0.2936    2.4949   37.0000   37.0000 
2701.2856   13.1359   53.9598  100.7440    1.4088    1.8652    3.7990    0.2881    2.4967   37.0000   37.0000 
2701.4380   13.1702   50.6227  102.6529    1.4272    1.9108    3.5379    0.2848    2.4869   37.0000   37.0000 
2701.5904   13.2013   48.2228  101.9016    1.4529    1.9120    3.5183    0.2891    2.4784   37.0000   37.0000 
2701.7428   13.2100   48.7363  102.2933    1.4809    1.9013    3.5263    0.2902    2.4779   37.0000   37.0000 
2701.8952   13.2500   49.1423  102.6188    1.5181    1.9117    3.4101    0.2742    2.4727   22.0000   37.0000 
2702.0476   13.3124   45.1478  100.7906    1.5485    2.0420    3.5337    0.2884    2.5162   37.0000   37.0000 
2702.2000   13.3267   45.2106  100.1848    1.5181    2.0925    3.5614    0.2969    2.5093   37.0000   37.0000 
2702.3524   13.3270   45.3372   99.8063    1.5059    2.1350    3.5697    0.3031    2.5006   37.0000   37.0000 
2702.5048   13.3464   49.2277  101.0563    1.4938    2.0748    3.3138    0.3109    2.4886   37.0000   37.0000 
2702.6572   13.3664   52.4997  101.6394    1.4715    2.0174    3.2648    0.3031    2.4810   37.0000   37.0000 
2702.8096   13.3756   52.5904  102.1897    1.4405    1.9969    3.2487    0.3176    2.4855   37.0000   37.0000 
2702.9620   13.4099   54.6715  103.3677    1.4513    1.8518    2.9487    0.3288    2.4826   37.0000   37.0000 
2703.1144   13.4410   57.3072  103.9641    1.4699    1.7928    2.7936    0.3350    2.4796   37.0000   37.0000 
2703.2668   13.4468   61.2754  104.6926    1.5043    1.7279    2.6026    0.3339    2.4788   37.0000   37.0000 
2703.4192   13.4458   66.3179  101.9626    1.6267    1.6005    2.4128    0.2749    2.4878   22.0000   18.0000 
2703.5716   13.4109   54.9523   91.2071    1.7156    2.1923    3.0430    0.2122    2.5085   22.0000   18.0000 
2703.7240   13.3180   45.0132   90.6387    1.7697    2.8061    4.2059    0.2361    2.4995   22.0000   18.0000 
2703.8764   13.1869   40.2227   89.4985    1.8064    3.3507    7.4902    0.2558    2.4873   22.0000   18.0000 
2704.0288   12.9827   46.5768   91.1647    2.1086    3.9673    2.4195    0.2921    2.4583   22.0000   18.0000 
2704.1812   13.0495   52.9318   94.7405    2.1753    2.6743    2.2627    0.2838    2.4697   22.0000   18.0000 
2704.3336   13.0760   56.4273   96.7425    2.2421    2.2766    2.2793    0.2871    2.5153   37.0000   18.0000 
2704.4860   13.3315   51.9323   94.1606    2.2748    2.5849    5.3027    0.2797    2.5148   37.0000   18.0000 
2704.6384   13.4433   49.8945   92.7555    2.1522    2.7616    4.6510    0.2805    2.5096   37.0000   18.0000 
2704.7908   13.4659   51.4408   92.7703    2.0802    2.9646    3.9428    0.2836    2.4978   37.0000   18.0000 
2704.9432   13.6170   54.1945   96.9352    1.8906    2.2084    3.1733    0.2902    2.4789   37.0000   18.0000 
2705.0956   13.6913   50.1376  100.3685    1.7504    1.8359    3.6485    0.2960    2.4883   37.0000   18.0000 
2705.2480   13.7255   47.4558  100.6104    1.6550    1.8255    3.5527    0.2811    2.5004   37.0000   37.0000 
2705.4004   13.7458   46.7994  100.3928    1.6032    1.8409    3.4196    0.2717    2.5061   22.0000   37.0000 
2705.5528   13.7814   46.4104   99.9797    1.5121    1.8936    3.8423    0.2632    2.5147   22.0000   37.0000 
2705.7052   13.8057   46.1635  101.2826    1.5052    1.8532    3.5253    0.2590    2.5150   22.0000   37.0000 
2705.8576   13.8063   44.9237  101.5790    1.4967    1.8545    3.4473    0.2569    2.5101   22.0000   37.0000 
2706.0100   13.7637   42.9847  101.6336    1.5010    1.9158    3.6362    0.2775    2.5173   37.0000   37.0000 
2706.1624   13.7226   41.2779  101.6353    1.5049    1.9321    3.7793    0.2853    2.5055   37.0000   37.0000 
2706.3148   13.6914   40.7144  101.3711    1.5050    1.9596    3.4118    0.2909    2.5072   37.0000   37.0000 
2706.4672   13.7009   40.1641  101.9516    1.4967    1.9837    3.7775    0.2991    2.5212   37.0000   37.0000 
2706.6196   13.3467   47.4315  100.7555    1.4880    1.9109    3.6154    0.3083    2.5115   37.0000   37.0000 
2706.7720   13.3425   47.5871  101.3203    1.4874    1.9003    3.4724    0.3010    2.5035   37.0000   37.0000 
2706.9244   13.3417   47.2365  101.7104    1.4835    1.8990    3.4576    0.2965    2.4978   37.0000   37.0000 
2707.0768   13.2482   43.1438  102.0782    1.4532    1.8461    3.3278    0.2945    2.4900   37.0000   37.0000 
2707.2292   13.1660   42.9345  102.4939    1.4396    1.8108    3.0910    0.3058    2.4888   37.0000   37.0000 
2707.3816   13.1077   42.8373  103.0073    1.4133    1.7916    2.9900    0.3139    2.4866   37.0000   37.0000 
2707.5340   12.8729   47.3865  103.4099    1.3890    1.7732    2.6976    0.3110    2.4850   37.0000   37.0000 
2707.6864   12.8466   48.4328  103.6316    1.3893    1.7636    2.8201    0.3092    2.4835   37.0000   37.0000 
2707.8388   12.8459   49.1255  103.3792    1.3903    1.7371    2.9204    0.3147    2.4800   37.0000   37.0000 
2707.9912   12.8459   50.2995  102.7404    1.3595    1.7282    3.0332    0.3115    2.4890   37.0000   37.0000 
2708.1436   12.8459   47.0977  102.8838    1.3873    1.7770    3.1445    0.3095    2.5044   37.0000   37.0000 
2708.2960   12.8458   45.3417  102.7270    1.3863    1.7838    3.2743    0.3134    2.5001   37.0000   37.0000 
2708.4484   12.8458   43.6932  102.7224    1.3881    1.8017    3.3403    0.3167    2.4995   37.0000   37.0000 
2708.6008   12.8458   46.0257  103.2722    1.3960    1.8476    3.1080    0.3277    2.4967   37.0000   37.0000 
2708.7532   12.8458   47.3014  103.6295    1.4100    1.8515    3.1009    0.3376    2.5241   37.0000   37.0000 
2708.9056   12.8457   47.0293  103.8017    1.3857    1.8516    3.1572    0.3390    2.5145   37.0000   37.0000 
2709.0580   12.8457   42.6498  103.7258    1.3683    1.7949    3.2121    0.3176    2.4964   37.0000   37.0000 
