~VERSION INFORMATION
 VERS.                 2.0:   CWLS LOG ASCII STANDARD - VERSION 2.0
 WRAP.                  NO:   SINGLE LINE PER DEPTH STEP
 CREA.                 13/04/2018 14:39:10
#CREATED USING DSPetro VERSION 5000.10.1.3 BY H191660 ON 13/04/2018 14:39:10
~WELL INFORMATION
#MNEM.UNIT       DATA                          DESCRIPTION MNEMONIC
#---------      ---------------------------   --------------------------
 STRT    .M         1974.9472                 : START DEPTH
 STOP    .M         3799.9372                 : STOP DEPTH
 STEP    .M         0.1524                    : STEP VALUE
 NULL    .      -999.0000                     : NULL VALUE
 DATE    .      13/04/2018                    : LAS file Creation Date
 WELL .      34-10-30     : Well Name
 COMP .                   : Company
 FLD  .      GULLFAKS SOR : Field
 UWI  .      YNOWL_341030 : Unique Well Identifier (UWI)
 LOC  .                   : Location
 RWS  .      0            : Def_Rw
 WST  .      0            : Def_Rwt
 MDEC .      0            : Magnetic Declination
 SRVC .      SCH          : Contractor
~CURVE INFORMATION
#MNEM                 UNIT       API CODE   Curve Type Comments
#----------     --------------- ----------  ---------- -----------
 DEPTH         .M                         : Depth       
 CAL_INCH      .inch                      :             Caliper Log - A representation of the measured diameter of a borehole along its depth
 GR_API        .API                       : GammaRay    Gamma Ray (API) - Measures the intensity of natural gamma-ray radiation emitted from formations containing radioactive elements, such as K, Th and U
 DT_US_FT      .us/ft                     :             Interval Transit Time: Compressional Wave - Evaluates the time it takes for a compressional wave to traverse a fixed distance
 RD_OHMM       .ohmm                      :             Unspecified Deep Resistivity - No accroynm or method of attainment is specified - units of ohmm
 RM_OHMM       .ohm.m                     :             Unspecified Medium Resistivity - No accroynm or method of attainment is specified
 RS_OHMM       .ohmm                      :             Unspecified Shallow Resistivity - No accroynm or method of attainment is specified
 NEUT_P_RATIO  .ratio                     :             Unspecified Neutron Porosity Log - No accroynm or method of attainment is specified
 RHOB_G_CC     .g/cc                      :             Bulk Density - Measures the density of bulk material, including any void space or other materials contained in the subject volume
 LITH_v1       .                          :             LITH        Lithology Curve
 Comp_Core_log .                          :             
~A  DEPTH  CAL_INCH   GR_API   DT_US_FT  RD_OHMM   RM_OHMM   RS_OHMM  NEUT_P_R~ RHOB_G_C~  LITH_v1  Comp+Cor~ 
1974.9472   12.3232   38.7535  127.3409    1.2142    0.9699    1.0729    0.4044    2.1820 -999.0000   18.0000 
1975.0996   12.2766   39.7157  124.0211    1.1109    0.9448    0.8842    0.3836    2.2047 -999.0000   37.0000 
1975.2520   12.5910   36.5633  114.0501    1.0550    1.2293    1.3097    0.3679    2.2354 -999.0000   37.0000 
1975.4044   12.5324   34.7905  113.0059    1.0534    1.3179    1.6323    0.3605    2.2601 -999.0000   37.0000 
1975.5568   12.3943   35.4050  111.0968    1.0550    1.3888    2.1045    0.3779    2.2639 -999.0000   37.0000 
1975.7092   13.9050   36.2519  113.5304    1.0918    1.2216    1.0102    0.4354    2.2263 -999.0000   37.0000 
1975.8616   13.8572   37.0322  116.2935    1.1180    1.1677    0.9652    0.4361    2.1953 -999.0000   37.0000 
1976.0140   13.8223   34.8752  112.4444    1.1270    1.0988    1.0391    0.4345    2.1832 -999.0000   37.0000 
1976.1664   12.4507   32.4349  107.1590    1.0488    1.1630    0.9496    0.3615    2.2453 -999.0000   37.0000 
1976.3188   12.5746   33.0931  104.0882    1.0111    1.2000    1.1007    0.3676    2.2713 -999.0000   37.0000 
1976.4712   12.4687   32.2632  102.5814    0.9921    1.2128    1.3996    0.3740    2.2909 -999.0000   37.0000 
1976.6236   12.4120   31.8142  111.2804    0.9252    1.2234    1.6838    0.4403    2.2563 -999.0000   37.0000 
1976.7760   12.5146   40.1172  120.5596    0.8910    0.8752    0.9238    0.4498    2.2164 -999.0000   37.0000 
1976.9284   12.4767   43.7770  127.8359    0.8729    0.8374    0.9232    0.4574    2.1892 -999.0000   37.0000 
1977.0808   12.4784   44.1273  130.3732    0.8626    0.8524    0.9463    0.4580    2.1789 -999.0000   37.0000 
1977.2332   12.5340   44.6084  131.2278    0.8087    0.8998    1.1606    0.4509    2.1737 -999.0000   37.0000 
1977.3856   12.6189   38.4276  130.7972    0.8071    0.9440    0.9587    0.4312    2.1748 -999.0000   37.0000 
1977.5380   12.6116   40.7796  130.2208    0.8059    0.9616    1.0866    0.4319    2.1748 -999.0000   37.0000 
1977.6904   12.5232   42.5136  131.6605    0.8253    0.9507    0.9302    0.4305    2.1750 -999.0000   37.0000 
1977.8428   12.5868   43.6522  131.7036    0.8282    0.9485    0.9866    0.4178    2.1772 -999.0000   37.0000 
1977.9952   12.5978   42.2487  131.5415    0.8283    0.9484    1.0458    0.4372    2.1835 -999.0000   37.0000 
1978.1476   12.6152   40.5445  132.9554    0.8214    0.9484    1.0290    0.4242    2.1929 -999.0000   37.0000 
1978.3000   12.6983   42.9698  134.2270    0.7744    0.9153    0.8887    0.4337    2.1701 -999.0000   37.0000 
1978.4524   13.1672   44.3951  134.8750    0.7741    0.8938    0.8739    0.4262    2.1563 -999.0000   37.0000 
1978.6048   13.0550   42.3129  135.3381    0.7688    0.8775    0.8631    0.4222    2.1502 -999.0000   37.0000 
1978.7572   12.9130   40.9711  135.9346    0.7048    0.8288    0.9172    0.4310    2.1470 -999.0000   37.0000 
1978.9096   13.3579   37.4712  136.5354    0.6983    0.7902    0.9014    0.4043    2.1465 -999.0000   37.0000 
1979.0620   12.9820   39.7018  137.4023    0.6873    0.7746    0.8710    0.3979    2.1482 -999.0000   37.0000 
1979.2144   12.7475   42.1201  137.9914    0.6725    0.6973    0.8061    0.4383    2.1536 -999.0000   37.0000 
1979.3668   12.8532   44.3061  137.8718    0.6654    0.6968    0.7962    0.4439    2.1603 -999.0000   37.0000 
1979.5192   12.9264   45.1389  137.3345    0.6585    0.6998    0.7901    0.4169    2.1692 -999.0000   37.0000 
1979.6716   13.0719   47.4335  135.9624    0.6561    0.7731    0.9599    0.4313    2.1787 -999.0000   37.0000 
1979.8240   12.9131   50.2943  134.1966    0.6560    0.7984    0.8606    0.4461    2.1558 -999.0000   37.0000 
1979.9764   12.9377   46.0797  132.4680    0.6554    0.7521    0.7644    0.4465    2.1605 -999.0000   37.0000 
1980.1288   12.9800   43.9850  131.0927    0.6560    0.7314    0.7732    0.4366    2.1758 -999.0000   37.0000 
1980.2812   12.8888   39.4885  129.0368    0.6108    0.8028    1.1219    0.4043    2.2138 -999.0000   37.0000 
1980.4336   13.0514   35.2054  127.5742    0.6080    0.8370    1.3249    0.4283    2.2448 -999.0000   37.0000 
1980.5860   12.9740   33.3431  130.3335    0.6069    0.8546    1.8329    0.4669    2.1886 -999.0000   37.0000 
1980.7384   13.0976   31.5420  134.4940    0.6114    0.7247    0.6331    0.4496    2.1272 -999.0000   37.0000 
1980.8908   12.7224   37.3321  137.2858    0.6177    0.6864    0.5862    0.4436    2.0983 -999.0000   37.0000 
1981.0432   12.8338   38.1223  139.8262    0.6242    0.6568    0.5825    0.4279    2.0827 -999.0000   37.0000 
1981.1956   13.0645   37.6343  139.6074    0.6290    0.7308    0.7297    0.4161    2.1124 -999.0000   37.0000 
1981.3480   12.5078   40.6536  138.9670    0.6374    0.7758    0.8552    0.4187    2.1294 -999.0000   37.0000 
1981.5004   12.4764   42.8909  138.3483    0.6500    0.7809    0.8283    0.4128    2.1177 -999.0000   37.0000 
1981.6528   12.4760   44.3330  137.7140    0.6657    0.7744    0.8025    0.4228    2.1027 -999.0000   37.0000 
1981.8052   12.4969   40.5445  136.5639    0.6897    0.7474    0.8324    0.3996    2.1048 -999.0000   37.0000 
1981.9576   12.5429   37.5236  132.9335    0.7096    0.7798    0.8083    0.4110    2.1206 -999.0000   37.0000 
1982.1100   12.6096   36.1515  131.0817    0.7212    0.8236    0.9810    0.4717    2.1384 -999.0000   37.0000 
1982.2624   12.7520   35.3287  132.8449    0.6996    0.8002    0.7880    0.4730    2.1520 -999.0000   37.0000 
1982.4148   12.4745   38.5246  133.5235    0.7043    0.7829    0.8424    0.4725    2.1499 -999.0000   37.0000 
1982.5672   12.5049   37.0243  135.6404    0.6984    0.7533    0.9092    0.4716    2.1555 -999.0000   37.0000 
1982.7196   12.5447   36.3110  137.6176    0.6574    0.7305    0.8485    0.4285    2.1273 -999.0000   37.0000 
1982.8720   12.5802   35.4555  138.4346    0.6291    0.7215    0.7699    0.4310    2.1468 -999.0000   37.0000 
1983.0244   12.5812   36.6455  137.9660    0.6109    0.7089    0.7806    0.4345    2.1591 -999.0000   37.0000 
1983.1768   12.5958   36.6817  137.0166    0.5977    0.7012    1.0587    0.4372    2.1679 -999.0000   37.0000 
1983.3292   12.5963   36.7425  135.3522    0.5869    0.6584    1.7348    0.4317    2.1544 -999.0000   37.0000 
1983.4816   12.5331   36.0928  133.8574    0.5848    0.6561    0.8036    0.4276    2.1184 -999.0000   37.0000 
1983.6340   12.5847   35.3409  132.3497    0.5830    0.6589    0.7499    0.4246    2.1103 -999.0000   37.0000 
1983.7864   12.5426   33.9701  130.9846    0.5664    0.7102    0.7986    0.4959    2.0978 -999.0000   37.0000 
1983.9388   12.6446   35.5820  130.3692    0.5649    0.7349    0.8528    0.4952    2.1479 -999.0000   37.0000 
1984.0912   12.6889   36.6910  130.0360    0.5665    0.7550    0.9172    0.4768    2.1701 -999.0000   37.0000 
1984.2436   12.7252   37.7158  132.3731    0.5805    0.6863    0.7872    0.4499    2.1605 -999.0000   37.0000 
1984.3960   12.8139   34.5262  134.3219    0.5937    0.6579    0.8320    0.4064    2.1542 -999.0000   37.0000 
1984.5484   12.8359   35.2119  135.5767    0.5860    0.6562    1.3620    0.4159    2.1661 -999.0000   37.0000 
1984.7008   12.8366   35.6711  136.5699    0.5793    0.6562    1.0871    0.4255    2.1554 -999.0000   37.0000 
1984.8532   12.8560   36.5115  138.2206    0.5733    0.7028    0.8163    0.4538    2.1268 -999.0000   37.0000 
1985.0056   12.8760   41.0512  139.2731    0.5714    0.7001    0.8203    0.4327    2.1007 -999.0000   37.0000 
1985.1580   12.8961   40.7941  139.9183    0.5747    0.6751    0.8555    0.4195    2.0917 -999.0000   37.0000 
1985.3104   13.0328   41.2347  140.5962    0.5836    0.6716    0.7211    0.4493    2.1173 -999.0000   37.0000 
1985.4628   13.2020   37.4613  141.1992    0.5848    0.6770    0.7344    0.4505    2.1341 -999.0000   37.0000 
1985.6152   13.0903   36.7821  142.5120    0.5848    0.7084    0.9243    0.4841    2.1502 -999.0000   37.0000 
1985.7676   13.1895   37.5352  144.0047    0.5874    0.7284    0.7459    0.4888    2.1095 -999.0000   37.0000 
1985.9200   13.3475   36.6471  144.7502    0.5931    0.6175    0.7049    0.4689    2.0805 -999.0000   37.0000 
