~VERSION INFORMATION
 VERS.                 2.0:   CWLS LOG ASCII STANDARD - VERSION 2.0
 WRAP.                  NO:   SINGLE LINE PER DEPTH STEP
 CREA.                 13/04/2018 14:39:10
#CREATED USING DSPetro VERSION 5000.10.1.3 BY H191660 ON 13/04/2018 14:39:10
~WELL INFORMATION
#MNEM.UNIT       DATA                          DESCRIPTION MNEMONIC
#---------      ---------------------------   --------------------------
 STRT    .M         1974.9472                 : START DEPTH
 STOP    .M         3799.9372                 : STOP DEPTH
 STEP    .M         0.1524                    : STEP VALUE
 NULL    .      -999.0000                     : NULL VALUE
 DATE    .      13/04/2018                    : LAS file Creation Date
 WELL .      34-10-30     : Well Name
 COMP .                   : Company
 FLD  .      GULLFAKS SOR : Field
 UWI  .      YNOWL_341030 : Unique Well Identifier (UWI)
 LOC  .                   : Location
 RWS  .      0            : Def_Rw
 WST  .      0            : Def_Rwt
 MDEC .      0            : Magnetic Declination
 SRVC .      SCH          : Contractor
~CURVE INFORMATION
#MNEM                 UNIT       API CODE   Curve Type Comments
#----------     --------------- ----------  ---------- -----------
 DEPTH         .M                         : Depth       
 CAL_INCH      .inch                      :             Caliper Log - A representation of the measured diameter of a borehole along its depth
 GR_API        .API                       : GammaRay    Gamma Ray (API) - Measures the intensity of natural gamma-ray radiation emitted from formations containing radioactive elements, such as K, Th and U
 DT_US_FT      .us/ft                     :             Interval Transit Time: Compressional Wave - Evaluates the time it takes for a compressional wave to traverse a fixed distance
 RD_OHMM       .ohmm                      :             Unspecified Deep Resistivity - No accroynm or method of attainment is specified - units of ohmm
 RM_OHMM       .ohm.m                     :             Unspecified Medium Resistivity - No accroynm or method of attainment is specified
 RS_OHMM       .ohmm                      :             Unspecified Shallow Resistivity - No accroynm or method of attainment is specified
 NEUT_P_RATIO  .ratio                     :             Unspecified Neutron Porosity Log - No accroynm or method of attainment is specified
 RHOB_G_CC     .g/cc                      :             Bulk Density - Measures the density of bulk material, including any void space or other materials contained in the subject volume
 LITH_v1       .                          :             LITH        Lithology Curve
 Comp_Core_log .                          :             
~A  DEPTH  CAL_INCH   GR_API   DT_US_FT  RD_OHMM   RM_OHMM   RS_OHMM  NEUT_P_R~ RHOB_G_C~  LITH_v1  Comp+Cor~ 
# ...
3054.0916   10.2143   76.9143   99.5754    2.8931    3.8367    5.7928    0.2898    2.5039   37.0000   37.0000 
3054.2440   10.1967   78.5033   99.8393    2.9396    3.8765    5.7367    0.2854    2.5132   37.0000   37.0000 
3054.3964   10.1939   79.6322   99.9257    2.9875    3.9114    5.6525    0.2826    2.5150   37.0000   37.0000 
3054.5488   10.1987   80.2336   99.4719    3.1013    3.9388    5.5965    0.2998    2.5190   37.0000   37.0000 
3054.7012   10.1211   77.2382   99.7382    3.2194    4.0119    5.5873    0.2964    2.5252   37.0000   37.0000 
3054.8536   10.1189   74.7637  100.0332    3.2254    4.1000    5.5994    0.2916    2.5402   37.0000   37.0000 
3055.0060   10.0946   69.8980   98.7285    3.1604    4.6307    6.6215    0.3019    2.5657   22.0000   37.0000 
3055.1584   10.0745   70.4230   97.8405    3.1085    4.8905    7.2887    0.3202    2.5874   22.0000   37.0000 
3055.3108   10.0739   70.1825   96.3431    3.0810    4.7561    7.1179    0.3269    2.5994   22.0000   37.0000 
3055.4632   10.0690   70.0713   94.6628    2.9894    4.3576    7.3039    0.3410    2.6038   22.0000   37.0000 
3055.6156   10.0107   70.6750   93.0061    2.8534    3.5105    4.7926    0.3336    2.5455   37.0000   37.0000 
3055.7680   10.0661   70.6931   96.4436    2.7540    3.3813    4.9541    0.3290    2.5352   37.0000   37.0000 
3055.9204   10.0738   70.4505   98.5370    2.7004    3.2164    4.8527    0.3272    2.5292   37.0000   37.0000 
3056.0728   10.0740   70.8681  100.5990    2.6235    3.2889    5.3482    0.3301    2.5194   37.0000   37.0000 
3056.2252   10.0740   73.5428  101.5971    2.5232    3.1973    5.0012    0.3264    2.5118   37.0000   37.0000 
3056.3776   10.0740   75.7673  101.7869    2.5073    3.2346    4.5382    0.3228    2.5125   37.0000   37.0000 
3056.5300   10.0741   78.2434  100.8413    2.5162    3.3220    5.4296    0.3198    2.5151   37.0000   37.0000 
3056.6824   10.0741   77.5773  100.6304    2.5419    3.4323    5.6429    0.3235    2.5176   37.0000   37.0000 
3056.8348   10.0741   76.1178  100.5006    2.5703    3.5000    5.4308    0.3276    2.5197   37.0000   37.0000 
3056.9872   10.0741   74.8058   99.8121    2.6179    3.5542    5.3200    0.3303    2.5227   37.0000   37.0000 
3057.1396   10.0741   73.2990  100.0326    2.6919    3.6532    5.0348    0.3266    2.5278   37.0000   37.0000 
3057.2920   10.0742   76.3002  100.3288    2.6198    3.5893    5.3608    0.3211    2.5215   37.0000   37.0000 
3057.4444   10.0742   78.0436  100.4548    2.6176    3.5445    5.3707    0.3191    2.5213   37.0000   37.0000 
3057.5968   10.0742   79.5038   99.6406    2.6249    3.5275    5.5465    0.3175    2.5357   37.0000   37.0000 
3057.7492   10.0742   80.4139   98.8964    2.6808    3.4909    5.3291    0.3237    2.5493   37.0000   37.0000 
3057.9016   10.0742   75.5800   98.7941    2.6787    3.4046    5.2139    0.3261    2.5585   37.0000   37.0000 
3058.0540   10.0742   72.8335   97.4159    2.7164    3.5331    5.5031    0.3136    2.5437   37.0000   37.0000 
3058.2064   10.0743   77.6226   97.5369    2.7158    3.4684    5.2633    0.3049    2.5337   37.0000   37.0000 
3058.3588   10.0743   79.3067   97.9463    2.7136    3.5458    5.4155    0.3000    2.5286   37.0000   37.0000 
3058.5112   10.0743   80.9546   97.7724    2.7135    3.6254    5.4864    0.2966    2.5241   37.0000   37.0000 
3058.6636   10.0743   76.5274   97.5526    2.8658    3.7832    5.5928    0.2997    2.5224   37.0000   37.0000 
3058.8160   10.0743   73.8806   97.2598    2.9017    3.9083    5.7220    0.2930    2.5234   37.0000   37.0000 
3058.9684   10.0743   72.6050   96.9604    2.9036    3.9626    5.8560    0.2900    2.5241   37.0000   37.0000 
3059.1208   10.0744   73.2368   96.3645    3.0117    4.0587    6.0993    0.2888    2.5247   37.0000   37.0000 
3059.2732   10.0744   77.9836   95.8886    3.1089    4.3805    6.3674    0.3002    2.5239   37.0000   37.0000 
3059.4256   10.0744   79.0713   96.2569    3.1821    4.3838    6.4087    0.3060    2.5206   37.0000   37.0000 
3059.5780    9.8997   79.7432   96.6147    3.2507    4.3959    6.1642    0.3143    2.5317   37.0000   37.0000 
3059.7304    9.7506   73.9033   95.4920    3.2983    4.3963    6.2157    0.3106    2.5465   37.0000   37.0000 
3059.8828    9.6795   72.8581   95.5393    3.3312    4.4059    6.2974    0.3034    2.5630   22.0000   37.0000 
3060.0352    9.6487   73.3674   95.7035    3.4048    4.4584    6.5537    0.2932    2.6205   22.0000   37.0000 
3060.1876    9.6828   75.0808   93.0866    3.4193    4.7170    6.8617    0.2829    2.5944   22.0000   37.0000 
3060.3400    9.7138   72.8868   91.4350    3.4329    4.7246    6.4971    0.2771    2.5647   22.0000   37.0000 
3060.4924    9.6556   75.1591   90.6470    3.4620    4.7145    6.3265    0.2714    2.5490   22.0000   37.0000 
3060.6448    9.6353   76.8787   92.6481    3.5349    4.5747    6.2274    0.2622    2.5366   37.0000   37.0000 
3060.7972    9.6348   78.1586   91.8991    3.5370    4.3221    6.4915    0.2816    2.5305   37.0000   37.0000 
3060.9496    9.6348   78.7676   92.7652    3.5370    4.4809    7.0056    0.2853    2.5297   37.0000   37.0000 
3061.1020    9.6299   79.1805   91.8206    3.3823    4.4733    6.6669    0.2979    2.5312   37.0000   37.0000 
3061.2544    9.5069   85.5622   92.1139    3.3033    4.3867    5.9614    0.3021    2.5343   37.0000   37.0000 
3061.4068    9.3927   85.6675   92.4144    3.2490    4.3128    5.3981    0.3071    2.5400   37.0000   37.0000 
3061.5592    9.2493   78.8335   92.8237    2.9994    4.2310    4.3981    0.3142    2.5656   37.0000   37.0000 
3061.7116   10.0507   79.2978   94.3827    2.5350    3.1997    3.4851    0.3221    2.5581   37.0000   37.0000 
3061.8640   10.0141   72.7659   96.1338    2.4429    2.8665    3.0243    0.3253    2.5421   37.0000   37.0000 
3062.0164    9.9301   73.4812   96.8430    2.3681    2.6245    3.0670    0.3265    2.5365   37.0000   37.0000 
3062.1688    9.8682   68.7766   98.1397    2.2725    2.4200    3.5136    0.3308    2.5242   37.0000   37.0000 
3062.3212    9.9522   74.5810   99.6055    2.1099    2.3053    2.8415    0.3356    2.5230   37.0000   37.0000 
3062.4736    9.7361   75.2592  100.8396    2.0450    2.4059    2.4570    0.3369    2.5197   37.0000   37.0000 
3062.6260    9.6557   75.9275   99.0441    1.9106    2.5182    2.8945    0.3568    2.5382   37.0000   37.0000 
3062.7784    9.6307   75.7897   97.7453    1.8961    2.5003    3.4212    0.3618    2.5566   37.0000   37.0000 
3062.9308    9.8991   74.8402   99.0880    1.8958    2.4997    3.3650    0.3610    2.5701   37.0000   37.0000 
3063.0832   10.2183   73.1957   99.9514    1.8958    2.4546    3.2749    0.3533    2.5557   37.0000   37.0000 
3063.2356   10.4532   68.7981  100.6264    1.8958    2.4949    1.2457    0.3362    2.5166   37.0000   37.0000 
3063.3880   10.6732   66.2718  102.0626    1.8958    2.4714    1.7155    0.3424    2.5277   37.0000   37.0000 
3063.5404   10.4591   68.1354  104.2286    1.8975    2.4333    2.2848    0.3474    2.5378   37.0000   37.0000 
3063.6928   10.1481   69.1765   99.1933    1.9118    2.4838    2.7013    0.3653    2.5453   37.0000   37.0000 
3063.8452    9.8389   77.3477  100.5793    1.9122    2.4645    2.9722    0.3584    2.5490   37.0000   37.0000 
3063.9976    9.8622   79.6557  100.4631    1.8857    2.4882    2.8535    0.3478    2.5659   37.0000   37.0000 
3064.1500   10.0155   80.4225   98.6779    1.9440    2.6175    2.4172    0.3404    2.5608   37.0000   37.0000 
3064.3024    9.8307   80.0082   98.9487    1.9946    2.6177    2.0140    0.3448    2.5609   37.0000   37.0000 
3064.4548    9.8503   79.4287   98.8858    2.0345    2.6176    2.4993    0.3504    2.5581   37.0000   37.0000 
3064.6072    9.8647   78.3972   98.9561    2.0979    2.5885    3.8497    0.3692    2.5535   37.0000   37.0000 
3064.7596    9.8381   76.9896   97.1856    2.2188    3.1050    3.1252    0.3531    2.5396   37.0000   37.0000 
3064.9120    9.8450   75.9530   96.7830    2.3292    3.2040    3.4943    0.3388    2.5261   37.0000   37.0000 
3065.0644    9.8646   74.9752   96.5294    2.4164    3.3121    4.1426    0.3273    2.5173   37.0000   37.0000 
