~VERSION INFORMATION
 VERS.                 2.0:   CWLS LOG ASCII STANDARD - VERSION 2.0
 WRAP.                  NO:   SINGLE LINE PER DEPTH STEP
 CREA.                 13/04/2018 14:39:10
#CREATED USING DSPetro VERSION 5000.10.1.3 BY H191660 ON 13/04/2018 14:39:10
~WELL INFORMATION
#MNEM.UNIT       DATA                          DESCRIPTION MNEMONIC
#---------      ---------------------------   --------------------------
 STRT    .M         1974.9472                 : START DEPTH
 STOP    .M         3799.9372                 : STOP DEPTH
 STEP    .M         0.1524                    : STEP VALUE
 NULL    .      -999.0000                     : NULL VALUE
 DATE    .      13/04/2018                    : LAS file Creation Date
 WELL .      34-10-30     : Well Name
 COMP .                   : Company
 FLD  .      GULLFAKS SOR : Field
 UWI  .      YNOWL_341030 : Unique Well Identifier (UWI)
 LOC  .                   : Location
 RWS  .      0            : Def_Rw
 WST  .      0            : Def_Rwt
 MDEC .      0            : Magnetic Declination
 SRVC .      SCH          : Contractor
~CURVE INFORMATION
#MNEM                 UNIT       API CODE   Curve Type Comments
#----------     --------------- ----------  ---------- -----------
 DEPTH         .M                         : Depth       
 CAL_INCH      .inch                      :             Caliper Log - A representation of the measured diameter of a borehole along its depth
 GR_API        .API                       : GammaRay    Gamma Ray (API) - Measures the intensity of natural gamma-ray radiation emitted from formations containing radioactive elements, such as K, Th and U
 DT_US_FT      .us/ft                     :             Interval Transit Time: Compressional Wave - Evaluates the time it takes for a compressional wave to traverse a fixed distance
 RD_OHMM       .ohmm                      :             Unspecified Deep Resistivity - No accroynm or method of attainment is specified - units of ohmm
 RM_OHMM       .ohm.m                     :             Unspecified Medium Resistivity - No accroynm or method of attainment is specified
 RS_OHMM       .ohmm                      :             Unspecified Shallow Resistivity - No accroynm or method of attainment is specified
 NEUT_P_RATIO  .ratio                     :             Unspecified Neutron Porosity Log - No accroynm or method of attainment is specified
 RHOB_G_CC     .g/cc                      :             Bulk Density - Measures the density of bulk material, including any void space or other materials contained in the subject volume
 LITH_v1       .                          :             LITH        Lithology Curve
 Comp_Core_log .                          :             
~A  DEPTH  CAL_INCH   GR_API   DT_US_FT  RD_OHMM   RM_OHMM   RS_OHMM  NEUT_P_R~ RHOB_G_C~  LITH_v1  Comp+Cor~ 
# ...
3298.8460   10.8860   49.2955   93.8968    4.5784    7.8514    0.7061    0.3433    2.2462   11.0000   27.0000 
3298.9984    9.4694   69.4569   86.9818    4.2743    3.5270    1.1402    0.3950    2.2314   11.0000   37.0000 
3299.1508    9.5132   76.5351   83.5542    4.0864    2.8374    1.1404    0.4097    2.2271   11.0000   37.0000 
3299.3032    9.6517   81.7256   85.3836    3.9183    2.6714    1.0412    0.4194    2.2431   11.0000   37.0000 
3299.4556   10.3214   84.6612   87.4709    3.6833    2.7543    0.6017    0.3836    2.2544   11.0000   37.0000 
3299.6080   10.0558   79.2606   88.7553    3.5758    3.1333    0.5837    0.2045    2.3523   11.0000   27.0000 
3299.7604    9.6415   70.5167   84.3366    3.5828    3.2595    0.7771    0.1788    2.4289   11.0000   27.0000 
3299.9128    9.2041   63.4287   81.5044    3.5881    3.3508    0.9026    0.1468    2.4304   27.0000   27.0000 
3300.0652    8.7886   39.7008   76.9254    4.6001    5.3577    0.9919    0.1270    2.4283   27.0000   27.0000 
3300.2176    8.5125   36.2064   80.4186    4.9744    5.9120    1.3688    0.1349    2.4255   27.0000   27.0000 
3300.3700    8.2957   25.8583   85.1744    5.2775    7.7744    6.8706    0.1491    2.4262   27.0000   27.0000 
3300.5224    8.2944   27.5579   89.1694   10.4125   10.6451    6.4664    0.1658    2.3686   27.0000   27.0000 
3300.6748    8.2946   27.0014   90.1963   12.7502   10.8174    6.2416    0.1636    2.3435   27.0000   27.0000 
3300.8272    8.2946   26.0602   92.1104   13.7477   10.8699    6.0072    0.1609    2.3399   27.0000   27.0000 
3300.9796    8.2946   23.7398   94.0629   21.0353   13.0703    8.0698    0.1512    2.3352   27.0000   27.0000 
3301.1320    8.2946   21.4297   94.6693   19.5719   15.7183    9.4073    0.1480    2.3267   27.0000   27.0000 
3301.2844    8.2947   22.3042   94.7892   18.9142   16.7355    9.4451    0.1567    2.3102   27.0000   27.0000 
3301.4368    8.2947   22.7884   93.2564   18.8573   18.2043    9.7370    0.1620    2.3061   27.0000   27.0000 
3301.5892    8.2947   23.9565   95.6388   20.5914   19.5638    9.9835    0.1676    2.3030   27.0000   27.0000 
3301.7416    8.2948   21.8601   95.7237   22.7872   19.7188    9.5136    0.1726    2.2977   27.0000   27.0000 
3301.8940    8.2948   20.1615   96.8449   26.4580   20.0295    9.0838    0.1750    2.2857   27.0000   27.0000 
3302.0464    8.3045   20.7551   95.3685   26.6395   20.4352    9.9665    0.1698    2.2882   27.0000   27.0000 
3302.1988    8.2952   21.2421   95.1342   26.6071   20.6527    9.7485    0.1673    2.2910   27.0000   27.0000 
3302.3512    8.2949   22.2241   95.7763   26.4545   20.9969    9.4399    0.1620    2.2896   27.0000   27.0000 
3302.5036    8.2949   25.8744   95.1842   25.7565   21.2720   11.0651    0.1654    2.2878   27.0000   27.0000 
3302.6560    8.2949   29.4629   94.4830   26.0982   20.8677   10.6441    0.1684    2.2861   27.0000   27.0000 
3302.8084    8.2950   31.7371   96.0627   25.2025   20.5531   10.2395    0.1702    2.2888   27.0000   27.0000 
3302.9608    8.2950   33.0261   96.6149   24.6964   20.4166    9.6675    0.1711    2.2929   27.0000   27.0000 
3303.1132    8.2950   34.5317   90.7633   23.6354   17.9992    9.1404    0.1531    2.3046   27.0000   27.0000 
3303.2656    8.2951   36.0083   87.2518   20.7062   17.2740    9.2635    0.1512    2.3238   27.0000   27.0000 
3303.4180    8.2951   39.5865   76.0442   19.4672   16.6068    9.3862    0.1499    2.3575   27.0000   27.0000 
3303.5704    8.2951   43.6243   81.8155   15.4282   12.4784    5.5309    0.1669    2.3975   27.0000   27.0000 
3303.7228    8.2952   46.4322   84.0307   14.5080   10.9017    5.3582    0.1726    2.3921   27.0000   27.0000 
3303.8752    8.2952   45.4797   84.4713   14.1958   10.5384    5.1631    0.1743    2.3912   27.0000   27.0000 
3304.0276    8.2952   47.7576   85.8350   13.7079    9.6900    5.9146    0.1775    2.3890   27.0000   27.0000 
3304.1800    8.2953   40.4288   87.9051   11.0943    9.4236    5.7110    0.1678    2.3755   27.0000   27.0000 
3304.3324    8.2953   35.0146   87.7228   10.7465    9.8193    5.8735    0.1612    2.3616   27.0000   27.0000 
3304.4848    8.2953   32.3161   87.6507   10.4571   10.0348    6.0096    0.1588    2.3662   27.0000   27.0000 
3304.6372    8.2953   28.1890   87.8927   10.1928   10.3098    6.1381    0.1521    2.3480   27.0000   27.0000 
3304.7896    8.2954   24.9691   87.9644   10.0819   11.1028    6.8121    0.1446    2.3324   27.0000   27.0000 
3304.9420    8.2954   24.3321   87.7026   10.1037   11.4279    6.5131    0.1393    2.3369   27.0000   27.0000 
3305.0944    8.2954   24.0651   86.7792   10.4197   10.9104    6.1579    0.1353    2.3597   27.0000   27.0000 
3305.2468    8.2955   25.1163   85.5876   10.7226   10.7471    6.3950    0.1384    2.3797   27.0000   27.0000 
3305.3992    8.2981   26.5801   84.5010   10.9465   10.7196    6.3664    0.1425    2.3925   27.0000   27.0000 
3305.5516    8.3004   27.7163   82.6873   11.1228   10.7282    6.3194    0.1478    2.3801   27.0000   27.0000 
3305.7040    8.3734   26.8985   85.0775   12.6944   10.7782    6.7005    0.1523    2.3615   27.0000   27.0000 
3305.8564    8.3757   29.8500   87.1234   13.1251   11.7058    6.9944    0.1520    2.3498   27.0000   27.0000 
3306.0088    8.3757   29.9995   87.5323   13.5404   11.8781    7.3393    0.1516    2.3580   27.0000   27.0000 
3306.1612    8.3757   31.4594   87.1874   14.0373   12.2870    6.6741    0.1540    2.3716   27.0000   27.0000 
3306.3136    8.3757   28.7095   86.4715   14.5518   12.3914    7.4942    0.1563    2.3826   27.0000   27.0000 
3306.4660    8.3758   28.9668   85.4974   14.5798   12.3629    8.9234    0.1574    2.3516   27.0000   27.0000 
3306.6184    8.3758   31.3972   87.1396   14.3815   12.1294    5.8137    0.1501    2.3342   27.0000   27.0000 
3306.7708    8.3758   32.7781   87.8232   13.5779   11.7568    7.2218    0.1518    2.3431   27.0000   27.0000 
3306.9232    8.3759   31.0707   87.6351   13.5642   11.3662    7.2183    0.1540    2.3544   27.0000   27.0000 
3307.0756    8.3759   28.3619   86.9892   13.5923   10.9403    5.9485    0.1585    2.3699   27.0000   27.0000 
3307.2280    8.3759   24.8504   87.4368   12.8173   10.4283    6.0842    0.1685    2.3543   27.0000   27.0000 
3307.3804    8.3760   29.7616   88.1777   12.5427   10.5489    6.2318    0.1665    2.3412   27.0000   27.0000 
3307.5328    8.3760   31.2519   89.0630   12.3306   10.6599    6.2359    0.1648    2.3358   27.0000   27.0000 
3307.6852    8.3760   32.9564   90.4032   12.7811   10.8062    6.2358    0.1617    2.3205   27.0000   27.0000 
3307.8376    8.3761   27.0317   91.6357   13.7416   11.5991    7.5839    0.1584    2.3050   27.0000   27.0000 
3307.9900    8.3761   25.2962   92.5294   13.6165   12.3212    7.5862    0.1557    2.3045   27.0000   27.0000 
3308.1424    8.3961   30.0885   90.1817   12.5016   11.7473    6.1111    0.1532    2.3247   27.0000   27.0000 
3308.2948    8.4156   34.5277   89.0860   11.7991   11.3303    6.1662    0.1534    2.3425   27.0000   27.0000 
3308.4472    8.4162   37.6012   89.0974   11.3088   10.9841    6.6484    0.1536    2.3415   27.0000   27.0000 
3308.5996    8.4162   40.3710   89.5428   10.6601    8.7505    7.1258    0.1606    2.3510   27.0000   27.0000 
3308.7520    8.4163   38.2880   84.6498    9.0879   10.9932    5.0780    0.1679    2.3771   27.0000   27.0000 
3308.9044    8.4163   37.5925   82.6127    8.9787   11.2019    5.6116    0.1558    2.3973   27.0000   27.0000 
3309.0568    8.4163   37.7197   82.5568    8.9312   11.4276    6.2472    0.1501    2.3925   27.0000   27.0000 
3309.2092    8.4164   39.2730   81.9096    8.8878   11.2551    7.3314    0.1615    2.3787   27.0000   27.0000 
3309.3616    8.4164   41.1846   84.7808    8.1574   11.1757    8.6460    0.1700    2.3680   27.0000   27.0000 
3309.5140    8.4164   42.2238   84.2681    7.7829   11.1266    8.6961    0.1718    2.3731   27.0000   27.0000 
3309.6664    8.4165   42.8731   83.5777    5.4522    7.4158    6.9503    0.1483    2.3778   27.0000   27.0000 
3309.8188    8.4334   41.7983   84.5742    5.0311    6.4699    5.3186    0.1706    2.3922   27.0000   27.0000 
