~VERSION INFORMATION
 VERS.                 2.0:   CWLS LOG ASCII STANDARD - VERSION 2.0
 WRAP.                  NO:   SINGLE LINE PER DEPTH STEP
 CREA.                 13/04/2018 14:39:10
#CREATED USING DSPetro VERSION 5000.10.1.3 BY H191660 ON 13/04/2018 14:39:10
~WELL INFORMATION
#MNEM.UNIT       DATA                          DESCRIPTION MNEMONIC
#---------      ---------------------------   --------------------------
 STRT    .M         1974.9472                 : START DEPTH
 STOP    .M         3799.9372                 : STOP DEPTH
 STEP    .M         0.1524                    : STEP VALUE
 NULL    .      -999.0000                     : NULL VALUE
 DATE    .      13/04/2018                    : LAS file Creation Date
 WELL .      34-10-30     : Well Name
 COMP .                   : Company
 FLD  .      GULLFAKS SOR : Field
 UWI  .      YNOWL_341030 : Unique Well Identifier (UWI)
 LOC  .                   : Location
 RWS  .      0            : Def_Rw
 WST  .      0            : Def_Rwt
 MDEC .      0            : Magnetic Declination
 SRVC .      SCH          : Contractor
~CURVE INFORMATION
#MNEM                 UNIT       API CODE   Curve Type Comments
#----------     --------------- ----------  ---------- -----------
 DEPTH         .M                         : Depth       
 CAL_INCH      .inch                      :             Caliper Log - A representation of the measured diameter of a borehole along its depth
 GR_API        .API                       : GammaRay    Gamma Ray (API) - Measures the intensity of natural gamma-ray radiation emitted from formations containing radioactive elements, such as K, Th and U
 DT_US_FT      .us/ft                     :             Interval Transit Time: Compressional Wave - Evaluates the time it takes for a compressional wave to traverse a fixed distance
 RD_OHMM       .ohmm                      :             Unspecified Deep Resistivity - No accroynm or method of attainment is specified - units of ohmm
 RM_OHMM       .ohm.m                     :             Unspecified Medium Resistivity - No accroynm or method of attainment is specified
 RS_OHMM       .ohmm                      :             Unspecified Shallow Resistivity - No accroynm or method of attainment is specified
 NEUT_P_RATIO  .ratio                     :             Unspecified Neutron Porosity Log - No accroynm or method of attainment is specified
 RHOB_G_CC     .g/cc                      :             Bulk Density - Measures the density of bulk material, including any void space or other materials contained in the subject volume
 LITH_v1       .                          :             LITH        Lithology Curve
 Comp_Core_log .                          :             
~A  DEPTH  CAL_INCH   GR_API   DT_US_FT  RD_OHMM   RM_OHMM   RS_OHMM  NEUT_P_R~ RHOB_G_C~  LITH_v1  Comp+Cor~ 
# ...
3532.4752    6.4791   65.9461   73.3489    4.5269    6.1437    5.5492    0.0755    2.5377   36.0000   27.0000 
3532.6276    6.4791   65.1826   73.7265    5.0283    6.2411    7.2723    0.0640    2.5175   36.0000   27.0000 
3532.7800    6.4791   60.0621   71.9941    6.5552    7.6524    5.5731    0.0635    2.5120   36.0000   27.0000 
3532.9324    6.4791   59.2761   70.8500    6.8680    8.5714    5.2366    0.0640    2.5224   36.0000   27.0000 
3533.0848    6.4791   57.9472   68.1490    7.1187   12.2278    6.1342    0.0693    2.5389   36.0000   27.0000 
3533.2372    6.4705   56.3388   65.1562    6.9251   11.0782    9.9570    0.0760    2.5005   36.0000   27.0000 
3533.3896    6.4363   55.3596   65.7976    6.8178   11.0652   13.6258    0.0806    2.4374   36.0000   27.0000 
3533.5420    6.4051   54.6811   65.0235    6.7674   11.5314   14.6982    0.0643    2.4172   36.0000   27.0000 
3533.6944    6.3992   58.9068   64.0149    6.4161   11.5944    8.2669    0.0799    2.2891   11.0000   27.0000 
3533.8468    6.6158   61.2923   69.2455    5.3346   11.7151    3.7575    0.1107    2.2836   11.0000   27.0000 
3533.9992    6.9636   63.5081   66.8120    3.8949   11.8449    1.1936    0.2466    2.4901   36.0000   27.0000 
3534.1516    6.3185   75.9747   63.6596    2.4474    4.0142    1.3857    0.2859    2.5142   37.0000   27.0000 
3534.3040    6.2359   96.9138   78.7013    2.3866    3.0598    1.0984    0.2690    2.5600   37.0000   37.0000 
3534.4564    6.2735  102.4623   78.1797    2.3611    2.7587    1.0472    0.2641    2.5832   37.0000   37.0000 
3534.6088    6.3573  107.4930   77.9888    2.3433    2.5613    0.9978    0.2574    2.5904   37.0000   37.0000 
3534.7612    6.6017  111.7132   85.1864    2.3323    2.4133    1.1108    0.2510    2.5966   37.0000   37.0000 
3534.9136    6.6224  109.9534   79.9780    2.3189    2.4092    1.2629    0.2461    2.5993   37.0000   37.0000 
3535.0660    6.6383  111.8033   82.5726    2.2724    2.3592    1.1665    0.2430    2.3596   37.0000   37.0000 
3535.2184    7.1360  114.9423   85.5556    2.3225    2.3577    1.0383    0.2603    2.3327   37.0000   37.0000 
3535.3708    7.2407  117.1056   86.9403    2.2824    2.3577    0.9803    0.2820    2.3125   37.0000   37.0000 
3535.5232    7.3134  119.0278   89.0324    2.2492    2.3605    0.9550    0.3179    2.2599   37.0000   37.0000 
3535.6756    7.3520  102.5173   91.4942    2.3057    2.1353    1.0119    0.3537    2.0725   11.0000   37.0000 
3535.8280    7.3434  102.5782   84.2819    2.5936    2.4667    0.7733    0.3824    2.0500   11.0000   37.0000 
3535.9804    7.2741  102.8952   86.0073    2.7820    2.6632    0.5260    0.3866    2.0386   11.0000   37.0000 
3536.1328    7.2056  104.9719   84.7680    2.8818    4.9236    1.4550    0.3879    2.0333   11.0000   37.0000 
3536.2852    6.6296   97.8200   83.6791    4.0529    7.5717    0.4595    0.2266    2.0296   11.0000   37.0000 
3536.4376    6.4864   91.0993   84.5379    4.1755    6.5693    0.5746    0.1928    2.0295   11.0000   37.0000 
3536.5900    6.3721   82.7107   76.3773    4.4673    5.9284    4.6483    0.1445    2.0342   11.0000   37.0000 
3536.7424    6.3047   85.5611   69.7535    4.5200    5.6083    6.9016    0.1413    2.0448   11.0000   37.0000 
3536.8948    6.2795   87.7404   69.7254    4.5340    5.5059    7.7150    0.1521    2.0461   11.0000   37.0000 
3537.0472    6.2613   93.1467   70.4697    5.1079    5.3407    8.0128    0.1775    2.0461   11.0000   37.0000 
3537.1996    6.2656  105.6574   74.7379    4.6542    4.9620    4.8963    0.2082    2.0460   11.0000   37.0000 
3537.3520    6.3221  104.6779   76.2994    2.7650    4.3168    3.3510    0.2243    2.0086   11.0000   37.0000 
3537.5044    6.4113  103.2137   76.7129    2.5534    3.4590    2.3313    0.2407    1.9851   11.0000   37.0000 
3537.6568    6.4775  100.4341   77.0524    2.6951    2.6577    1.6053    0.2558    1.9513   11.0000   37.0000 
3537.8092    6.5837   97.6534   82.6779    2.8340    2.2819    1.0346    0.3737    1.9180   11.0000   37.0000 
3537.9616    6.7426   95.5496   85.5362    2.8595    2.3074    0.7433    0.3934    1.9805   11.0000   37.0000 
3538.1140    7.4184   90.9066   86.9659    2.8697    2.3370    0.2777    0.4521    1.9975   11.0000   37.0000 
3538.2664    6.8607   85.0130   87.3834    2.9138    2.3449    0.9082    0.4479    2.2586   11.0000   37.0000 
3538.4188    6.8726   87.3584   86.7909    2.9818    2.3744    0.7147    0.4379    2.2668   11.0000   27.0000 
3538.5712    6.9366   94.6868   86.0005    3.1301    2.3949    0.4076    0.2562    2.2723   37.0000   27.0000 
3538.7236    7.0695   84.2605   78.2081    3.4135   12.9745    0.3724    0.1132    2.5161   36.0000   27.0000 
3538.8760    6.1947   71.4048   71.0172    3.6369   12.5852   11.8174    0.1098    2.5291   36.0000   27.0000 
3539.0284    6.1686   59.1944   68.7078    3.6483   11.7639   13.1371    0.1108    2.5366   36.0000   27.0000 
3539.1808    6.1589   57.2931   70.5044    3.6384   11.5263   13.6307    0.1313    2.5390   36.0000   27.0000 
3539.3332    6.1585   53.4602   75.7572    4.5727   10.7191    9.3376    0.1538    2.5015   36.0000   27.0000 
3539.4856    6.1585   58.4884   76.1223    5.5743    9.7299    7.0510    0.1542    2.4364   36.0000   27.0000 
3539.6380    6.1585   60.9646   75.4510    6.7537    7.4670    5.6356    0.1374    2.4393   36.0000   27.0000 
3539.7904    6.1585   54.3583   74.5729    7.3006    7.0590    5.5342    0.1204    2.4438   36.0000   27.0000 
3539.9428    6.1585   54.6023   73.8054    6.7964    7.4488    5.5325    0.1217    2.4627   36.0000   27.0000 
3540.0952    6.1585   55.6900   73.0792    6.2858    8.0512    6.9542    0.1242    2.4765   36.0000   27.0000 
3540.2476    6.1585   67.4884   76.5630    5.1801    7.8573    5.9346    0.1615    2.4709   36.0000   27.0000 
3540.4000    6.1244   72.0591   78.7838    4.9338    7.0206    3.8332    0.1805    2.4591   36.0000   27.0000 
3540.5524    6.0641   74.0995   79.0633    4.8780    6.2944    3.9760    0.1844    2.4160   36.0000   27.0000 
3540.7048    6.0391   74.0957   79.6531    4.7893    5.5932    3.9294    0.1861    2.4026   36.0000   27.0000 
3540.8572    6.0472   73.6691   80.0168    4.7099    5.0688    3.9052    0.1801    2.4090   36.0000   27.0000 
3541.0096    6.0816   77.3244   79.9476    4.6313    5.1307    4.4654    0.1871    2.4194   37.0000   27.0000 
3541.1620    6.1126   83.1719   79.7294    4.5193    5.4407    4.7023    0.2170    2.4324   37.0000   27.0000 
3541.3144    6.1183   80.4279   78.4279    4.4729    5.5905    4.9479    0.2266    2.4871   37.0000   27.0000 
3541.4668    6.1183   76.8131   79.8561    4.4277    5.6630    5.1214    0.2234    2.4776   37.0000   27.0000 
3541.6192    6.1329   71.2832   80.4558    4.3828    5.7440    5.1254    0.2202    2.4728   37.0000   27.0000 
3541.7716    6.0362   64.2981   79.8813    4.5823    5.8660    4.8049    0.1819    2.4130   36.0000   27.0000 
3541.9240    6.0382   66.2800   79.3170    4.6995    6.4031    6.0439    0.1708    2.4023   36.0000   27.0000 
3542.0764    6.0383   64.5682   78.5763    4.7860    6.5154    6.1619    0.1714    2.4035   36.0000   27.0000 
3542.2288    6.0334   63.8039   78.8571    4.9196    6.7426    5.9534    0.1718    2.4066   36.0000   27.0000 
3542.3812    6.0139   65.5427   78.9415    5.0388    6.9472    5.5529    0.1658    2.4103   36.0000   27.0000 
3542.5336    6.0036   64.3812   78.8081    5.1127    7.1896    6.1940    0.1693    2.4144   36.0000   27.0000 
3542.6860    6.0032   65.7041   78.8488    5.1479    7.4940    6.5230    0.1778    2.3967   36.0000   27.0000 
3542.8384    6.0032   66.3649   79.2226    5.1627    7.7814    6.6781    0.1849    2.3923   36.0000   27.0000 
3542.9908    5.9671   66.8921   79.6682    5.1857    7.5586    6.4663    0.1863    2.3860   36.0000   27.0000 
3543.1432    5.9310   65.5599   79.9360    5.2373    7.1892    5.4767    0.1742    2.3643   36.0000   27.0000 
3543.2956    5.9185   62.9223   79.8069    5.7595    5.8670    3.7013    0.1524    2.3798   36.0000   27.0000 
3543.4480    5.9182   68.6147   80.6928    5.9308    6.6248    4.1342    0.1380    2.3950   36.0000   27.0000 
