~VERSION INFORMATION
 VERS.                 2.0:   CWLS LOG ASCII STANDARD - VERSION 2.0
 WRAP.                  NO:   SINGLE LINE PER DEPTH STEP
 CREA.                 13/04/2018 14:39:10
#CREATED USING DSPetro VERSION 5000.10.1.3 BY H191660 ON 13/04/2018 14:39:10
~WELL INFORMATION
#MNEM.UNIT       DATA                          DESCRIPTION MNEMONIC
#---------      ---------------------------   --------------------------
 STRT    .M         1974.9472                 : START DEPTH
 STOP    .M         3799.9372                 : STOP DEPTH
 STEP    .M         0.1524                    : STEP VALUE
 NULL    .      -999.0000                     : NULL VALUE
 DATE    .      13/04/2018                    : LAS file Creation Date
 WELL .      34-10-30     : Well Name
 COMP .                   : Company
 FLD  .      GULLFAKS SOR : Field
 UWI  .      YNOWL_341030 : Unique Well Identifier (UWI)
 LOC  .                   : Location
 RWS  .      0            : Def_Rw
 WST  .      0            : Def_Rwt
 MDEC .      0            : Magnetic Declination
 SRVC .      SCH          : Contractor
~CURVE INFORMATION
#MNEM                 UNIT       API CODE   Curve Type Comments
#----------     --------------- ----------  ---------- -----------
 DEPTH         .M                         : Depth       
 CAL_INCH      .inch                      :             Caliper Log - A representation of the measured diameter of a borehole along its depth
 GR_API        .API                       : GammaRay    Gamma Ray (API) - Measures the intensity of natural gamma-ray radiation emitted from formations containing radioactive elements, such as K, Th and U
 DT_US_FT      .us/ft                     :             Interval Transit Time: Compressional Wave - Evaluates the time it takes for a compressional wave to traverse a fixed distance
 RD_OHMM       .ohmm                      :             Unspecified Deep Resistivity - No accroynm or method of attainment is specified - units of ohmm
 RM_OHMM       .ohm.m                     :             Unspecified Medium Resistivity - No accroynm or method of attainment is specified
 RS_OHMM       .ohmm                      :             Unspecified Shallow Resistivity - No accroynm or method of attainment is specified
 NEUT_P_RATIO  .ratio                     :             Unspecified Neutron Porosity Log - No accroynm or method of attainment is specified
 RHOB_G_CC     .g/cc                      :             Bulk Density - Measures the density of bulk material, including any void space or other materials contained in the subject volume
 LITH_v1       .                          :             LITH        Lithology Curve
 Comp_Core_log .                          :             
~A  DEPTH  CAL_INCH   GR_API   DT_US_FT  RD_OHMM   RM_OHMM   RS_OHMM  NEUT_P_R~ RHOB_G_C~  LITH_v1  Comp+Cor~ 
# ...
2219.7016   12.9815   46.5625  116.7102    1.3925    1.5318    1.9357    0.3544    2.3406   37.0000   37.0000 
2219.8540   12.9077   47.6951  116.0735    1.3812    1.4853    1.7892    0.3784    2.3247   37.0000   37.0000 
2220.0064   12.8686   47.9065  115.7182    1.3809    1.4840    1.7232    0.3823    2.3282   37.0000   37.0000 
2220.1588   12.8451   47.6903  115.2128    1.3809    1.4867    1.9809    0.3701    2.3337   37.0000   37.0000 
2220.3112   12.8511   46.9792  114.6819    1.3809    1.5043    2.0996    0.3445    2.3425   22.0000   37.0000 
2220.4636   12.9447   44.2964  113.2504    1.3887    1.6047    2.3359    0.3208    2.3571   22.0000   37.0000 
2220.6160   12.9002   43.2246  113.5014    1.3967    1.6500    2.3236    0.3472    2.3558   37.0000   37.0000 
2220.7684   12.9338   42.9762  113.1380    1.3969    1.6597    2.2025    0.3588    2.3565   37.0000   37.0000 
2220.9208   12.9699   43.6335  111.9111    1.3969    1.6910    2.0910    0.3709    2.3599   37.0000   37.0000 
2221.0732   12.9870   44.6880  112.8287    1.3969    1.6440    2.4053    0.3796    2.3568   37.0000   37.0000 
2221.2256   12.9902   44.1725  112.7936    1.3937    1.5978    2.0423    0.3824    2.3550   37.0000   37.0000 
2221.3780   13.0183   45.6737  113.7628    1.3968    1.5619    2.2219    0.3860    2.3478   37.0000   37.0000 
2221.5304   13.0541   43.4694  114.0345    1.3521    1.5294    2.0629    0.3728    2.3367   37.0000   37.0000 
2221.6828   13.0247   42.5651  113.9106    1.3406    1.5132    1.9900    0.3654    2.3334   37.0000   37.0000 
2221.8352   13.0364   41.8639  113.7950    1.3361    1.4830    1.9550    0.3531    2.3464   37.0000   37.0000 
2221.9876   13.2317   45.1821  113.9535    1.3322    1.4451    1.5398    0.3370    2.3628   22.0000   37.0000 
2222.1400   12.8509   44.5341  113.9128    1.3044    1.4638    1.3303    0.3782    2.3514   37.0000   37.0000 
2222.2924   12.8570   43.8553  114.0328    1.3036    1.4905    1.8014    0.3907    2.3460   37.0000   37.0000 
2222.4448   12.7701   42.8724  113.0704    1.3054    1.5009    1.8090    0.4126    2.3380   37.0000   37.0000 
2222.5972   12.8064   43.5115  115.4925    1.2928    1.4497    1.4769    0.3879    2.3275   37.0000   37.0000 
2222.7496   12.8717   43.0457  116.5022    1.2888    1.4082    1.6001    0.3902    2.3152   37.0000   37.0000 
2222.9020   12.9454   43.1527  116.7653    1.2690    1.3792    1.4009    0.4047    2.2973   37.0000   37.0000 
2223.0544   12.9626   41.2747  116.4530    1.2428    1.3510    1.5245    0.4336    2.2749   37.0000   37.0000 
2223.2068   13.0339   42.9827  114.8394    1.2295    1.3393    1.5418    0.4286    2.2776   37.0000   37.0000 
2223.3592   13.1249   44.3667  115.6467    1.1966    1.3264    1.5494    0.4225    2.2875   37.0000   37.0000 
2223.5116   12.9721   37.7500  116.7413    1.1500    1.2627    1.1037    0.3406    2.3045   22.0000   37.0000 
2223.6640   13.0936   35.5289  117.1148    1.1215    1.2341    1.4520    0.3513    2.3147   22.0000   37.0000 
2223.8164   13.3306   40.7160  117.2141    1.1040    1.2210    1.5151    0.3501    2.3165   22.0000   37.0000 
2223.9688   12.9733   44.5113  117.5085    1.0894    1.2166    1.5335    0.3490    2.3288   22.0000   37.0000 
2224.1212   12.9816   47.2651  117.8368    1.0842    1.2165    1.4918    0.3903    2.3275   37.0000   37.0000 
2224.2736   12.9873   47.1667  118.1845    1.0841    1.2165    1.5816    0.4163    2.3249   37.0000   37.0000 
2224.4260   12.9045   47.4599  118.6935    1.0880    1.2485    1.6421    0.3952    2.3201   37.0000   37.0000 
2224.5784   12.8411   44.5123  116.9279    1.0992    1.2869    1.5393    0.3747    2.3159   37.0000   37.0000 
2224.7308   12.8520   43.3786  117.4415    1.1107    1.2976    1.5535    0.3588    2.3210   22.0000   37.0000 
2224.8832   12.8574   40.8554  117.7821    1.1352    1.3185    1.6174    0.3420    2.3323   22.0000   37.0000 
2225.0356   13.0585   43.1993  116.8206    1.1655    1.3651    1.7747    0.3858    2.3546   37.0000   37.0000 
2225.1880   13.0936   45.3447  115.4075    1.1892    1.3855    1.8641    0.3858    2.3704   37.0000   37.0000 
2225.3404   13.0688   45.1635  114.8636    1.2056    1.4002    1.9694    0.3834    2.3774   37.0000   37.0000 
2225.4928   13.0092   44.1994  114.0650    1.1826    1.4208    2.0354    0.3833    2.3913   37.0000   37.0000 
2225.6452   13.3085   37.6623  115.4174    1.1667    1.4454    1.9172    0.3915    2.3731   37.0000   37.0000 
2225.7976   13.0924   42.2233  115.7821    1.1586    1.4141    1.8725    0.3969    2.3558   37.0000   37.0000 
2225.9500   13.0066   46.6956  118.5432    1.1424    1.2923    1.8122    0.3871    2.3210   37.0000   37.0000 
2226.1024   13.0068   50.8491  118.8905    1.1199    1.2433    1.3238    0.3987    2.3207   37.0000   37.0000 
2226.2548   13.0949   48.4595  119.2803    1.1080    1.2068    1.1183    0.4037    2.3232   37.0000   37.0000 
2226.4072   12.9567   46.0996  119.9390    1.0965    1.1744    1.3732    0.4082    2.3412   37.0000   37.0000 
2226.5596   13.0933   44.5139  118.2176    1.0605    1.2218    1.3410    0.3707    2.3384   37.0000   37.0000 
2226.7120   13.0684   45.4059  117.5418    1.0694    1.2637    1.5000    0.3823    2.3376   37.0000   37.0000 
2226.8644   13.0675   46.6817  116.9398    1.0836    1.2806    1.5653    0.3934    2.3419   37.0000   37.0000 
2227.0168   13.1979   44.8979  116.2650    1.1109    1.3011    1.7039    0.4047    2.3559   37.0000   37.0000 
2227.1692   13.0714   46.4219  115.8742    1.1408    1.3508    1.8877    0.3953    2.3740   37.0000   37.0000 
2227.3216   13.1112   45.2762  115.7938    1.1689    1.3878    1.4876    0.3850    2.3936   37.0000   37.0000 
2227.4740   13.2242   43.0933  114.2159    1.2033    1.4834    1.9184    0.3747    2.3908   37.0000   37.0000 
2227.6264   13.1208   40.9676  113.2558    1.2026    1.4800    1.9837    0.3952    2.3873   37.0000   37.0000 
2227.7788   13.2000   42.4481  113.5205    1.2026    1.4798    1.8566    0.4047    2.3673   37.0000   37.0000 
2227.9312   13.1082   44.9256  114.4393    1.2060    1.4818    1.8777    0.3900    2.3493   37.0000   37.0000 
2228.0836   13.0152   47.3234  116.2591    1.1893    1.3837    1.9655    0.3970    2.3372   37.0000   37.0000 
2228.2360   13.1129   48.0129  117.8571    1.1515    1.3241    1.6486    0.4029    2.3399   37.0000   37.0000 
2228.3884   13.1711   46.9995  118.5233    1.1355    1.2931    1.7778    0.4088    2.3415   37.0000   37.0000 
2228.5408   13.3133   47.1969  118.1370    1.1074    1.2521    1.6048    0.3874    2.3417   37.0000   37.0000 
2228.6932   13.0019   51.2080  118.9110    1.0815    1.2199    1.4936    0.3655    2.3453   37.0000   37.0000 
2228.8456   13.0605   53.7656  118.4720    1.0664    1.2065    1.5252    0.3492    2.3523   37.0000   37.0000 
2228.9980   12.9994   55.7252  119.0003    1.0553    1.2027    1.5929    0.3388    2.3479   22.0000   37.0000 
2229.1504   12.9781   52.7210  118.9355    1.0504    1.2062    1.5995    0.3576    2.3405   37.0000   37.0000 
2229.3028   12.9775   50.8792  118.4869    1.0552    1.2248    1.6077    0.3630    2.3354   37.0000   37.0000 
2229.4552   12.9131   48.7302  118.1744    1.0623    1.2764    1.6725    0.3704    2.3309   37.0000   37.0000 
2229.6076   12.8785   47.2606  118.1262    1.1189    1.3649    1.7913    0.3496    2.3494   37.0000   37.0000 
2229.7600   12.9599   49.0170  117.1539    1.1223    1.4077    1.7020    0.3409    2.3483   22.0000   37.0000 
2229.9124   12.9883   50.4891  117.6647    1.1223    1.4308    1.8097    0.3511    2.3467   37.0000   37.0000 
2230.0648   13.0592   50.2923  116.8983    1.1223    1.4076    1.7312    0.3502    2.3516   37.0000   37.0000 
2230.2172   13.1250   48.5471  118.1838    1.1018    1.3794    1.8620    0.3301    2.3338   22.0000   37.0000 
2230.3696   13.2042   46.8630  118.4860    1.0968    1.3428    1.7087    0.3266    2.3376   22.0000   37.0000 
2230.5220   13.0812   45.5683  118.0548    1.0967    1.2322    1.4738    0.3485    2.3450   37.0000   37.0000 
2230.6744   13.0678   47.4736  119.7412    1.1001    1.2034    1.3472    0.3536    2.3555   37.0000   37.0000 
