~VERSION INFORMATION
 VERS.                 2.0:   CWLS LOG ASCII STANDARD - VERSION 2.0
 WRAP.                  NO:   SINGLE LINE PER DEPTH STEP
 CREA.                 13/04/2018 14:39:10
#CREATED USING DSPetro VERSION 5000.10.1.3 BY H191660 ON 13/04/2018 14:39:10
~WELL INFORMATION
#MNEM.UNIT       DATA                          DESCRIPTION MNEMONIC
#---------      ---------------------------   --------------------------
 STRT    .M         1974.9472                 : START DEPTH
 STOP    .M         3799.9372                 : STOP DEPTH
 STEP    .M         0.1524                    : STEP VALUE
 NULL    .      -999.0000                     : NULL VALUE
 DATE    .      13/04/2018                    : LAS file Creation Date
 WELL .      34-10-30     : Well Name
 COMP .                   : Company
 FLD  .      GULLFAKS SOR : Field
 UWI  .      YNOWL_341030 : Unique Well Identifier (UWI)
 LOC  .                   : Location
 RWS  .      0            : Def_Rw
 WST  .      0            : Def_Rwt
 MDEC .      0            : Magnetic Declination
 SRVC .      SCH          : Contractor
~CURVE INFORMATION
#MNEM                 UNIT       API CODE   Curve Type Comments
#----------     --------------- ----------  ---------- -----------
 DEPTH         .M                         : Depth       
 CAL_INCH      .inch                      :             Caliper Log - A representation of the measured diameter of a borehole along its depth
 GR_API        .API                       : GammaRay    Gamma Ray (API) - Measures the intensity of natural gamma-ray radiation emitted from formations containing radioactive elements, such as K, Th and U
 DT_US_FT      .us/ft                     :             Interval Transit Time: Compressional Wave - Evaluates the time it takes for a compressional wave to traverse a fixed distance
 RD_OHMM       .ohmm                      :             Unspecified Deep Resistivity - No accroynm or method of attainment is specified - units of ohmm
 RM_OHMM       .ohm.m                     :             Unspecified Medium Resistivity - No accroynm or method of attainment is specified
 RS_OHMM       .ohmm                      :             Unspecified Shallow Resistivity - No accroynm or method of attainment is specified
 NEUT_P_RATIO  .ratio                     :             Unspecified Neutron Porosity Log - No accroynm or method of attainment is specified
 RHOB_G_CC     .g/cc                      :             Bulk Density - Measures the density of bulk material, including any void space or other materials contained in the subject volume
 LITH_v1       .                          :             LITH        Lithology Curve
 Comp_Core_log .                          :             
~A  DEPTH  CAL_INCH   GR_API   DT_US_FT  RD_OHMM   RM_OHMM   RS_OHMM  NEUT_P_R~ RHOB_G_C~  LITH_v1  Comp+Cor~ 
# ...
3421.2232    8.7762   39.2663   72.4454    8.0368   12.2501    1.0135    0.1021    2.4063   27.0000   27.0000 
3421.3756    9.1341   45.5955   69.0577    5.4457    4.6476    4.8645    0.2407    2.4353   37.0000   27.0000 
3421.5280    9.6544   62.8921   71.9334    5.2639    4.0266    4.9114    0.2651    2.4437   37.0000   27.0000 
3421.6804    9.7442   68.3004   74.4051    5.1904    3.8539    2.1060    0.2991    2.5250   37.0000   27.0000 
3421.8328    8.7166   73.2984   77.1319    4.6562    3.2390    1.5983    0.2991    2.5834   37.0000   27.0000 
3421.9852    8.8949   84.2419   78.7461    4.2726    3.1103    4.3016    0.2438    2.5854   37.0000   27.0000 
3422.1376    8.9108   87.5749   78.7507    4.0729    3.3020    4.9381    0.2232    2.5878   37.0000   27.0000 
3422.2900    8.9839   89.1195   80.0853    3.6874    3.5502    6.7105    0.1839    2.6001   37.0000   27.0000 
3422.4424    8.9861   81.2282   75.1636    3.4335    4.1054    5.8327    0.1796    2.6148   37.0000   27.0000 
3422.5948    9.0396   78.3290   75.2028    3.3364    4.4082    5.7326    0.1806    2.6152   37.0000   27.0000 
3422.7472    8.9100   72.8735   74.4799    3.2879    4.8779    6.5925    0.1818    2.6152   37.0000   27.0000 
3422.8996    9.0373   65.9774   73.5682    3.5744    5.3644    5.7082    0.2002    2.5999   37.0000   27.0000 
3423.0520    8.9234   66.3521   74.6087    3.7952    4.7104    5.0803    0.1951    2.5924   37.0000   27.0000 
3423.2044    8.9162   67.0694   74.9772    3.9157    4.5509    4.6298    0.1874    2.5990   37.0000   27.0000 
3423.3568    8.9161   65.9710   74.0454    3.9960    4.4006    5.3396    0.1707    2.6087   37.0000   27.0000 
3423.5092    8.9112   60.2196   72.8271    4.0406    4.7772    7.5349    0.1578    2.6159   37.0000   27.0000 
3423.6616    8.9271   55.8618   72.8726    4.0737    5.1000    8.3942    0.1559    2.6116   37.0000   27.0000 
3423.8140    8.9417   52.0678   72.0730    4.1443    5.5030    7.1484    0.1677    2.6137   37.0000   27.0000 
3423.9664    8.9654   57.2355   72.2494    4.2282    5.5896    7.1422    0.1768    2.6159   37.0000   27.0000 
3424.1188    9.0080   60.2888   72.4759    4.2803    5.4081    7.1531    0.1853    2.6160   37.0000   27.0000 
3424.2712    9.0471   63.9616   73.7539    4.3502    5.3492    6.9854    0.2065    2.5255   37.0000   27.0000 
3424.4236    9.1722   69.2743   78.7833    3.4295    3.8039    1.1371    0.2178    2.3748   37.0000   27.0000 
3424.5760    9.5492   73.3022   80.5024    3.3926    3.2431    0.9459    0.2774    2.3566   37.0000   27.0000 
3424.7284    9.6920   75.4401   80.9771    3.3787    2.9407    0.9194    0.2997    2.3134   37.0000   27.0000 
3424.8808   10.0851   76.7315   83.8726    3.3168    2.7387    0.8136    0.2985    2.3097   37.0000   27.0000 
3425.0332    9.6158   72.2499   82.3805    3.4354    2.6540    0.9711    0.2744    2.4040   37.0000   27.0000 
3425.1856   10.1455   69.3001   80.1177    3.5441    2.6703    1.2742    0.2390    2.4449   37.0000   36.0000 
3425.3380    9.2146   61.9429   78.0289    3.9512    2.9668    3.1310    0.2168    2.4801   37.0000   36.0000 
3425.4904    9.0259   55.7491   76.1683    4.1421    3.5128   10.3188    0.2198    2.5046   36.0000   36.0000 
3425.6428    8.9834   51.6405   74.0303    4.3212    3.9400   13.9476    0.2252    2.4998   36.0000   36.0000 
3425.7952    9.0076   40.0457   67.7272    4.4875    6.0169   16.6086    0.2426    2.5059   36.0000   36.0000 
3425.9476    9.0483   41.9701   75.3203    6.0331   10.0335    9.9637    0.2406    2.4641   36.0000   36.0000 
3426.1000    9.0804   44.0328   80.5063    6.4419    8.0957   13.4689    0.2408    2.4194   36.0000   36.0000 
3426.2524    9.1103   45.1748   82.1172    6.7271    7.3844    7.7086    0.2406    2.3929   36.0000   27.0000 
3426.4048    9.1368   43.4166   85.6752    6.8100    5.9971    5.9073    0.2447    2.3588   36.0000   27.0000 
3426.5572    9.1559   41.3133   88.7047    6.3803    4.7933    5.2748    0.2474    2.3361   36.0000   27.0000 
3426.7096    9.1564   39.7107   88.7917    6.1729    4.6368    4.9288    0.2481    2.3262   36.0000   27.0000 
3426.8620    9.1564   38.6115   88.7917    5.2982    4.2167    5.1227    0.2527    2.3155   36.0000   27.0000 
3427.0144    9.1564   37.7298   92.8125    4.7811    4.1871    5.2966    0.2555    2.3055   36.0000   27.0000 
3427.1668    9.1564   39.8734   92.5530    4.5917    4.1745    5.3313    0.2581    2.3015   36.0000   27.0000 
3427.3192    9.1564   41.7364   94.2796    4.3157    4.1899    5.1654    0.2703    2.3055   36.0000   27.0000 
3427.4716    9.1564   42.8015   96.8016    4.0307    4.3354    5.8765    0.2516    2.3362   36.0000   27.0000 
3427.6240    9.1564   40.7674   94.6766    3.8990    4.4173    4.9968    0.2342    2.3432   36.0000   27.0000 
3427.7764    9.1640   40.9538   93.8154    3.8844    4.4535    5.8710    0.2276    2.3600   36.0000   27.0000 
3427.9288    9.1786   42.4664   95.0056    4.0063    4.3919    5.8230    0.2222    2.3725   36.0000   27.0000 
3428.0812    9.6915   44.4621   90.2580    4.1009    4.5404    4.8632    0.2178    2.4060   36.0000   27.0000 
3428.2336    9.2710   44.5809   88.9917    4.1430    4.6208    5.1732    0.2152    2.3739   36.0000   27.0000 
3428.3860    8.8826   44.5828   83.2125    4.5032    5.0927    6.9382    0.1417    2.3731   36.0000   27.0000 
3428.5384    8.7548   44.1777   78.0982    4.8249    5.5748    6.8569    0.1127    2.3779   36.0000   27.0000 
3428.6908    8.7563   43.9472   76.4816    5.0483    5.7771    6.1601    0.1009    2.3814   36.0000   27.0000 
3428.8432    8.7613   43.6087   74.7921    5.2722    6.0019    7.8820    0.0835    2.3853   36.0000   27.0000 
3428.9956    8.6481   43.0368   71.7959    7.2306    8.4788   17.3683    0.0954    2.5000   36.0000   27.0000 
3429.1480    8.6365   43.8094   71.7893    7.5410   11.9649   18.6477    0.1697    2.5137   36.0000   27.0000 
3429.3004    8.6363   42.9223   72.0894    7.7810   13.3202   19.7439    0.1774    2.5161   36.0000   27.0000 
3429.4528    8.6364   48.6931   74.2039    7.5943   16.5188   18.4412    0.1839    2.5177   36.0000   27.0000 
3429.6052    8.6364   53.9960   75.5956    8.3673   11.3916    8.9142    0.1674    2.5215   36.0000   27.0000 
3429.7576    8.6324   56.4931   75.1820    8.9908    9.8750    5.2014    0.1551    2.5185   36.0000   27.0000 
3429.9100    8.5886   57.1940   73.5077    9.8936    6.1404    6.8099    0.1286    2.5150   36.0000   27.0000 
3430.0624    8.5573   43.6732   72.1073    9.8390    5.7551   10.9305    0.0801    2.5156   36.0000   27.0000 
3430.2148    8.5564   41.9904   71.5208    9.6608    6.1819   14.5521    0.0746    2.5339   36.0000   27.0000 
3430.3672    8.5564   40.8979   71.1360    9.5715    7.0306   21.7724    0.0667    2.4847   27.0000   27.0000 
3430.5196   10.9704   45.5087   77.4821    4.9979    8.5209    1.0664    0.2542    2.0689   11.0000   27.0000 
3430.6720   11.1158   64.0544   82.5315    3.9791    3.3932    0.4365    0.3138    2.0541   11.0000   27.0000 
3430.8244   11.1901   70.0287   84.8924    3.7023    2.5472    0.4290    0.3323    2.0312   11.0000   37.0000 
3430.9768   11.2603   74.5213   83.0160    3.3243    2.2582    0.4282    0.3527    2.3171   11.0000   37.0000 
3431.1292   11.9569   79.2621   88.7851    3.0470    2.1101    0.8570    0.3469    2.3707   37.0000   37.0000 
3431.2816   11.7929   81.0288   87.9872    2.9034    2.1536    0.5821    0.3428    2.4206   37.0000   37.0000 
3431.4340    9.4758   83.1594   87.7965    2.4019    2.3052    0.7020    0.3028    2.5508   37.0000   37.0000 
3431.5864    9.2562   79.8820   89.6823    2.2614    2.6342    1.4951    0.2977    2.5569   37.0000   37.0000 
3431.7388    9.3361   80.0035   91.8942    2.2440    2.8647    2.8515    0.3032    2.5577   37.0000   37.0000 
3431.8912    9.4727   80.2750   81.3569    2.2312    3.2975    4.2376    0.3065    2.5852   37.0000   37.0000 
3432.0436    8.9328   74.4983   83.6313    2.8923    3.0739    1.7153    0.2542    2.5650   37.0000   37.0000 
3432.1960    8.9468   71.5834   79.2217    3.0001    3.0713    5.4735    0.1937    2.5846   37.0000   37.0000 
