~VERSION INFORMATION
 VERS.                 2.0:   CWLS LOG ASCII STANDARD - VERSION 2.0
 WRAP.                  NO:   SINGLE LINE PER DEPTH STEP
 CREA.                 13/04/2018 14:39:10
#CREATED USING DSPetro VERSION 5000.10.1.3 BY H191660 ON 13/04/2018 14:39:10
~WELL INFORMATION
#MNEM.UNIT       DATA                          DESCRIPTION MNEMONIC
#---------      ---------------------------   --------------------------
 STRT    .M         1974.9472                 : START DEPTH
 STOP    .M         3799.9372                 : STOP DEPTH
 STEP    .M         0.1524                    : STEP VALUE
 NULL    .      -999.0000                     : NULL VALUE
 DATE    .      13/04/2018                    : LAS file Creation Date
 WELL .      34-10-30     : Well Name
 COMP .                   : Company
 FLD  .      GULLFAKS SOR : Field
 UWI  .      YNOWL_341030 : Unique Well Identifier (UWI)
 LOC  .                   : Location
 RWS  .      0            : Def_Rw
 WST  .      0            : Def_Rwt
 MDEC .      0            : Magnetic Declination
 SRVC .      SCH          : Contractor
~CURVE INFORMATION
#MNEM                 UNIT       API CODE   Curve Type Comments
#----------     --------------- ----------  ---------- -----------
 DEPTH         .M                         : Depth       
 CAL_INCH      .inch                      :             Caliper Log - A representation of the measured diameter of a borehole along its depth
 GR_API        .API                       : GammaRay    Gamma Ray (API) - Measures the intensity of natural gamma-ray radiation emitted from formations containing radioactive elements, such as K, Th and U
 DT_US_FT      .us/ft                     :             Interval Transit Time: Compressional Wave - Evaluates the time it takes for a compressional wave to traverse a fixed distance
 RD_OHMM       .ohmm                      :             Unspecified Deep Resistivity - No accroynm or method of attainment is specified - units of ohmm
 RM_OHMM       .ohm.m                     :             Unspecified Medium Resistivity - No accroynm or method of attainment is specified
 RS_OHMM       .ohmm                      :             Unspecified Shallow Resistivity - No accroynm or method of attainment is specified
 NEUT_P_RATIO  .ratio                     :             Unspecified Neutron Porosity Log - No accroynm or method of attainment is specified
 RHOB_G_CC     .g/cc                      :             Bulk Density - Measures the density of bulk material, including any void space or other materials contained in the subject volume
 LITH_v1       .                          :             LITH        Lithology Curve
 Comp_Core_log .                          :             
~A  DEPTH  CAL_INCH   GR_API   DT_US_FT  RD_OHMM   RM_OHMM   RS_OHMM  NEUT_P_R~ RHOB_G_C~  LITH_v1  Comp+Cor~ 
# ...
2820.4624   12.8238   42.1820   94.4831    1.7189    2.1947    3.4783    0.3228    2.4770   37.0000   37.0000 
2820.6148   12.7949   41.8023   93.8090    1.7189    2.3868    4.5013    0.3172    2.4848   37.0000   37.0000 
2820.7672   12.7590   37.4850   92.9015    1.7189    2.5773    7.3220    0.3035    2.5529   37.0000   37.0000 
2820.9196   12.7475   42.6356   98.1014    1.7203    2.6909    3.6536    0.2886    2.5297   37.0000   37.0000 
2821.0720   12.7472   45.7049  100.0711    1.7343    2.2910    3.5465    0.2827    2.5011   37.0000   37.0000 
2821.2244   12.7472   43.6993  100.2098    1.7558    2.1504    3.5472    0.2952    2.4757   37.0000   37.0000 
2821.3768   12.7472   42.6502  100.5048    1.7762    1.9596    3.5522    0.3066    2.4628   37.0000   37.0000 
2821.5292   12.7377   41.9991  100.7543    1.7011    1.9679    3.5573    0.3180    2.4757   37.0000   37.0000 
2821.6816   12.7220   43.5845  100.8269    1.6500    1.9764    3.5574    0.3171    2.4839   37.0000   37.0000 
2821.8340   12.7076   44.3947  101.1985    1.5964    1.9410    3.3406    0.2890    2.4882   37.0000   37.0000 
2821.9864   12.7072   40.8377  101.6032    1.5517    1.8875    3.3906    0.2943    2.4852   37.0000   37.0000 
2822.1388   12.7072   40.9134  101.1818    1.5453    1.8614    3.2651    0.2905    2.4776   37.0000   37.0000 
2822.2912   12.7072   42.2651  100.7216    1.5147    1.8265    3.1499    0.2861    2.4838   37.0000   37.0000 
2822.4436   12.7678   44.1149  102.5642    1.4684    1.7754    3.0736    0.3027    2.4961   37.0000   37.0000 
2822.5960   12.8255   45.6847  102.9147    1.4173    1.7594    3.1673    0.2963    2.4870   37.0000   37.0000 
2822.7484   12.7707   44.0960  103.0462    1.4034    1.7590    3.1134    0.2916    2.4760   37.0000   37.0000 
2822.9008   12.7478   43.3586  103.4160    1.3854    1.7442    3.1553    0.2889    2.4714   22.0000   37.0000 
2823.0532   12.7375   42.0206  103.7692    1.3727    1.6600    3.0354    0.3001    2.4602   37.0000   37.0000 
2823.2056   12.7213   46.0313  104.0341    1.3482    1.6534    3.0275    0.3092    2.4665   37.0000   37.0000 
2823.3580   12.7113   47.4412  103.9886    1.3838    1.6033    3.1005    0.3113    2.4722   37.0000   37.0000 
2823.5104   12.7073   43.2951  103.6944    1.3771    1.6108    3.1639    0.2857    2.4654   22.0000   37.0000 
2823.6628   12.7072   41.8348  103.3932    1.3630    1.6389    3.1035    0.2796    2.4626   22.0000   37.0000 
2823.8152   12.7072   40.4961  102.9706    1.3512    1.6876    3.2219    0.2770    2.4606   22.0000   37.0000 
2823.9676   12.7072   43.5761  104.6765    1.3511    1.7767    3.0048    0.2708    2.4600   22.0000   37.0000 
2824.1200   12.7072   42.0703  105.2318    1.3628    1.7523    2.8233    0.3032    2.4629   37.0000   37.0000 
2824.2724   12.7072   40.1849  105.6950    1.3767    1.7235    2.6647    0.3000    2.4668   37.0000   37.0000 
2824.4248   12.7072   38.5312  104.7531    1.3886    1.6757    2.7435    0.2940    2.4754   37.0000   37.0000 
2824.5772   12.7072   38.7541  103.6838    1.4190    1.6424    2.7980    0.2882    2.4739   22.0000   37.0000 
2824.7296   12.7072   39.0886  102.6586    1.4705    1.6415    2.8826    0.2934    2.4721   37.0000   37.0000 
2824.8820   12.7136   39.2297  101.3438    1.5403    1.9199    3.7479    0.2901    2.4684   22.0000   37.0000 
2825.0344   12.7411   34.8655  100.2060    1.6095    2.1881    3.7405    0.3070    2.4658   37.0000   37.0000 
2825.1868   12.7470   34.9565   99.8836    1.6570    2.1437    3.6229    0.3125    2.4633   37.0000   37.0000 
2825.3392   12.7521   35.4855   99.8082    1.7561    2.1176    3.5295    0.3328    2.4603   37.0000   37.0000 
2825.4916   12.6794   39.9149   99.9539    1.7812    2.1599    3.6371    0.3133    2.4573   37.0000   37.0000 
2825.6440   12.5991   38.8264   99.9680    1.7794    2.1405    3.7478    0.3301    2.4557   37.0000   37.0000 
2825.7964   12.5876   37.5276   99.5540    1.7855    2.1187    3.7065    0.3158    2.4564   37.0000   37.0000 
2825.9488   12.5873   35.9684   99.9507    1.8039    2.1609    3.6670    0.3275    2.4608   37.0000   37.0000 
2826.1012   12.5757   36.7643  100.3185    1.8190    2.2007    3.4002    0.3122    2.4680   37.0000   37.0000 
2826.2536   12.5404   37.8103  100.6439    1.8208    2.2342    3.4987    0.3150    2.4656   37.0000   37.0000 
2826.4060   12.5111   39.9223  100.3094    1.8208    2.2656    3.6110    0.3082    2.4634   37.0000   37.0000 
2826.5584   12.5122   38.5280   99.8872    1.8208    2.2340    3.5565    0.3244    2.4580   37.0000   37.0000 
2826.7108   12.5425   37.8521   99.9995    1.8208    2.2098    3.5182    0.3208    2.4540   37.0000   37.0000 
2826.8632   12.5908   36.6462   99.1504    1.8208    2.1914    3.5265    0.3193    2.4354   37.0000   37.0000 
2827.0156   12.5132   38.8761  100.0013    1.8238    2.1773    3.5598    0.3150    2.4481   37.0000   37.0000 
2827.1680   12.5074   40.5366  100.4483    1.8300    2.1648    3.5636    0.3086    2.4612   37.0000   37.0000 
2827.3204   12.5073   41.2085  100.7533    1.8447    2.1656    3.5430    0.3030    2.4666   37.0000   37.0000 
2827.4728   12.5073   42.3285  101.5297    1.8732    2.1766    3.5125    0.2943    2.4718   37.0000   37.0000 
2827.6252   12.5073   43.8623  102.1894    1.9617    2.3020    3.5924    0.2958    2.4748   37.0000   37.0000 
2827.7776   12.5073   45.1323  100.9980    2.0027    2.3713    3.6441    0.2947    2.4652   22.0000   37.0000 
2827.9300   12.5461   45.7767  100.1965    2.0298    2.4169    4.0059    0.2924    2.4699   22.0000   37.0000 
2828.0824   12.5860   44.1569   99.8836    2.0428    2.4014    3.8663    0.3047    2.4730   37.0000   37.0000 
2828.2348   12.5872   44.0594  100.0909    2.0427    2.4000    3.7659    0.3066    2.4778   37.0000   37.0000 
2828.3872   12.5193   42.4689  100.4458    2.0318    2.4009    3.8320    0.3070    2.4839   37.0000   37.0000 
2828.5396   12.5556   44.8524  100.8629    1.9940    2.3369    3.9045    0.2842    2.4723   22.0000   37.0000 
2828.6920   12.5840   45.9782  100.1467    1.9637    2.3198    3.7776    0.2958    2.4634   22.0000   37.0000 
2828.8444   12.5871   47.3088  100.0441    1.9488    2.3388    3.8003    0.2948    2.4609   22.0000   37.0000 
2828.9968   12.5872   49.5362  100.7701    1.9160    2.2559    3.7746    0.2892    2.4654   22.0000   37.0000 
2829.1492   12.5420   53.8526   99.8206    1.8192    2.1273    2.8164    0.2967    2.4746   37.0000   37.0000 
2829.3016   12.5083   51.3364   99.7917    1.7829    2.0627    2.8044    0.3005    2.4706   37.0000   37.0000 
2829.4540   12.5073   49.5933   98.4753    1.6712    1.9139    3.0648    0.3031    2.4699   37.0000   37.0000 
2829.6064   12.4074   50.4383   97.8560    1.6004    1.9449    3.2964    0.2938    2.4706   37.0000   37.0000 
2829.7588   12.3708   52.4137   97.4693    1.5674    1.9202    3.3193    0.2980    2.4796   37.0000   37.0000 
2829.9112   12.3625   55.4524   98.6349    1.5507    1.8382    3.2974    0.3029    2.4775   37.0000   37.0000 
2830.0636   12.2420   53.8348   99.8630    1.5496    1.7270    3.2734    0.3325    2.4723   37.0000   37.0000 
2830.2160   12.2277   50.6106  100.4953    1.5496    1.9139 -999.0000    0.3018    2.4682   37.0000   37.0000 
2830.3684   12.2274   50.2395  101.2692    1.5496    2.0022 -999.0000    0.2884    2.4666   22.0000   37.0000 
2830.5208   12.2274   48.6675   99.7447    1.5474    2.0825 -999.0000    0.2661    2.4657   22.0000   37.0000 
2830.6732   12.2274   46.7270   98.5611    1.5839    1.9417    0.2596    0.2823    2.4670   22.0000   37.0000 
2830.8256   12.2274   50.3656   98.0901    1.5857    1.9156    0.2646    0.2821    2.4676   22.0000   37.0000 
2830.9780   12.2274   54.6584   97.8483    1.5857    1.9487    0.2664    0.2896    2.4652   22.0000   37.0000 
2831.1304   12.2274   59.6447   97.7931    1.5902    1.9539    0.2679    0.2972    2.4616   22.0000   37.0000 
2831.2828   12.2274   57.3662   97.7917    1.5992    1.9589    0.2715    0.3043    2.4635   37.0000   37.0000 
2831.4352   12.2274   55.4188   97.8426    1.6040    1.8791    0.2765    0.3209    2.4808   37.0000   37.0000 
