~VERSION INFORMATION
 VERS.                 2.0:   CWLS LOG ASCII STANDARD - VERSION 2.0
 WRAP.                  NO:   SINGLE LINE PER DEPTH STEP
 CREA.                 13/04/2018 14:39:10
#CREATED USING DSPetro VERSION 5000.10.1.3 BY H191660 ON 13/04/2018 14:39:10
~WELL INFORMATION
#MNEM.UNIT       DATA                          DESCRIPTION MNEMONIC
#---------      ---------------------------   --------------------------
 STRT    .M         1974.9472                 : START DEPTH
 STOP    .M         3799.9372                 : STOP DEPTH
 STEP    .M         0.1524                    : STEP VALUE
 NULL    .      -999.0000                     : NULL VALUE
 DATE    .      13/04/2018                    : LAS file Creation Date
 WELL .      34-10-30     : Well Name
 COMP .                   : Company
 FLD  .      GULLFAKS SOR : Field
 UWI  .      YNOWL_341030 : Unique Well Identifier (UWI)
 LOC  .                   : Location
 RWS  .      0            : Def_Rw
 WST  .      0            : Def_Rwt
 MDEC .      0            : Magnetic Declination
 SRVC .      SCH          : Contractor
~CURVE INFORMATION
#MNEM                 UNIT       API CODE   Curve Type Comments
#----------     --------------- ----------  ---------- -----------
 DEPTH         .M                         : Depth       
 CAL_INCH      .inch                      :             Caliper Log - A representation of the measured diameter of a borehole along its depth
 GR_API        .API                       : GammaRay    Gamma Ray (API) - Measures the intensity of natural gamma-ray radiation emitted from formations containing radioactive elements, such as K, Th and U
 DT_US_FT      .us/ft                     :             Interval Transit Time: Compressional Wave - Evaluates the time it takes for a compressional wave to traverse a fixed distance
 RD_OHMM       .ohmm                      :             Unspecified Deep Resistivity - No accroynm or method of attainment is specified - units of ohmm
 RM_OHMM       .ohm.m                     :             Unspecified Medium Resistivity - No accroynm or method of attainment is specified
 RS_OHMM       .ohmm                      :             Unspecified Shallow Resistivity - No accroynm or method of attainment is specified
 NEUT_P_RATIO  .ratio                     :             Unspecified Neutron Porosity Log - No accroynm or method of attainment is specified
 RHOB_G_CC     .g/cc                      :             Bulk Density - Measures the density of bulk material, including any void space or other materials contained in the subject volume
 LITH_v1       .                          :             LITH        Lithology Curve
 Comp_Core_log .                          :             
~A  DEPTH  CAL_INCH   GR_API   DT_US_FT  RD_OHMM   RM_OHMM   RS_OHMM  NEUT_P_R~ RHOB_G_C~  LITH_v1  Comp+Cor~ 
# ...
2931.7144   10.9825   53.5922   90.7908    2.5810    3.0469    1.8285    0.2749    2.4386   37.0000   37.0000 
2931.8668   10.7578   51.7310   87.6657    2.7241    3.2809    1.5419    0.2979    2.4511   37.0000   37.0000 
2932.0192   10.6181   49.9622   92.9938    2.8513    3.1498    1.2485    0.3262    2.4524   37.0000   37.0000 
2932.1716   10.7936   48.2364   89.2908    2.6347    2.9808    1.8231    0.3259    2.4143   37.0000   37.0000 
2932.3240   10.3616   50.2413   88.5887    2.6018    2.8589    2.2999    0.3227    2.3923   37.0000   37.0000 
2932.4764   10.0830   51.1576   92.1315    2.5802    2.7733    1.1874    0.3011    2.3590   36.0000   37.0000 
2932.6288    9.8321   50.4554   91.8896    2.5777    2.7313    1.3944    0.2757    2.3332   36.0000   37.0000 
2932.7812   10.0318   51.2729   91.6602    2.5350    2.7077    1.8534    0.2623    2.3177   36.0000   37.0000 
2932.9336   10.1075   52.9644   92.5035    2.4517    2.4567    1.4875    0.2533    2.3344   36.0000   37.0000 
2933.0860    9.4839   54.6756   93.1353    2.3764    2.5077    1.4987    0.3043    2.3509   36.0000   37.0000 
2933.2384    9.5374   56.2688   89.4906    2.3057    2.6525    1.5532    0.3264    2.3610   37.0000   37.0000 
2933.3908    9.6829   58.1200   87.6216    2.1724    3.0997    2.3262    0.3518    2.3918   37.0000   37.0000 
2933.5432    9.9568   60.9032   93.3886    2.2009    2.9437    3.4601    0.3356    2.4358   37.0000   37.0000 
2933.6956    9.4797   57.0434   96.3392    2.2467    2.8024    2.3686    0.3234    2.4574   37.0000   37.0000 
2933.8480    9.7013   56.0167   96.9766    2.2766    2.6431    1.2443    0.3146    2.4630   37.0000   37.0000 
2934.0004    9.9348   54.7640   97.7946    2.4914    2.2847    1.2889    0.2973    2.4538   37.0000   37.0000 
2934.1528   10.0562   52.9218   92.7113    2.6792    2.2710    1.4507    0.2266    2.4442   37.0000   37.0000 
2934.3052    9.9966   57.1247   88.2308    2.8040    2.2750    1.5218    0.2049    2.4358   36.0000   37.0000 
2934.4576    9.8295   57.5417   85.1775    2.8862    2.8069    4.7484    0.2012    2.4316   36.0000   37.0000 
2934.6100    9.0290   56.3314   83.9051    2.8603    3.2841    1.8592    0.2667    2.4641   36.0000   37.0000 
2934.7624    8.9621   48.4802   82.0381    2.8366    4.3585    1.3929    0.2871    2.4842   37.0000   37.0000 
2934.9148    9.3676   49.3243   86.6773    2.7917    5.4824    0.9494    0.3147    2.5061   37.0000   37.0000 
2935.0672    9.7586   55.1841   94.1843    2.9844    3.7016    1.0994    0.3453    2.5180   37.0000   37.0000 
2935.2196    9.6870   62.0340   96.4214    2.9924    3.3886    1.5398    0.3388    2.4841   37.0000   37.0000 
2935.3720    9.5830   59.8557   97.2916    2.9861    2.9556    2.2345    0.3338    2.4776   37.0000   37.0000 
2935.5244    9.2968   59.2516  101.1193    2.7898    2.4586    2.3383    0.3235    2.5107   37.0000   37.0000 
2935.6768    9.4455   63.9825   97.7605    2.6418    2.4998    2.1494    0.3141    2.5400   37.0000   37.0000 
2935.8292    9.6901   65.9374   92.9550    2.5298    2.5686    1.9854    0.3086    2.5094   37.0000   37.0000 
2935.9816    9.9036   67.1307   95.6474    2.5882    2.5995    2.8841    0.3028    2.4822   37.0000   37.0000 
2936.1340    9.6284   59.6664   93.4043    2.6629    2.6984    3.8563    0.3094    2.4564   37.0000   37.0000 
2936.2864    9.6225   56.7623   89.5603    2.7427    2.8512    4.9992    0.3026    2.4890   37.0000   37.0000 
2936.4388    9.7074   53.8314   86.3239    2.8720    3.4899    6.8605    0.2904    2.5119   37.0000   37.0000 
2936.5912    9.4965   49.6184   87.9302    3.0677    4.9299    2.7100    0.2775    2.5246   37.0000   37.0000 
2936.7436    9.4708   50.7377   87.3331    3.0885    4.4718    2.8241    0.2930    2.4715   37.0000   37.0000 
2936.8960    9.4702   53.4268   86.8280    3.1319    4.1328    2.9984    0.3011    2.4736   37.0000   37.0000 
2937.0484    9.4836   56.8697   90.8393    3.2116    3.2945    1.2521    0.3137    2.4887   37.0000   37.0000 
2937.2008    9.5045   59.9581   93.0832    3.2139    3.2426    1.2119    0.3240    2.5044   37.0000   37.0000 
2937.3532    9.8689   57.1971   93.0651    3.1649    3.0014    1.2275    0.3137    2.4772   37.0000   37.0000 
2937.5056    9.6324   51.9893   90.8229    2.9959    2.9782    3.8704    0.3070    2.4175   37.0000   37.0000 
2937.6580    9.8821   49.7448   89.5088    2.9491    3.0267    3.4973    0.3341    2.4163   37.0000   37.0000 
2937.8104    9.8220   51.5592   88.5883    2.9238    3.1243    1.9245    0.3427    2.4172   37.0000   37.0000 
2937.9628    9.7402   52.9962   92.0239    2.7254    3.4397    2.7374    0.3594    2.4181   37.0000   37.0000 
2938.1152    9.6427   54.9046   95.1808    2.5789    3.2588    2.9628    0.3759    2.4676   37.0000   37.0000 
2938.2676    9.9612   58.0201   96.7839    2.6402    3.0404    2.6777    0.3267    2.5363   37.0000   37.0000 
2938.4200   10.1744   58.0505   97.7018    2.7097    2.9341    3.5294    0.2962    2.5491   37.0000   37.0000 
2938.5724   10.3249   57.9880   92.6289    2.8686    2.2095    1.0255    0.2955    2.5855   37.0000   37.0000 
2938.7248    9.6598   63.0794   94.3614    3.0256    2.3599    2.1124    0.3715    2.5862   37.0000   37.0000 
2938.8772    9.7466   62.8669   98.6024    3.0554    2.4253    4.2349    0.3873    2.5852   37.0000   37.0000 
2939.0296    9.7692   62.4668   95.6515    2.7104    4.7894    6.5934    0.4223    2.5473   37.0000   37.0000 
2939.1820   10.0657   70.0750  102.1271    2.7015    4.8732    5.9494    0.4523    2.4389   37.0000   37.0000 
2939.3344   10.0070   79.1230  112.4151    2.7040    4.8737    4.4318    0.4529    2.4301   37.0000   37.0000 
2939.4868    9.8881   86.4211  121.3038    2.9852    3.0874    1.2921    0.4522    2.3691   37.0000   37.0000 
2939.6392   10.0492  113.2020  120.4024    3.3283    2.7713    0.8715    0.4128    2.4070   37.0000   37.0000 
2939.7916   10.3514  106.8657  118.6453    3.3870    2.7766    1.2471    0.3037    2.4217   37.0000   37.0000 
2939.9440   10.7151  101.7747  114.9469    3.4380    2.8183    0.9254    0.2977    2.4791   37.0000   37.0000 
2940.0964   11.0876   99.3255  105.3706    5.0060    2.8834    1.5500    0.2660    2.4424   37.0000   37.0000 
2940.2488   10.2528   81.7942   96.0206    5.7317    5.8506    1.8855    0.2404    2.4024   36.0000   37.0000 
2940.4012    9.8297   57.3999   93.6210    7.1240   14.8758    2.1374    0.2387    2.3657   36.0000   37.0000 
2940.5536    9.7857   53.7644   96.1244    8.3560   14.6485    8.6006    0.2564    2.3235   36.0000   37.0000 
2940.7060    9.4306   41.8534   96.8090    9.3184   14.5121    4.4842    0.2620    2.3273   36.0000   37.0000 
2940.8584    9.3715   45.0016   98.0405   10.6620   14.2235    5.0540    0.2639    2.3341   36.0000   37.0000 
2941.0108    9.3701   45.4865   99.1346   21.3573   13.0237    8.4595    0.2654    2.3662   36.0000   37.0000 
2941.1632    9.2731   48.1050  100.1926   18.4894   11.2848    5.0217    0.2533    2.4394   36.0000   37.0000 
2941.3156    8.8918   42.4004   99.0775   15.8785   11.0443    4.7549    0.3110    2.3720   36.0000   37.0000 
2941.4680    8.8709   40.5721   97.2131   14.0808   10.6418    4.6231    0.3466    2.3488   36.0000   27.0000 
2941.6204    8.8706   40.1997   93.9024   10.7977   11.5888    3.3234    0.3830    2.1392   36.0000   27.0000 
2941.7728    8.9821   46.1246  105.3326    8.4192   12.2520    9.2901    0.3623    2.1423   36.0000   27.0000 
2941.9252    9.4179   50.3523  110.8998    7.4412   12.4265    1.8388    0.3317    2.2500   36.0000   27.0000 
2942.0776    9.4852   53.6873   99.9677    6.8833    6.3195    1.7520    0.2984    2.2927   36.0000   27.0000 
2942.2300   10.0162   57.5059  102.3705    6.7255    6.3560    1.9338    0.2832    2.2998   36.0000   27.0000 
2942.3824   10.2839   59.0081  111.2915    6.6104    6.7957    1.2299    0.2879    2.3498   36.0000   27.0000 
2942.5348   10.4784   60.0168  104.1366    6.4959    6.7573    0.7310    0.2905    2.3651   36.0000   27.0000 
2942.6872   10.0522   53.3463   94.8342    5.6155    7.3629    3.6752    0.2695    2.3713   36.0000   27.0000 
