~VERSION INFORMATION
 VERS.                 2.0:   CWLS LOG ASCII STANDARD - VERSION 2.0
 WRAP.                  NO:   SINGLE LINE PER DEPTH STEP
 CREA.                 04/06/2018 10:30:54
#CREATED USING DSPetro VERSION 5000.10.1.3 BY H191660 ON 04/06/2018 10:30:54
~WELL INFORMATION
#MNEM.UNIT       DATA                          DESCRIPTION MNEMONIC
#---------      ---------------------------   --------------------------
 STRT    .M         1189.9292                 : START DEPTH
 STOP    .M         2700.0608                 : STOP DEPTH
 STEP    .M         0.1524                    : STEP VALUE
 NULL    .      -999.0000                     : NULL VALUE
 DATE    .      04/06/2018                    : LAS file Creation Date
 WELL .      9_12_1                      : Well Name
 COMP .      Neftex Exploration Insights : Company
 FLD  .                                  : Field
 UWI  .      YNOWL_9121                  : Unique Well Identifier (UWI)
 LOC  .                                  : Location
 RWS  .      -999                        : Def_Rw
 WST  .      -999                        : Def_Rwt
 SRVC .                                  : Contractor
~CURVE INFORMATION
#MNEM                UNIT       API CODE   Curve Type Comments
#----------    --------------- ----------  ---------- -----------
 DEPTH        .M                         : Depth       
 CAL_INCH     .inch                      :             Caliper Log - A representation of the measured diameter of a borehole along its depth
 GR_API       .API                       : GammaRay    Gamma Ray (API) - Measures the intensity of natural gamma-ray radiation emitted from formations containing radioactive elements, such as K, Th and U
 LLD_OHMM     .ohmm                      :             Laterlog Deep Resistivity - Measurement made several feet into the formation; generally considered a measurement of the undisturbed formation
 LLM_OHMM     .ohm.m                     :             Laterlog Medium Resistivity - Measurement made approximately two to three feet into the formation - units of ohmm
 LLS_OHMM     .ohmm                      :             Laterlog Shallow Resistivity - one to two feet into the formation; generally considered to measure the formation
 DT_US_FT     .us/ft                     :             Interval Transit Time: Compressional Wave - Evaluates the time it takes for a compressional wave to traverse a fixed distance
 NEUT_P_RATIO .ratio                     :             Unspecified Neutron Porosity Log - No accroynm or method of attainment is specified
 RHOB_G_CC    .g/cc                      :             Bulk Density - Measures the density of bulk material, including any void space or other materials contained in the subject volume
 LITH         .                          : LITH        Lithology Curve
~A  DEPTH  CAL_INCH   GR_API   LLD_OHMM  LLM_OHMM  LLS_OHMM  DT_US_FT NEUT_P_R~ RHOB_G_C~    LITH   
# ...
1592.2652    8.6596   89.9008    1.0216    1.5004    0.7593  122.3983    0.4049    2.2371   37.0000 
1592.4176    8.6478   89.7084    1.0537    1.5158    0.7657  121.9075    0.4083    2.2312   37.0000 
1592.5700    8.6350   90.2099    1.0951    1.5373    0.7770  120.7462    0.4095    2.2230   37.0000 
1592.7224    8.6350   91.1158    1.1071    1.5425    0.7770  120.1017    0.4059    2.2209   37.0000 
1592.8748    8.6350   93.4688    1.1315    1.5503    0.7911  119.2730    0.4224    2.2178   37.0000 
1593.0272    8.6350   90.7828    1.1329    1.5590    0.8230  119.2030    0.4336    2.2218   37.0000 
1593.1796    8.6335   88.6093    1.1291    1.5702    0.7951  119.3750    0.4345    2.2252   37.0000 
1593.3320    8.6100   87.8149    1.1231    1.5978    0.8150  119.5005    0.4164    2.2304   37.0000 
1593.4844    8.5982   89.2138    1.1231    1.6033    0.7851  119.7950    0.4186    2.2299   37.0000 
1593.6368    8.5346   90.9935    1.1297    1.5954    0.7724  120.5567    0.4235    2.2298   37.0000 
1593.7892    8.5229   91.8034    1.1335    1.5900    0.7420  121.0475    0.4251    2.2288   37.0000 
1593.9416    8.5150   91.5588    1.1361    1.5864    0.7751  121.6367    0.4076    2.2255   37.0000 
1594.0940    8.5150   90.2685    1.1312    1.5864    0.7770  121.7083    0.4076    2.2285   37.0000 
1594.2464    8.5260   86.5808    1.1055    1.5864    0.7701  121.5243    0.4163    2.2431   37.0000 
1594.3988    8.5378   87.7155    1.0886    1.5864    0.7681  121.4220    0.4201    2.2497   37.0000 
1594.5512    8.5678   89.4979    1.0667    1.5864    0.7709  121.7615    0.4271    2.2426   37.0000 
1594.7036    8.5913   90.0133    1.0559    1.5864    0.7762  121.8597    0.4459    2.2308   37.0000 
1594.8560    8.5516   87.4540    1.0939    1.6063    0.8618  121.8893    0.4255    2.2163   37.0000 
1595.0084    8.5280   86.4969    1.1127    1.6173    0.8292  121.9875    0.4143    2.2213   37.0000 
1595.1608    8.4638   85.9173    1.1286    1.6313    0.8230  122.0417    0.4064    2.2297   37.0000 
1595.3132    8.4638   85.7813    1.1383    1.6369    0.8358  121.7470    0.4072    2.2306   37.0000 
1595.4656    8.4502   89.1438    1.1575    1.6421    0.8581  121.3750    0.4086    2.2306   37.0000 
1595.6180    8.4350   90.6163    1.1598    1.6421    0.8819  121.5492    0.4072    2.2320   37.0000 
1595.7704    8.4350   93.3194    1.1416    1.6421    0.8444  122.7243    0.4018    2.2379   37.0000 
1595.9228    8.4350   94.5938    1.1300    1.6421    0.8330  123.5097    0.4021    2.2389   37.0000 
1596.0752    8.4812   94.5938    1.1191    1.6392    0.8136  124.0417    0.4104    2.2354   37.0000 
1596.2276    8.5416   94.5938    1.0851    1.6141    0.8819  123.9863    0.4214    2.2279   37.0000 
1596.3800    8.5887   94.5938    1.0632    1.5977    0.8426  123.8882    0.4406    2.2244   37.0000 
1596.5324    8.5910   96.7806    1.0481    1.5864    0.7951  123.7083    0.4222    2.2180   37.0000 
1596.6848    8.5675   97.1488    1.0481    1.5864    0.8172  123.7083    0.4225    2.2170   37.0000 
1596.8372    8.5204   96.8025    1.0586    1.5864    0.8523  123.9970    0.4343    2.2230   37.0000 
1596.9896    8.5150   96.1500    1.0658    1.5864    0.8591  124.3450    0.4556    2.2281   37.0000 
1597.1420    8.5277   93.9654    1.0804    1.5864    0.8745  124.4973    0.4400    2.2331   37.0000 
1597.2944    8.5306   92.6498    1.0863    1.5864    0.8911  124.1900    0.4346    2.2318   37.0000 
1597.4468    8.5150   90.8938    1.0887    1.5864    0.9341  123.3417    0.4263    2.2263   37.0000 
1597.5992    8.5150   90.5993    1.0850    1.5864    0.9024  123.0472    0.4222    2.2248   37.0000 
1597.7516    8.5350   89.2603    1.0849    1.5971    0.9234  122.6530    0.4120    2.2223   37.0000 
1597.9040    8.5350   88.9658    1.0849    1.6025    0.9102  123.0457    0.4082    2.2223   37.0000 
1598.0564    8.5163   89.0773    1.0849    1.6047    0.8230  123.9867    0.4099    2.2246   37.0000 
1598.2088    8.5150   89.3553    1.0849    1.6047    0.8626  124.1288    0.4104    2.2248   37.0000 
1598.3612    8.5150   90.0313    1.0849    1.5983    0.9102  124.3252    0.4043    2.2248   37.0000 
1598.5136    8.5150   93.5888    1.0849    1.5929    0.8998  124.2783    0.3914    2.2248   37.0000 
1598.6660    8.5244   95.9528    1.0849    1.5864    0.8795  124.0417    0.3948    2.2260   37.0000 
1598.8184    8.5339   96.2045    1.0846    1.5864    0.8746  124.0797    0.4046    2.2279   37.0000 
1598.9708    8.5150   95.8513    1.0773    1.5864    0.8232  124.8650    0.4046    2.2391   37.0000 
1599.1232    8.5150   95.5568    1.0736    1.5864    0.7876  125.2577    0.4046    2.2435   37.0000 
1599.2756    8.4750   95.7153    1.0602    1.5864    0.7861  125.7077    0.4046    2.2398   37.0000 
1599.4280    8.4822   93.5413    1.0481    1.5864    0.8400  125.2250    0.4149    2.2328   37.0000 
1599.5804    8.5058   92.1424    1.0481    1.5864    0.8486  124.7342    0.4190    2.2318   37.0000 
1599.7328    8.5150   90.1733    1.0481    1.5864    0.8496  123.5947    0.4235    2.2315   37.0000 
1599.8852    8.5257   89.2228    1.0481    1.5864    0.8469  123.7677    0.4188    2.2324   37.0000 
1600.0376    8.5207   88.5583    1.0481    1.5864    0.8411  124.4245    0.4071    2.2331   37.0000 
1600.1900    8.5089   89.6299    1.0481    1.5808    0.8390  124.7595    0.4049    2.2308   37.0000 
1600.3424    8.4754   93.8025    1.0481    1.5594    0.8350  124.9565    0.4120    2.2220   37.0000 
1600.4948    8.4566   95.7788    1.0481    1.5503    0.8318  125.0150    0.4187    2.2182   37.0000 
1600.6472    8.4802   96.1740    1.0481    1.5503    0.8136  124.7520    0.4334    2.2211   37.0000 
1600.7996    8.4921   95.5091    1.0481    1.5503    0.8325  124.8505    0.4384    2.2261   37.0000 
1600.9520    8.5150   94.2188    1.0419    1.5503    0.8120  125.0417    0.4344    2.2340   37.0000 
1601.1044    8.5150   98.1563    1.0383    1.5503    0.7851  125.0417    0.4281    2.2219   37.0000 
1601.2568    8.5150   96.6848    1.0265    1.5431    0.7540  124.9070    0.4284    2.2245   37.0000 
1601.4092    8.5150   95.8703    1.0219    1.5378    0.7421  124.9415    0.4284    2.2291   37.0000 
1601.5616    8.5150   94.6056    1.0150    1.5325    0.7086  125.0417    0.4166    2.2410   37.0000 
1601.7140    8.5081   94.3868    1.0125    1.5325    0.7317  125.0990    0.4166    2.2444   37.0000 
1601.8664    8.4608   94.5938    1.0125    1.5325    0.7668  125.5520    0.4289    2.2385   37.0000 
1602.0188    8.4372   94.5938    1.0125    1.5325    0.7860  125.8475    0.4378    2.2321   37.0000 
1602.1712    8.4350   95.2823    1.0125    1.5325    0.7335  126.0417    0.4430    2.2206   37.0000 
1602.3236    8.4350   95.5778    1.0125    1.5325    0.7377  126.0417    0.4357    2.2127   37.0000 
1602.4760    8.4710   95.6063    1.0125    1.5325    0.7960  126.0417    0.4099    2.2030   37.0000 
1602.6284    8.5150   94.0240    1.0130    1.5325    0.7420  125.6673    0.4160    2.2085   37.0000 
1602.7808    8.5150   92.6204    1.0165    1.5325    0.7624  125.3718    0.4155    2.2109   37.0000 
1602.9332    8.5321   90.9888    1.0184    1.5325    0.7719  125.6358    0.4140    2.2230   37.0000 
1603.0856    8.5439   91.6800    1.0158    1.5325    0.7765  125.8570    0.4248    2.2293   37.0000 
1603.2380    8.5424   93.0328    1.0125    1.5270    0.8016  126.0417    0.4372    2.2327   37.0000 
1603.3904    8.5306   93.0819    1.0113    1.5199    0.8230  126.1877    0.4501    2.2302   37.0000 
1603.5428    8.5150   92.8444    1.0044    1.5028    0.7734  126.8420    0.4509    2.2253   37.0000 
1603.6952    8.5150   93.2138    1.0010    1.4977    0.7682  127.0390    0.4499    2.2248   37.0000 
1603.8476    8.5454   95.6048    0.9875    1.4976    0.7363  126.7590    0.4173    2.2208   37.0000 
1604.0000    8.5809   98.4025    0.9808    1.4976    0.7005  126.3650    0.4189    2.2213   37.0000 
1604.1524    8.6329   95.7188    0.9676    1.4976    0.7506  125.7348    0.4273    2.2301   37.0000 
1604.3048    8.6350   95.5218    0.9610    1.4976    0.7397  125.4393    0.4284    2.2342   37.0000 
