~VERSION INFORMATION
 VERS.                 2.0:   CWLS LOG ASCII STANDARD - VERSION 2.0
 WRAP.                  NO:   SINGLE LINE PER DEPTH STEP
 CREA.                 04/06/2018 10:30:54
#CREATED USING DSPetro VERSION 5000.10.1.3 BY H191660 ON 04/06/2018 10:30:54
~WELL INFORMATION
#MNEM.UNIT       DATA                          DESCRIPTION MNEMONIC
#---------      ---------------------------   --------------------------
 STRT    .M         1189.9292                 : START DEPTH
 STOP    .M         2700.0608                 : STOP DEPTH
 STEP    .M         0.1524                    : STEP VALUE
 NULL    .      -999.0000                     : NULL VALUE
 DATE    .      04/06/2018                    : LAS file Creation Date
 WELL .      9_12_1                      : Well Name
 COMP .      Neftex Exploration Insights : Company
 FLD  .                                  : Field
 UWI  .      YNOWL_9121                  : Unique Well Identifier (UWI)
 LOC  .                                  : Location
 RWS  .      -999                        : Def_Rw
 WST  .      -999                        : Def_Rwt
 SRVC .                                  : Contractor
~CURVE INFORMATION
#MNEM                UNIT       API CODE   Curve Type Comments
#----------    --------------- ----------  ---------- -----------
 DEPTH        .M                         : Depth       
 CAL_INCH     .inch                      :             Caliper Log - A representation of the measured diameter of a borehole along its depth
 GR_API       .API                       : GammaRay    Gamma Ray (API) - Measures the intensity of natural gamma-ray radiation emitted from formations containing radioactive elements, such as K, Th and U
 LLD_OHMM     .ohmm                      :             Laterlog Deep Resistivity - Measurement made several feet into the formation; generally considered a measurement of the undisturbed formation
 LLM_OHMM     .ohm.m                     :             Laterlog Medium Resistivity - Measurement made approximately two to three feet into the formation - units of ohmm
 LLS_OHMM     .ohmm                      :             Laterlog Shallow Resistivity - one to two feet into the formation; generally considered to measure the formation
 DT_US_FT     .us/ft                     :             Interval Transit Time: Compressional Wave - Evaluates the time it takes for a compressional wave to traverse a fixed distance
 NEUT_P_RATIO .ratio                     :             Unspecified Neutron Porosity Log - No accroynm or method of attainment is specified
 RHOB_G_CC    .g/cc                      :             Bulk Density - Measures the density of bulk material, including any void space or other materials contained in the subject volume
 LITH         .                          : LITH        Lithology Curve
~A  DEPTH  CAL_INCH   GR_API   LLD_OHMM  LLM_OHMM  LLS_OHMM  DT_US_FT NEUT_P_R~ RHOB_G_C~    LITH   
# ...
2189.6732    9.5987   36.3265    1.1084    1.4567    0.7189   90.5187    0.2229    2.3490   27.0000 
2189.8256    9.6843   35.7078    1.2199    1.4971    0.8150   89.9643    0.2184    2.3721   27.0000 
2189.9780    9.7080   35.0406    1.2622    1.5177    0.7951   89.7667    0.2167    2.3845   27.0000 
2190.1304    9.6761   34.3795    1.3599    1.5878    0.8463   89.0215    0.2090    2.3953   27.0000 
2190.2828    9.7354   36.3068    1.4634    1.6668    1.0688   87.9343    0.2040    2.4205   27.0000 
2190.4352    9.7434   40.7538    1.6493    1.7835    1.6618   87.0767    0.1987    2.4735   27.0000 
2190.5876    9.6737   42.0725    1.6992    1.8085    1.7799   86.0842    0.1979    2.4800   27.0000 
2190.7400    9.5978   44.4796    1.7998    1.9084    1.6242   84.3520    0.1968    2.4893   36.0000 
2190.8924    9.6053   46.1238    1.8691    1.9743    1.4736   84.3433    0.1960    2.4954   36.0000 
2191.0448    9.6107   48.8278    1.9478    1.9743    1.3627   85.0997    0.1941    2.5046   36.0000 
2191.1972    9.7056   49.8655    1.9411    1.9743    1.4621   85.1985    0.1923    2.5071   36.0000 
2191.3496    9.6598   51.6414    1.8922    1.9743    1.6421   85.5628    0.1913    2.5048   36.0000 
2191.5020    9.5886   51.8638    1.8729    1.9743    1.5928   85.6617    0.1919    2.4969   36.0000 
2191.6544    9.5006   52.0820    1.7786    1.9538    1.5447   85.4063    0.1953    2.4660   36.0000 
2191.8068    9.4651   52.3433    1.6920    1.9573    1.4635   86.2898    0.1979    2.4482   36.0000 
2191.9592    9.3802   53.1931    1.5522    1.9552    1.7339   88.2358    0.2015    2.4230   36.0000 
2192.1116    9.3550   53.6078    1.5117    1.9517    1.9356   88.8010    0.2024    2.4236   36.0000 
2192.2640    9.3921   53.2148    1.4421    1.9517    2.3464   89.4283    0.2003    2.4248   36.0000 
2192.4164    9.4418   52.1870    1.3941    1.9517    2.1670   89.8085    0.1966    2.4252   36.0000 
2192.5688    9.5599   48.2573    1.3274    1.9517    1.9743   88.4248    0.1878    2.3919   36.0000 
2192.7212    9.5717   44.9958    1.3094    1.9517    2.1373   87.7330    0.1857    2.3987   36.0000 
2192.8736    9.5746   37.1610    1.2898    1.9632    2.5600   87.7157    0.1871    2.3993   36.0000 
2193.0260    9.5467   34.4378    1.3123    1.9743    2.6053   87.8337    0.1886    2.3978   36.0000 
2193.1784    9.5230   33.9930    1.3349    1.9743    2.4837   87.2407    0.1912    2.3965   36.0000 
2193.3308    9.4755   34.3373    1.4372    2.0661    2.3344   85.5612    0.1944    2.4369   27.0000 
2193.4832    9.4518   34.9963    1.4930    2.1531    2.3022   85.8317    0.1777    2.5365   27.0000 
2193.6356    9.4044   35.3730    1.5668    2.2647    1.9120   85.9140    0.1640    2.5436   27.0000 
2193.7880    9.3519   35.2989    1.6464    2.3850    1.7704   85.6720    0.1519    2.5471   27.0000 
2193.9404    9.2314   35.2188    1.8937    2.7713    8.4284   78.2108    0.1188    2.5669   27.0000 
2194.0928    9.1950   35.2360    2.0203    2.9736    9.7408   75.1563    0.1027    2.5669   27.0000 
2194.2452    9.1820   35.3438    2.2458    3.3085   12.3853   70.6823    0.0786    2.5669   27.0000 
2194.3976    9.1583   35.3438    2.3942    3.5037   12.3497   68.8045    0.0685    2.5669   27.0000 
2194.5500    9.1212   35.2188    2.5565    3.6806   12.1938   67.9730    0.0682    2.5392   27.0000 
2194.7024    9.1568   35.2188    2.5728    3.7059   12.1382   67.5777    0.0741    2.5374   27.0000 
2194.8548    9.2456   35.2188    2.6941    3.5176    7.1572   67.8750    0.0877    2.4930   27.0000 
2195.0072    9.2835   31.6625    2.3532    3.3623    2.7173   69.3750    0.0963    2.4734   27.0000 
2195.1596    9.3414   29.8056    2.1218    3.1013    2.7887   71.2083    0.0999    2.4363   27.0000 
2195.3120    9.3601   30.1970    1.9943    2.9291    2.5989   72.6277    0.1091    2.4390   27.0000 
2195.4644    9.3662   33.3988    1.6868    2.4491    2.2112   81.6950    0.1091    2.3823   27.0000 
2195.6168    9.3557   35.3219    1.5642    2.2488    2.1647   85.8733    0.1975    2.4031   27.0000 
2195.7692    9.3619   39.0281    1.4189    2.0903    2.6762   91.5478    0.2099    2.4200   27.0000 
2195.9216    9.3263   40.8813    1.3434    2.0549    3.0753   93.8210    0.2173    2.4319   27.0000 
2196.0740    9.3150   41.7183    1.2675    2.0673    3.5102   94.3753    0.2201    2.4281   27.0000 
2196.2264    9.3766   39.1308    1.1806    2.0426    3.7699   90.5777    0.2186    2.4067   27.0000 
2196.3788    9.3173   36.8329    1.1295    2.0012    3.8582   88.0080    0.2121    2.3960   27.0000 
2196.5312    9.0831   34.0313    1.0680    1.9529    2.6268   85.2917    0.1990    2.4006   27.0000 
2196.6836    8.9972   34.1703    1.0462    1.9270    2.4602   86.2457    0.1950    2.3960   27.0000 
2196.8360    8.8756   34.4043    0.9874    1.8281    2.0535   88.3967    0.1921    2.3886   27.0000 
2196.9884    8.8483   37.1388    0.9597    1.7734    1.9293   89.8792    0.1930    2.3814   27.0000 
2197.1408    8.8037   38.7293    0.9258    1.7093    2.1713   91.8022    0.1980    2.3772   27.0000 
2197.2932    8.7773   38.8120    0.9175    1.6998    2.1950   92.1367    0.2022    2.3839   27.0000 
2197.4456    8.8070   37.1438    0.9129    1.6998    2.3411   93.1250    0.2126    2.3811   27.0000 
2197.5980    8.8307   36.2543    0.9129    1.6998    2.4855   93.6192    0.2164    2.3772   27.0000 
2197.7504    8.9166   35.1563    0.9181    1.6998    2.1400   94.4145    0.2230    2.3810   27.0000 
2197.9028    8.9284   37.2383    0.9181    1.6998    2.3724   94.7110    0.2295    2.3840   27.0000 
2198.0552    8.9522   43.5435    0.9136    1.6831    2.6987   94.3030    0.2421    2.3835   36.0000 
2198.2076    8.9730   44.8266    0.9035    1.6674    2.8142   93.4567    0.2454    2.3805   36.0000 
2198.3600    9.0332   46.3780    0.8665    1.6043    3.0228   91.4800    0.2470    2.3693   36.0000 
2198.5124    9.0596   46.4975    0.8431    1.5590    1.7146   90.9133    0.2463    2.3560   36.0000 
2198.6648    9.0417   50.4063    0.7947    1.4628    1.7245   91.5270    0.2472    2.3675   36.0000 
2198.8172    8.9945   50.8460    0.7678    1.4134    2.3463   92.2278    0.2501    2.3689   36.0000 
2198.9696    8.9311   53.5538    0.7420    1.3565    2.7096   94.6350    0.2349    2.3619   36.0000 
2199.1220    8.9192   55.3328    0.7420    1.3519    1.4220   95.7083    0.2361    2.3554   36.0000 
2199.2744    8.8955   57.4063    0.7135    1.3427    1.1393   96.4410    0.2386    2.3410   36.0000 
2199.4268    8.8982   65.6688    0.6787    1.3684    1.7754   98.5417    0.2637    2.3572   36.0000 
2199.5792    8.9101   64.5569    0.6896    1.3778    1.5193   95.6592    0.2686    2.3661   36.0000 
2199.7316    8.9150   61.3941    0.6962    1.3892    1.4720   92.5377    0.2529    2.3690   36.0000 
2199.8840    8.9256   57.8938    0.7095    1.3854    1.4720   91.6657    0.2418    2.3636   36.0000 
2200.0364    8.9493   51.2271    0.7360    1.3704    1.8730   91.5168    0.2205    2.3506   36.0000 
2200.1888    8.9490   49.5683    0.7472    1.3612    1.9652   91.6080    0.2144    2.3519   36.0000 
2200.3412    8.9636   49.5765    0.7742    1.3614    2.9540   90.9775    0.2174    2.3490   36.0000 
2200.4936    9.0002   49.9281    0.7923    1.3764    1.8585   90.5633    0.2240    2.3447   36.0000 
2200.6460    9.0461   48.6509    0.8300    1.4218    1.6043   91.0758    0.2264    2.3352   27.0000 
2200.7984    8.9755   46.9604    0.8585    1.4412    1.5351   91.5658    0.2184    2.3417   27.0000 
2200.9508    8.7745   42.4825    0.9673    1.4301    1.3425   93.2008    0.2072    2.3457   27.0000 
2201.1032    8.7157   44.0995    1.0115    1.4109    1.8551   92.3188    0.2101    2.3935   27.0000 
2201.2556    8.6750   47.1413    1.0608    1.3793    1.8963   89.7858    0.2148    2.3839   27.0000 
2201.4080    8.7107   48.9063    1.0708    1.3737    1.9127   88.1968    0.2162    2.3716   27.0000 
2201.5604    8.8283   75.1563    1.0689    1.3951    0.6154   84.9583    0.2177    2.3473   36.0000 
2201.7128    8.8629   75.2188    1.0588    1.4158    0.6198   85.2487    0.2199    2.3596   36.0000 
