~VERSION INFORMATION
 VERS.                 2.0:   CWLS LOG ASCII STANDARD - VERSION 2.0
 WRAP.                  NO:   SINGLE LINE PER DEPTH STEP
 CREA.                 04/06/2018 10:30:54
#CREATED USING DSPetro VERSION 5000.10.1.3 BY H191660 ON 04/06/2018 10:30:54
~WELL INFORMATION
#MNEM.UNIT       DATA                          DESCRIPTION MNEMONIC
#---------      ---------------------------   --------------------------
 STRT    .M         1189.9292                 : START DEPTH
 STOP    .M         2700.0608                 : STOP DEPTH
 STEP    .M         0.1524                    : STEP VALUE
 NULL    .      -999.0000                     : NULL VALUE
 DATE    .      04/06/2018                    : LAS file Creation Date
 WELL .      9_12_1                      : Well Name
 COMP .      Neftex Exploration Insights : Company
 FLD  .                                  : Field
 UWI  .      YNOWL_9121                  : Unique Well Identifier (UWI)
 LOC  .                                  : Location
 RWS  .      -999                        : Def_Rw
 WST  .      -999                        : Def_Rwt
 SRVC .                                  : Contractor
~CURVE INFORMATION
#MNEM                UNIT       API CODE   Curve Type Comments
#----------    --------------- ----------  ---------- -----------
 DEPTH        .M                         : Depth       
 CAL_INCH     .inch                      :             Caliper Log - A representation of the measured diameter of a borehole along its depth
 GR_API       .API                       : GammaRay    Gamma Ray (API) - Measures the intensity of natural gamma-ray radiation emitted from formations containing radioactive elements, such as K, Th and U
 LLD_OHMM     .ohmm                      :             Laterlog Deep Resistivity - Measurement made several feet into the formation; generally considered a measurement of the undisturbed formation
 LLM_OHMM     .ohm.m                     :             Laterlog Medium Resistivity - Measurement made approximately two to three feet into the formation - units of ohmm
 LLS_OHMM     .ohmm                      :             Laterlog Shallow Resistivity - one to two feet into the formation; generally considered to measure the formation
 DT_US_FT     .us/ft                     :             Interval Transit Time: Compressional Wave - Evaluates the time it takes for a compressional wave to traverse a fixed distance
 NEUT_P_RATIO .ratio                     :             Unspecified Neutron Porosity Log - No accroynm or method of attainment is specified
 RHOB_G_CC    .g/cc                      :             Bulk Density - Measures the density of bulk material, including any void space or other materials contained in the subject volume
 LITH         .                          : LITH        Lithology Curve
~A  DEPTH  CAL_INCH   GR_API   LLD_OHMM  LLM_OHMM  LLS_OHMM  DT_US_FT NEUT_P_R~ RHOB_G_C~    LITH   
# ...
1994.6012    9.9522   76.4181    1.0620    1.6451    0.9782  107.3433    0.3615    2.3026   37.0000 
1994.7536   10.0977   78.5313    1.0881    1.6659    0.9422  105.4628    0.3581    2.3023   37.0000 
1994.9060   10.2241   78.3129    1.0948    1.6812    0.9782  104.6223    0.3582    2.3054   37.0000 
1995.0584   10.4850   76.1976    1.0615    1.6850    0.8968  103.7523    0.3585    2.3165   37.0000 
1995.2108   10.3090   75.6083    1.0508    1.6736    0.8136  103.8505    0.3582    2.3059   37.0000 
1995.3632   10.1145   75.1542    1.0476    1.6606    0.8690  104.9008    0.3589    2.2994   37.0000 
1995.5156   10.0437   75.0938    1.0370    1.6494    0.9119  105.3917    0.3548    2.3067   37.0000 
1995.6680   10.2115   72.3125    1.0115    1.6197    0.9352  106.7723    0.3306    2.3198   37.0000 
1995.8204   10.3767   72.3125    1.0045    1.6104    0.8532  107.2997    0.3404    2.2683   37.0000 
1995.9728   10.5659   82.2305    0.9913    1.6047    0.7168  107.7083    0.3524    2.2324   37.0000 
1996.1252   10.4740   82.3125    0.9838    1.6047    0.7473  107.4607    0.3710    2.2169   37.0000 
1996.2776   10.3915   78.2446    0.9895    1.6047    0.7652  107.2643    0.3801    2.2547   37.0000 
1996.4300   10.2558   75.6360    1.0128    1.6047    0.7701  107.0417    0.3881    2.2858   37.0000 
1996.5824   10.2214   74.7779    1.0272    1.6066    0.7549  107.0417    0.3865    2.2921   37.0000 
1996.7348   10.3002   73.7839    1.0558    1.6285    0.7335  106.9493    0.3822    2.2836   37.0000 
1996.8872   10.3120   73.9313    1.0594    1.6396    0.7335  106.7530    0.3854    2.2846   37.0000 
1997.0396   10.2912   75.1591    1.0608    1.6425    0.8805  106.2230    0.3980    2.3439   37.0000 
1997.1920   10.2086   75.5276    1.0680    1.6481    1.0469  106.4193    0.4061    2.3431   37.0000 
1997.3444   10.0595   75.9183    1.0826    1.6439    0.9481  107.2175    0.3697    2.3400   37.0000 
1997.4968   10.0119   76.3861    1.0825    1.6384    0.9428  107.5083    0.3669    2.3358   37.0000 
1997.6492    9.9411   76.8438    1.0645    1.6219    0.9272  108.3827    0.3658    2.3139   37.0000 
1997.8016    9.9212   71.9688    1.0511    1.6125    0.8999  109.0142    0.3639    2.2981   37.0000 
1997.9540    9.9617   71.9688    1.0320    1.6112    0.7964  109.5358    0.3683    2.2715   37.0000 
1998.1064    9.9735   71.9063    1.0250    1.6221    0.7749  109.2413    0.3780    2.2617   37.0000 
1998.2588   10.0170   77.9163    1.0256    1.6421    0.6834  107.7817    0.4011    2.2321   37.0000 
1998.4112   10.0288   78.5059    1.0326    1.6421    0.6563  107.2908    0.4066    2.2330   37.0000 
1998.5636   10.0524   78.6875    1.0467    1.6505    0.5613  106.8952    0.3980    2.2442   37.0000 
1998.7160   10.1287   78.1741    1.0595    1.6651    0.5017  106.6410    0.3931    2.2140   37.0000 
1998.8684   10.1510   77.9082    1.0805    1.6929    0.6421  106.5903    0.4260    2.1987   37.0000 
1999.0208   10.1104   77.9375    1.0864    1.6998    0.6925  106.7867    0.4348    2.1990   37.0000 
1999.1732   10.0460   78.0313    1.0991    1.6918    0.7009  107.3858    0.4378    2.1997   37.0000 
1999.3256    9.9398   81.0938    1.1027    1.6690    0.8030  108.3675    0.4304    2.2952   37.0000 
1999.4780    9.9433   81.0938    1.0998    1.6646    0.8475  108.7383    0.4211    2.2965   37.0000 
1999.6304   10.1463   77.0159    1.1079    1.6873    0.8754  109.0540    0.3779    2.2844   37.0000 
1999.7828   10.2642   74.6261    1.1042    1.6988    0.8813  109.3485    0.3789    2.2836   37.0000 
1999.9352   10.2549   72.1562    1.0944    1.6974    0.8931  109.7293    0.3863    2.2774   37.0000 
2000.0876   10.0050   72.0822    1.0796    1.6859    0.8976  109.8279    0.3901    2.2678   37.0000 
2000.2400   10.0650   76.7655    1.0725    1.6630    0.9092  109.8750    0.4381    2.2498   37.0000 
2000.3924   10.0750   78.5415    1.0786    1.6611    0.9154  109.9572    0.4364    2.2859   37.0000 
2000.5448    9.8596   79.1863    1.0892    1.6611    0.9449  110.0417    0.4093    2.3012   37.0000 
2000.6972    9.7550   78.6193    1.0980    1.6663    0.9055  110.1313    0.4022    2.3014   37.0000 
2000.8496   10.0456   77.6485    1.1314    1.6892    0.8250  110.4505    0.3304    2.3024   37.0000 
2001.0020   10.1532   77.4375    1.1495    1.7003    0.7951  110.4742    0.3319    2.3079   37.0000 
2001.1544   10.1058   77.1720    1.1574    1.7165    0.9162  108.7745    0.3346    2.3397   37.0000 
2001.3068   10.0822   76.7280    1.1613    1.7341    0.9383  108.0838    0.3375    2.3598   37.0000 
2001.4592   10.0743   76.8988    1.1625    1.7595    0.9448  107.7125    0.3409    2.3181   37.0000 
2001.6116    9.9914   77.8608    1.1586    1.7475    0.9321  108.2058    0.3426    2.3092   37.0000 
2001.7640    9.6538   78.8788    1.1353    1.7239    0.8947  109.4528    0.3572    2.3233   37.0000 
2001.9164    9.5153   78.8130    1.1223    1.7195    0.9328  109.7705    0.3726    2.3355   37.0000 
2002.0688    9.4484   78.6023    1.1031    1.7140    0.8921  109.4108    0.3801    2.3460   37.0000 
2002.2212    9.5137   78.5283    1.0956    1.7082    0.9168  109.0913    0.3801    2.3446   37.0000 
2002.3736    9.8083   78.6093    1.0808    1.6998    0.9964  109.4860    0.3806    2.3356   37.0000 
2002.5260    9.9447   78.7323    1.0725    1.6998    1.1102  109.5360    0.3744    2.3247   37.0000 
2002.6784    9.9285   77.9270    1.0739    1.7009    1.0883  109.3932    0.3659    2.3200   37.0000 
2002.8308    9.8633   74.3925    1.0849    1.7125    0.9582  109.5905    0.3510    2.3109   37.0000 
2002.9832    9.8396   72.9488    1.0849    1.7184    0.9517  109.6892    0.3486    2.3030   37.0000 
2003.1356    9.4805   75.3438    1.0930    1.7209    0.8819  109.6393    0.3521    2.2968   37.0000 
2003.2880    9.1845   75.3438    1.1080    1.7327    0.8819  109.0473    0.3559    2.3072   37.0000 
2003.4404    8.8629   82.4425    1.1442    1.7564    1.0602  107.8633    0.3471    2.3279   37.0000 
2003.5928    8.8175   83.4758    1.1550    1.7640    0.9929  107.4898    0.3390    2.3346   37.0000 
2003.7452    8.7826   86.0525    1.1922    1.7953    0.9869  107.2083    0.3244    2.3341   37.0000 
2003.8976    8.7707   88.3530    1.2179    1.8177    1.0243  107.3148    0.3354    2.3280   37.0000 
2004.0500    8.7788   87.5570    1.2543    1.8383    0.9766  107.7745    0.3297    2.3185   37.0000 
2004.2024    8.8143   87.0938    1.2671    1.8320    0.9402  107.8732    0.3252    2.3190   37.0000 
2004.3548    8.8881   80.3895    1.2661    1.8214    0.8246  107.4263    0.3471    2.3184   37.0000 
2004.5072    8.8644   79.7975    1.2618    1.8214    0.7335  107.0317    0.3589    2.3164   37.0000 
2004.6596    8.7411   79.9050    1.2262    1.8214    0.8568  105.6097    0.3591    2.3164   37.0000 
2004.8120    8.7242   80.6450    1.2130    1.8271    1.0669  104.9105    0.3290    2.3268   37.0000 
2004.9644    8.7440   82.4438    1.2034    1.8396    1.0052  104.6167    0.3034    2.3326   37.0000 
2005.1168    8.7487   82.8533    1.2034    1.8425    1.0277  104.8140    0.3094    2.3288   37.0000 
2005.2692    8.7049   83.8450    1.2034    1.8425    1.0727  105.0417    0.3429    2.3265   37.0000 
2005.4216    8.6713   84.0945    1.2034    1.8425    1.1069  105.0417    0.3260    2.3310   37.0000 
2005.5740    8.6239   81.9055    1.2034    1.8425    1.3271  104.9955    0.3078    2.3421   37.0000 
2005.7264    8.5766   78.2743    1.2066    1.8425    1.1365  104.6445    0.2994    2.3399   37.0000 
2005.8788    8.5571   77.2098    1.2107    1.8425    1.0375  104.3573    0.3082    2.3382   37.0000 
2006.0312    8.5997   77.9008    1.2173    1.8425    0.9324  103.9232    0.3208    2.3398   37.0000 
2006.1836    8.6116   78.8628    1.2173    1.8425    0.8738  103.6272    0.3249    2.3398   37.0000 
2006.3360    8.6350   80.1228    1.1962    1.8641    0.8577  103.2148    0.3363    2.3448   37.0000 
2006.4884    8.6350   79.3088    1.1841    1.8769    1.0818  103.5108    0.3437    2.3443   37.0000 
2006.6408    8.6034   79.2803    1.1601    1.8769    0.9361  103.9713    0.3561    2.3361   37.0000 
