~VERSION INFORMATION
 VERS.                 2.0:   CWLS LOG ASCII STANDARD - VERSION 2.0
 WRAP.                  NO:   SINGLE LINE PER DEPTH STEP
 CREA.                 04/06/2018 10:30:54
#CREATED USING DSPetro VERSION 5000.10.1.3 BY H191660 ON 04/06/2018 10:30:54
~WELL INFORMATION
#MNEM.UNIT       DATA                          DESCRIPTION MNEMONIC
#---------      ---------------------------   --------------------------
 STRT    .M         1189.9292                 : START DEPTH
 STOP    .M         2700.0608                 : STOP DEPTH
 STEP    .M         0.1524                    : STEP VALUE
 NULL    .      -999.0000                     : NULL VALUE
 DATE    .      04/06/2018                    : LAS file Creation Date
 WELL .      9_12_1                      : Well Name
 COMP .      Neftex Exploration Insights : Company
 FLD  .                                  : Field
 UWI  .      YNOWL_9121                  : Unique Well Identifier (UWI)
 LOC  .                                  : Location
 RWS  .      -999                        : Def_Rw
 WST  .      -999                        : Def_Rwt
 SRVC .                                  : Contractor
~CURVE INFORMATION
#MNEM                UNIT       API CODE   Curve Type Comments
#----------    --------------- ----------  ---------- -----------
 DEPTH        .M                         : Depth       
 CAL_INCH     .inch                      :             Caliper Log - A representation of the measured diameter of a borehole along its depth
 GR_API       .API                       : GammaRay    Gamma Ray (API) - Measures the intensity of natural gamma-ray radiation emitted from formations containing radioactive elements, such as K, Th and U
 LLD_OHMM     .ohmm                      :             Laterlog Deep Resistivity - Measurement made several feet into the formation; generally considered a measurement of the undisturbed formation
 LLM_OHMM     .ohm.m                     :             Laterlog Medium Resistivity - Measurement made approximately two to three feet into the formation - units of ohmm
 LLS_OHMM     .ohmm                      :             Laterlog Shallow Resistivity - one to two feet into the formation; generally considered to measure the formation
 DT_US_FT     .us/ft                     :             Interval Transit Time: Compressional Wave - Evaluates the time it takes for a compressional wave to traverse a fixed distance
 NEUT_P_RATIO .ratio                     :             Unspecified Neutron Porosity Log - No accroynm or method of attainment is specified
 RHOB_G_CC    .g/cc                      :             Bulk Density - Measures the density of bulk material, including any void space or other materials contained in the subject volume
 LITH         .                          : LITH        Lithology Curve
~A  DEPTH  CAL_INCH   GR_API   LLD_OHMM  LLM_OHMM  LLS_OHMM  DT_US_FT NEUT_P_R~ RHOB_G_C~    LITH   
# ...
1494.7292    8.8193   12.0938    5.9354    6.0873    8.2607   68.3750    0.1026    2.5184   18.0000 
1494.8816    8.7956   12.1563    5.8950    6.0666   10.5416   68.3750    0.1012    2.5238   18.0000 
1495.0340    8.7717   12.3438    5.7104    5.9223    8.1280   68.0417    0.1019    2.5459   18.0000 
1495.1864    8.7599   13.5938    5.6525    5.9022    9.4509   68.0417    0.1028    2.5439   18.0000 
1495.3388    8.6987   13.5938    5.4199    5.7992   14.9020   68.1982    0.1064    2.5384   18.0000 
1495.4912    8.6420   12.0638    5.2306    5.6888   15.1934   68.6500    0.1114    2.5328   18.0000 
1495.6436    8.5665   11.5048    4.9520    5.5281    6.0530   69.5163    0.1199    2.5044   18.0000 
1495.7960    8.5550   11.4688    4.8686    5.4626    5.8379   69.7083    0.1212    2.4940   18.0000 
1495.9484    8.5550   12.0144    4.6862    5.3455    5.7272   69.4658    0.1209    2.4915   18.0000 
1496.1008    8.5550   12.6603    4.5633    5.3092    4.3192   69.1703    0.1216    2.4908   18.0000 
1496.2532    8.5498   13.3398    4.3811    5.2298    4.8730   68.4073    0.1212    2.4938   18.0000 
1496.4056    8.5380   13.0443    4.2924    5.1766    5.3728   67.7178    0.1204    2.4953   18.0000 
1496.5580    8.5150   12.0783    4.1711    5.0746    5.7598   66.8905    0.1166    2.5156   18.0000 
1496.7104    8.5150   11.7828    4.1429    5.0746    5.5764   67.1860    0.1157    2.5151   18.0000 
1496.8628    8.5150   11.5938    4.0869    4.9818    5.4876   68.0450    0.1187    2.5114   18.0000 
1497.0152    8.5150   12.0381    4.0409    4.9036    5.3364   68.5375    0.1220    2.5096   18.0000 
1497.1676    8.5150   12.8630    3.9325    4.7708    4.9591   69.0417    0.1271    2.5139   18.0000 
1497.3200    8.5150   12.9268    3.8792    4.7268    5.0855   69.0137    0.1281    2.5183   18.0000 
1497.4724    8.5220   12.8500    3.7602    4.6630    5.3373   68.7000    0.1276    2.5143   18.0000 
1497.6248    8.5456   13.0273    3.6317    4.5999    4.1248   68.5523    0.1269    2.4981   18.0000 
1497.7772    8.5550   12.8611    3.5776    4.5623    4.5752   68.7288    0.1281    2.4923   18.0000 
1497.9296    8.5550   11.8269    3.4288    4.4400    5.9280   68.9258    0.1374    2.4991   18.0000 
1498.0820    8.5550   11.3098    3.3478    4.3798    4.6661   69.0243    0.1418    2.5011   18.0000 
1498.2344    8.5550   11.4218    3.2650    4.3059    4.4611   69.0547    0.1413    2.4955   18.0000 
1498.3868    8.5550   12.0128    3.1778    4.2051    4.3861   69.1532    0.1394    2.4881   18.0000 
1498.5392    8.5550   12.9063    2.8669    3.9130    3.5822   70.2012    0.1374    2.4450   18.0000 
1498.6916    8.5550   11.6373    2.7179    3.8041    3.7188   70.9643    0.1505    2.4359   18.0000 
1498.8440    8.5550   11.2968    2.4973    3.6660    3.8386   71.9163    0.1586    2.4290   18.0000 
1498.9964    8.5507   11.4244    2.3967    3.5905    3.8941   72.1492    0.1620    2.4249   18.0000 
1499.1488    8.5271   11.7188    2.1737    3.3696    4.4968   72.6078    0.1712    2.4160   18.0000 
1499.3012    8.5152   11.7188    2.0929    3.2783    3.2086   72.7063    0.1751    2.4116   18.0000 
1499.4536    8.5150   12.0513    2.0397    3.1712    3.2360   73.1267    0.1796    2.4076   18.0000 
1499.6060    8.5150   11.9035    2.0258    3.1284    3.2390   73.4222    0.1832    2.4056   18.0000 
1499.7584    8.5150   11.4901    2.0203    3.1280    3.2019   73.6988    0.1870    2.4048   18.0000 
1499.9108    8.5150   11.1350    2.0390    3.1483    3.1848   73.5303    0.1845    2.4070   18.0000 
1500.0632    8.5150   10.2191    2.1070    3.2179    3.5093   72.7801    0.1739    2.4238   18.0000 
1500.2156    8.5150    9.9688    2.1389    3.2734    3.9643   72.3902    0.1684    2.4298   18.0000 
1500.3680    8.5150   10.2093    2.1708    3.3715    4.8302   71.9615    0.1629    2.4274   18.0000 
1500.5204    8.5150   10.4950    2.1799    3.3930    4.8563   71.8750    0.1621    2.4243   18.0000 
1500.6728    8.5150   10.7818    2.2152    3.4063    4.7771   71.9163    0.1539    2.4163   18.0000 
1500.8252    8.5150   10.8600    2.1831    3.3345    4.2642   71.9707    0.1477    2.4167   18.0000 
1500.9776    8.5150   11.2094    2.1387    3.2557    4.4380   71.8800    0.1469    2.4215   18.0000 
1501.1300    8.5150   10.4731    2.0487    3.1221    8.1829   72.3370    0.1606    2.4257   18.0000 
1501.2824    8.5150   10.1050    2.0279    3.1010    8.1829   72.7297    0.1650    2.4235   18.0000 
1501.4348    8.4766   10.3288    1.9761    3.0761    5.5005   73.8350    0.1767    2.4191   18.0000 
1501.5872    8.4750   11.1673    1.9619    3.0657    3.2670   74.5155    0.1854    2.4158   18.0000 
1501.7396    8.5041   12.6616    1.9517    3.0578    3.5720   74.7993    0.1981    2.4071   18.0000 
1501.8920    8.5213   13.0873    1.9552    3.0634    3.5692   74.7083    0.1909    2.4045   18.0000 
1502.0444    8.5646   13.2203    1.9970    3.1019    3.5514   74.6260    0.1800    2.4046   18.0000 
1502.1968    8.5983   13.1249    2.0389    3.1351    3.5209   74.4863    0.1726    2.4053   18.0000 
1502.3492    8.6141   13.3709    2.1316    3.2263    8.3976   73.4400    0.1593    2.4104   18.0000 
1502.5016    8.5670   13.1500    2.1680    3.2814    8.4704   72.4583    0.1540    2.4192   18.0000 
1502.6540    8.4556   12.3228    2.2817    3.4320   25.4416   71.0323    0.1389    2.4477   18.0000 
1502.8064    8.4673   11.8810    2.3209    3.4554   48.5367   70.8360    0.1313    2.4555   18.0000 
1502.9588    8.5068   10.6994    2.4009    3.5349    4.9024   70.1783    0.1296    2.4623   18.0000 
1503.1112    8.5457    8.9688    2.4756    3.5832    4.6216   70.4257    0.1452    2.4635   18.0000 
1503.2636    8.6400   10.8665    2.6236    3.6342    3.5926   71.6037    0.1666    2.4507   18.0000 
1503.4160    8.6810   11.5820    2.6655    3.6342    3.6342   72.0668    0.1739    2.4398   18.0000 
1503.5684    8.7479   12.5478    2.6786    3.6205    4.1268   72.3728    0.1796    2.4423   18.0000 
1503.7208    8.8068   13.1368    2.6786    3.5960    4.5436   72.6673    0.1789    2.4467   18.0000 
1503.8732    8.7454   13.5048    2.6574    3.5495    4.6766   72.6443    0.1634    2.4566   18.0000 
1504.0256    8.6276   13.6725    2.5944    3.5255    5.0310   72.2243    0.1663    2.4574   18.0000 
1504.1780    8.5687   13.3044    2.5769    3.5136    4.4579   72.6170    0.1666    2.4560   18.0000 
1504.3304    8.5150   12.2034    2.5416    3.5083    4.2853   73.0622    0.1663    2.4592   18.0000 
1504.4828    8.5150   11.9825    2.5159    3.4729    4.2146   73.3567    0.1680    2.4503   18.0000 
1504.6352    8.5150   11.8438    2.4425    3.4030    4.1634   73.9457    0.1706    2.4529   18.0000 
1504.7876    8.5150   11.7941    2.4069    3.3762    3.7619   74.0417    0.1654    2.4541   18.0000 
1504.9400    8.5150   11.6469    2.3425    3.3307    3.8057   74.0417    0.1711    2.4464   18.0000 
1505.0924    8.5150   11.6348    2.3088    3.3020    3.7060   74.0143    0.1731    2.4417   18.0000 
1505.2448    8.5150   11.9720    2.2406    3.2263    3.2765   73.8180    0.1661    2.4448   18.0000 
1505.3972    8.5150   12.1929    2.2178    3.2044    3.7004   73.7198    0.1697    2.4478   18.0000 
1505.5496    8.5150   11.8325    2.2236    3.2059    3.5688   73.3205    0.1768    2.4441   18.0000 
1505.7020    8.5150   11.0963    2.2695    3.2278    3.5108   73.0260    0.1830    2.4451   18.0000 
1505.8544    8.5150   10.0618    2.2930    3.3051    3.4507   72.7290    0.1870    2.4493   18.0000 
1506.0068    8.5150    9.9688    2.3178    3.3413    3.6696   72.5533    0.1843    2.4513   18.0000 
1506.1592    8.5150   10.3706    2.4175    3.4483    5.1039   72.0535    0.1712    2.4601   18.0000 
1506.3116    8.5150   10.7388    2.4770    3.5048    9.3682   71.8363    0.1637    2.4645   18.0000 
1506.4640    8.5150   11.1675    2.5494    3.5514    5.1779   71.7083    0.1567    2.4630   18.0000 
1506.6164    8.5150   11.0939    2.5580    3.5514    4.2457   71.7083    0.1561    2.4581   18.0000 
1506.7688    8.5456   10.8216    2.6203    3.5514    4.2930   71.7083    0.1572    2.4590   18.0000 
