~VERSION INFORMATION
 VERS.                 2.0:   CWLS LOG ASCII STANDARD - VERSION 2.0
 WRAP.                  NO:   SINGLE LINE PER DEPTH STEP
 CREA.                 04/06/2018 10:30:54
#CREATED USING DSPetro VERSION 5000.10.1.3 BY H191660 ON 04/06/2018 10:30:54
~WELL INFORMATION
#MNEM.UNIT       DATA                          DESCRIPTION MNEMONIC
#---------      ---------------------------   --------------------------
 STRT    .M         1189.9292                 : START DEPTH
 STOP    .M         2700.0608                 : STOP DEPTH
 STEP    .M         0.1524                    : STEP VALUE
 NULL    .      -999.0000                     : NULL VALUE
 DATE    .      04/06/2018                    : LAS file Creation Date
 WELL .      9_12_1                      : Well Name
 COMP .      Neftex Exploration Insights : Company
 FLD  .                                  : Field
 UWI  .      YNOWL_9121                  : Unique Well Identifier (UWI)
 LOC  .                                  : Location
 RWS  .      -999                        : Def_Rw
 WST  .      -999                        : Def_Rwt
 SRVC .                                  : Contractor
~CURVE INFORMATION
#MNEM                UNIT       API CODE   Curve Type Comments
#----------    --------------- ----------  ---------- -----------
 DEPTH        .M                         : Depth       
 CAL_INCH     .inch                      :             Caliper Log - A representation of the measured diameter of a borehole along its depth
 GR_API       .API                       : GammaRay    Gamma Ray (API) - Measures the intensity of natural gamma-ray radiation emitted from formations containing radioactive elements, such as K, Th and U
 LLD_OHMM     .ohmm                      :             Laterlog Deep Resistivity - Measurement made several feet into the formation; generally considered a measurement of the undisturbed formation
 LLM_OHMM     .ohm.m                     :             Laterlog Medium Resistivity - Measurement made approximately two to three feet into the formation - units of ohmm
 LLS_OHMM     .ohmm                      :             Laterlog Shallow Resistivity - one to two feet into the formation; generally considered to measure the formation
 DT_US_FT     .us/ft                     :             Interval Transit Time: Compressional Wave - Evaluates the time it takes for a compressional wave to traverse a fixed distance
 NEUT_P_RATIO .ratio                     :             Unspecified Neutron Porosity Log - No accroynm or method of attainment is specified
 RHOB_G_CC    .g/cc                      :             Bulk Density - Measures the density of bulk material, including any void space or other materials contained in the subject volume
 LITH         .                          : LITH        Lithology Curve
~A  DEPTH  CAL_INCH   GR_API   LLD_OHMM  LLM_OHMM  LLS_OHMM  DT_US_FT NEUT_P_R~ RHOB_G_C~    LITH   
# ...
2287.2092    9.1611   65.2328    1.8214    2.0203    0.9782   89.0140    0.3482    2.3678   37.0000 
2287.3616    9.1935   65.1770    1.8218    2.0216    1.0150   89.0972    0.3422    2.3708   37.0000 
2287.5140    9.1700   66.5000    1.8280    2.0422    1.0539   89.9792    0.3440    2.3743   37.0000 
2287.6664    9.1870   68.2449    1.8319    2.0841    1.1231   91.7432    0.3535    2.3838   37.0000 
2287.8188    9.2106   68.5174    1.8278    2.0913    1.0878   91.9768    0.3604    2.3879   37.0000 
2287.9712    9.2237   69.5825    1.8273    2.1118    1.0520   90.8392    0.3448    2.3915   37.0000 
2288.1236    9.2058   70.2864    1.8434    2.1391    0.9895   89.4042    0.3155    2.3938   36.0000 
2288.2760    9.1418   69.2696    1.9368    2.2151    0.9288   83.2917    0.2298    2.4133   36.0000 
2288.4284    9.1150   67.1494    2.0088    2.2473    1.2347   83.7917    0.2226    2.4319   36.0000 
2288.5808    9.1262   66.0735    2.0192    2.2586    1.3977   84.1250    0.2196    2.4359   36.0000 
2288.7332    9.2027   61.2773    1.9994    2.3171    1.2555   87.7917    0.2296    2.4286   36.0000 
2288.8856    9.1322   59.2193    1.9792    2.3407    1.2136   85.7917    0.2296    2.4242   36.0000 
2289.0380    9.0330   58.0785    2.0118    2.3464    1.0764   79.4317    0.2107    2.4290   36.0000 
2289.1904    8.9977   55.5795    2.0674    2.3464    1.0110   77.4717    0.1933    2.4300   36.0000 
2289.3428    8.9272   50.3823    2.1925    2.3681    1.3946   76.6068    0.1658    2.4220   36.0000 
2289.4952    8.8765   47.4956    2.2554    2.4112    1.5556   77.2217    0.1597    2.4159   36.0000 
2289.6476    8.8487   40.2064    2.3653    2.5449    3.1290   78.9767    0.1809    2.3962   36.0000 
2289.8000    8.8929   36.4100    2.4011    2.6209    4.6016   79.6338    0.1809    2.3869   27.0000 
2289.9524    9.0015   33.2188    2.3921    2.7304    2.7807   78.4500    0.1726    2.4383   27.0000 
2290.1048    9.0133   33.2188    2.3760    2.7396    2.4429   77.0780    0.1661    2.4394   27.0000 
2290.2572    8.9550   34.2633    2.2884    2.7055    2.0673   70.7917    0.1487    2.4758   27.0000 
2290.4096    8.9550   34.5573    2.2577    2.6782    4.3603   70.9583    0.1425    2.4793   27.0000 
2290.5620    8.9721   34.7188    2.1866    2.5735    4.2647   71.0417    0.1344    2.4892   27.0000 
2290.7144    8.9574   35.2149    2.1340    2.5135    4.0078   73.8843    0.1296    2.5008   27.0000 
2290.8668    8.9720   37.4634    2.0286    2.4055    5.8097   77.0203    0.1457    2.5023   36.0000 
2291.0192    9.0237   39.7756    1.9590    2.3385    5.6478   79.0667    0.1545    2.5015   36.0000 
2291.1716    9.1274   47.8918    1.7015    2.1375    4.5477   86.6250    0.2555    2.4354   36.0000 
2291.3240    9.0259   54.1666    1.4402    1.9998    0.9725   85.1513    0.2243    2.4194   36.0000 
2291.4764    8.9434   55.0375    1.3681    1.9710    0.9598   84.6358    0.2104    2.4267   36.0000 
2291.6288    8.8301   52.9656    1.3250    1.9517    0.9280   84.3688    0.1977    2.4238   36.0000 
2291.7812    8.7477   51.1281    1.3072    1.9517    0.9102   84.6628    0.1885    2.4160   36.0000 
2291.9336    8.6418   48.0406    1.2895    1.9526    1.8636   84.6233    0.1824    2.3847   36.0000 
2292.0860    8.6888   47.6731    1.2895    1.9593    2.0099   84.0353    0.1874    2.3955   36.0000 
2292.2384    8.7659   46.9381    1.2895    1.9534    2.3290   83.7083    0.1952    2.4092   36.0000 
2292.3908    8.7575   46.7891    1.2895    1.9517    2.3079   83.9997    0.1974    2.4106   36.0000 
2292.5432    8.7595   47.1785    1.2626    1.9586    2.1442   84.5793    0.2065    2.4050   36.0000 
2292.6956    8.8273   47.3431    1.2400    1.9652    2.0246   84.7083    0.2135    2.3973   36.0000 
2292.8480    9.0652   46.5610    1.2226    1.9743    1.6807   84.8340    0.2231    2.4144   36.0000 
2293.0004    9.1122   46.1200    1.2309    1.9743    1.5576   85.0300    0.2231    2.4203   36.0000 
2293.1528    9.0696   46.8438    1.2540    1.9517    1.4881   85.0887    0.2197    2.4111   36.0000 
2293.3052    8.9638   46.8438    1.2885    1.9517    1.3502   85.2847    0.2179    2.4028   36.0000 
2293.4576    8.7702   44.6944    1.3600    1.9517    1.5882   85.6767    0.2103    2.3884   36.0000 
2293.6100    8.7550   42.9281    1.3976    2.0028    1.7167   85.7083    0.2069    2.3865   36.0000 
2293.7624    8.7550   40.4239    1.5286    2.2056    1.9657   85.4853    0.2078    2.3901   27.0000 
2293.9148    8.7550   40.2258    1.6113    2.3254    2.0673   85.1608    0.2104    2.3947   27.0000 
2294.0672    8.7550   41.3476    1.7718    2.5331    1.9839   82.6653    0.2038    2.4166   27.0000 
2294.2196    8.7554   41.8385    1.8584    2.6377    2.0648   80.0718    0.1914    2.4369   27.0000 
2294.3720    8.7789   41.5199    2.1304    2.8867    2.5504   73.1173    0.1513    2.5553   27.0000 
2294.5244    8.7875   41.2654    2.2456    2.9476    4.7086   70.7705    0.1349    2.5531   27.0000 
2294.6768    8.7758   41.3389    2.2532    2.9377    5.0143   70.8685    0.1337    2.5515   27.0000 
2294.8292    8.8232   45.2496    2.2066    2.8822    7.1475   73.4755    0.1551    2.4629   27.0000 
2294.9816    8.8585   47.5281    2.1696    2.8628    6.0139   75.3375    0.1677    2.4472   36.0000 
2295.1340    8.9110   52.0851    2.0438    2.7807    2.1400   77.8602    0.1795    2.3873   36.0000 
2295.2864    8.8074   55.2194    1.9710    2.7419    3.2023   78.5307    0.1792    2.3873   36.0000 
2295.4388    8.6551   60.2550    1.8713    2.6993    3.1593   79.2633    0.1798    2.4022   36.0000 
2295.5912    8.6299   62.1660    1.8295    2.6824    3.1245   79.3750    0.1828    2.4298   36.0000 
2295.7436    8.5893   65.7735    1.7215    2.6349    2.9562   79.0175    0.1941    2.4491   36.0000 
2295.8960    8.5543   67.3650    1.6702    2.6174    2.6632   78.5332    0.1854    2.4584   36.0000 
2296.0484    8.5189   69.0280    1.6367    2.6026    3.3528   77.9130    0.1705    2.4728   36.0000 
2296.2008    8.5306   70.3510    1.6202    2.6026    2.9882   77.5210    0.1655    2.4742   36.0000 
2296.3532    8.6498   72.3438    1.6051    2.6314    2.9187   74.1850    0.1431    2.5059   36.0000 
2296.5056    8.6877   84.9063    1.6047    2.6493    3.3053   72.3158    0.1320    2.5202   36.0000 
2296.6580    8.6717   86.5938    1.5784    2.6743    3.2681   70.2742    0.1194    2.5043   36.0000 
2296.8104    8.6488   95.3438    1.5411    2.6834    3.1811   70.4022    0.1253    2.4205   36.0000 
2296.9628    8.6350  110.3438    1.4482    2.6941    3.2191   72.2592    0.1544    2.3870   36.0000 
2297.1152    8.6321  110.6563    1.4098    2.6874    3.3811   73.5697    0.1609    2.3838   37.0000 
2297.2676    8.5850  110.8438    1.3699    2.5842    3.9095   77.0377    0.1829    2.3752   36.0000 
2297.4200    8.5615   84.5313    1.3980    2.5408    7.7474   79.3897    0.1829    2.3790   36.0000 
2297.5724    8.5153   51.3373    1.5247    2.5437    2.9202   81.8642    0.1701    2.4494   36.0000 
2297.7248    8.5501   49.6395    1.6503    2.6290    2.9882   80.2227    0.1656    2.4822   36.0000 
2297.8772    8.5972   47.7120    1.8208    2.8038    3.7259   77.6747    0.1611    2.4990   36.0000 
2298.0296    8.7103   47.2813    2.2241    3.2394   23.5318   72.1022    0.1052    2.5335   27.0000 
2298.1820    8.7258   47.2813    2.3654    3.4056   19.6676   69.6208    0.0997    2.5354   27.0000 
2298.3344    8.7493   49.2105    2.6421    3.7121   13.9820   64.6973    0.0984    2.4914   27.0000 
2298.4868    8.7550   50.7050    2.7096    3.7638   12.4477   64.9583    0.1018    2.4698   27.0000 
2298.6392    8.7165   50.0985    2.5349    3.5243   13.9525   70.0417    0.1160    2.4259   27.0000 
2298.7916    8.6750   49.8890    2.0673    3.2781   14.6776   70.0417    0.1402    2.4069   27.0000 
2298.9440    8.6750   57.5381    1.5414    2.7286    2.4289   77.5892    0.1721    2.4096   36.0000 
2299.0964    8.6750   60.4046    1.5164    2.5843    3.9733   76.9032    0.1626    2.4292   36.0000 
2299.2488    8.6543   62.0313    1.4137    2.4414    5.8322   76.2323    0.1501    2.4219   36.0000 
