~VERSION INFORMATION
 VERS.                 2.0:   CWLS LOG ASCII STANDARD - VERSION 2.0
 WRAP.                  NO:   SINGLE LINE PER DEPTH STEP
 CREA.                 04/06/2018 10:30:54
#CREATED USING DSPetro VERSION 5000.10.1.3 BY H191660 ON 04/06/2018 10:30:54
~WELL INFORMATION
#MNEM.UNIT       DATA                          DESCRIPTION MNEMONIC
#---------      ---------------------------   --------------------------
 STRT    .M         1189.9292                 : START DEPTH
 STOP    .M         2700.0608                 : STOP DEPTH
 STEP    .M         0.1524                    : STEP VALUE
 NULL    .      -999.0000                     : NULL VALUE
 DATE    .      04/06/2018                    : LAS file Creation Date
 WELL .      9_12_1                      : Well Name
 COMP .      Neftex Exploration Insights : Company
 FLD  .                                  : Field
 UWI  .      YNOWL_9121                  : Unique Well Identifier (UWI)
 LOC  .                                  : Location
 RWS  .      -999                        : Def_Rw
 WST  .      -999                        : Def_Rwt
 SRVC .                                  : Contractor
~CURVE INFORMATION
#MNEM                UNIT       API CODE   Curve Type Comments
#----------    --------------- ----------  ---------- -----------
 DEPTH        .M                         : Depth       
 CAL_INCH     .inch                      :             Caliper Log - A representation of the measured diameter of a borehole along its depth
 GR_API       .API                       : GammaRay    Gamma Ray (API) - Measures the intensity of natural gamma-ray radiation emitted from formations containing radioactive elements, such as K, Th and U
 LLD_OHMM     .ohmm                      :             Laterlog Deep Resistivity - Measurement made several feet into the formation; generally considered a measurement of the undisturbed formation
 LLM_OHMM     .ohm.m                     :             Laterlog Medium Resistivity - Measurement made approximately two to three feet into the formation - units of ohmm
 LLS_OHMM     .ohmm                      :             Laterlog Shallow Resistivity - one to two feet into the formation; generally considered to measure the formation
 DT_US_FT     .us/ft                     :             Interval Transit Time: Compressional Wave - Evaluates the time it takes for a compressional wave to traverse a fixed distance
 NEUT_P_RATIO .ratio                     :             Unspecified Neutron Porosity Log - No accroynm or method of attainment is specified
 RHOB_G_CC    .g/cc                      :             Bulk Density - Measures the density of bulk material, including any void space or other materials contained in the subject volume
 LITH         .                          : LITH        Lithology Curve
~A  DEPTH  CAL_INCH   GR_API   LLD_OHMM  LLM_OHMM  LLS_OHMM  DT_US_FT NEUT_P_R~ RHOB_G_C~    LITH   
# ...
2689.5452    8.5197 -999.0000    2.0311    2.4855    2.7768   82.0808    0.1976    2.5195 -999.0000 
2689.6976    8.5221 -999.0000    2.0811    2.5008    2.8503   81.5683    0.1976    2.5239 -999.0000 
2689.8500    8.5671 -999.0000    2.1745    2.5844    2.8680   79.9058    0.2091    2.5316 -999.0000 
2690.0024    8.6000 -999.0000    2.2216    2.6443    1.1296   79.1250    0.2121    2.5326 -999.0000 
2690.1548    8.6350 -999.0000    2.2788    2.7446    1.4805   78.0333    0.2033    2.5221 -999.0000 
2690.3072    8.6350 -999.0000    2.3021    2.7821    1.4872   77.0500    0.1938    2.5088 -999.0000 
2690.4596    8.5950 -999.0000    2.3904    2.8537    2.9455   75.4000    0.1782    2.4801 -999.0000 
2690.6120    8.5950 -999.0000    2.4149    2.8537    3.1446   75.5967    0.1831    2.4756 -999.0000 
2690.7644    8.6119 -999.0000    2.4054    2.8537    3.7619   76.2717    0.1884    2.4682 -999.0000 
2690.9168    8.6237 -999.0000    2.3714    2.8185    3.5020   77.1725    0.1933    2.4684 -999.0000 
2691.0692    8.6350 -999.0000    2.2842    2.7243    3.1938   79.4383    0.2032    2.4749 -999.0000 
2691.2216    8.6186 -999.0000    2.2330    2.6815    3.0026   80.4817    0.2068    2.4790 -999.0000 
2691.3740    8.5396 -999.0000    2.1150    2.6211    2.7764   81.7983    0.2096    2.4778 -999.0000 
2691.5264    8.5150 -999.0000    2.0356    2.6026    2.5636   81.9258    0.2068    2.4584 -999.0000 
2691.6788    8.5150 -999.0000    2.0203    2.6073    2.3960   81.7083    0.2038    2.4441 -999.0000 
2691.8312    8.5016 -999.0000    2.0440    2.6637    2.5031   80.9267    0.1971    2.3960 -999.0000 
2691.9836    8.4780 -999.0000    2.0859    2.7183    2.8731   79.5500    0.1936    2.4319 -999.0000 
2692.1360    8.4350 -999.0000    2.1925    2.8244    3.5553   76.5858    0.1852    2.4894 -999.0000 
2692.2884    8.4350 -999.0000    2.2074    2.8437    3.6915   75.8975    0.1802    2.5062 -999.0000 
2692.4408    8.5225 -999.0000    2.3182    2.9714    4.3376   75.5417    0.1737    2.5520 -999.0000 
2692.5932    8.5815 -999.0000    2.3906    3.0537    7.8146   76.0842    0.1787    2.5835 -999.0000 
2692.7456    8.6479 -999.0000    2.5222    3.1290    3.8831   77.5683    0.2038    2.5640 -999.0000 
2692.8980    8.6691 -999.0000    2.5827    3.1206    3.3642   78.3942    0.2331    2.5485 -999.0000 
2693.0504    8.7316 -999.0000    2.6569    3.0785    2.6129   79.9567    0.2306    2.5302 -999.0000 
2693.2028    8.7543 -999.0000    2.6475    3.0575    2.3168   80.5433    0.2291    2.5348 -999.0000 
2693.3552    8.5780 -999.0000    2.5420    3.0022    2.3161   80.8133    0.2258    2.5406 -999.0000 
2693.5076    8.4600 -999.0000    2.4907    2.9921    2.8218   80.6167    0.2184    2.5385 -999.0000 
2693.6600    8.3577 -999.0000    2.4848    3.0212    1.1760   80.0642    0.2013    2.4949 -999.0000 
2693.8124    8.3768 -999.0000    2.4933    3.0419    2.1044   79.6783    0.1976    2.4921 -999.0000 
2693.9648    8.4675 -999.0000    2.5743    3.1489    2.1641   77.9250    0.1994    2.4943 -999.0000 
2694.1172    8.5139 -999.0000    2.6412    3.2247    4.0659   76.7450    0.1952    2.4972 -999.0000 
2694.2696    8.5352 -999.0000    2.7646    3.3430    1.2421   74.7975    0.1852    2.4994 -999.0000 
2694.4220    8.5133 -999.0000    2.8190    3.3771    1.2529   74.1800    0.1758    2.4990 -999.0000 
2694.5744    8.4897 -999.0000    2.9940    3.4309    3.7047   73.9192    0.1610    2.5177 -999.0000 
2694.7268    8.5106 -999.0000    3.0656    3.4309    3.8228   74.0417    0.1594    2.5123 -999.0000 
2694.8792    8.5578 -999.0000    3.0730    3.4309    3.8941   74.0417    0.1596    2.5123 -999.0000 
2695.0316    8.6350 -999.0000    2.9944    3.4309    4.1967   73.9700    0.1596    2.4747 -999.0000 
2695.1840    8.6350 -999.0000    2.9640    3.4309    3.6552   73.7733    0.1596    2.4585 -999.0000 
2695.3364    8.6350 -999.0000    2.9042    3.4309    3.6552   73.2158    0.1636    2.4572 -999.0000 
2695.4888    8.6005 -999.0000    2.8560    3.4309    3.6975   73.6875    0.1668    2.4597 -999.0000 
2695.6412    8.5297 -999.0000    2.7725    3.4309    4.0544   75.0483    0.1631    2.4564 -999.0000 
2695.7936    8.4736 -999.0000    2.7623    3.4173    4.0659   75.4325    0.1606    2.4513 -999.0000 
2695.9460    8.3215 -999.0000    2.7981    3.4122    3.2820   75.6292    0.1612    2.4444 -999.0000 
2696.0984    8.2251 -999.0000    2.8248    3.4354    2.0261   75.7083    0.1629    2.4450 -999.0000 
2696.2508    7.8652 -999.0000    2.8537    3.4825    3.0547   75.7083    0.1618    2.4571 -999.0000 
2696.4032    7.6056 -999.0000    2.8537    3.5062    2.9421   75.7083    0.1562    2.4649 -999.0000 
2696.5556    7.3350 -999.0000    2.8537    3.6621    2.5433   75.7083    0.1452    2.4854 -999.0000 
2696.7080    7.3047 -999.0000    2.8537    3.7251    3.8507   75.7083    0.1458    2.4755 -999.0000 
2696.8604    6.9311 -999.0000    2.8537    3.7619    3.9736   75.7083    0.1520    2.4559 -999.0000 
2697.0128    6.6350 -999.0000    2.8537    3.7076    4.1331   75.7083    0.1646    2.4468 -999.0000 
2697.1652    6.9323 -999.0000    2.8537    3.5595    2.6509   75.9100    0.1968    2.4291 -999.0000 
2697.3176    7.0779 -999.0000    2.8537    3.5030    2.5635   76.0417    0.2104    2.4220 -999.0000 
2697.4700    7.3375 -999.0000    2.8599    3.4483    1.8531   76.0417    0.2278    2.4204 -999.0000 
2697.6224    7.4673 -999.0000    2.8696    3.4133    1.8319   76.0417    0.2376    2.4253 -999.0000 
2697.7748    7.4947 -999.0000    2.9014    3.4366    0.8166   76.3992    0.2528    2.4288 -999.0000 
2697.9272    7.2060 -999.0000    3.0697    3.4837    1.0047   76.5958    0.2649    2.4098 -999.0000 
2698.0796    6.8992 -999.0000    3.2176    3.5074    1.0154   76.6942    0.2690    2.4041 -999.0000 
2698.2320    6.4874 -999.0000    3.3819    3.5108    0.6243   77.0417    0.2682    2.4053 -999.0000 
2698.3844    6.4402 -999.0000    3.3819    3.5108    0.6391   77.0417    0.2685    2.4033 -999.0000 
2698.5368    6.3285 -999.0000    3.3819    3.5108    0.6481   77.0417    0.2665    2.4009 -999.0000 
2698.6892    6.3514 -999.0000    3.3819    3.5108    0.6515   77.1933    0.2650    2.4037 -999.0000 
2698.8416    6.4077 -999.0000    3.3819    3.5108    0.6537   77.4808    0.2573    2.4068 -999.0000 
2698.9940    6.4015 -999.0000    3.3819    3.5108    0.6537   77.5792    0.2518    2.4059 -999.0000 
2699.1464    6.3550 -999.0000    3.3721    3.5108    0.6519   77.7083 -999.0000    2.4030 -999.0000 
2699.2988    6.3550 -999.0000    3.3626    3.5208    0.6500   77.6250 -999.0000    2.4015 -999.0000 
2699.4512    6.3550 -999.0000    2.9396    2.3661    0.6500   77.8750 -999.0000    2.3817 -999.0000 
2699.6036    6.3550 -999.0000    2.1212    0.9068    0.6500   77.9608 -999.0000    2.3669 -999.0000 
2699.7560    6.3550 -999.0000    0.6519    0.6191 -999.0000   78.2083 -999.0000    2.4093 -999.0000 
2699.9084    6.3650 -999.0000    0.2000 -999.0000 -999.0000   40.2083 -999.0000    2.4161 -999.0000 
2700.0608    0.0000 -999.0000    0.2000 -999.0000 -999.0000 -999.0000 -999.0000    2.4169 -999.0000 
