~VERSION INFORMATION
 VERS.                 2.0:   CWLS LOG ASCII STANDARD - VERSION 2.0
 WRAP.                  NO:   SINGLE LINE PER DEPTH STEP
 CREA.                 04/06/2018 10:30:54
#CREATED USING DSPetro VERSION 5000.10.1.3 BY H191660 ON 04/06/2018 10:30:54
~WELL INFORMATION
#MNEM.UNIT       DATA                          DESCRIPTION MNEMONIC
#---------      ---------------------------   --------------------------
 STRT    .M         1189.9292                 : START DEPTH
 STOP    .M         2700.0608                 : STOP DEPTH
 STEP    .M         0.1524                    : STEP VALUE
 NULL    .      -999.0000                     : NULL VALUE
 DATE    .      04/06/2018                    : LAS file Creation Date
 WELL .      9_12_1                      : Well Name
 COMP .      Neftex Exploration Insights : Company
 FLD  .                                  : Field
 UWI  .      YNOWL_9121                  : Unique Well Identifier (UWI)
 LOC  .                                  : Location
 RWS  .      -999                        : Def_Rw
 WST  .      -999                        : Def_Rwt
 SRVC .                                  : Contractor
~CURVE INFORMATION
#MNEM                UNIT       API CODE   Curve Type Comments
#----------    --------------- ----------  ---------- -----------
 DEPTH        .M                         : Depth       
 CAL_INCH     .inch                      :             Caliper Log - A representation of the measured diameter of a borehole along its depth
 GR_API       .API                       : GammaRay    Gamma Ray (API) - Measures the intensity of natural gamma-ray radiation emitted from formations containing radioactive elements, such as K, Th and U
 LLD_OHMM     .ohmm                      :             Laterlog Deep Resistivity - Measurement made several feet into the formation; generally considered a measurement of the undisturbed formation
 LLM_OHMM     .ohm.m                     :             Laterlog Medium Resistivity - Measurement made approximately two to three feet into the formation - units of ohmm
 LLS_OHMM     .ohmm                      :             Laterlog Shallow Resistivity - one to two feet into the formation; generally considered to measure the formation
 DT_US_FT     .us/ft                     :             Interval Transit Time: Compressional Wave - Evaluates the time it takes for a compressional wave to traverse a fixed distance
 NEUT_P_RATIO .ratio                     :             Unspecified Neutron Porosity Log - No accroynm or method of attainment is specified
 RHOB_G_CC    .g/cc                      :             Bulk Density - Measures the density of bulk material, including any void space or other materials contained in the subject volume
 LITH         .                          : LITH        Lithology Curve
~A  DEPTH  CAL_INCH   GR_API   LLD_OHMM  LLM_OHMM  LLS_OHMM  DT_US_FT NEUT_P_R~ RHOB_G_C~    LITH   
# ...
2384.7452    8.8516   52.4063    1.8288    1.9986    0.6945   90.7625    0.3544    2.3400   37.0000 
2384.8976    8.8043   60.6823    1.8226    1.9783    0.6145   93.2250    0.3508    2.3370   37.0000 
2385.0500    8.7950   62.1103    1.8531    1.9964    0.8095   94.8860    0.3368    2.3277   37.0000 
2385.2024    8.7950   65.7363    1.8531    1.9896    0.8159   94.9845    0.3294    2.3238   37.0000 
2385.3548    8.8286   66.3438    1.8442    1.9761    0.7181   93.6433    0.2991    2.3485   37.0000 
2385.5072    8.8264   66.4063    1.8156    1.9891    0.6936   90.9383    0.2989    2.3629   37.0000 
2385.6596    8.7905   64.4063    1.7072    2.0087    1.8511   83.2203    0.2241    2.4123   36.0000 
2385.8120    8.7689   64.2188    1.6423    2.0017    2.6863   80.0028    0.1739    2.4384   36.0000 
2385.9644    8.7335   54.4688    1.5444    1.9613    2.5614   78.3367    0.1782    2.4579   36.0000 
2386.1168    8.7157   54.1118    1.5078    1.9413    2.5294   78.6170    0.1829    2.4613   36.0000 
2386.2692    8.6624   52.9063    1.4213    1.9165    1.9743   80.9717    0.2013    2.4374   36.0000 
2386.4216    8.6151   45.5983    1.3879    1.9100    2.2946   81.9567    0.2114    2.4221   36.0000 
2386.5740    8.5391   44.3524    1.3232    1.8869    2.3090   83.7715    0.2078    2.4001   36.0000 
2386.7264    8.5818   46.0959    1.2666    1.8975    1.8057   85.9692    0.2107    2.3861   36.0000 
2386.8788    8.6172   46.7608    1.2245    1.9040    1.9789   86.4617    0.2137    2.3841   36.0000 
2387.0312    8.6882   47.8438    1.1322    1.8879    2.0410   85.2317    0.2209    2.3817   36.0000 
2387.1836    8.7236   50.0313    1.0278    1.8158    2.3659   82.9747    0.2219    2.3997   27.0000 
2387.3360    8.7286   47.2758    0.8328    1.6446    2.7045   78.0417    0.1870    2.4434   27.0000 
2387.4884    8.7000   46.3438    0.7697    1.5754    3.0254   78.5417    0.1866    2.4573   27.0000 
2387.6408    8.6204   44.6758    0.6777    1.4438    5.1834   79.4583    0.1862    2.4648   27.0000 
2387.7932    8.5736   44.9063    0.6190    1.3473    5.2228   79.9583    0.2011    2.4653   27.0000 
2387.9456    8.5314   41.7188    0.5370    1.2172    1.7263   88.7808    0.2343    2.4151   27.0000 
2388.0980    8.5787   41.7188    0.5086    1.1967    1.6450   89.4703    0.2435    2.3327   27.0000 
2388.2504    8.6537   38.1405    0.4533    1.1763    1.3119   90.3603    0.2647    2.2848   27.0000 
2388.4028    8.6436   37.2403    0.4421    1.1760    1.4939   89.9957    0.2674    2.2683   27.0000 
2388.5552    8.5599   35.7813    0.4252    1.1760    1.5592   88.3315    0.2496    2.3356   27.0000 
2388.7076    8.5213   35.7813    0.4324    1.1737    3.4050   86.6250    0.2330    2.3351   27.0000 
2388.8600    8.5264   35.5643    0.4737    1.1657    4.4968   87.8990    0.2066    2.3326   27.0000 
2389.0124    8.5550   36.3338    0.4957    1.1625    2.8291   88.6625    0.2171    2.3309   27.0000 
2389.1648    8.5669   37.7756    0.5411    1.1809    1.5449   90.8255    0.2301    2.3218   27.0000 
2389.3172    8.5905   38.8838    0.5903    1.2174    1.2895   90.7270    0.2339    2.3165   27.0000 
2389.4696    8.5908   39.2188    0.7115    1.3384    1.6424   89.2500    0.2325    2.3127   27.0000 
2389.6220    8.5553   39.2188    0.7705    1.4341    1.8038   86.7875    0.2227    2.3519   27.0000 
2389.7744    8.5856   35.0524    0.9604    1.7171    2.2644   80.7385    0.1994    2.4366   27.0000 
2389.9268    8.6760   34.8844    1.1999    1.9671    2.7862   76.5333    0.1803    2.4887   27.0000 
2390.0792    8.6996   35.8448    1.2103    2.0644    4.8807   76.2753    0.1578    2.5015   27.0000 
2390.2316    8.7629   37.7813    1.6929    2.1873    5.3015   77.7083    0.1694    2.5215   27.0000 
2390.3840    8.8139   47.3438    1.9207    2.1829    5.3138   85.8750    0.2403    2.4603   27.0000 
2390.5364    8.8864   49.8249    2.0436    2.1174    1.0138   88.3267    0.2606    2.4215   27.0000 
2390.6888    8.8837   49.8218    2.0361    2.0874    0.9244   89.6087    0.2612    2.4071   37.0000 
2390.8412    8.8009   52.0938    1.9815    2.0353    0.8784   93.7457    0.3290    2.3793   37.0000 
2390.9936    8.7596   62.4700    1.9546    1.9803    0.8606   95.8142    0.3289    2.3700   37.0000 
2391.1460    8.6373   65.4381    1.9577    2.0100    0.8422   97.6693    0.3319    2.3892   37.0000 
2391.2984    8.6492   66.5463    1.9313    2.0169    0.8560   97.4723    0.3374    2.4113   37.0000 
2391.4508    8.7796   67.4275    1.8890    2.0099    0.6619   94.8533    0.3236    2.4431   37.0000 
2391.6032    8.8142   67.4688    1.8648    1.9867    0.6393   90.3730    0.2899    2.4589   37.0000 
2391.7556    8.8217   66.9688    1.8355    1.9856    0.5877   79.6250    0.1889    2.4842   37.0000 
2391.9080    8.8353   57.5948    1.8346    2.0030    4.7908   79.6250    0.1894    2.4981   36.0000 
2392.0604    8.9560   58.0778    1.8287    2.0052    2.2666   87.3283    0.2206    2.4356   36.0000 
2392.2128    9.0291   58.3438    1.8090    1.9860    1.9971   89.3118    0.2636    2.4060   36.0000 
2392.3652    8.7607   58.5313    1.7312    1.9924    0.5979   93.1810    0.2916    2.3840   36.0000 
2392.5176    8.6070   60.0813    1.7078    1.9788    0.6101   93.5750    0.2786    2.4000   36.0000 
2392.6700    8.5550   60.0313    1.6807    2.0080    0.6351   89.7803    0.2669    2.4219   36.0000 
2392.8224    8.6008   56.7133    1.7142    2.0491    2.1489   86.4613    0.2023    2.4471   36.0000 
2392.9748    8.6954   52.6706    1.8013    2.1251    2.1647   81.9025    0.1921    2.4877   36.0000 
2393.1272    8.7525   50.7970    1.9018    2.1867    2.0623   79.0220    0.1877    2.5003   36.0000 
2393.2796    8.7972   50.3438    1.9426    2.1700    3.1471   78.1297    0.1924    2.5006   36.0000 
2393.4320    8.8350   51.1913    1.9345    2.1004    1.2314   79.1333    0.2041    2.4953   36.0000 
2393.5844    8.8230   52.3329    1.8987    2.0615    1.3916   79.5255    0.2095    2.4894   36.0000 
2393.7368    8.7853   54.4951    1.7934    1.9980    1.6374   80.2775    0.2168    2.4734   36.0000 
2393.8892    8.7735   55.4273    1.7223    1.9726    1.2173   80.8193    0.2190    2.4651   36.0000 
2394.0416    8.7704   52.7358    1.6139    1.9459    2.3942   82.8057    0.2280    2.4598   36.0000 
2394.1940    8.8058   51.3321    1.5705    1.9327    1.3180   84.1847    0.2392    2.4638   36.0000 
2394.3464    8.9556   51.1554    1.4703    1.9069    1.3119   87.0707    0.2624    2.4643   36.0000 
2394.4988    8.9674   52.4113    1.4360    1.9005    1.0725   87.6617    0.2671    2.4539   36.0000 
2394.6512    8.8467   56.3265    1.3141    1.8362    0.9102   88.0417    0.2689    2.4172   36.0000 
2394.8036    8.7521   59.1079    1.2091    1.8011    0.8750   86.7972    0.2604    2.3881   36.0000 
2394.9560    8.6435   62.8656    1.0107    1.7581    2.0710   83.0542    0.2353    2.4048   36.0000 
2395.1084    8.6383   63.1155    0.9462    1.7412    2.1097   81.7083    0.2246    2.4099   36.0000 
2395.2608    8.6341   60.5768    0.8554    1.6635    2.0698   82.3463    0.2171    2.4025   36.0000 
2395.4132    8.5987   58.2128    0.7843    1.6019    3.8941   83.4298    0.2119    2.3887   36.0000 
2395.5656    8.5186   54.0524    0.6760    1.4855    1.6376   86.3697    0.2280    2.3532   36.0000 
2395.7180    8.5364   53.2398    0.6341    1.4265    1.6155   87.1577    0.2345    2.3414   36.0000 
2395.8704    8.5718   51.6145    0.5456    1.3278    1.4487   88.4357    0.2461    2.3207   36.0000 
2396.0228    8.5653   51.8325    0.5244    1.3122    1.4106   88.6225    0.2488    2.3137   36.0000 
2396.1752    8.5150   55.5538    0.5007    1.2846    1.3843   88.8195    0.2486    2.3087   36.0000 
2396.3276    8.4780   61.2515    0.5158    1.2623    1.2601   89.2995    0.2447    2.3125   36.0000 
2396.4800    8.4926   62.0788    0.5428    1.2665    1.3102   89.2283    0.2450    2.3019   36.0000 
2396.6324    8.5274   62.2188    0.5960    1.2793    1.3760   89.1453    0.2486    2.3058   36.0000 
2396.7848    8.5606   62.1123    0.6364    1.3084    1.4468   89.0663    0.2480    2.3157   36.0000 
