~VERSION INFORMATION
 VERS.                 2.0:   CWLS LOG ASCII STANDARD - VERSION 2.0
 WRAP.                  NO:   SINGLE LINE PER DEPTH STEP
 CREA.                 04/06/2018 10:30:54
#CREATED USING DSPetro VERSION 5000.10.1.3 BY H191660 ON 04/06/2018 10:30:54
~WELL INFORMATION
#MNEM.UNIT       DATA                          DESCRIPTION MNEMONIC
#---------      ---------------------------   --------------------------
 STRT    .M         1189.9292                 : START DEPTH
 STOP    .M         2700.0608                 : STOP DEPTH
 STEP    .M         0.1524                    : STEP VALUE
 NULL    .      -999.0000                     : NULL VALUE
 DATE    .      04/06/2018                    : LAS file Creation Date
 WELL .      9_12_1                      : Well Name
 COMP .      Neftex Exploration Insights : Company
 FLD  .                                  : Field
 UWI  .      YNOWL_9121                  : Unique Well Identifier (UWI)
 LOC  .                                  : Location
 RWS  .      -999                        : Def_Rw
 WST  .      -999                        : Def_Rwt
 SRVC .                                  : Contractor
~CURVE INFORMATION
#MNEM                UNIT       API CODE   Curve Type Comments
#----------    --------------- ----------  ---------- -----------
 DEPTH        .M                         : Depth       
 CAL_INCH     .inch                      :             Caliper Log - A representation of the measured diameter of a borehole along its depth
 GR_API       .API                       : GammaRay    Gamma Ray (API) - Measures the intensity of natural gamma-ray radiation emitted from formations containing radioactive elements, such as K, Th and U
 LLD_OHMM     .ohmm                      :             Laterlog Deep Resistivity - Measurement made several feet into the formation; generally considered a measurement of the undisturbed formation
 LLM_OHMM     .ohm.m                     :             Laterlog Medium Resistivity - Measurement made approximately two to three feet into the formation - units of ohmm
 LLS_OHMM     .ohmm                      :             Laterlog Shallow Resistivity - one to two feet into the formation; generally considered to measure the formation
 DT_US_FT     .us/ft                     :             Interval Transit Time: Compressional Wave - Evaluates the time it takes for a compressional wave to traverse a fixed distance
 NEUT_P_RATIO .ratio                     :             Unspecified Neutron Porosity Log - No accroynm or method of attainment is specified
 RHOB_G_CC    .g/cc                      :             Bulk Density - Measures the density of bulk material, including any void space or other materials contained in the subject volume
 LITH         .                          : LITH        Lithology Curve
~A  DEPTH  CAL_INCH   GR_API   LLD_OHMM  LLM_OHMM  LLS_OHMM  DT_US_FT NEUT_P_R~ RHOB_G_C~    LITH   
# ...
2092.1372    9.0065   55.3820    1.5215    1.7913    0.9471   89.5247    0.2521    2.3352   36.0000 
2092.2896    8.9888   55.5466    1.5285    1.7847    1.2969   89.6318    0.2570    2.3256   36.0000 
2092.4420    8.9460   57.2594    1.5325    1.7725    1.3271   89.4667    0.2718    2.3224   36.0000 
2092.5944    8.9413   58.5966    1.5297    1.7665    1.3435   89.4278    0.2841    2.3304   36.0000 
2092.7468    8.9550   60.2188    1.5193    1.7596    1.0481   89.6252    0.2844    2.3444   36.0000 
2092.8992    8.9550   59.9514    1.5071    1.7605    1.0481   89.6463    0.2739    2.3444   36.0000 
2093.0516    8.9550   55.0585    1.3752    1.7697    0.9181   88.9955    0.2462    2.3323   36.0000 
2093.2040    8.9550   50.1745    1.2575    1.7697    0.9181   88.8968    0.2314    2.3323   36.0000 
2093.3564    9.0486   42.7908    1.0811    1.7590    2.1758   89.5682    0.2248    2.3416   36.0000 
2093.5088    8.9776   42.1988    1.0382    1.7531    2.2994   89.8642    0.2262    2.3425   36.0000 
2093.6612    8.7360   41.2188    0.8876    1.6449    2.2529   91.6997    0.2358    2.3531   36.0000 
2093.8136    8.6361   36.0348    0.8114    1.5741    2.0084   92.7433    0.2427    2.3539   36.0000 
2093.9660    8.5792   33.4688    0.6909    1.4603    1.9662   93.3050    0.2560    2.3498   27.0000 
2094.1184    8.5832   33.3570    0.6454    1.4145    1.8877   93.1730    0.2599    2.3498   27.0000 
2094.2708    8.5045   30.8556    0.5962    1.3482    2.2249   94.1528    0.2549    2.3150   27.0000 
2094.4232    8.4572   30.4856    0.5962    1.3207    2.2280   94.8435    0.2484    2.3128   27.0000 
2094.5756    8.3707   30.5276    0.6229    1.2809    1.6750   94.2140    0.2220    2.2944   27.0000 
2094.7280    8.4345   30.9290    0.6921    1.2874    1.4803   86.4312    0.1804    2.2822   27.0000 
2094.8804    8.3990   31.0770    0.7255    1.3094    1.4302   82.1885    0.1653    2.2884   27.0000 
2095.0328    8.4114   32.2386    0.7504    1.3440    1.5321   77.7812    0.1645    2.3117   27.0000 
2095.1852    8.4943   32.2188    0.7928    1.3908    1.6998   73.9332    0.1763    2.3314   27.0000 
2095.3376    8.7493   37.8978    0.8976    1.4964    1.4303   68.6185    0.2031    2.4801   27.0000 
2095.4900    8.8817   38.5825    0.9529    1.5451    1.4079   70.2292    0.2114    2.5023   27.0000 
2095.6424    9.1650   39.4705    1.0870    1.6754    1.4017   76.5005    0.2247    2.4883   27.0000 
2095.7948    9.0141   39.7188    1.1488    1.7461    2.1775   79.3247    0.2216    2.4681   27.0000 
2095.9472    8.8304   40.0525    1.2286    1.8694    2.2523   81.6900    0.2107    2.4499   27.0000 
2096.0996    8.6676   40.4225    1.2623    1.9340    2.4947   81.8072    0.2013    2.4455   27.0000 
2096.2520    8.4838   38.7215    1.3229    2.0634    3.8717   79.4892    0.1618    2.4680   27.0000 
2096.4044    8.5075   37.3895    1.3319    2.0846    3.9166   78.0092    0.1461    2.4665   27.0000 
2096.5568    8.5349   36.4703    1.3271    2.1033    3.9848   75.8800    0.1366    2.4648   27.0000 
2096.7092    8.5703   36.2813    1.2876    2.1692    4.0193   76.2677    0.1339    2.4746   27.0000 
2096.8616    8.6259   40.9411    1.2163    2.2753   10.1517   78.9895    0.1581    2.4789   27.0000 
2097.0140    8.6131   41.9350    1.2059    2.2740   10.0671   81.2900    0.1675    2.4666   27.0000 
2097.1664    8.5201   44.9540    1.2219    2.1624    4.7496   86.5122    0.1881    2.4268   27.0000 
2097.3188    8.4694   46.0745    1.2334    2.1280    4.7342   88.7062    0.1877    2.4105   27.0000 
2097.4712    8.4350   46.8438    1.2457    2.0328    3.2278   89.0042    0.1856    2.4133   27.0000 
2097.6236    8.4350   46.8438    1.2457    1.9915    2.6428   87.7215    0.1865    2.4092   27.0000 
2097.7760    8.4140   46.6563    1.2006    1.9868    4.3317   78.5417    0.1865    2.4285   27.0000 
2097.9284    8.4022   54.8937    1.1722    1.9842    1.2904   80.7783    0.1993    2.4117   27.0000 
2098.0808    8.3962   57.8537    1.1642    1.9573    0.9999   81.9623    0.2068    2.3984   27.0000 
2098.2332    8.8957   65.5755    1.2147    1.8374    0.7005   83.9767    0.2206    2.3590   36.0000 
2098.3856    9.3250   69.0313    1.2572    1.7883    0.8796  104.5417    0.2956    2.2836   36.0000 
2098.5380    8.8635   61.9875    1.3071    1.7096    1.0788  102.5127    0.3229    2.2873   36.0000 
2098.6904    8.7264   59.3600    1.3271    1.6832    1.1760   92.6250    0.3564    2.3244   36.0000 
2098.8428    8.6350   58.5980    1.2482    1.6729    0.9368   85.3750    0.3712    2.2931   36.0000 
2098.9952    8.6391   60.5706    1.2285    1.6824    0.9261   85.6933    0.3834    2.2739   36.0000 
2099.1476    8.7328   68.1016    1.2256    1.6939    1.0912   87.0510    0.4194    2.2260   36.0000 
2099.3000    8.8512   73.0596    1.2381    1.6996    0.8393  114.4583    0.4199    2.2391   36.0000 
2099.4524    8.9917   74.4338    1.2870    1.7015    0.5666  114.0150    0.4171    2.2545   36.0000 
2099.6048    8.9799   72.0658    1.3047    1.7073    0.6084  111.7917    0.3991    2.2565   36.0000 
2099.7572    8.8433   69.0313    1.3334    1.7004    0.6463  110.3750    0.3991    2.2934   36.0000 
2099.9096    8.7710   59.7295    1.3266    1.6998    1.2099   96.3530    0.3506    2.3319   36.0000 
2100.0620    8.6935   52.1252    1.2926    1.7069    1.1935   93.8857    0.3239    2.3319   27.0000 
2100.2144    8.6757   47.9030    1.2752    1.7127    1.1272   89.1657    0.2639    2.3319   27.0000 
2100.3668    8.6451   39.9823    1.2601    1.7195    1.0725   90.0407    0.2451    2.3531   27.0000 
2100.5192    8.6404   37.6625    1.2595    1.7186    1.0622   90.3900    0.2403    2.3647   27.0000 
2100.6716    8.7447   37.3353    1.2569    1.7096    1.0572   90.7717    0.2285    2.3966   27.0000 
2100.8240    8.9582   38.4308    1.2708    1.7234    1.1403   91.6830    0.2139    2.4118   27.0000 
2100.9764    9.0594   38.9963    1.2739    1.7405    1.1920   92.0050    0.2064    2.4063   27.0000 
2101.1288    9.1446   39.7399    1.2744    1.7670    1.4302   90.9332    0.2000    2.4030   27.0000 
2101.2812    9.1684   40.4070    1.3096    1.7851    1.4805   89.8460    0.1935    2.4005   27.0000 
2101.4336    9.1142   41.6013    1.4154    1.8216    1.0300   88.0183    0.1848    2.3949   27.0000 
2101.5860    9.0905   41.8236    1.4599    1.8278    0.9895   87.3265    0.1901    2.3984   27.0000 
2101.7384    9.0111   40.9700    1.5815    1.8574    1.0628   85.2770    0.2040    2.4146   27.0000 
2101.8908    9.0264   40.3268    1.6382    1.8723    1.0867   84.3523    0.2078    2.4237   27.0000 
2102.0432    9.1444   39.3575    1.7480    1.9108    1.1156   81.7113    0.2033    2.4390   27.0000 
2102.1956    9.1950   39.0313    1.8236    1.9653    0.9225   79.7765    0.1944    2.4488   27.0000 
2102.3480    9.2236   37.1118    2.0320    2.1578    1.3817   76.4585    0.1688    2.4720   27.0000 
2102.5004    9.2710   36.5188    2.1090    2.1873    1.1760   75.7667    0.1608    2.4715   27.0000 
2102.6528    9.2740   37.8538    2.1502    2.2187    1.2615   76.1243    0.1655    2.4531   27.0000 
2102.8052    9.3571   37.7813    2.1948    2.2339    1.9517   77.2115    0.1735    2.4423   27.0000 
2102.9576    9.6695   43.4956    2.2864    2.2646    1.1143   96.5700    0.1904    2.3984   27.0000 
2103.1100    9.7356   43.5938    2.3065    2.2668    1.0451   96.2917    0.1985    2.4007   27.0000 
2103.2624    9.6362   40.6563    2.3571    2.2850    0.8307   85.9583    0.2121    2.4284   27.0000 
2103.4148    9.5233   39.1274    2.3895    2.3006    0.7506   82.4430    0.2140    2.4453   27.0000 
2103.5672    9.2247   37.6563    2.4624    2.3259    0.8127   79.0438    0.2014    2.4769   27.0000 
2103.7196    9.0139   37.5313    2.5056    2.3402    1.1862   77.0340    0.1881    2.4943   27.0000 
2103.8720    8.7150   30.5313    2.5914    2.4907    5.1186   71.6623    0.1480    2.5306   27.0000 
2104.0244    8.7325   33.7590    2.6026    2.6528    6.4070   70.1147    0.1357    2.4924   27.0000 
2104.1768    8.7649   35.9063    2.6040    2.6810    6.4649   70.3013    0.1377    2.4795   27.0000 
