~VERSION INFORMATION
 VERS.                 2.0:   CWLS LOG ASCII STANDARD - VERSION 2.0
 WRAP.                  NO:   SINGLE LINE PER DEPTH STEP
 CREA.                 04/06/2018 10:30:54
#CREATED USING DSPetro VERSION 5000.10.1.3 BY H191660 ON 04/06/2018 10:30:54
~WELL INFORMATION
#MNEM.UNIT       DATA                          DESCRIPTION MNEMONIC
#---------      ---------------------------   --------------------------
 STRT    .M         1189.9292                 : START DEPTH
 STOP    .M         2700.0608                 : STOP DEPTH
 STEP    .M         0.1524                    : STEP VALUE
 NULL    .      -999.0000                     : NULL VALUE
 DATE    .      04/06/2018                    : LAS file Creation Date
 WELL .      9_12_1                      : Well Name
 COMP .      Neftex Exploration Insights : Company
 FLD  .                                  : Field
 UWI  .      YNOWL_9121                  : Unique Well Identifier (UWI)
 LOC  .                                  : Location
 RWS  .      -999                        : Def_Rw
 WST  .      -999                        : Def_Rwt
 SRVC .                                  : Contractor
~CURVE INFORMATION
#MNEM                UNIT       API CODE   Curve Type Comments
#----------    --------------- ----------  ---------- -----------
 DEPTH        .M                         : Depth       
 CAL_INCH     .inch                      :             Caliper Log - A representation of the measured diameter of a borehole along its depth
 GR_API       .API                       : GammaRay    Gamma Ray (API) - Measures the intensity of natural gamma-ray radiation emitted from formations containing radioactive elements, such as K, Th and U
 LLD_OHMM     .ohmm                      :             Laterlog Deep Resistivity - Measurement made several feet into the formation; generally considered a measurement of the undisturbed formation
 LLM_OHMM     .ohm.m                     :             Laterlog Medium Resistivity - Measurement made approximately two to three feet into the formation - units of ohmm
 LLS_OHMM     .ohmm                      :             Laterlog Shallow Resistivity - one to two feet into the formation; generally considered to measure the formation
 DT_US_FT     .us/ft                     :             Interval Transit Time: Compressional Wave - Evaluates the time it takes for a compressional wave to traverse a fixed distance
 NEUT_P_RATIO .ratio                     :             Unspecified Neutron Porosity Log - No accroynm or method of attainment is specified
 RHOB_G_CC    .g/cc                      :             Bulk Density - Measures the density of bulk material, including any void space or other materials contained in the subject volume
 LITH         .                          : LITH        Lithology Curve
~A  DEPTH  CAL_INCH   GR_API   LLD_OHMM  LLM_OHMM  LLS_OHMM  DT_US_FT NEUT_P_R~ RHOB_G_C~    LITH   
# ...
1787.3372    8.6193   82.3125    1.2601    1.7939    1.0930  103.4108    0.3021    2.3732   37.0000 
1787.4896    8.6075   81.9375    1.2601    1.8084    1.1650  103.6250    0.2976    2.3793   37.0000 
1787.6420    8.5395   81.4375    1.2601    1.8272    1.3037  104.9667    0.2969    2.3877   37.0000 
1787.7944    8.4863   81.4375    1.2622    1.8304    1.4302  105.9983    0.3026    2.3905   37.0000 
1787.9468    8.4350   82.6875    1.2795    1.8146    1.1102  107.8167    0.2985    2.3903   37.0000 
1788.0992    8.4350   82.6875    1.2882    1.8023    1.2601  108.0133    0.2964    2.3913   37.0000 
1788.2516    8.4407   82.5625    1.2990    1.7799    1.0543  107.7408    0.2929    2.4057   37.0000 
1788.4040    8.4761   82.4850    1.3124    1.7799    0.9795  105.8725    0.2885    2.4323   37.0000 
1788.5564    8.5815   77.4375    1.3327    1.7978    1.0439  101.4150    0.2801    2.4818   37.0000 
1788.7088    8.6041   77.4308    1.3348    1.8100    1.0801   99.8892    0.2764    2.4915   37.0000 
1788.8612    8.5642   77.3325    1.3397    1.8690    1.1759   98.0733    0.2811    2.5019   22.0000 
1789.0136    8.5215   77.3125    1.3407    1.9088    2.2733   98.2708    0.2902    2.5019   37.0000 
1789.1660    8.4588   94.5625    1.3348    1.9381    1.5785  102.3008    0.3140    2.4006   37.0000 
1789.3184    8.4352   94.5925    1.3348    1.9184    1.2700  105.3492    0.3255    2.3660   37.0000 
1789.4708    8.3950   91.5000    1.3348    1.8564    1.1380  109.4333    0.3403    2.3676   37.0000 
1789.6232    8.3950   91.8688    1.3348    1.8314    1.1001  109.6300    0.3373    2.3684   37.0000 
1789.7756    8.3950   94.5663    1.3061    1.7919    1.2034  109.8658    0.3229    2.3451   37.0000 
1789.9280    8.4175   98.0938    1.2341    1.7345    1.0265  111.6875    0.3434    2.3288   37.0000 
1790.0804    8.4293   98.4625    1.2134    1.7111    1.0093  112.3758    0.3520    2.3356   37.0000 
1790.2328    8.4350   97.8950    1.1972    1.6998    0.9805  111.5150    0.3548    2.3449   37.0000 
1790.3852    8.4544   96.6413    1.1865    1.6998    0.9647  110.5667    0.3483    2.3574   37.0000 
1790.5376    8.5016   95.1213    1.1760    1.6998    0.9181  109.0433    0.3327    2.3853   37.0000 
1790.6900    8.5099   94.1775    1.1812    1.7023    0.9208  108.5383    0.3269    2.3967   37.0000 
1790.8424    8.4689   90.9075    1.2055    1.7139    1.0293  108.4042    0.3227    2.4149   37.0000 
1790.9948    8.4340   88.9375    1.2177    1.7195    1.1156  108.8833    0.3220    2.4248   37.0000 
1791.1472    8.3827   86.1938    1.2329    1.7195    1.3449  108.8667    0.3164    2.4175   37.0000 
1791.2996    8.3473   85.0875    1.2371    1.7195    1.5864  107.8833    0.3019    2.4013   37.0000 
1791.4520    8.3740   83.9625    1.2043    1.7389    0.9314  109.3292    0.3004    2.3802   37.0000 
1791.6044    8.4089   84.0625    1.1879    1.7394    1.0868  109.7517    0.3092    2.3859   37.0000 
1791.7568    8.4350   89.7425    1.1760    1.7246    1.1625  110.1658    0.3135    2.3981   37.0000 
1791.9092    8.4484   90.5625    1.1806    1.7195    1.1384  110.0408    0.3120    2.4126   37.0000 
1792.0616    8.4956   86.3375    1.1967    1.7195    1.1204  108.3350    0.3014    2.4562   37.0000 
1792.2140    8.5150   85.7250    1.2056    1.7216    1.1382  106.6217    0.2927    2.4816   37.0000 
1792.3664    8.5093   87.3025    1.2325    1.7481    1.2838  100.7083    0.2739    2.4840   22.0000 
1792.5188    8.4975   88.1875    1.2493    1.7659    1.5486  101.7917    0.2659    2.5342   22.0000 
1792.6712    8.4728   88.5500    1.2601    1.7799    1.9517  102.8933    0.2666    2.4626   22.0000 
1792.8236    8.4492   88.9188    1.2601    1.7799    1.6149  103.2567    0.2670    2.4296   37.0000 
1792.9760    8.4680   90.1313    1.2601    1.7631    1.1048  111.8750    0.2907    2.3802   37.0000 
1793.1284    8.5150   91.2200    1.2456    1.7393    1.1999  108.7083    0.3036    2.3698   37.0000 
1793.2808    8.5150   91.3675    1.2414    1.7276    1.1917  108.7083    0.3057    2.3698   37.0000 
1793.4332    8.4840   93.5750    1.2167    1.7043    1.0928  108.5792    0.3106    2.3723   37.0000 
1793.5856    8.4604   94.8538    1.2028    1.6998    1.1361  108.9675    0.3142    2.3752   37.0000 
1793.7380    8.4350   95.7700    1.1822    1.6945    1.1625  110.0717    0.3222    2.3701   37.0000 
1793.8904    8.4350   95.3625    1.1760    1.6875    1.1463  110.3525    0.3241    2.3536   37.0000 
1794.0428    8.4350   93.7225    1.1760    1.6677    1.0714  110.0508    0.3140    2.3557   37.0000 
1794.1952    8.4350   92.7525    1.1760    1.6621    1.0125  109.7558    0.3081    2.3635   37.0000 
1794.3476    8.4350   90.9700    1.1692    1.6611    1.1525  109.1692    0.3203    2.3727   37.0000 
1794.5000    8.4350   91.4125    1.1692    1.6611    1.1525  110.0542    0.3286    2.3816   37.0000 
1794.6524    8.4350   92.4200    1.1867    1.6611    1.0520  111.5392    0.3327    2.4100   37.0000 
1794.8048    8.4350   92.3663    1.1957    1.6611    1.0289  111.1892    0.3297    2.4288   37.0000 
1794.9572    8.4225   90.6250    1.2165    1.6611    0.9449  104.7083    0.3143    2.4631   37.0000 
1795.1096    8.4107   89.3400    1.2259    1.6653    0.9964  104.6250    0.2909    2.5802   22.0000 
1795.2620    8.3950   88.3275    1.2203    1.6881    1.2173  104.4100    0.2909    2.5231   22.0000 
1795.4144    8.3950   88.8388    1.2038    1.6995    2.8950  107.1708    0.2909    2.4382   22.0000 
1795.5668    8.3950   90.3888    1.1659    1.6998    0.9895  114.0133    0.3073    2.3311   37.0000 
1795.7192    8.3950   91.0525    1.1541    1.6998    1.0850  114.2917    0.3132    2.3266   37.0000 
1795.8716    8.4137   89.2125    1.1369    1.6726    1.0944  114.5200    0.3311    2.3380   37.0000 
1796.0240    8.4796   85.2675    1.0939    1.6108    0.9783  114.7083    0.3285    2.3544   37.0000 
1796.1764    8.5032   84.2350    1.0756    1.5945    0.8623  112.1508    0.3229    2.3400   37.0000 
1796.3288    8.4973   84.4363    1.0396    1.5864    0.8043  111.2658    0.3210    2.3336   37.0000 
1796.4812    8.4760   84.3625    1.0361    1.5821    0.8109  111.6833    0.3247    2.3331   37.0000 
1796.6336    8.4681   83.4350    1.0440    1.5713    0.8276  112.7542    0.3347    2.3328   37.0000 
1796.7860    8.4799   83.3125    1.0481    1.5638    0.8325  113.0417    0.3341    2.3333   37.0000 
1796.9384    8.5035   80.4375    1.0507    1.5503    0.8429  112.9708    0.3269    2.3340   37.0000 
1797.0908    8.5150   80.4375    1.0543    1.5503    0.8603  112.8725    0.3437    2.3340   37.0000 
1797.2432    8.5072   81.8575    1.0602    1.5503    1.0849  112.5783    0.3477    2.3516   37.0000 
1797.3956    8.4836   81.6875    1.0602    1.5503    1.0801  112.1850    0.3466    2.3485   37.0000 
1797.5480    8.4364   83.0275    1.0485    1.5676    0.9136  110.4333    0.3447    2.3708   37.0000 
1797.7004    8.4572   83.6175    1.0481    1.5783    0.8921  109.3575    0.3488    2.3844   37.0000 
1797.8528    8.4897   84.3675    1.0526    1.5864    0.9285  107.8067    0.3569    2.4052   37.0000 
1798.0052    8.4885   85.2813    1.0621    1.5894    0.9430  107.3250    0.3621    2.4128   37.0000 
1798.1576    8.4548   88.1875    1.0946    1.6002    1.2206  107.4642    0.3441    2.4419   37.0000 
1798.3100    8.4331   88.1875    1.1108    1.6039    1.2113  108.2633    0.3447    2.3867   37.0000 
1798.4624    8.4095   88.1875    1.1184    1.5930    0.9895  112.0417    0.3559    2.3569   37.0000 
1798.6148    8.3977   84.5775    1.1222    1.5876    0.9401  111.9200    0.3367    2.3612   37.0000 
1798.7672    8.3959   85.4400    1.1222    1.5856    0.9509  111.1400    0.3371    2.3660   37.0000 
1798.9196    8.4077   85.8825    1.1109    1.5748    0.9782  111.2917    0.3373    2.3596   37.0000 
1799.0720    8.3987   85.0050    1.0733    1.5536    0.9305  111.9583    0.3415    2.3362   37.0000 
1799.2244    8.3950   84.7025    1.0482    1.5503    0.8325  109.0492    0.3461    2.3481   37.0000 
1799.3768    8.4067   84.7763    1.0481    1.5503    0.8398  109.1392    0.3444    2.3467   37.0000 
