~VERSION INFORMATION
 VERS.                 2.0:   CWLS LOG ASCII STANDARD - VERSION 2.0
 WRAP.                  NO:   SINGLE LINE PER DEPTH STEP
 CREA.                 04/06/2018 10:30:54
#CREATED USING DSPetro VERSION 5000.10.1.3 BY H191660 ON 04/06/2018 10:30:54
~WELL INFORMATION
#MNEM.UNIT       DATA                          DESCRIPTION MNEMONIC
#---------      ---------------------------   --------------------------
 STRT    .M         1189.9292                 : START DEPTH
 STOP    .M         2700.0608                 : STOP DEPTH
 STEP    .M         0.1524                    : STEP VALUE
 NULL    .      -999.0000                     : NULL VALUE
 DATE    .      04/06/2018                    : LAS file Creation Date
 WELL .      9_12_1                      : Well Name
 COMP .      Neftex Exploration Insights : Company
 FLD  .                                  : Field
 UWI  .      YNOWL_9121                  : Unique Well Identifier (UWI)
 LOC  .                                  : Location
 RWS  .      -999                        : Def_Rw
 WST  .      -999                        : Def_Rwt
 SRVC .                                  : Contractor
~CURVE INFORMATION
#MNEM                UNIT       API CODE   Curve Type Comments
#----------    --------------- ----------  ---------- -----------
 DEPTH        .M                         : Depth       
 CAL_INCH     .inch                      :             Caliper Log - A representation of the measured diameter of a borehole along its depth
 GR_API       .API                       : GammaRay    Gamma Ray (API) - Measures the intensity of natural gamma-ray radiation emitted from formations containing radioactive elements, such as K, Th and U
 LLD_OHMM     .ohmm                      :             Laterlog Deep Resistivity - Measurement made several feet into the formation; generally considered a measurement of the undisturbed formation
 LLM_OHMM     .ohm.m                     :             Laterlog Medium Resistivity - Measurement made approximately two to three feet into the formation - units of ohmm
 LLS_OHMM     .ohmm                      :             Laterlog Shallow Resistivity - one to two feet into the formation; generally considered to measure the formation
 DT_US_FT     .us/ft                     :             Interval Transit Time: Compressional Wave - Evaluates the time it takes for a compressional wave to traverse a fixed distance
 NEUT_P_RATIO .ratio                     :             Unspecified Neutron Porosity Log - No accroynm or method of attainment is specified
 RHOB_G_CC    .g/cc                      :             Bulk Density - Measures the density of bulk material, including any void space or other materials contained in the subject volume
 LITH         .                          : LITH        Lithology Curve
~A  DEPTH  CAL_INCH   GR_API   LLD_OHMM  LLM_OHMM  LLS_OHMM  DT_US_FT NEUT_P_R~ RHOB_G_C~    LITH   
# ...
2494.4732    8.7746   93.3875    2.2148    2.3066    0.7681   86.5417    0.3206    2.4665   37.0000 
2494.6256    8.8107   91.5988    2.1551    2.3383    0.7833   85.4977    0.3126    2.4584   37.0000 
2494.7780    8.8697   91.0020    2.1400    2.3464    0.7681   84.6563    0.3078    2.4512   37.0000 
2494.9304    8.9740   89.4594    2.1696    2.3464    0.8173   82.4417    0.2955    2.4484   37.0000 
2495.0828    8.9882   88.0293    2.2141    2.3578    0.8730   80.9057    0.2885    2.4517   37.0000 
2495.2352    8.9407   82.6710    2.4020    2.5142    3.2765   77.1250    0.2259    2.4688   37.0000 
2495.3876    9.0475   80.2249    2.4683    2.5142    1.6901   81.7238    0.2248    2.4762   37.0000 
2495.5400    9.4190   77.6639    2.4653    2.5142    1.6611   84.1517    0.2211    2.4795   37.0000 
2495.6924    9.6950   76.4063    2.3596    2.5142    0.9335   86.1283    0.2199    2.4751   37.0000 
2495.8448    9.2589   83.0683    2.1488    2.5379    0.9484   89.6250    0.3137    2.4066   37.0000 
2495.9972    9.1059   84.1981    2.0446    2.5673    0.9875   87.2233    0.3145    2.4092   37.0000 
2496.1496    8.8804   83.7584    1.8396    2.6384    1.2105   83.0717    0.2879    2.4419   37.0000 
2496.3020    8.8113   82.8178    1.7587    2.6604    1.3868   81.5243    0.2628    2.4510   37.0000 
2496.4544    8.8320   81.4388    1.7024    2.6092    1.5344   80.1533    0.2275    2.4595   37.0000 
2496.6068    8.8913   81.4063    1.6908    2.5472    1.0849   79.2638    0.2088    2.4634   37.0000 
2496.7592    8.8571   78.8438    1.8197    2.6152    2.0203   80.3397    0.1726    2.4596   37.0000 
2496.9116    8.7860   82.3843    1.8961    2.7250    2.0319   81.5257    0.1867    2.4621   37.0000 
2497.0640    8.6808   85.5298    2.0244    2.8940    1.8638   82.0297    0.1966    2.4577   37.0000 
2497.2164    8.6229   86.7813    2.0410    3.2951    1.9601   82.0417    0.2016    2.4385   37.0000 
2497.3688    8.5326   91.4063    3.7945    4.1247    7.8558   74.6043    0.1801    2.4598   37.0000 
2497.5212    8.5210   89.9063    3.7945    4.8101   11.5254   71.4917    0.1734    2.4651   37.0000 
2497.6736    8.5642   73.8438    7.6587    5.2078   11.7243   66.0930    0.1259    2.5690   36.0000 
2497.8260    8.6219   61.1758   10.5815    5.2426   16.9159   63.8723    0.0782    2.6147   36.0000 
2497.9784    8.6350   58.1563   10.4509    5.1770   14.9333   63.5758    0.0714    2.6211   36.0000 
2498.1308    8.6350   53.2935    8.5439    4.9107   14.8904   63.1332    0.0634    2.6295   36.0000 
2498.2832    8.6350   52.0313    8.5193    4.5877   13.6448   63.0197    0.0668    2.6076   36.0000 
2498.4356    8.6350   51.0313    4.1005    3.9551   11.4540   62.6567    0.0711    2.6023   36.0000 
2498.5880    8.6350   51.2995    3.7901    3.5150   11.8378   62.9532    0.0734    2.6000   36.0000 
2498.7404    8.6552   52.0960    2.7398    2.8449   15.2372   64.8975    0.0893    2.5910   36.0000 
2498.8928    8.6670   56.5313    2.6219    2.7926    5.6987   66.3800    0.1000    2.5310   36.0000 
2499.0452    8.6592   57.6753    2.4198    2.6532    2.2303   70.3957    0.1300    2.5273   36.0000 
2499.1976    8.7464   58.1593    2.3094    2.5838    2.2418   74.1293    0.1514    2.5258   36.0000 
2499.3500    9.1218   73.1730    1.9712    2.3624    0.8470   82.3715    0.1903    2.4189   37.0000 
2499.5024    9.3238   73.5713    1.9389    2.3182    0.7999   85.7617    0.2081    2.3912   37.0000 
2499.6548    9.3504   76.1803    1.8239    2.2188    0.6783   89.6570    0.2999    2.3445   37.0000 
2499.8072    9.1370   89.4063    1.8201    2.1811    0.6753   92.4583    0.2996    2.2860   37.0000 
2499.9596    9.1525   97.2501    1.8827    2.1430    0.6709   86.7713    0.3651    2.3536   37.0000 
2500.1120    9.1407   97.1294    1.9230    2.1577    0.6670   86.2793    0.3604    2.3561   37.0000 
2500.2644    9.0276   96.8700    2.1374    2.1759    0.6621   87.2350    0.3478    2.3603   37.0000 
2500.4168    9.0053   91.7813    2.1772    2.1833    0.9102   88.1833    0.3394    2.3651   37.0000 
2500.5692    8.9817   93.3406    2.2194    2.1982    0.8802   88.0442    0.3444    2.3742   37.0000 
2500.7216    9.0005   94.5106    2.2344    2.2057    0.8742   86.9892    0.3366    2.3807   37.0000 
2500.8740    9.0663   96.6375    2.2408    2.2041    1.0384   85.0850    0.3406    2.4029   37.0000 
2501.0264    9.0673   97.4975    2.2122    2.1706    1.0708   84.8750    0.3216    2.4274   37.0000 
2501.1788    9.2350   96.7225    2.1909    2.1522    1.0421   84.8750    0.3065    2.4372   37.0000 
2501.3312    9.0011   90.8438    1.8573    2.1090    1.0708   83.0925    0.2827    2.4497   37.0000 
2501.4836    8.9185   90.8438    1.3698    2.0805    1.1148   82.4042    0.2798    2.4546   37.0000 
2501.6360    8.8843   90.6563    1.1991    1.9994    1.1583   82.9150    0.2841    2.4597   37.0000 
2501.7884    8.9197   90.5938    1.1430    1.9198    1.1802   83.7017    0.2859    2.4627   37.0000 
2501.9408    8.9165   86.6188    0.7754    1.7784    1.0361   85.2750    0.2829    2.4624   37.0000 
2502.0932    8.8120   86.6619    0.7631    1.7138    1.3079   85.6325    0.2752    2.4516   37.0000 
2502.2456    8.6038   87.0938    0.6709    1.5966    2.0521   86.6858    0.2553    2.4177   37.0000 
2502.3980    8.5436   87.0313    0.6709    1.5682    1.7294   87.2317    0.2426    2.3980   37.0000 
2502.5504    8.5243   84.8031    0.6748    1.5852    1.7294   87.6308    0.2384    2.3574   37.0000 
2502.7028    8.5350   84.4756    0.6787    1.6138    1.7294   87.4867    0.2363    2.3362   37.0000 
2502.8552    8.5303   85.5313    0.7250    1.8151    2.0359   86.1500    0.2476    2.3208   37.0000 
2503.0076    8.5185   82.8406    1.1089    1.9291    2.2754   85.1667    0.2727    2.3316   37.0000 
2503.1600    8.5150   80.3300    1.2639    2.0564    2.5802   84.0333    0.2640    2.3399   37.0000 
2503.3124    8.5150   78.7075    1.2747    2.1734    2.9464   83.0500    0.2531    2.3527   37.0000 
2503.4648    8.9025   76.1563    2.0751    2.3679    2.0554   81.6000    0.2326    2.3899   37.0000 
2503.6172    9.1172   79.5775    2.1150    2.3935    1.1296   81.4358    0.2366    2.4124   37.0000 
2503.7696    9.4040   84.5013    2.3668    2.3693    0.9559   81.4508    0.2971    2.4573   37.0000 
2503.9220    9.4896   86.0769    2.3062    2.3563    1.2493   81.2850    0.3175    2.4769   37.0000 
2504.0744    9.4046   86.1563    2.1961    2.2999    1.2647   80.2883    0.3209    2.5038   37.0000 
2504.2268    9.1564   79.9063    1.7049    2.1543    1.2893   79.6225    0.2824    2.5373   37.0000 
2504.3792    8.9997   79.9063    1.0331    2.0713    1.6469   79.9883    0.2814    2.4972   37.0000 
2504.5316    8.8138   85.0981    1.0184    1.9678    1.6758   81.3850    0.2393    2.4571   37.0000 
2504.6840    8.7666   86.4994    0.9046    1.9280    1.9261   81.7783    0.2364    2.4512   37.0000 
2504.8364    8.6736   88.0313    0.7471    1.7133    1.9405   81.9042    0.2331    2.4253   37.0000 
2504.9888    8.6500   85.5625    0.6877    1.6082    3.5108   82.3958    0.2421    2.4062   37.0000 
2505.1412    8.6350   82.4044    0.6236    1.4387    3.1041   83.3792    0.2388    2.3571   37.0000 
2505.2936    8.6508   79.4688    0.6089    1.3766    2.9902   84.5292    0.2355    2.3363   37.0000 
2505.4460    8.6980   70.8187    0.5904    1.3108    1.4385   87.1917    0.2312    2.2818   36.0000 
2505.5984    8.7117   66.6475    0.5822    1.3044    1.4275   87.7667    0.2330    2.2773   36.0000 
2505.7508    8.6778   57.8337    0.5853    1.3366    1.1007   84.4200    0.2394    2.2465   36.0000 
2505.9032    8.6483   53.1137    0.6237    1.3916    1.0975   81.0767    0.2254    2.2790   36.0000 
2506.0556    8.5996   49.9300    0.6820    1.5170    5.1107   76.7083    0.2004    2.3316   36.0000 
2506.2080    8.6232   50.3725    0.6890    1.5273    7.1644   76.7083    0.1916    2.3493   36.0000 
2506.3604    8.5996   52.6956    0.7177    1.5561   10.8807   78.3308    0.1668    2.3780   36.0000 
2506.5128    8.5760   54.5125    0.7310    1.5721    2.1811   80.2833    0.1481    2.3969   36.0000 
