~VERSION INFORMATION
 VERS.                 2.0:   CWLS LOG ASCII STANDARD - VERSION 2.0
 WRAP.                  NO:   SINGLE LINE PER DEPTH STEP
 CREA.                 04/06/2018 10:30:54
#CREATED USING DSPetro VERSION 5000.10.1.3 BY H191660 ON 04/06/2018 10:30:54
~WELL INFORMATION
#MNEM.UNIT       DATA                          DESCRIPTION MNEMONIC
#---------      ---------------------------   --------------------------
 STRT    .M         1189.9292                 : START DEPTH
 STOP    .M         2700.0608                 : STOP DEPTH
 STEP    .M         0.1524                    : STEP VALUE
 NULL    .      -999.0000                     : NULL VALUE
 DATE    .      04/06/2018                    : LAS file Creation Date
 WELL .      9_12_1                      : Well Name
 COMP .      Neftex Exploration Insights : Company
 FLD  .                                  : Field
 UWI  .      YNOWL_9121                  : Unique Well Identifier (UWI)
 LOC  .                                  : Location
 RWS  .      -999                        : Def_Rw
 WST  .      -999                        : Def_Rwt
 SRVC .                                  : Contractor
~CURVE INFORMATION
#MNEM                UNIT       API CODE   Curve Type Comments
#----------    --------------- ----------  ---------- -----------
 DEPTH        .M                         : Depth       
 CAL_INCH     .inch                      :             Caliper Log - A representation of the measured diameter of a borehole along its depth
 GR_API       .API                       : GammaRay    Gamma Ray (API) - Measures the intensity of natural gamma-ray radiation emitted from formations containing radioactive elements, such as K, Th and U
 LLD_OHMM     .ohmm                      :             Laterlog Deep Resistivity - Measurement made several feet into the formation; generally considered a measurement of the undisturbed formation
 LLM_OHMM     .ohm.m                     :             Laterlog Medium Resistivity - Measurement made approximately two to three feet into the formation - units of ohmm
 LLS_OHMM     .ohmm                      :             Laterlog Shallow Resistivity - one to two feet into the formation; generally considered to measure the formation
 DT_US_FT     .us/ft                     :             Interval Transit Time: Compressional Wave - Evaluates the time it takes for a compressional wave to traverse a fixed distance
 NEUT_P_RATIO .ratio                     :             Unspecified Neutron Porosity Log - No accroynm or method of attainment is specified
 RHOB_G_CC    .g/cc                      :             Bulk Density - Measures the density of bulk material, including any void space or other materials contained in the subject volume
 LITH         .                          : LITH        Lithology Curve
~A  DEPTH  CAL_INCH   GR_API   LLD_OHMM  LLM_OHMM  LLS_OHMM  DT_US_FT NEUT_P_R~ RHOB_G_C~    LITH   
# ...
1385.0012    8.7700   14.3125    2.7450    3.8330    4.3439   69.2292    0.1704    2.4566   18.0000 
1385.1536    8.7550   14.3194    2.7696    3.8674    4.4639   69.3100    0.1601    2.4568   18.0000 
1385.3060    8.7629   14.4425    2.7790    3.8806    4.6616   69.5067    0.1560    2.4538   18.0000 
1385.4584    8.7865   15.0313    2.8073    3.8941    4.8104   69.7083    0.1538    2.4517   18.0000 
1385.6108    8.7950   15.1144    2.8237    3.8941    4.7150   69.7358    0.1551    2.4542   18.0000 
1385.7632    8.8295   13.7831    2.8659    3.9018    4.3931   69.9325    0.1585    2.4624   18.0000 
1385.9156    8.8885   12.8244    2.9148    3.9151    4.2599   70.0308    0.1600    2.4668   18.0000 
1386.0680    8.9973   12.0313    3.0268    3.9901    3.6094   69.9650    0.1611    2.4659   18.0000 
1386.2204    9.0091   12.0056    3.0475    4.0173    3.3749   69.5717    0.1611    2.4629   18.0000 
1386.3728    9.0150   11.6850    3.1049    4.0722    2.9202   69.0800    0.1532    2.4659   18.0000 
1386.5252    8.9924   10.5013    3.1664    4.1279    5.5482   68.6867    0.1441    2.4726   18.0000 
1386.6776    8.9688   10.7963    3.1772    4.1561    3.5311   68.4900    0.1443    2.4750   18.0000 
1386.8300    8.9216   11.2819    3.2298    4.2129    5.7103   67.9575    0.1526    2.4806   18.0000 
1386.9824    8.9150   11.2906    3.2549    4.2417    5.6938   67.8042    0.1555    2.4822   18.0000 
1387.1348    8.9150   11.5213    3.3110    4.2997    5.5803   68.0108    0.1636    2.4836   18.0000 
1387.2872    8.9228   11.8163    3.3564    4.3339    5.5803   68.2408    0.1684    2.4866   18.0000 
1387.4396    8.9400   12.2188    3.4732    4.4426    4.7539   68.2500    0.1751    2.5029   18.0000 
1387.5920    8.9164   12.2188    3.5087    4.5183    4.8675   68.0533    0.1698    2.5118   18.0000 
1387.7444    8.9208   12.0394    3.5491    4.5945    5.8725   67.3025    0.1675    2.5158   18.0000 
1387.8968    8.9444   11.8181    3.6223    4.6733    6.3313   67.0075    0.1669    2.5197   18.0000 
1388.0492    8.9916   11.4900    3.7927    4.7838    6.1011   67.0275    0.1375    2.5276   18.0000 
1388.2016    8.9849   11.7213    3.8389    4.8047    6.4456   66.9575    0.1346    2.5315   18.0000 
1388.3540    8.9339   12.3113    3.9649    4.8375    6.5374   66.9892    0.1342    2.5419   18.0000 
1388.5064    8.9040   12.5375    4.0400    4.8617    6.8640   67.0417    0.1348    2.5359   18.0000 
1388.6588    8.8841   12.7188    4.1357    4.9152    8.0201   66.9658    0.1356    2.5293   18.0000 
1388.8112    8.8959   12.6738    4.1497    4.9332    8.6180   66.8750    0.1359    2.5210   18.0000 
1388.9636    8.9240   11.6625    4.1726    4.9942    6.5562   66.9125    0.1289    2.5315   18.0000 
1389.1160    8.9476   11.5150    4.1726    5.0112    7.8597   67.0108    0.1256    2.5269   18.0000 
1389.2684    8.9749   11.4688    4.1488    5.0166    7.5066   67.0417    0.1276    2.5265   18.0000 
1389.4208    8.9516   11.6150    4.1071    5.0166    7.3569   67.0417    0.1273    2.5235   18.0000 
1389.5732    8.9197   11.5275    4.0419    5.0166    7.5126   67.5517    0.1267    2.5189   18.0000 
1389.7256    8.9150   11.7050    3.9657    4.9623    7.5107   67.3933    0.1299    2.5158   18.0000 
1389.8780    8.9364   11.5850    3.9256    4.8987    4.0161   67.1075    0.1301    2.5098   18.0000 
1390.0304    8.9836   10.8431    3.8622    4.8066    6.4975   67.2325    0.1294    2.5012   18.0000 
1390.1828    8.9706   10.3269    3.8228    4.7658    6.3519   67.4767    0.1293    2.4988   18.0000 
1390.3352    8.8568    9.5975    3.7204    4.6696    7.3787   67.8700    0.1299    2.4973   18.0000 
1390.4876    8.7920    9.4500    3.6731    4.6281    3.5382   68.0417    0.1314    2.4983   18.0000 
1390.6400    8.7550    9.2825    3.6342    4.6281    5.5561   68.0417    0.1471    2.4992   18.0000 
1390.7924    8.7550    9.4300    3.6342    4.6281    5.4376   68.0417    0.1471    2.4977   18.0000 
1390.9448    8.7550   10.4875    3.5915    4.6555    5.6963   67.8792    0.1410    2.4972   18.0000 
1391.0972    8.7550   10.9300    3.5673    4.6714    9.5864   67.9775    0.1381    2.4958   18.0000 
1391.2496    8.7709   11.6163    3.6006    4.6817    6.2285   68.3067    0.1361    2.4921   18.0000 
1391.4020    8.7827   12.0075    3.6539    4.6817    6.8258   68.5675    0.1365    2.4899   18.0000 
1391.5544    8.7950   12.6100    3.7678    4.7123    5.5501   69.1575    0.1383    2.4878   18.0000 
1391.7068    8.7950   12.6800    3.8157    4.7444    4.9280   69.3750    0.1395    2.4907   18.0000 
1391.8592    8.8084   12.2594    3.9329    4.8187    4.2170   69.0958    0.1396    2.5121   18.0000 
1392.0116    8.8320   11.8906    4.0405    4.8680    6.9989   68.6042    0.1361    2.5248   18.0000 
1392.1640    8.8750   12.2581    4.2260    4.9591    7.9374   67.7875    0.1300    2.5179   18.0000 
1392.3164    8.8750   12.4794    4.2549    4.9591    8.0121   67.2958    0.1294    2.5164   18.0000 
1392.4688    8.8750   13.0313    4.3130    5.0347    9.1418   67.0417    0.1243    2.5134   18.0000 
1392.6212    8.8750   13.2681    4.5228    5.0864    4.6016   67.0417    0.1225    2.5131   18.0000 
1392.7736    8.8750   12.9850    4.5358    5.1144    8.9982   66.6117    0.1237    2.5072   18.0000 
1392.9260    8.8585   11.7906    4.3253    5.0318    7.7630   66.7875    0.1301    2.4937   18.0000 
1393.0784    8.8467   11.6456    4.2439    4.9591    8.0428   67.0825    0.1324    2.4863   18.0000 
1393.2308    8.8112   12.1563    4.0608    4.8920    6.2680   67.8708    0.1338    2.4740   18.0000 
1393.3832    8.7876   13.1956    3.9356    4.8108    6.3289   68.4242    0.1351    2.4701   18.0000 
1393.5356    8.7404   12.7744    3.6727    4.6258    4.3384   69.4967    0.1440    2.4666   18.0000 
1393.6880    8.7168   12.2581    3.5983    4.5787    4.2067   69.6933    0.1478    2.4649   18.0000 
1393.8404    8.6750   12.2694    3.5570    4.5299    4.2326   69.3075    0.1486    2.4711   18.0000 
1393.9928    8.6750   12.4906    3.5813    4.5607    5.0120   69.0125    0.1442    2.4804   18.0000 
1394.1452    8.6750   12.9331    3.6683    4.6231    5.7598   68.7242    0.1326    2.4961   18.0000 
1394.2976    8.6948   13.0925    3.7294    4.6680    5.6789   68.9558    0.1289    2.5043   18.0000 
1394.4500    8.7555   13.3875    3.9040    4.7828    5.5964   69.4333    0.1238    2.5216   18.0000 
1394.6024    8.7909   13.4688    3.9926    4.8258    5.8658   69.3650    0.1241    2.5282   18.0000 
1394.7548    8.8528   13.6913    4.1306    4.8838    7.0104   68.1333    0.1282    2.5335   18.0000 
1394.9072    8.8722   13.9688    4.2010    4.9357    7.5627   67.1967    0.1281    2.5337   18.0000 
1395.0596    8.7864   13.7806    4.3192    5.0873    9.2343   67.0542    0.1157    2.5241   18.0000 
1395.2120    8.7628   13.2644    4.3192    5.1219    8.3673   67.5458    0.1111    2.5199   18.0000 
1395.3644    8.7550   12.7244    4.3192    5.1044    7.3478   68.0367    0.1161    2.5116   18.0000 
1395.5168    8.7665   12.2156    4.2767    5.0043    6.8334   68.3292    0.1262    2.5086   18.0000 
1395.6692    8.7901   11.1831    4.1904    4.8250    6.2430   68.9192    0.1484    2.5027   18.0000 
1395.8216    8.7950   11.1413    4.1398    4.7813    5.9956   69.0417    0.1449    2.4963   18.0000 
1395.9740    8.7845   11.9938    3.9931    4.7205    5.4310   69.0417    0.1387    2.4838   18.0000 
1396.1264    8.7609   12.2925    3.8693    4.6439    4.4071   68.9242    0.1337    2.4862   18.0000 
1396.2788    8.7373   12.2925    3.8237    4.6360    5.3618   68.6292    0.1326    2.4894   18.0000 
1396.4312    8.6950   12.6469    3.7112    4.6548    6.7691   67.9625    0.1355    2.4883   18.0000 
1396.5836    8.6989   12.8519    3.6511    4.6531    5.8939   67.8858    0.1387    2.4833   18.0000 
1396.7360    8.7599   13.0913    3.5825    4.6216    5.5515   68.0825    0.1394    2.4735   18.0000 
1396.8884    8.7717   13.3863    3.5582    4.6059    5.3658   68.1808    0.1400    2.4745   18.0000 
1397.0408    8.6941   14.0994    3.5102    4.4957    4.6148   68.7133    0.1421    2.4857   18.0000 
