~VERSION INFORMATION
 VERS.                 2.0:   CWLS LOG ASCII STANDARD - VERSION 2.0
 WRAP.                  NO:   SINGLE LINE PER DEPTH STEP
 CREA.                 04/06/2018 10:30:54
#CREATED USING DSPetro VERSION 5000.10.1.3 BY H191660 ON 04/06/2018 10:30:54
~WELL INFORMATION
#MNEM.UNIT       DATA                          DESCRIPTION MNEMONIC
#---------      ---------------------------   --------------------------
 STRT    .M         1189.9292                 : START DEPTH
 STOP    .M         2700.0608                 : STOP DEPTH
 STEP    .M         0.1524                    : STEP VALUE
 NULL    .      -999.0000                     : NULL VALUE
 DATE    .      04/06/2018                    : LAS file Creation Date
 WELL .      9_12_1                      : Well Name
 COMP .      Neftex Exploration Insights : Company
 FLD  .                                  : Field
 UWI  .      YNOWL_9121                  : Unique Well Identifier (UWI)
 LOC  .                                  : Location
 RWS  .      -999                        : Def_Rw
 WST  .      -999                        : Def_Rwt
 SRVC .                                  : Contractor
~CURVE INFORMATION
#MNEM                UNIT       API CODE   Curve Type Comments
#----------    --------------- ----------  ---------- -----------
 DEPTH        .M                         : Depth       
 CAL_INCH     .inch                      :             Caliper Log - A representation of the measured diameter of a borehole along its depth
 GR_API       .API                       : GammaRay    Gamma Ray (API) - Measures the intensity of natural gamma-ray radiation emitted from formations containing radioactive elements, such as K, Th and U
 LLD_OHMM     .ohmm                      :             Laterlog Deep Resistivity - Measurement made several feet into the formation; generally considered a measurement of the undisturbed formation
 LLM_OHMM     .ohm.m                     :             Laterlog Medium Resistivity - Measurement made approximately two to three feet into the formation - units of ohmm
 LLS_OHMM     .ohmm                      :             Laterlog Shallow Resistivity - one to two feet into the formation; generally considered to measure the formation
 DT_US_FT     .us/ft                     :             Interval Transit Time: Compressional Wave - Evaluates the time it takes for a compressional wave to traverse a fixed distance
 NEUT_P_RATIO .ratio                     :             Unspecified Neutron Porosity Log - No accroynm or method of attainment is specified
 RHOB_G_CC    .g/cc                      :             Bulk Density - Measures the density of bulk material, including any void space or other materials contained in the subject volume
 LITH         .                          : LITH        Lithology Curve
~A  DEPTH  CAL_INCH   GR_API   LLD_OHMM  LLM_OHMM  LLS_OHMM  DT_US_FT NEUT_P_R~ RHOB_G_C~    LITH   
# ...
2592.0092    8.9285  106.1312    1.3075    2.1724    1.4402   90.7458    0.3376    2.4440   37.0000 
2592.1616    8.6782   93.1200    1.1512    2.0599    2.8585   88.4717    0.2513    2.4046   37.0000 
2592.3140    8.5838   93.1563    1.0872    2.0185    2.8228   87.1250    0.2409    2.3756   37.0000 
2592.4664    8.5175   88.8438    1.0280    1.9771    2.5880   88.6042    0.2363    2.3322   37.0000 
2592.6188    8.5150   83.4688    1.0270    1.9849    2.4006   88.2433    0.2354    2.3122   36.0000 
2592.7712    8.5537   70.5313    1.0901    2.0656    1.9127   85.0208    0.2226    2.2802   36.0000 
2592.9236    8.5985   67.0938    1.1536    2.1356    1.9072   82.6017    0.2133    2.3088   36.0000 
2593.0760    8.6916   68.9544    1.2901    2.2680    2.3085   78.8500    0.1990    2.3697   36.0000 
2593.2284    8.7745   70.8272    1.4930    2.4473    1.3841   77.6767    0.2011    2.4202   37.0000 
2593.3808    8.8076   88.3506    1.6492    2.5828    1.3698   77.6342    0.2054    2.4206   37.0000 
2593.5332    8.7312   90.6681    1.9562    2.7743    3.1756   77.9808    0.2089    2.5284   37.0000 
2593.6856    8.6604   91.3894    2.0705    2.8027    3.3945   77.8825    0.2054    2.5257   37.0000 
2593.8380    8.5496   91.6850    2.2888    2.8537    3.6603   77.1858    0.1970    2.4637   37.0000 
2593.9904    8.5260   89.7250    2.3281    2.8537    3.8941   77.0875    0.1964    2.4607   37.0000 
2594.1428    8.5693   86.8675    2.3587    2.8686    3.0578   77.0417    0.1988    2.4378   37.0000 
2594.2952    8.5552   81.5950    2.3074    2.8949    3.9006   76.7117    0.1969    2.4210   37.0000 
2594.4476    8.4675   80.0938    2.2021    2.9430    4.7265   75.9250    0.1876    2.4419   37.0000 
2594.6000    8.4244   80.4063    2.1641    2.9540    4.9024   75.6200    0.1911    2.4469   37.0000 
2594.7524    8.4573   80.3438    2.0747    2.9167    4.4984   75.1525    0.1889    2.4500   37.0000 
2594.9048    8.5392   75.9063    2.0043    2.8667    4.2505   74.9042    0.1859    2.4524   36.0000 
2595.0572    8.6206   75.9688    1.8540    2.7459    3.6828   76.1025    0.2050    2.4543   36.0000 
2595.2096    8.5262   76.0450    1.7679    2.6723    3.5841   77.1842    0.2100    2.4528   37.0000 
2595.3620    8.3965   81.1756    1.5887    2.5020    2.8804   79.8400    0.2210    2.4342   37.0000 
2595.5144    8.3950   82.0500    1.5453    2.4590    2.7568   80.3542    0.2240    2.4191   37.0000 
2595.6668    8.3950   82.0938    1.4386    2.4079    3.1346   80.7083    0.2314    2.3798   37.0000 
2595.8192    8.3950   79.4981    1.3761    2.3916    3.3276   80.9383    0.2361    2.3594   37.0000 
2595.9716    8.3950   74.9594    1.2888    2.3593    3.3582   81.9000    0.2456    2.3421   36.0000 
2596.1240    8.3950   74.0713    1.2851    2.3464    3.0271   82.4925    0.2401    2.3497   36.0000 
2596.2764    8.3950   74.3550    1.2961    2.3544    2.9202   82.7875    0.2386    2.3532   37.0000 
2596.4288    8.3950   86.9688    1.3338    2.3866    3.0129   83.6917    0.2408    2.3585   37.0000 
2596.5812    8.3963   86.9688    1.3611    2.4020    3.0519   84.0308    0.2433    2.3600   37.0000 
2596.7336    8.4199   94.3425    1.4262    2.4184    3.3916   83.9158    0.2443    2.3644   37.0000 
2596.8860    8.4317  103.3863    1.4753    2.4266    3.1896   84.0142    0.2422    2.3673   37.0000 
2597.0384    8.4350  111.0462    1.5698    2.4579    2.9882   83.3375    0.2336    2.3700   37.0000 
2597.1908    8.4350  112.8075    1.6302    2.4916    3.3266   81.8625    0.2327    2.3769   37.0000 
2597.3432    8.4821  116.6925    1.8478    2.6433    3.4593   77.8658    0.1563    2.3906   36.0000 
2597.4956    8.5100  104.3438    1.9739    2.7320    3.3301   76.1667    0.1366    2.3939   36.0000 
2597.6480    8.4906   92.9413    2.1513    2.8391    3.1900   74.0608    0.1356    2.4635   36.0000 
2597.8004    8.4695   91.4950    2.2265    2.8707    3.2725   73.4692    0.1349    2.4635   36.0000 
2597.9528    8.5745   86.1188    2.5347    3.0107    3.8555   73.0417    0.1419    2.4965   37.0000 
2598.1052    8.6099   85.0938    2.7012    3.0828    4.5542   73.0417    0.1460    2.4941   37.0000 
2598.2576    8.5407   90.4688    2.8648    3.1558    6.2073   73.0417    0.1553    2.4878   37.0000 
2598.4100    8.5761   90.4225    2.9341    3.2100    3.7619   73.0417    0.1598    2.4984   37.0000 
2598.5624    8.6296   86.7813    2.9859    3.2714    3.2483   73.3300    0.1652    2.5063   37.0000 
2598.7148    8.5986   85.5938    2.9804    3.2765    3.7188   73.5267    0.1670    2.5037   37.0000 
2598.8672    8.4661   85.7813    2.8758    3.2527    4.2397   73.8142    0.1689    2.4919   37.0000 
2599.0196    8.4015   83.4375    2.7890    3.2306    7.7921   73.9125    0.1691    2.4927   37.0000 
2599.1720    8.3631   91.0700    2.6478    3.1870    7.7921   74.0417    0.1705    2.4956   37.0000 
2599.3244    8.4335  100.7188    2.4686    3.1127    5.3190   74.9192    0.1764    2.4913   37.0000 
2599.4768    8.4890  100.7188    2.3327    3.0572    5.8066   75.9208    0.1808    2.4891   37.0000 
2599.6292    8.5337   98.2188    2.0613    2.9120    4.7467   78.1817    0.1968    2.4457   37.0000 
2599.7816    8.4983   97.9063    1.9304    2.8140    5.2732   78.9683    0.2104    2.4401   37.0000 
2599.9340    8.4525   93.7188    1.7098    2.6234    5.1668   81.3750    0.2320    2.3828   37.0000 
2600.0864    8.4407   93.3613    1.6642    2.5793    5.1145   82.1617    0.2338    2.3695   37.0000 
2600.2388    8.4171   91.5638    1.5519    2.4424    3.3487   83.2875    0.2373    2.3458   37.0000 
2600.3912    8.4053   90.7263    1.4915    2.3694    3.5508   83.9408    0.2393    2.3456   37.0000 
2600.5436    8.3950   92.9475    1.4113    2.2800    2.6914   84.8742    0.2458    2.3485   37.0000 
2600.6960    8.4001   93.0950    1.3977    2.2668    2.7098   85.0417    0.2480    2.3506   37.0000 
2600.8484    8.4672   93.2650    1.4047    2.2782    2.8108   84.3167    0.2457    2.3547   37.0000 
2601.0008    8.5375   93.4063    1.4147    2.2937    2.9642   83.3333    0.2429    2.3888   37.0000 
2601.1532    8.6104  108.0313    1.4520    2.3223    3.6465   81.7083    0.2325    2.4206   37.0000 
2601.3056    8.5396  116.8438    1.4668    2.3302    3.6428   81.7083    0.2293    2.3956   37.0000 
2601.4580    8.4370  126.9688    1.5224    2.3859    2.9938   81.8708    0.2203    2.3679   37.0000 
2601.6104    8.4350  120.1400    1.5387    2.4267    2.9411   81.9692    0.2167    2.3625   37.0000 
2601.7628    8.4350  107.5313    1.5636    2.4996    3.0139   81.2967    0.2115    2.3762   37.0000 
2601.9152    8.4350  107.5313    1.5867    2.5438    3.1471   80.4833    0.2074    2.3906   37.0000 
2602.0676    8.4350   83.5788    1.6527    2.6181    4.3748   79.2892    0.1969    2.3703   36.0000 
2602.2200    8.4350   81.6925    1.6824    2.6343    4.5228   79.2608    0.1993    2.3573   36.0000 
2602.3724    8.4179   77.5850    1.7083    2.6436    4.3064   80.0883    0.2087    2.3488   36.0000 
2602.5248    8.3471   76.0850    1.7435    2.6187    4.1156   81.5067    0.2213    2.3415   36.0000 
2602.6772    8.3139   76.2325    1.7574    2.6026    4.0738   82.0325    0.2252    2.3378   36.0000 
2602.8296    8.2997   76.4688    1.7103    2.6026    4.1046   81.8358    0.2179    2.3314   36.0000 
2602.9820    8.3115   76.6125    1.6872    2.6026    4.3477   81.7375    0.2126    2.3282   36.0000 
2603.1344    8.3555   76.4063    1.6609    2.6026    4.8462   81.7092    0.2176    2.3231   36.0000 
2603.2868    8.4145   74.4600    1.6331    2.6026    4.4918   81.8075    0.2173    2.3182   36.0000 
2603.4392    8.4705   72.3375    1.5715    2.6026    4.1558   81.8750    0.2198    2.3019   36.0000 
2603.5916    8.4604   71.8150    1.5495    2.6026    4.0755   81.8142    0.2199    2.3152   36.0000 
2603.7440    8.4350   69.9688    1.5325    2.6026    4.0058   81.7083    0.2166    2.3259   36.0000 
2603.8964    8.4350   69.5600    1.5435    2.6026    3.9375   81.7308    0.2142    2.3279   36.0000 
2604.0488    8.4350   68.8900    1.6535    2.6121    3.5455   82.0850    0.2180    2.3254   36.0000 
