~VERSION INFORMATION
 VERS.                 2.0:   CWLS LOG ASCII STANDARD - VERSION 2.0
 WRAP.                  NO:   SINGLE LINE PER DEPTH STEP
 CREA.                 04/06/2018 10:30:54
#CREATED USING DSPetro VERSION 5000.10.1.3 BY H191660 ON 04/06/2018 10:30:54
~WELL INFORMATION
#MNEM.UNIT       DATA                          DESCRIPTION MNEMONIC
#---------      ---------------------------   --------------------------
 STRT    .M         1189.9292                 : START DEPTH
 STOP    .M         2700.0608                 : STOP DEPTH
 STEP    .M         0.1524                    : STEP VALUE
 NULL    .      -999.0000                     : NULL VALUE
 DATE    .      04/06/2018                    : LAS file Creation Date
 WELL .      9_12_1                      : Well Name
 COMP .      Neftex Exploration Insights : Company
 FLD  .                                  : Field
 UWI  .      YNOWL_9121                  : Unique Well Identifier (UWI)
 LOC  .                                  : Location
 RWS  .      -999                        : Def_Rw
 WST  .      -999                        : Def_Rwt
 SRVC .                                  : Contractor
~CURVE INFORMATION
#MNEM                UNIT       API CODE   Curve Type Comments
#----------    --------------- ----------  ---------- -----------
 DEPTH        .M                         : Depth       
 CAL_INCH     .inch                      :             Caliper Log - A representation of the measured diameter of a borehole along its depth
 GR_API       .API                       : GammaRay    Gamma Ray (API) - Measures the intensity of natural gamma-ray radiation emitted from formations containing radioactive elements, such as K, Th and U
 LLD_OHMM     .ohmm                      :             Laterlog Deep Resistivity - Measurement made several feet into the formation; generally considered a measurement of the undisturbed formation
 LLM_OHMM     .ohm.m                     :             Laterlog Medium Resistivity - Measurement made approximately two to three feet into the formation - units of ohmm
 LLS_OHMM     .ohmm                      :             Laterlog Shallow Resistivity - one to two feet into the formation; generally considered to measure the formation
 DT_US_FT     .us/ft                     :             Interval Transit Time: Compressional Wave - Evaluates the time it takes for a compressional wave to traverse a fixed distance
 NEUT_P_RATIO .ratio                     :             Unspecified Neutron Porosity Log - No accroynm or method of attainment is specified
 RHOB_G_CC    .g/cc                      :             Bulk Density - Measures the density of bulk material, including any void space or other materials contained in the subject volume
 LITH         .                          : LITH        Lithology Curve
~A  DEPTH  CAL_INCH   GR_API   LLD_OHMM  LLM_OHMM  LLS_OHMM  DT_US_FT NEUT_P_R~ RHOB_G_C~    LITH   
# ...
1884.8732    8.5475   84.7734    0.9994    1.6047    0.8775  115.5303    0.3767    2.3415   37.0000 
1885.0256    8.5371   87.4212    0.9852    1.5963    0.7951  115.2498    0.3725    2.3368   37.0000 
1885.1780    8.5727   88.0594    0.9781    1.5909    0.9501  114.7842    0.3668    2.3343   37.0000 
1885.3304    8.6579   88.7462    0.9687    1.5864    1.0015  114.1440    0.3568    2.3248   37.0000 
1885.4828    8.6698   88.8818    0.9638    1.5864    0.9656  114.0417    0.3545    2.3162   37.0000 
1885.6352    8.6750   89.7813    0.9559    1.5864    0.9291  114.4325    0.3633    2.3008   37.0000 
1885.7876    8.6647   89.4129    0.9559    1.5864    0.9206  114.9258    0.3741    2.2988   37.0000 
1885.9400    8.6411   87.9357    0.9559    1.5864    0.8731  115.7492    0.3799    2.3108   37.0000 
1886.0924    8.6293   87.8618    0.9559    1.5864    0.8642  115.8478    0.3758    2.3133   37.0000 
1886.2448    8.5870   87.5176    0.9559    1.5864    0.8267  116.0417    0.3744    2.3155   37.0000 
1886.3972    8.5527   87.4375    0.9559    1.5864    0.7966  116.0417    0.3764    2.3131   37.0000 
1886.5496    8.5198   87.8599    0.9472    1.5864    0.7770  116.3073    0.3780    2.2982   37.0000 
1886.7020    8.5316   88.1094    0.9449    1.5864    0.8080  115.7267    0.3792    2.2890   37.0000 
1886.8544    8.5556   87.6875    0.9449    1.5864    0.8332  114.8993    0.4080    2.2788   37.0000 
1887.0068    8.5792   87.6875    0.9458    1.5879    0.8374  115.0417    0.3991    2.2795   37.0000 
1887.1592    8.6266   87.1900    0.9562    1.5987    0.8743  115.0998    0.3384    2.2923   37.0000 
1887.3116    8.6427   86.5288    0.9660    1.6042    0.8031  115.1985    0.3211    2.3021   37.0000 
1887.4640    8.6437   86.1875    0.9789    1.6245    0.8819  115.7083    0.3143    2.3195   37.0000 
1887.6164    8.6350   86.2462    0.9822    1.6300    0.8519  115.7083    0.3129    2.3259   37.0000 
1887.7688    8.6350   86.2813    0.9992    1.6159    0.8819  115.8585    0.3108    2.3485   37.0000 
1887.9212    8.6350   88.7334    1.0067    1.6094    0.8669  115.9572    0.3141    2.3597   37.0000 
1888.0736    8.6350   90.0313    1.0125    1.6173    0.8136  114.5748    0.3186    2.3588   37.0000 
1888.2260    8.6587   84.8528    1.0125    1.6395    0.9181  111.8660    0.3460    2.3167   37.0000 
1888.3784    8.7062   83.0602    1.0125    1.6421    0.9055  111.3152    0.3488    2.2997   37.0000 
1888.5308    8.7461   82.3452    1.0125    1.6421    0.8791  111.4663    0.3457    2.2833   37.0000 
1888.6832    8.6755   83.0151    1.0125    1.6400    0.8720  111.2917    0.3316    2.2822   37.0000 
1888.8356    8.6519   85.6604    1.0125    1.6288    1.5281  116.5417    0.3620    2.2858   37.0000 
1888.9880    8.6812   86.0315    1.0125    1.6232    0.8136  115.0383    0.3614    2.2873   37.0000 
1889.1404    8.6902   86.0708    1.0159    1.6047    0.8819  114.1230    0.3591    2.2836   37.0000 
1889.2928    8.6708   85.4754    1.0263    1.6047    0.8438  113.3337    0.3607    2.2851   37.0000 
1889.4452    8.6003   83.9804    1.0475    1.6227    0.7549  111.9158    0.3745    2.2897   37.0000 
1889.5976    8.5179   83.4913    1.0481    1.6338    0.8254  110.9467    0.3791    2.2898   37.0000 
1889.7500    8.5150   83.7821    1.0481    1.6562    0.7743  109.9613    0.3739    2.2904   37.0000 
1889.9024    8.5150   84.4017    1.0481    1.6675    0.7366  110.0970    0.3487    2.2904   37.0000 
1890.0548    8.5150   86.0096    1.0481    1.6904    0.6901  111.2310    0.3316    2.2851   37.0000 
1890.2072    8.4940   86.7546    1.0475    1.6956    0.6463  112.0930    0.3311    2.2787   37.0000 
1890.3596    8.4185   85.6348    1.0403    1.6501    1.0272  114.1192    0.3537    2.2600   37.0000 
1890.5120    8.3832   84.6104    1.0368    1.6277    0.9143  114.6125    0.3555    2.2535   37.0000 
1890.6644    8.3359   84.3360    1.0226    1.6035    0.9155  114.7083    0.3598    2.2481   37.0000 
1890.8168    8.3164   84.8783    1.0088    1.5926    0.9155  114.7083    0.3623    2.2481   37.0000 
1890.9692    8.3653   84.8441    0.9913    1.5864    0.9155  114.9900    0.4136    2.2460   37.0000 
1891.1216    8.4366   84.1102    0.9748    1.5864    0.9234  115.2602    0.4124    2.2376   37.0000 
1891.2740    8.5570   82.8937    0.9390    1.5864    0.8074  115.9557    0.4104    2.2159   37.0000 
1891.4264    8.6106   83.0843    0.9245    1.5864    0.6613  116.6108    0.4275    2.2009   37.0000 
1891.5788    8.5988   83.7090    0.9213    1.5828    0.7153  116.7745    0.4340    2.1930   37.0000 
1891.7312    8.5356   85.2383    0.9306    1.5668    0.8446  116.2940    0.4615    2.1756   37.0000 
1891.8836    8.5350   86.0586    0.9443    1.5608    0.6243  115.6732    0.4643    2.1891   37.0000 
1892.0360    8.5503   87.2844    0.9710    1.5747    0.7601  114.5893    0.4690    2.2113   37.0000 
1892.1884    8.5550   87.8797    0.9776    1.5855    0.7506  114.3920    0.4716    2.2207   37.0000 
1892.3408    8.5766   88.9593    1.0106    1.6177    0.6728  113.4193    0.4813    2.2355   37.0000 
1892.4932    8.5950   87.7229    1.0280    1.6344    0.8693  113.6167    0.4824    2.2350   37.0000 
1892.6456    8.5700   84.9239    1.0416    1.6421    0.7413  115.0718    0.4230    2.2462   37.0000 
1892.7980    8.5228   84.3248    1.0421    1.6280    0.4791  116.0433    0.4048    2.2590   37.0000 
1892.9504    8.4317   85.3753    1.0380    1.6047    0.7043  117.4458    0.3826    2.2752   37.0000 
1893.1028    8.4081   86.2026    1.0264    1.6022    0.7340  117.6160    0.3787    2.2720   37.0000 
1893.2552    8.4464   88.7131    0.9827    1.5829    0.8183  116.9140    0.3731    2.2485   37.0000 
1893.4076    8.5181   90.2188    0.9605    1.5673    0.6597  116.3927    0.3709    2.2375   37.0000 
1893.5600    8.6077   87.7175    0.9449    1.5503    0.6577  116.5898    0.3913    2.2430   37.0000 
1893.7124    8.5968   87.6875    0.9449    1.5503    0.7231  116.2938    0.3966    2.2489   37.0000 
1893.8648    8.5025   87.5008    0.9449    1.5503    0.8819  116.7083    0.4064    2.2741   37.0000 
1894.0172    8.4553   87.2691    0.9449    1.5503    0.7614  116.7083    0.3947    2.2825   37.0000 
1894.1696    8.4786   87.1973    0.9579    1.5644    0.6536  116.3138    0.3834    2.2848   37.0000 
1894.3220    8.4904   87.5367    0.9699    1.5751    0.6124  116.1448    0.4071    2.2868   37.0000 
1894.4744    8.5141   88.3502    0.9935    1.5864    0.6345  116.0417    0.3955    2.2971   37.0000 
1894.6268    8.5178   88.4982    1.0184    1.5932    0.7882  115.9168    0.3795    2.3115   37.0000 
1894.7792    8.5296   88.5917    1.0324    1.6050    0.9792  115.5340    0.3717    2.3191   37.0000 
1894.9316    8.5533   88.9375    1.0481    1.6332    0.8479  114.4375    0.3662    2.3247   37.0000 
1895.0840    8.5550   88.9375    1.0481    1.6432    0.8636  114.0222    0.3681    2.3213   37.0000 
1895.2364    8.5413   89.7264    1.0445    1.6545    0.8957  113.6743    0.3632    2.3082   37.0000 
1895.3888    8.5294   88.5580    1.0374    1.6601    0.7747  113.2797    0.3534    2.2968   37.0000 
1895.5412    8.5150   87.8125    1.0238    1.6604    0.9375  113.6443    0.3401    2.2796   37.0000 
1895.6936    8.5150   88.6683    1.0203    1.6548    0.9217  114.4337    0.3433    2.2781   37.0000 
1895.8460    8.5150   90.0118    1.0234    1.6355    0.9084  116.1545    0.3473    2.2787   37.0000 
1895.9984    8.5150   89.9465    1.0243    1.6233    0.8850  116.5233    0.3494    2.2808   37.0000 
1896.1508    8.5150   89.3007    1.0060    1.6116    0.8446  116.7083    0.3554    2.2826   37.0000 
1896.3032    8.5150   89.0794    0.9890    1.6047    0.8136  116.5978    0.3592    2.2828   37.0000 
1896.4556    8.5150   89.9375    0.9625    1.6047    0.8766  116.0058    0.3636    2.2882   37.0000 
1896.6080    8.5150   93.5625    0.9559    1.6047    0.9234  115.7098    0.3621    2.2931   37.0000 
1896.7604    8.5150   93.5625    0.9589    1.5864    0.8659  115.1782    0.3609    2.2991   37.0000 
1896.9128    8.5180   86.2957    0.9688    1.5864    0.8629  115.0795    0.3618    2.3050   37.0000 
