~VERSION INFORMATION
 VERS.                 2.0:   CWLS LOG ASCII STANDARD - VERSION 2.0
 WRAP.                  NO:   SINGLE LINE PER DEPTH STEP
 CREA.                 04/06/2018 10:30:54
#CREATED USING DSPetro VERSION 5000.10.1.3 BY H191660 ON 04/06/2018 10:30:54
~WELL INFORMATION
#MNEM.UNIT       DATA                          DESCRIPTION MNEMONIC
#---------      ---------------------------   --------------------------
 STRT    .M         1189.9292                 : START DEPTH
 STOP    .M         2700.0608                 : STOP DEPTH
 STEP    .M         0.1524                    : STEP VALUE
 NULL    .      -999.0000                     : NULL VALUE
 DATE    .      04/06/2018                    : LAS file Creation Date
 WELL .      9_12_1                      : Well Name
 COMP .      Neftex Exploration Insights : Company
 FLD  .                                  : Field
 UWI  .      YNOWL_9121                  : Unique Well Identifier (UWI)
 LOC  .                                  : Location
 RWS  .      -999                        : Def_Rw
 WST  .      -999                        : Def_Rwt
 SRVC .                                  : Contractor
~CURVE INFORMATION
#MNEM                UNIT       API CODE   Curve Type Comments
#----------    --------------- ----------  ---------- -----------
 DEPTH        .M                         : Depth       
 CAL_INCH     .inch                      :             Caliper Log - A representation of the measured diameter of a borehole along its depth
 GR_API       .API                       : GammaRay    Gamma Ray (API) - Measures the intensity of natural gamma-ray radiation emitted from formations containing radioactive elements, such as K, Th and U
 LLD_OHMM     .ohmm                      :             Laterlog Deep Resistivity - Measurement made several feet into the formation; generally considered a measurement of the undisturbed formation
 LLM_OHMM     .ohm.m                     :             Laterlog Medium Resistivity - Measurement made approximately two to three feet into the formation - units of ohmm
 LLS_OHMM     .ohmm                      :             Laterlog Shallow Resistivity - one to two feet into the formation; generally considered to measure the formation
 DT_US_FT     .us/ft                     :             Interval Transit Time: Compressional Wave - Evaluates the time it takes for a compressional wave to traverse a fixed distance
 NEUT_P_RATIO .ratio                     :             Unspecified Neutron Porosity Log - No accroynm or method of attainment is specified
 RHOB_G_CC    .g/cc                      :             Bulk Density - Measures the density of bulk material, including any void space or other materials contained in the subject volume
 LITH         .                          : LITH        Lithology Curve
~A  DEPTH  CAL_INCH   GR_API   LLD_OHMM  LLM_OHMM  LLS_OHMM  DT_US_FT NEUT_P_R~ RHOB_G_C~    LITH   
# ...
1287.4652    9.3950   10.2188    4.8393    5.5562    6.5186   66.7083    0.1310    2.4910   18.0000 
1287.6176    9.3950   10.2188    4.8229    5.5374    6.4744   66.7083    0.1331    2.4999   18.0000 
1287.7700    9.3950   10.5966    4.7908    5.5005    5.6923   66.3673    0.1335    2.5197   18.0000 
1287.9224    9.3950   10.6705    4.7908    5.5005    4.7014   66.1703    0.1315    2.5172   18.0000 
1288.0748    9.3950   11.0173    4.7689    5.5258    5.6969   66.4397    0.1277    2.5070   18.0000 
1288.2272    9.3950   11.3383    4.7365    5.5635    9.6165   67.5197    0.1291    2.5121   18.0000 
1288.3796    9.4178   11.4149    4.7671    5.6009    6.9248   67.6365    0.1314    2.5151   18.0000 
1288.5320    9.4500   11.4688    4.8115    5.6531    7.5493   67.4580    0.1279    2.5142   18.0000 
1288.6844    9.4413   11.2978    4.8862    5.6836    7.9736   67.2610    0.1254    2.5151   18.0000 
1288.8368    9.4045   10.5103    5.1404    5.7790    5.7930   67.4783    0.1211    2.5248   18.0000 
1288.9892    9.4019   10.0650    5.2888    5.8421    6.5121   68.0092    0.1220    2.5196   18.0000 
1289.1416    9.4847    9.9551    5.7341    6.0139    3.0932   69.4872    0.1231    2.5077   18.0000 
1289.2940    9.5438   10.1768    6.0722    6.1168    3.0932   70.3737    0.1231    2.5129   18.0000 
1289.4464    9.5936   10.8963    6.6109    6.3284    3.8164   71.3400    0.1161    2.5204   18.0000 
1289.5988    9.5818   11.3395    6.9129    6.4374    2.8373   71.0445    0.1155    2.5253   18.0000 
1289.7512    9.5244   11.6991    7.8926    6.9940   13.6979   68.7675    0.1063    2.5443   18.0000 
1289.9036    9.4976   11.5018    8.3795    7.2310   22.0879   67.5070    0.0994    2.5487   18.0000 
1290.0560    9.4750   11.2188    8.9773    7.4464   10.5720   65.6563    0.0902    2.5537   18.0000 
1290.2084    9.4791   11.2446    9.0335    7.4718    9.6007   65.1738    0.0864    2.5567   18.0000 
1290.3608    9.5028   11.2951    8.7717    7.5059    7.0861   65.5603    0.0934    2.5606   18.0000 
1290.5132    9.5146   11.2213    8.6230    7.5059   15.6371   66.3483    0.0960    2.5606   18.0000 
1290.6656    9.4750   11.2998    8.3529    7.4990   15.8181   66.2623    0.0955    2.5493   18.0000 
1290.8180    9.4750   11.5953    8.1016    7.4735    8.9805   66.4593    0.0939    2.5444   18.0000 
1290.9704    9.4750   12.1863    7.7845    7.4228    6.0486   67.4767    0.0946    2.5345   18.0000 
1291.1228    9.4750   12.4818    7.7697    7.3753    6.0486   67.9800    0.1022    2.5348   18.0000 
1291.2752    9.4892   13.6038    7.8015    7.3952   15.6821   69.9090    0.1074    2.5368   18.0000 
1291.4276    9.4772   15.0313    7.9357    7.4965   12.3727   71.8767    0.1015    2.5447   18.0000 
1291.5800    9.4654   15.0313    7.9950    7.5268   11.7440   72.0417    0.0987    2.5488   18.0000 
1291.7324    9.4285   15.4688    8.2941    7.7252   12.3466   71.2682    0.0922    2.5595   18.0000 
1291.8848    9.4099   15.7188    8.5356    7.8725   13.7601   70.4517    0.0896    2.5648   18.0000 
1292.0372    9.3863   13.1193    9.0519    8.0630   15.6718   68.4817    0.0886    2.5713   18.0000 
1292.1896    9.3745   13.5313    9.2950    8.0930   15.1015   67.5102    0.0891    2.5730   18.0000 
1292.3420    9.3550   11.3438    9.5588    8.2500    3.8274   66.3053    0.0890    2.5654   18.0000 
1292.4944    9.3550   11.3438    9.5588    8.3063   15.0952   66.1083    0.0887    2.5600   18.0000 
1292.6468    9.3550   11.3438    9.6130    8.3726   18.3191   65.5507    0.0872    2.5491   18.0000 
1292.7992    9.3665   11.3438    9.6458    8.4012    4.3818   64.6822    0.0860    2.5494   18.0000 
1292.9516    9.3901   11.3438    9.7541    8.4218   15.8163   64.0417    0.0836    2.5636   18.0000 
1293.1040    9.3950   11.3438    9.8010    8.4051   15.8181   64.0993    0.0833    2.5687   18.0000 
1293.2564    9.3950   11.1493    9.6328    8.3481    8.6927   64.6483    0.0842    2.5676   18.0000 
1293.4088    9.3950   10.9390    9.4112    8.3141   16.9494   65.1210    0.0847    2.5655   18.0000 
1293.5612    9.3890    9.3316    9.0353    8.2017    7.1475   65.4073    0.0868    2.5643   18.0000 
1293.7136    9.3772    9.5533    8.8522    8.1461    8.4323   64.8163    0.0892    2.5633   18.0000 
1293.8660    9.3550    9.3345    8.4076    8.0359   14.6776   64.7330    0.0906    2.5640   18.0000 
1294.0184    9.3550    9.2606    8.2943    7.9815   14.8758   64.9300    0.0903    2.5645   18.0000 
1294.1708    9.3550    9.6423    7.9548    7.8545   15.8994   65.0417    0.0901    2.5599   18.0000 
1294.3232    9.3550    9.7188    7.7683    7.7881   12.8667   65.2607    0.0928    2.5518   18.0000 
1294.4756    9.3550    9.7188    7.5390    7.6431   12.4038   66.1617    0.1002    2.5326   18.0000 
1294.6280    9.3550    9.8190    7.4714    7.5059   10.5851   67.0763    0.1042    2.5231   18.0000 
1294.7804    9.3550    9.5490    7.4126    7.4423   10.6523   67.3393    0.1036    2.5223   18.0000 
1294.9328    9.3550    8.7344    7.3351    7.3048   11.0290   67.3500    0.0995    2.5261   18.0000 
1295.0852    9.3583    8.5933    7.3281    7.2442   11.8619   66.8487    0.0970    2.5297   18.0000 
1295.2376    9.3820    9.5233    7.3224    7.1951    8.4948   64.4617    0.0908    2.5352   18.0000 
1295.3900    9.3938   10.0404    7.3723    7.1706   38.2473   63.4767    0.0809    2.5386   18.0000 
1295.5424    9.4374   10.5293    7.5112    7.1484    5.3291   63.1425    0.0809    2.5374   18.0000 
1295.6948    9.4492   10.8248    7.5368    7.0519    5.3445   63.6350    0.0809    2.5340   18.0000 
1295.8472    9.4908   11.9745    7.2827    6.8624    5.3599   66.8550    0.1031    2.5167   18.0000 
1295.9996    9.5047   12.3969    7.1122    6.8075   13.3093   68.4208    0.1016    2.5116   18.0000 
1296.1520    9.5150   12.8021    6.8329    6.7671   10.0661   69.7083    0.0983    2.5115   18.0000 
1296.3044    9.5253   12.9083    6.6886    6.7671    6.9447   69.4503    0.0940    2.5166   18.0000 
1296.4568    9.5726   12.7963    6.3660    6.6331   14.9333   68.2683    0.0842    2.5301   18.0000 
1296.6092    9.5956   12.5313    6.2432    6.4603    4.3442   67.7135    0.0814    2.5349   18.0000 
1296.7616    9.6278   12.3438    6.2204    6.3576   11.1021   68.3365    0.0934    2.5399   18.0000 
1296.9140    9.6632   10.1893    6.1572    6.2717    5.0021   69.6170    0.1011    2.5423   18.0000 
1297.0664    9.7144   10.4618    6.0327    6.1031    2.2538   71.5207    0.1086    2.5415   18.0000 
1297.2188    9.7150   11.3343    5.9520    6.1011    3.5970   71.7340    0.1106    2.5386   18.0000 
1297.3712    9.7454   12.7813    5.8683    6.1278    9.6964   70.9895    0.1139    2.5415   18.0000 
1297.5236    9.7690   11.7938    5.9200    6.1487    6.4255   70.3000    0.1081    2.5455   18.0000 
1297.6760    9.8056   11.4688    6.0497    6.1717    9.3883   69.0097    0.1080    2.5494   18.0000 
1297.8284    9.8293   11.4688    6.0910    6.0467    4.5489   68.6607    0.1082    2.5436   18.0000 
1297.9808    9.8350   11.4688    6.1011    5.9861    5.7011   69.0133    0.1069    2.5392   18.0000 
1298.1332    9.8447   11.8949    6.0334    5.9455    6.0121   70.3577    0.1083    2.5315   18.0000 
1298.2856    9.8597   12.4218    5.9438    5.9253    7.4167   71.1717    0.1122    2.5274   18.0000 
1298.4380    9.9254   13.4413    5.7012    5.8939    6.5744   72.7950    0.1188    2.5099   18.0000 
1298.5904    9.9490   13.6629    5.6433    5.8939    6.5110   72.9920    0.1191    2.5122   18.0000 
1298.7428    9.9770   13.7394    5.5611    5.8232    3.5007   73.0307    0.1160    2.5169   18.0000 
1298.8952   10.0124   14.1088    5.5048    5.7642    7.4682   72.8337    0.1146    2.5248   18.0000 
1299.0476   10.0672   14.8475    5.5977    5.7002    4.3692   73.7830    0.1152    2.5406   18.0000 
1299.2000   10.0829   15.0184    5.6545    5.7134    5.3564   74.3725    0.1176    2.5327   18.0000 
1299.3524   10.1297   15.2385    5.7129    5.7721    8.3015   75.2610    0.1279    2.5223   18.0000 
1299.5048   10.1618   15.2375    5.7323    5.7987    4.6817   75.5700    0.1279    2.5106   18.0000 
