~VERSION INFORMATION
 VERS.                 2.0:   CWLS LOG ASCII STANDARD - VERSION 2.0
 WRAP.                  NO:   SINGLE LINE PER DEPTH STEP
 CREA.                 04/06/2018 10:30:54
#CREATED USING DSPetro VERSION 5000.10.1.3 BY H191660 ON 04/06/2018 10:30:54
~WELL INFORMATION
#MNEM.UNIT       DATA                          DESCRIPTION MNEMONIC
#---------      ---------------------------   --------------------------
 STRT    .M         1189.9292                 : START DEPTH
 STOP    .M         2700.0608                 : STOP DEPTH
 STEP    .M         0.1524                    : STEP VALUE
 NULL    .      -999.0000                     : NULL VALUE
 DATE    .      04/06/2018                    : LAS file Creation Date
 WELL .      9_12_1                      : Well Name
 COMP .      Neftex Exploration Insights : Company
 FLD  .                                  : Field
 UWI  .      YNOWL_9121                  : Unique Well Identifier (UWI)
 LOC  .                                  : Location
 RWS  .      -999                        : Def_Rw
 WST  .      -999                        : Def_Rwt
 SRVC .                                  : Contractor
~CURVE INFORMATION
#MNEM                UNIT       API CODE   Curve Type Comments
#----------    --------------- ----------  ---------- -----------
 DEPTH        .M                         : Depth       
 CAL_INCH     .inch                      :             Caliper Log - A representation of the measured diameter of a borehole along its depth
 GR_API       .API                       : GammaRay    Gamma Ray (API) - Measures the intensity of natural gamma-ray radiation emitted from formations containing radioactive elements, such as K, Th and U
 LLD_OHMM     .ohmm                      :             Laterlog Deep Resistivity - Measurement made several feet into the formation; generally considered a measurement of the undisturbed formation
 LLM_OHMM     .ohm.m                     :             Laterlog Medium Resistivity - Measurement made approximately two to three feet into the formation - units of ohmm
 LLS_OHMM     .ohmm                      :             Laterlog Shallow Resistivity - one to two feet into the formation; generally considered to measure the formation
 DT_US_FT     .us/ft                     :             Interval Transit Time: Compressional Wave - Evaluates the time it takes for a compressional wave to traverse a fixed distance
 NEUT_P_RATIO .ratio                     :             Unspecified Neutron Porosity Log - No accroynm or method of attainment is specified
 RHOB_G_CC    .g/cc                      :             Bulk Density - Measures the density of bulk material, including any void space or other materials contained in the subject volume
 LITH         .                          : LITH        Lithology Curve
~A  DEPTH  CAL_INCH   GR_API   LLD_OHMM  LLM_OHMM  LLS_OHMM  DT_US_FT NEUT_P_R~ RHOB_G_C~    LITH   
# ...
1689.8012    8.5613   78.3438    0.9635    1.4976    0.8043  119.1105    0.4130    2.2455   37.0000 
1689.9536    8.4735   83.6219    1.0012    1.4976    0.7249  120.3083    0.4280    2.2321   37.0000 
1690.1060    8.4380   84.2868    1.0081    1.4976    0.7200  122.6723    0.4238    2.2277   37.0000 
1690.2584    8.3512   85.7163    1.0172    1.5115    0.6613  127.0013    0.4159    2.2314   37.0000 
1690.4108    8.3117   86.1633    1.0207    1.5218    0.6947  127.6435    0.4148    2.2383   37.0000 
1690.5632    8.3093   86.2546    1.0310    1.5376    0.7264  125.6383    0.4166    2.2560   37.0000 
1690.7156    8.3642   86.3773    1.0361    1.5457    0.7420  123.1823    0.4192    2.2649   37.0000 
1690.8680    8.5563   88.5748    1.0320    1.5682    0.7112  116.8430    0.4295    2.2720   37.0000 
1691.0204    8.6272   89.8306    1.0250    1.5682    0.6846  115.0700    0.4337    2.2685   37.0000 
1691.1728    8.6350   90.0313    1.0278    1.5503    0.7213  116.0292    0.4304    2.2654   37.0000 
1691.3252    8.6350   86.1465    1.0634    1.5556    0.7860  121.0538    0.4136    2.2652   37.0000 
1691.4776    8.6350   84.0313    1.0816    1.5662    0.7359  123.7133    0.4056    2.2677   37.0000 
1691.6300    8.5921   86.6568    1.1062    1.5897    0.5329  124.7537    0.4003    2.2684   37.0000 
1691.7824    8.5685   88.5313    1.1252    1.6171    0.6463  122.3897    0.3980    2.2703   37.0000 
1691.9348    8.5550   86.4125    1.1472    1.6730    0.7215  118.2250    0.3954    2.2820   37.0000 
1692.0872    8.5463   85.7828    1.1550    1.6780    0.7097  116.4730    0.3958    2.2985   37.0000 
1692.2396    8.4856   84.0938    1.1667    1.7059    0.6709  112.0940    0.3951    2.3573   37.0000 
1692.3920    8.4425   87.9063    1.1678    1.7076    2.3262  108.0417    0.3894    2.3386   37.0000 
1692.5444    8.3872   86.0938    1.1599    1.6960    0.9818  111.4477    0.3923    2.3196   37.0000 
1692.6968    8.3754   86.2188    1.1560    1.6903    1.0038  111.0537    0.3926    2.3117   37.0000 
1692.8492    8.3616   87.9473    1.1040    1.6470    1.2103  113.6183    0.3966    2.2812   37.0000 
1693.0016    8.3852   85.1169    1.0818    1.6303    0.8195  115.0958    0.3984    2.2684   37.0000 
1693.1540    8.3950   84.8359    1.0553    1.5717    0.7462  116.8015    0.3987    2.2569   37.0000 
1693.3064    8.3950   85.0418    1.0478    1.5494    0.7287  118.2830    0.4000    2.2534   37.0000 
1693.4588    8.3950   85.3963    1.0378    1.5325    0.7168  120.6067    0.4033    2.2489   37.0000 
1693.6112    8.3950   85.6193    1.0308    1.5352    0.7181  121.1922    0.4041    2.2459   37.0000 
1693.7636    8.3950   86.4518    1.0241    1.5543    0.7190  121.3002    0.4036    2.2390   37.0000 
1693.9160    8.3950   87.7188    1.0324    1.5696    0.7005  120.9677    0.4030    2.2377   37.0000 
1694.0684    8.4001   87.0908    1.0634    1.5864    0.7251  120.0843    0.4014    2.2442   37.0000 
1694.2208    8.4119   86.6563    1.0706    1.5864    0.7251  120.1828    0.4020    2.2467   37.0000 
1694.3732    8.3538   85.8438    1.1113    1.5963    0.7553  120.7132    0.4006    2.2533   37.0000 
1694.5256    8.3108   77.3036    1.1437    1.6273    0.7860  120.4178    0.3990    2.2609   37.0000 
1694.6780    8.2990   76.4910    1.1282    1.6384    0.7541  119.1373    0.3987    2.2688   37.0000 
1694.8304    8.2950   73.6358    1.0856    1.6608    0.7549  113.1323    0.3986    2.2854   37.0000 
1694.9828    8.3065   72.9469    1.0778    1.6611    0.7676  111.1250    0.3975    2.2847   37.0000 
1695.1352    8.2847   75.8753    1.0586    1.6467    0.8520  111.0962    0.3894    2.2789   37.0000 
1695.2876    8.2124   78.9263    1.0584    1.6227    0.8793  114.2677    0.3896    2.2733   37.0000 
1695.4400    8.0208   83.6538    1.0762    1.5672    0.7412  122.9967    0.4344    2.1852   37.0000 
1695.5924    7.9550   84.7450    1.0857    1.5503    0.7241  126.3293    0.4540    2.1833   37.0000 
1695.7448    8.0035   85.9574    1.0970    1.5640    0.7143  125.9963    0.4699    2.1785   37.0000 
1695.8972    8.0980   86.1790    1.1082    1.5907    0.7005  123.6323    0.4723    2.1879   37.0000 
1696.0496    8.3226   83.6078    1.1236    1.6626    0.7200  117.3537    0.4699    2.2129   37.0000 
1696.2020    8.3817   80.8005    1.1274    1.6740    0.7451  114.5957    0.4686    2.2237   37.0000 
1696.3544    8.4829   75.5044    1.1240    1.6640    0.8593  109.9583    0.4489    2.2404   37.0000 
1696.5068    8.4862   75.2288    1.1174    1.6528    0.7535  111.2950    0.4319    2.2449   37.0000 
1696.6592    8.4004   78.5955    1.1102    1.6246    0.7164  113.3893    0.4406    2.2502   37.0000 
1696.8116    8.3209   80.6366    1.1009    1.6081    0.7005  115.1313    0.4494    2.2488   37.0000 
1696.9640    8.1634   81.4225    1.0592    1.5792    0.7152  119.5292    0.4289    2.2327   37.0000 
1697.1164    8.1161   80.9793    1.0484    1.5685    0.7005  121.0067    0.4203    2.2234   37.0000 
1697.2688    8.0718   81.2198    1.0451    1.5503    0.7364  120.2910    0.4210    2.2245   37.0000 
1697.4212    8.1309   81.6630    1.0345    1.5503    0.7770  119.9955    0.4257    2.2235   37.0000 
1697.5736    8.2303   83.2553    1.0136    1.5503    0.7266  120.0318    0.4370    2.2216   37.0000 
1697.7260    8.1325   84.1994    0.9931    1.5282    0.7158  119.4187    0.4349    2.2274   37.0000 
1697.8784    8.1207   85.3075    0.9830    1.5076    0.7110  118.8277    0.4353    2.2318   37.0000 
1698.0308    8.1867   88.0838    0.9782    1.4823    0.6595  118.8403    0.4358    2.2384   37.0000 
1698.1832    8.2047   88.8916    0.9782    1.4722    0.6483  119.6867    0.4276    2.2390   37.0000 
1698.3356    8.1749   90.1563    0.9896    1.4806    0.5243  123.4407    0.4091    2.2289   37.0000 
1698.4880    8.2122   90.0313    1.0027    1.5050    0.5193  125.5683    0.4245    2.2216   37.0000 
1698.6404    8.4457   78.3258    1.0295    1.5582    0.7911  127.0997    0.4381    2.2148   37.0000 
1698.7928    8.5416   75.9411    1.0379    1.5710    0.8423  126.2887    0.4446    2.2155   37.0000 
1698.9452    8.6963   70.7969    1.1037    1.6705    0.8389  117.1908    0.4314    2.2416   37.0000 
1699.0976    8.5899   68.9500    1.1380    1.7224    0.8084  112.5613    0.4257    2.2603   37.0000 
1699.2500    8.4364   67.2188    1.1824    1.7593    0.7953  108.9010    0.4049    2.2953   37.0000 
1699.4024    8.4003   67.2813    1.2151    1.7714    0.6806  108.2960    0.3942    2.3137   37.0000 
1699.5548    8.3598   70.3410    1.2661    1.7799    0.7681  108.0018    0.3817    2.3093   37.0000 
1699.7072    8.3409   70.0938    1.2696    1.7728    0.7770  108.2177    0.3773    2.3065   37.0000 
1699.8596    8.3043   69.1563    1.2152    1.7329    0.7307  109.4317    0.3662    2.2801   37.0000 
1700.0120    8.2925   73.4216    1.1686    1.7060    0.7158  110.3956    0.3822    2.2649   37.0000 
1700.1644    8.2689   75.3775    1.1070    1.6687    0.6879  111.8100    0.3983    2.2464   37.0000 
1700.3168    8.2571   76.4100    1.0883    1.6461    0.5580  112.0067    0.4016    2.2429   37.0000 
1700.4692    8.1275   80.5781    1.0335    1.5642    0.6031  114.4458    0.4431    2.2171   37.0000 
1700.6216    8.0685   82.4219    1.0127    1.5328    0.6782  116.3142    0.4431    2.2184   37.0000 
1700.7740    7.9843   83.8913    0.9675    1.4787    0.6925  119.6283    0.4285    2.2305   37.0000 
1700.9264    7.9160   80.8906    0.9232    1.4472    0.7681  121.3667    0.4149    2.2399   37.0000 
1701.0788    7.9396   79.0469    0.9169    1.4571    0.7342  121.1700    0.4321    2.2429   37.0000 
1701.2312    8.0345   76.4525    0.9298    1.4906    0.7428  120.1142    0.4309    2.2580   37.0000 
1701.3836    8.1474   74.9388    0.9533    1.5248    0.7496  118.3350    0.4304    2.2781   37.0000 
1701.5360    8.4080   71.2813    1.0067    1.5785    0.7860  114.0858    0.3943    2.3265   37.0000 
1701.6884    8.5074   71.2188    1.0261    1.5864    0.7490  112.5017    0.3889    2.3455   22.0000 
1701.8408    8.5281   71.0938    1.0462    1.5864    0.6748  111.2075    0.3829    2.3632   22.0000 
