~VERSION INFORMATION
 VERS.                 2.0:   CWLS LOG ASCII STANDARD - VERSION 2.0
 WRAP.                  NO:   SINGLE LINE PER DEPTH STEP
 CREA.                 04/06/2018 10:30:54
#CREATED USING DSPetro VERSION 5000.10.1.3 BY H191660 ON 04/06/2018 10:30:54
~WELL INFORMATION
#MNEM.UNIT       DATA                          DESCRIPTION MNEMONIC
#---------      ---------------------------   --------------------------
 STRT    .M         1189.9292                 : START DEPTH
 STOP    .M         2700.0608                 : STOP DEPTH
 STEP    .M         0.1524                    : STEP VALUE
 NULL    .      -999.0000                     : NULL VALUE
 DATE    .      04/06/2018                    : LAS file Creation Date
 WELL .      9_12_1                      : Well Name
 COMP .      Neftex Exploration Insights : Company
 FLD  .                                  : Field
 UWI  .      YNOWL_9121                  : Unique Well Identifier (UWI)
 LOC  .                                  : Location
 RWS  .      -999                        : Def_Rw
 WST  .      -999                        : Def_Rwt
 SRVC .                                  : Contractor
~CURVE INFORMATION
#MNEM                UNIT       API CODE   Curve Type Comments
#----------    --------------- ----------  ---------- -----------
 DEPTH        .M                         : Depth       
 CAL_INCH     .inch                      :             Caliper Log - A representation of the measured diameter of a borehole along its depth
 GR_API       .API                       : GammaRay    Gamma Ray (API) - Measures the intensity of natural gamma-ray radiation emitted from formations containing radioactive elements, such as K, Th and U
 LLD_OHMM     .ohmm                      :             Laterlog Deep Resistivity - Measurement made several feet into the formation; generally considered a measurement of the undisturbed formation
 LLM_OHMM     .ohm.m                     :             Laterlog Medium Resistivity - Measurement made approximately two to three feet into the formation - units of ohmm
 LLS_OHMM     .ohmm                      :             Laterlog Shallow Resistivity - one to two feet into the formation; generally considered to measure the formation
 DT_US_FT     .us/ft                     :             Interval Transit Time: Compressional Wave - Evaluates the time it takes for a compressional wave to traverse a fixed distance
 NEUT_P_RATIO .ratio                     :             Unspecified Neutron Porosity Log - No accroynm or method of attainment is specified
 RHOB_G_CC    .g/cc                      :             Bulk Density - Measures the density of bulk material, including any void space or other materials contained in the subject volume
 LITH         .                          : LITH        Lithology Curve
~A  DEPTH  CAL_INCH   GR_API   LLD_OHMM  LLM_OHMM  LLS_OHMM  DT_US_FT NEUT_P_R~ RHOB_G_C~    LITH   
1189.9292    0.0000   13.7250    1.1499    1.5325    1.4474  109.0417 -999.0000    2.2355 -999.0000 
1190.0816    0.0000   13.8728    1.1657    1.5325    1.4623  109.0417 -999.0000    2.2331 -999.0000 
1190.2340    0.0000   13.3703    1.2034    1.5467    1.4635  109.0417 -999.0000    2.2448 -999.0000 
1190.3864    0.0000   13.2188    1.2185    1.5572    1.4551  109.0417 -999.0000    2.2540 -999.0000 
1190.5388    0.0000   13.1474    1.2520    1.5786    1.3337  109.0417 -999.0000    2.2698 -999.0000 
1190.6912    0.0000   13.1748    1.2795    1.5924    1.3271  109.0417 -999.0000    2.2770 -999.0000 
1190.8436    0.0000   13.8088    1.3560    1.6298    1.0602  109.0417 -999.0000    2.2884 -999.0000 
1190.9960    0.0000   14.1781    1.3791    1.6409    1.0602  109.0417 -999.0000    2.2889 -999.0000 
1191.1484    0.0000   14.4315    1.3897    1.6527    1.2643  109.0417 -999.0000    2.2848 -999.0000 
1191.3008    0.0000   14.8748    1.3897    1.6584    1.3218  109.0417 -999.0000    2.2809 -999.0000 
1191.4532    0.0000   15.8725    1.3826    1.6611    1.5125  109.0417 -999.0000    2.2745 -999.0000 
1191.6056    0.0000   16.6301    1.3628    1.6566    1.6515  109.0417 -999.0000    2.2732 -999.0000 
1191.7580    0.0000   17.8410    1.3123    1.6453    1.9548  109.0417 -999.0000    2.2734 -999.0000 
1191.9104    0.0000   17.9668    1.2913    1.6374    2.0377  109.0417 -999.0000    2.2731 -999.0000 
1192.0628    0.0000   17.2123    1.2527    1.6072    1.8806  109.0417 -999.0000    2.2681 -999.0000 
1192.2152    0.0000   16.6918    1.2225    1.5854    1.7014  109.0417 -999.0000    2.2646 -999.0000 
1192.3676    0.0000   15.6143    1.1490    1.5466    1.7596  109.0417 -999.0000    2.2567 -999.0000 
1192.5200    0.0000   15.3188    1.1296    1.5361    1.7596  109.0417 -999.0000    2.2503 -999.0000 
1192.6724    0.0000   14.9733    1.1167    1.5325    1.7998  109.0417 -999.0000    2.2457 -999.0000 
1192.8248    0.0000   13.8438    1.0954    1.5325    1.6434  109.0417 -999.0000    2.2458 -999.0000 
1192.9772    0.0000   14.3438    1.0880    1.5325    1.3937  109.0417 -999.0000    2.2492 -999.0000 
1193.1296    0.0000   14.4688    1.1027    1.5325    1.4758  109.0417 -999.0000    2.2584 -999.0000 
1193.2820    0.0000   12.9338    1.1209    1.5372    1.5963  109.0417 -999.0000    2.2644 -999.0000 
1193.4344    0.0000   12.0775    1.1454    1.5477    1.7294  109.0417 -999.0000    2.2448 -999.0000 
1193.5868    0.0000   11.8935    1.1532    1.5503    1.7344  109.0417 -999.0000    2.2448 -999.0000 
1193.7392    0.0000   11.7791    1.1723    1.5503    1.3937  109.0417 -999.0000    2.2652 -999.0000 
1193.8916    0.0000   11.8530    1.1843    1.5503    1.5025  109.0417 -999.0000    2.2567 -999.0000 
1194.0440    0.0000   11.9688    1.2034    1.5503    1.6634  109.0417 -999.0000    2.2498 -999.0000 
1194.1964    0.0000   11.9688    1.2034    1.5503    1.6465  109.0417 -999.0000    2.2498 -999.0000 
1194.3488    0.0000   12.7478    1.1892    1.5411    1.5884  109.0417 -999.0000    2.2600 -999.0000 
1194.5012    0.0000   13.3388    1.1812    1.5359    1.2565  109.0417 -999.0000    2.2706 -999.0000 
1194.6536    0.0000   14.8215    1.1706    1.5325    1.4616  109.0417 -999.0000    2.2685 -999.0000 
1194.8060    0.0000   15.2903    1.1666    1.5291    1.7047  109.0417 -999.0000    2.2673 -999.0000 
1194.9584    0.0000   15.2344    1.1549    1.5150    1.5695  109.0417 -999.0000    2.2702 -999.0000 
1195.1108    0.0000   14.7613    1.1449    1.5107    1.5547  109.0417 -999.0000    2.2685 -999.0000 
1195.2632    0.0000   13.3708    1.1055    1.4802    1.5901  109.0417 -999.0000    2.2516 -999.0000 
1195.4156    0.0000   12.7798    1.0756    1.4651    1.6118  109.0417 -999.0000    2.2364 -999.0000 
1195.5680    0.0000   12.7036    1.0347    1.4458    1.6432  109.0417 -999.0000    2.2163 -999.0000 
1195.7204    0.0000   12.6298    1.0277    1.4409    1.6945  109.0417 -999.0000    2.2114 -999.0000 
1195.8728    0.0000   11.9233    0.9983    1.4165    1.3386  109.0417 -999.0000    2.1963 -999.0000 
1196.0252    0.0000   11.2568    0.9765    1.3971    1.5759  109.0290 -999.0000    2.1881 -999.0000 
1196.1776    0.0000   11.5523    0.9633    1.3923    1.5503  108.9305 -999.0000    2.1881 -999.0000 
1196.3300    0.0000   12.3555    0.9329    1.3829    1.2601  108.7335 -999.0000    2.1881 -999.0000 
1196.4824    0.0000   12.3588    0.9311    1.3817    1.4179  108.7083 -999.0000    2.1907 -999.0000 
1196.6348    0.0000   11.9855    0.9409    1.3817    1.4551  108.7083 -999.0000    2.1981 -999.0000 
1196.7872    0.0000   12.0834    0.9569    1.3868    1.4769  108.7083 -999.0000    2.2056 -999.0000 
1196.9396    0.0000   13.5613    1.0196    1.4154    1.4007  108.7083 -999.0000    2.2338 -999.0000 
1197.0920    0.0000   14.4478    1.0475    1.4299    1.3159  108.7083 -999.0000    2.2486 -999.0000 
1197.2444    0.0000   14.2178    1.0614    1.4387    1.2870  108.7083 -999.0000    2.2644 -999.0000 
1197.3968    0.0000   13.7745    1.0871    1.4684    1.1998  108.7083 -999.0000    2.2718 -999.0000 
1197.5492    0.0000   13.0056    1.1338    1.5295    1.5909  108.7083 -999.0000    2.2811 -999.0000 
1197.7016    0.0000   12.9023    1.1431    1.5372    1.4588  108.7083 -999.0000    2.2801 -999.0000 
1197.8540    0.0000   12.7545    1.1587    1.5477    1.1393  108.7083 -999.0000    2.2712 -999.0000 
1198.0064    0.0000   12.7188    1.1585    1.5503    1.3323  108.7083 -999.0000    2.2658 -999.0000 
1198.1588    0.0000   12.7188    1.1557    1.5503    1.4843  108.7083 -999.0000    2.2574 -999.0000 
1198.3112    0.0000   12.7480    1.1605    1.5503    1.6469  108.7083 -999.0000    2.2557 -999.0000 
1198.4636    0.0000   12.9313    1.1294    1.5549    1.5864  108.7083 -999.0000    2.2952 -999.0000 
1198.6160    0.0000   12.5619    1.1141    1.5655    1.5864  108.7083 -999.0000    2.2956 -999.0000 
1198.7684    0.0000   12.1899    1.0910    1.5870    1.7189  108.7083 -999.0000    2.2990 -999.0000 
1198.9208    0.0000   11.6728    1.0873    1.5978    1.7047  108.7083 -999.0000    2.3002 -999.0000 
1199.0732    0.0000   10.8400    1.0951    1.6197    1.6638  108.7083 -999.0000    2.2535 -999.0000 
1199.2256    0.0000   10.3483    1.1552    1.6607    1.5773  108.7083 -999.0000    2.2461 -999.0000 
1199.3780    0.0000   10.1266    1.2375    1.6892    1.5505  108.7083 -999.0000    2.2675 -999.0000 
1199.5304    0.0000    9.9688    1.3984    1.7323    1.4470  108.7083 -999.0000    2.3048 -999.0000 
1199.6828    0.0000   10.0568    1.4949    1.7870    1.4611  108.7083 -999.0000    2.3079 -999.0000 
1199.8352    0.0000   10.2855    1.7532    2.0429    1.5592  108.7083 -999.0000    2.3334 -999.0000 
1199.9876    0.0000   10.3906    1.8842    2.2232    1.5592  108.7083 -999.0000    2.4856 -999.0000 
1200.1400    0.0000   10.7188    1.9482    2.4835    1.5637  108.7083 -999.0000    2.4860 -999.0000 
1200.2924    0.0000   10.7188    1.9416    2.5345    1.5637  108.7083 -999.0000    2.4860 -999.0000 
1200.4448    0.0000   11.1238    1.7236    2.4149    1.3348  108.7083 -999.0000    2.3594 -999.0000 
1200.5972    0.0000   11.3454    1.6065    2.3114    1.4441  108.7083 -999.0000    2.3594 -999.0000 
1200.7496    0.0000   10.9356    1.4120    2.0251    2.5728  108.7083 -999.0000    2.2962 -999.0000 
1200.9020    0.0000   10.5108    1.3131    1.8763    2.5951  108.7083 -999.0000    2.2744 -999.0000 
1201.0544    0.0000   10.0155    1.1583    1.6964    3.9279  108.7083 -999.0000    2.2636 -999.0000 
1201.2068    0.0000    9.9959    1.0916    1.6504   11.6588  108.7083 -999.0000    2.2751 -999.0000 
1201.3592    0.0000    9.9441    0.9144    1.5252   70.6570  108.7083 -999.0000    2.3188 -999.0000 
1201.5116    0.0000    9.7225    0.8199    1.4481   69.8482  108.7083 -999.0000    2.3602 -999.0000 
1201.6640    0.0000    9.2188    0.7571    1.3803    3.2483  108.7083 -999.0000    2.3020 -999.0000 
1201.8164    0.0000    9.2188    0.7494    1.3756    2.1461  108.7083 -999.0000    2.2808 -999.0000 
1201.9688    0.0000    9.9275    0.7263    1.3225    1.3897  108.7083 -999.0000    2.2298 -999.0000 
