~VERSION INFORMATION
 VERS.                 2.0:   CWLS LOG ASCII STANDARD - VERSION 2.0
 WRAP.                  NO:   SINGLE LINE PER DEPTH STEP
 CREA.                 05/01/2018 16:52:08
#CREATED USING DSPetro VERSION 5000.10.1.3 BY H191660 ON 05/01/2018 16:52:08
~WELL INFORMATION
#MNEM.UNIT       DATA                          DESCRIPTION MNEMONIC
#---------      ---------------------------   --------------------------
 STRT    .M         1570.3300                 : START DEPTH
 STOP    .M         2429.2564                 : STOP DEPTH
 STEP    .M         0.3048                    : STEP VALUE
 NULL    .      -999.0000                     : NULL VALUE
 DATE    .      05/01/2018                    : LAS file Creation Date
 WELL .      BOYD_1_10_M4996             : Well Name
 COMP .      Neftex Exploration Insights : Company
 FLD  .                                  : Field
 UWI  .      DUSWL_BOYD_1                : Unique Well Identifier (UWI)
 LOC  .                                  : Location
 RWS  .      -999                        : Def_Rw
 WST  .      -999                        : Def_Rwt
 SRVC .                                  : Contractor
~CURVE INFORMATION
#MNEM              UNIT       API CODE   Curve Type Comments
#----------  --------------- ----------  ---------- -----------
 DEPTH      .M                         : Depth       
 GR_API     .API                       : GammaRay    Gamma Ray (API) - Measures the intensity of natural gamma-ray radiation emitted from formations containing radioactive elements, such as K, Th and U
 RHOZ_G_CC  .g/cc                      :             Formation Density - Measures the density of formation, including any void space or other materials contained in the subject volume
 NPHI_v_v   .dec                       : Neutron     
 PEF_B_E    .b/e-                      : PEF         Photoelectric Factor - A log of photoelectric absorption properties. Often expressed in an approximation unit barns/electron (b/e-)
 LITH       .                          :             
~A  DEPTH   GR_API  RHOZ_G_C~  NPHI_v_v  PEF_B_E     LITH   
# ...
2093.3668    6.7490    2.0610   -0.0203    3.8270   16.0000 
2093.6716    8.0720    2.0560   -0.0205    3.8650   16.0000 
2093.9764    9.0810    2.0480   -0.0196    4.0180   16.0000 
2094.2812    7.8200    2.0510   -0.0204    4.0080   16.0000 
2094.5860    8.7750    2.0560   -0.0198    3.8340   16.0000 
2094.8908    8.3940    2.0590   -0.0199    3.9230   16.0000 
2095.1956    6.6630    2.0680   -0.0189    3.9810   16.0000 
2095.5004    7.4240    2.1040   -0.0180    3.9200   16.0000 
2095.8052    7.2350    2.0960   -0.0199    3.8130   16.0000 
2096.1100    8.3690    2.0710   -0.0202    3.8790   16.0000 
2096.4148    8.7140    2.0620   -0.0199    3.8290   16.0000 
2096.7196    7.3350    2.0570   -0.0194    3.8540   16.0000 
2097.0244    7.9230    2.0540   -0.0198    3.7680   16.0000 
2097.3292    9.0540    2.0610   -0.0200    3.6390   16.0000 
2097.6340    8.6210    2.0610   -0.0201    3.7180   16.0000 
2097.9388    8.0060    2.0540   -0.0199    3.7990   16.0000 
2098.2436    7.6980    2.0500   -0.0198    3.7350   16.0000 
2098.5484    9.4200    2.0560   -0.0198    3.6670   16.0000 
2098.8532    9.2910    2.0570   -0.0196    3.7010   16.0000 
2099.1580    8.7240    2.0580   -0.0194    3.7400   16.0000 
2099.4628    8.0060    2.0520   -0.0194    3.7360   16.0000 
2099.7676    7.8740    2.0580   -0.0191    3.6800   16.0000 
2100.0724    9.0170    2.0560   -0.0191    3.6200   16.0000 
2100.3772    7.8050    2.0490   -0.0192    3.7250   16.0000 
2100.6820    8.6280    2.0460   -0.0192    3.7610   16.0000 
2100.9868    9.9900    2.0420   -0.0193    3.6230   16.0000 
2101.2916   10.5860    2.0440   -0.0194    3.5750   16.0000 
2101.5964    9.9830    2.0410   -0.0195    3.6750   16.0000 
2101.9012    8.3580    2.0490   -0.0195    3.8460   16.0000 
2102.2060    6.7940    2.0460   -0.0200    3.8610   16.0000 
2102.5108    7.1550    2.0650   -0.0199    3.7890   16.0000 
2102.8156    8.1560    2.0780   -0.0190    3.8750   16.0000 
2103.1204    9.1700    2.0680   -0.0198    3.9200   16.0000 
2103.4252    8.7450    2.0590   -0.0197    3.8540   16.0000 
2103.7300    8.0220    2.0520   -0.0198    3.9410   16.0000 
2104.0348    7.6550    2.0470   -0.0201    3.8810   16.0000 
2104.3396    7.7600    2.0520   -0.0204    3.7700   16.0000 
2104.6444    9.3680    2.0520   -0.0208    3.8690   16.0000 
2104.9492    9.3590    2.0470   -0.0200    3.9480   16.0000 
2105.2540    7.7250    2.0600   -0.0205    3.9580   16.0000 
2105.5588   10.3010    2.0580   -0.0219    3.8880   16.0000 
2105.8636    7.7690    2.0480   -0.0207    3.7880   16.0000 
2106.1684    7.8360    2.0580   -0.0204    3.8300   16.0000 
2106.4732    7.4060    2.0460   -0.0198    3.8360   16.0000 
2106.7780    7.2770    2.0450   -0.0194    3.8590   16.0000 
2107.0828    8.5170    2.0360   -0.0192    3.8490   16.0000 
2107.3876    9.6350    2.0510   -0.0190    3.8820   16.0000 
2107.6924    8.9150    2.0500   -0.0186    3.9120   16.0000 
2107.9972    8.1240    2.0500   -0.0191    3.9010   16.0000 
2108.3020    6.7370    2.0550   -0.0195    3.9130   16.0000 
2108.6068    8.3420    2.0490   -0.0194    3.9590   16.0000 
2108.9116    9.3500    2.0400   -0.0190    3.9940   16.0000 
2109.2164    8.3300    2.0500   -0.0195    4.0260   16.0000 
2109.5212    7.0640    2.0420   -0.0200    4.0090   16.0000 
2109.8260    6.8700    2.0390   -0.0183    3.9350   16.0000 
2110.1308    8.2980    2.0430   -0.0194    3.8390   16.0000 
2110.4356    8.4690    2.0520   -0.0200    3.8450   16.0000 
2110.7404    7.4990    2.0480   -0.0203    3.9150   16.0000 
2111.0452    7.5560    2.0420   -0.0202    3.8170   16.0000 
2111.3500    8.4870    2.0510   -0.0199    3.8560   16.0000 
2111.6548    7.7060    2.0510   -0.0199    3.9260   16.0000 
2111.9596    6.7560    2.0410   -0.0189    3.8740   16.0000 
2112.2644    7.5150    2.0300   -0.0181    3.8220   16.0000 
2112.5692    9.3570    2.0490   -0.0183    3.8480   16.0000 
2112.8740    7.2020    2.0580   -0.0192    3.9490   16.0000 
2113.1788    6.7910    2.0560   -0.0198    3.8890   16.0000 
2113.4836    8.3940    2.0480   -0.0203    3.8150   16.0000 
2113.7884    7.2480    2.0470   -0.0200    3.8000   16.0000 
2114.0932    8.3760    2.0480   -0.0194    3.9560   16.0000 
2114.3980    7.0470    2.0520   -0.0188    4.0110   16.0000 
2114.7028    8.2950    2.0570   -0.0187    4.0230   16.0000 
2115.0076    9.1710    2.0540   -0.0188    3.9650   16.0000 
2115.3124    9.2210    2.0480   -0.0188    3.8710   16.0000 
2115.6172    8.5010    2.0560   -0.0189    3.9440   16.0000 
2115.9220    9.1610    2.0540   -0.0193    3.9300   16.0000 
2116.2268    8.0070    2.0470   -0.0193    4.0710   16.0000 
2116.5316    6.5610    2.0460   -0.0195    4.1440   16.0000 
2116.8364    7.9860    2.0540   -0.0202    4.0050   16.0000 
2117.1412    8.2770    2.0640   -0.0206    3.8690   16.0000 
2117.4460    7.9700    2.0690   -0.0204    3.9150   16.0000 
2117.7508    7.7160    2.0610   -0.0200    3.9080   16.0000 
2118.0556    6.9930    2.0550   -0.0195    3.8300   16.0000 
2118.3604    6.8610    2.0870   -0.0180    4.0410   16.0000 
2118.6652    8.9390    2.0960   -0.0176    3.9380   16.0000 
2118.9700    9.8400    2.0870   -0.0183    3.7800   16.0000 
2119.2748   10.0080    2.0920   -0.0191    3.7610   16.0000 
2119.5796    9.3990    2.0740   -0.0196    3.8350   16.0000 
2119.8844    7.4750    2.0530   -0.0196    3.8610   16.0000 
2120.1892    8.6130    2.0590   -0.0193    3.7610   16.0000 
2120.4940    9.8390    2.0590   -0.0194    3.8550   16.0000 
2120.7988   10.2500    2.0610   -0.0199    3.8910   16.0000 
2121.1036    9.1010    2.0460   -0.0193    3.9310   16.0000 
2121.4084    8.7890    2.0510   -0.0192    3.9140   16.0000 
2121.7132    9.3330    2.0480   -0.0177    3.8300   16.0000 
2122.0180    7.8990    2.0420   -0.0185    3.8740   16.0000 
2122.3228    9.0080    2.0510   -0.0196    3.7380   16.0000 
2122.6276   10.2600    2.0620   -0.0207    3.6940   16.0000 
2122.9324    9.0530    2.0630   -0.0208    3.8300   16.0000 
2123.2372   10.3620    2.0610   -0.0207    3.8650   16.0000 
2123.5420    9.5040    2.0610   -0.0204    3.8990   16.0000 
2123.8468    8.3660    2.0700   -0.0205    3.9800   16.0000 
2124.1516    8.2320    2.0680   -0.0198    3.8820   16.0000 
2124.4564    7.6820    2.0750   -0.0192    3.8160   16.0000 
2124.7612    7.4940    2.0750   -0.0192    3.9290   16.0000 
2125.0660    8.5110    2.0670   -0.0196    4.0270   16.0000 
2125.3708    9.5150    2.0600   -0.0199    3.9190   16.0000 
2125.6756    9.3890    2.0560   -0.0206    3.8860   16.0000 
2125.9804    8.6060    2.0500   -0.0211    3.9500   16.0000 
2126.2852    8.6550    2.0410   -0.0213    3.9060   16.0000 
2126.5900   10.1390    2.0660   -0.0208    3.9970   16.0000 
2126.8948    9.8480    2.0840   -0.0191    3.8750   16.0000 
2127.1996    9.5280    2.1050   -0.0168    3.8990   16.0000 
2127.5044   12.3890    2.1290   -0.0138    3.7770   16.0000 
2127.8092   10.9440    2.1060   -0.0140    3.7270   16.0000 
2128.1140    8.9090    2.0840   -0.0186    3.9080   16.0000 
2128.4188    9.1950    2.0690   -0.0199    3.8210   16.0000 
2128.7236   10.9710    2.0590   -0.0200    3.9470   16.0000 
2129.0284    7.9070    2.0510   -0.0202    3.9590   16.0000 
2129.3332    7.9020    2.0430   -0.0206    3.9210   16.0000 
2129.6380    9.0810    2.0500   -0.0197    3.8730   16.0000 
2129.9428    9.2670    2.0590   -0.0191    3.8310   16.0000 
2130.2476    9.1950    2.0600   -0.0196    3.7880   16.0000 
2130.5524    9.3740    2.0520   -0.0200    3.8670   16.0000 
2130.8572    9.4110    2.0450   -0.0205    3.9350   16.0000 
2131.1620   10.5510    2.0540   -0.0202    3.7880   16.0000 
2131.4668    9.9260    2.0600   -0.0207    3.8730   16.0000 
2131.7716    9.2630    2.0510   -0.0208    3.9580   16.0000 
2132.0764    9.1440    2.0490   -0.0206    3.8430   16.0000 
2132.3812    8.7840    2.0580   -0.0207    3.9040   16.0000 
2132.6860    7.8180    2.0610   -0.0205    4.0360   16.0000 
2132.9908    7.3340    2.0560   -0.0205    3.9180   16.0000 
2133.2956    7.7430    2.0630   -0.0202    3.9970   16.0000 
