~VERSION INFORMATION
 VERS.                 2.0:   CWLS LOG ASCII STANDARD - VERSION 2.0
 WRAP.                  NO:   SINGLE LINE PER DEPTH STEP
 CREA.                 05/01/2018 16:52:08
#CREATED USING DSPetro VERSION 5000.10.1.3 BY H191660 ON 05/01/2018 16:52:08
~WELL INFORMATION
#MNEM.UNIT       DATA                          DESCRIPTION MNEMONIC
#---------      ---------------------------   --------------------------
 STRT    .M         1570.3300                 : START DEPTH
 STOP    .M         2429.2564                 : STOP DEPTH
 STEP    .M         0.3048                    : STEP VALUE
 NULL    .      -999.0000                     : NULL VALUE
 DATE    .      05/01/2018                    : LAS file Creation Date
 WELL .      BOYD_1_10_M4996             : Well Name
 COMP .      Neftex Exploration Insights : Company
 FLD  .                                  : Field
 UWI  .      DUSWL_BOYD_1                : Unique Well Identifier (UWI)
 LOC  .                                  : Location
 RWS  .      -999                        : Def_Rw
 WST  .      -999                        : Def_Rwt
 SRVC .                                  : Contractor
~CURVE INFORMATION
#MNEM              UNIT       API CODE   Curve Type Comments
#----------  --------------- ----------  ---------- -----------
 DEPTH      .M                         : Depth       
 GR_API     .API                       : GammaRay    Gamma Ray (API) - Measures the intensity of natural gamma-ray radiation emitted from formations containing radioactive elements, such as K, Th and U
 RHOZ_G_CC  .g/cc                      :             Formation Density - Measures the density of formation, including any void space or other materials contained in the subject volume
 NPHI_v_v   .dec                       : Neutron     
 PEF_B_E    .b/e-                      : PEF         Photoelectric Factor - A log of photoelectric absorption properties. Often expressed in an approximation unit barns/electron (b/e-)
 LITH       .                          :             
~A  DEPTH   GR_API  RHOZ_G_C~  NPHI_v_v  PEF_B_E     LITH   
# ...
1771.4980   46.1390    2.3010    0.0641    3.4630   15.0000 
1771.8028   39.7260    2.4230    0.0410    3.6510   15.0000 
1772.1076   24.1740    2.1850   -0.0005    3.8460   16.0000 
1772.4124   12.7580    2.0940   -0.0155    3.9290   16.0000 
1772.7172   13.4840    2.0770   -0.0175    3.7980   16.0000 
1773.0220   15.1770    2.0870   -0.0162    3.7010   16.0000 
1773.3268   15.1380    2.0830   -0.0140    3.6070   16.0000 
1773.6316   27.6050    2.1510   -0.0026    3.5200   16.0000 
1773.9364   42.3860    2.2180    0.0128    3.3420   16.0000 
1774.2412   30.0170    2.2010   -0.0031    3.4330   16.0000 
1774.5460   16.5470    2.1550   -0.0139    3.6930   16.0000 
1774.8508   11.9160    2.0950   -0.0170    3.6670   16.0000 
1775.1556   11.3550    2.0990   -0.0184    3.6200   16.0000 
1775.4604   11.1050    2.0850   -0.0186    3.7460   16.0000 
1775.7652    9.6960    2.0750   -0.0188    3.7490   16.0000 
1776.0700   11.3460    2.0680   -0.0184    3.7760   16.0000 
1776.3748   14.6730    2.0770   -0.0173    3.8430   16.0000 
1776.6796   18.9290    2.1060   -0.0157    3.7040   16.0000 
1776.9844   22.4870    2.1200   -0.0055    3.4760   16.0000 
1777.2892   21.4040    2.0790   -0.0057    3.4170   16.0000 
1777.5940   23.9970    2.1110   -0.0084    3.5290   16.0000 
1777.8988   26.1420    2.1740   -0.0016    3.4320   16.0000 
1778.2036   25.7040    2.2100   -0.0032    3.5320   16.0000 
1778.5084   23.7480    2.2270   -0.0067    3.7060   16.0000 
1778.8132   21.4490    2.2380   -0.0093    3.8450   16.0000 
1779.1180   18.9780    2.2420   -0.0068    3.8450   16.0000 
1779.4228   37.3490    2.3170    0.0199    3.7390   16.0000 
1779.7276   52.9730    2.5260    0.0773    3.6100   22.0000 
1780.0324   57.9680    2.5510    0.1020    3.4030   22.0000 
1780.3372   55.2570    2.4880    0.0950    3.4880   22.0000 
1780.6420   48.6860    2.4310    0.0915    3.6440   22.0000 
1780.9468   48.9390    2.5260    0.1044    3.7530   22.0000 
1781.2516   52.3620    2.5920    0.1190    3.5390   22.0000 
1781.5564   54.4800    2.5730    0.1128    3.5650   22.0000 
1781.8612   43.2950    2.5600    0.0615    3.8110   22.0000 
1782.1660   21.2930    2.6380    0.0114    4.7650   18.0000 
1782.4708   12.2540    2.7140   -0.0004    5.4040   18.0000 
1782.7756   16.8320    2.7900    0.0051    4.9600   18.0000 
1783.0804   32.1630    2.8030    0.0209    3.8100   22.0000 
1783.3852   52.6170    2.7420    0.0958    3.6830   22.0000 
1783.6900   49.7610    2.8030    0.1023    4.0260   22.0000 
1783.9948   31.1820    2.8170    0.0287    3.7460   22.0000 
1784.2996   24.2720    2.6170    0.0104    3.4920   22.0000 
1784.6044   19.2950    2.5240    0.0124    3.4790   22.0000 
1784.9092   18.4790    2.5360    0.0153    3.3560   22.0000 
1785.2140   28.1010    2.5640    0.0234    3.4050   22.0000 
1785.5188   38.3400    2.5840    0.0291    3.3090   22.0000 
1785.8236   44.9880    2.5900    0.0492    3.2240   22.0000 
1786.1284   54.2810    2.5890    0.0669    3.3250   22.0000 
1786.4332   64.7640    2.6180    0.1311    3.4820   22.0000 
1786.7380   60.5700    2.6650    0.1235    3.6450   22.0000 
1787.0428   51.1110    2.6950    0.1023    3.7400   22.0000 
1787.3476   39.7940    2.4160    0.0507    3.6750   16.0000 
1787.6524   25.0320    2.1440   -0.0061    3.8080   16.0000 
1787.9572   13.4180    2.0870   -0.0148    3.8190   16.0000 
1788.2620   12.5600    2.0830   -0.0171    3.8170   16.0000 
1788.5668   12.5360    2.0750   -0.0179    3.9030   16.0000 
1788.8716   11.7440    2.0880   -0.0173    3.6850   16.0000 
1789.1764   15.1740    2.1150   -0.0155    3.7180   16.0000 
1789.4812   28.9320    2.1760   -0.0022    3.5280   16.0000 
1789.7860   46.2330    2.3380    0.0687    3.3730   15.0000 
1790.0908   57.6750    2.4530    0.1177    3.4500   15.0000 
1790.3956   38.9010    2.2570    0.0485    3.5850   15.0000 
1790.7004   28.7400    2.1630    0.0030    3.6290   15.0000 
1791.0052   41.4210    2.2690    0.0210    3.6510   15.0000 
1791.3100   34.5240    2.2660    0.0012    3.4960   16.0000 
1791.6148   28.2240    2.2150   -0.0095    3.7320   16.0000 
1791.9196   21.8060    2.1450   -0.0138    3.8410   16.0000 
1792.2244   16.7150    2.0830   -0.0166    3.6840   16.0000 
1792.5292   12.5120    2.0860   -0.0187    3.7560   16.0000 
1792.8340   11.7140    2.0920   -0.0186    3.8630   16.0000 
1793.1388   12.5810    2.0940   -0.0188    3.8440   16.0000 
1793.4436   10.6980    2.0790   -0.0188    3.8610   16.0000 
1793.7484   10.5500    2.0610   -0.0188    3.7370   16.0000 
1794.0532   11.4800    2.0690   -0.0190    3.7970   16.0000 
1794.3580   11.1470    2.0680   -0.0184    3.9080   16.0000 
1794.6628   11.6090    2.0640   -0.0182    3.8670   16.0000 
1794.9676    9.9020    2.0640   -0.0179    3.8040   16.0000 
1795.2724   10.6530    2.0600   -0.0181    3.9210   16.0000 
1795.5772   11.4410    2.0690   -0.0180    4.0240   16.0000 
1795.8820   10.0160    2.0770   -0.0179    3.9390   16.0000 
1796.1868    9.6480    2.0780   -0.0179    3.6820   16.0000 
1796.4916   10.6340    2.0740   -0.0182    3.8310   16.0000 
1796.7964   10.9670    2.0690   -0.0185    3.9740   16.0000 
1797.1012   10.8800    2.0690   -0.0188    4.0110   16.0000 
1797.4060   10.0730    2.0780   -0.0189    3.9430   16.0000 
1797.7108    9.9900    2.0780   -0.0185    3.9580   16.0000 
1798.0156   11.0880    2.0760   -0.0186    3.9170   16.0000 
1798.3204    9.5840    2.0800   -0.0188    3.9020   16.0000 
1798.6252   10.7000    2.0960   -0.0194    3.7820   16.0000 
1798.9300   11.7510    2.1050   -0.0196    3.8500   16.0000 
1799.2348    9.7460    2.0770   -0.0191    3.9460   16.0000 
1799.5396    9.4790    2.0740   -0.0189    4.0330   16.0000 
1799.8444    9.9500    2.0790   -0.0190    3.8870   16.0000 
1800.1492    9.1430    2.0840   -0.0186    3.9100   16.0000 
1800.4540   10.6620    2.0880   -0.0180    3.8760   16.0000 
1800.7588   12.0600    2.0950   -0.0181    3.9660   16.0000 
1801.0636   14.7230    2.1110   -0.0158    4.0610   16.0000 
1801.3684   17.8020    2.1220   -0.0124    4.0340   16.0000 
1801.6732   20.4210    2.1470   -0.0096    3.7560   16.0000 
1801.9780   23.0040    2.2280   -0.0063    3.5170   16.0000 
1802.2828   27.0450    2.3220    0.0017    3.7070   15.0000 
1802.5876   29.7000    2.3150    0.0058    3.6400   15.0000 
1802.8924   30.3920    2.2300    0.0020    3.6130   15.0000 
1803.1972   24.0830    2.1980   -0.0074    3.7380   15.0000 
1803.5020   19.0610    2.1990   -0.0121    3.9920   15.0000 
1803.8068   18.9780    2.2380   -0.0072    4.3430   16.0000 
1804.1116   15.5940    2.2700   -0.0087    4.4940   16.0000 
1804.4164   10.7460    2.3360   -0.0103    4.5470   16.0000 
1804.7212    9.5270    2.4570   -0.0070    4.7110   16.0000 
1805.0260   10.2830    2.6000   -0.0044    5.2030   18.0000 
1805.3308   11.4390    2.7120   -0.0008    5.0620   18.0000 
1805.6356   14.6540    2.7410    0.0029    4.7800   18.0000 
1805.9404   21.4340    2.7270    0.0088    4.1030   18.0000 
1806.2452   29.9850    2.7460    0.0592    3.7080   18.0000 
1806.5500   35.4560    2.8260    0.0645    3.9500   12.0000 
1806.8548   32.4000    2.9090    0.0150    4.1040   12.0000 
1807.1596   29.8220    2.8700    0.0120    3.9930   12.0000 
1807.4644   29.2070    2.7870    0.0209    3.8170   12.0000 
1807.7692   27.7430    2.7180    0.0359    3.6750   18.0000 
1808.0740   24.3720    2.6740    0.0541    3.4880   18.0000 
1808.3788   22.8360    2.6780    0.0623    3.2820   18.0000 
1808.6836   26.4360    2.6730    0.0760    3.1430   18.0000 
1808.9884   28.2570    2.7080    0.1160    3.1030   18.0000 
1809.2932   26.7330    2.7870    0.0653    3.5020   12.0000 
1809.5980   23.2920    2.8840    0.0158    4.2980   12.0000 
1809.9028   20.4660    2.8090    0.0139    3.7050   12.0000 
1810.2076   21.6800    2.6630    0.0367    3.2900   18.0000 
1810.5124   18.4260    2.6090    0.0292    3.2950   18.0000 
1810.8172   26.1710    2.6020    0.0237    3.1110   18.0000 
1811.1220   45.0410    2.6580    0.0531    3.2140   18.0000 
1811.4268   59.8370    2.7090    0.1083    3.3420   22.0000 
