~VERSION INFORMATION
 VERS.                 2.0:   CWLS LOG ASCII STANDARD - VERSION 2.0
 WRAP.                  NO:   SINGLE LINE PER DEPTH STEP
 CREA.                 05/01/2018 16:52:08
#CREATED USING DSPetro VERSION 5000.10.1.3 BY H191660 ON 05/01/2018 16:52:08
~WELL INFORMATION
#MNEM.UNIT       DATA                          DESCRIPTION MNEMONIC
#---------      ---------------------------   --------------------------
 STRT    .M         1570.3300                 : START DEPTH
 STOP    .M         2429.2564                 : STOP DEPTH
 STEP    .M         0.3048                    : STEP VALUE
 NULL    .      -999.0000                     : NULL VALUE
 DATE    .      05/01/2018                    : LAS file Creation Date
 WELL .      BOYD_1_10_M4996             : Well Name
 COMP .      Neftex Exploration Insights : Company
 FLD  .                                  : Field
 UWI  .      DUSWL_BOYD_1                : Unique Well Identifier (UWI)
 LOC  .                                  : Location
 RWS  .      -999                        : Def_Rw
 WST  .      -999                        : Def_Rwt
 SRVC .                                  : Contractor
~CURVE INFORMATION
#MNEM              UNIT       API CODE   Curve Type Comments
#----------  --------------- ----------  ---------- -----------
 DEPTH      .M                         : Depth       
 GR_API     .API                       : GammaRay    Gamma Ray (API) - Measures the intensity of natural gamma-ray radiation emitted from formations containing radioactive elements, such as K, Th and U
 RHOZ_G_CC  .g/cc                      :             Formation Density - Measures the density of formation, including any void space or other materials contained in the subject volume
 NPHI_v_v   .dec                       : Neutron     
 PEF_B_E    .b/e-                      : PEF         Photoelectric Factor - A log of photoelectric absorption properties. Often expressed in an approximation unit barns/electron (b/e-)
 LITH       .                          :             
~A  DEPTH   GR_API  RHOZ_G_C~  NPHI_v_v  PEF_B_E     LITH   
# ...
2012.8996    9.2930    2.0530   -0.0232    3.6980   16.0000 
2013.2044   10.2150    2.0390   -0.0223    3.8230   16.0000 
2013.5092   11.0640    2.0500   -0.0214    3.9730   16.0000 
2013.8140    9.6320    2.0640   -0.0210    3.8660   16.0000 
2014.1188    9.5250    2.0730   -0.0217    3.8050   16.0000 
2014.4236   10.2530    2.0920   -0.0215    3.7740   16.0000 
2014.7284    9.1010    2.1120   -0.0214    3.7360   16.0000 
2015.0332    9.8730    2.0640   -0.0212    3.7830   16.0000 
2015.3380   10.4910    2.1040   -0.0172    3.7410   16.0000 
2015.6428   11.0520    2.1510   -0.0185    3.7960   16.0000 
2015.9476   10.2380    2.1240   -0.0213    3.7810   16.0000 
2016.2524    9.6650    2.0690   -0.0212    3.7270   16.0000 
2016.5572   12.2520    2.1140   -0.0189    3.7320   16.0000 
2016.8620   13.2090    2.1520   -0.0167    3.6650   16.0000 
2017.1668   14.9700    2.2590   -0.0132    3.7050   16.0000 
2017.4716   14.1470    2.2200   -0.0159    3.7750   16.0000 
2017.7764   11.7780    2.1000   -0.0180    3.7100   16.0000 
2018.0812   12.6960    2.1110   -0.0182    3.7770   16.0000 
2018.3860   13.4180    2.1110   -0.0187    3.7590   16.0000 
2018.6908   12.4440    2.0880   -0.0195    3.8710   16.0000 
2018.9956   11.2580    2.0770   -0.0203    3.9600   16.0000 
2019.3004    9.8460    2.0520   -0.0203    3.9380   16.0000 
2019.6052   11.9690    2.0600   -0.0208    4.0240   16.0000 
2019.9100   11.6420    2.0810   -0.0204    3.9280   16.0000 
2020.2148   12.1200    2.1120   -0.0190    3.8590   16.0000 
2020.5196   12.9660    2.1480   -0.0171    3.6220   16.0000 
2020.8244   14.7200    2.2770   -0.0132    3.8680   16.0000 
2021.1292   14.6850    2.5450   -0.0055    4.6020   16.0000 
2021.4340   12.9780    2.6120   -0.0027    4.4490   16.0000 
2021.7388   12.4490    2.3460   -0.0103    3.8580   16.0000 
2022.0436   10.6650    2.1760   -0.0166    3.8350   16.0000 
2022.3484   10.8080    2.1430   -0.0179    3.6920   16.0000 
2022.6532   11.4860    2.1230   -0.0191    3.7480   16.0000 
2022.9580   10.9080    2.1170   -0.0196    3.8700   16.0000 
2023.2628    9.7850    2.0910   -0.0206    4.0440   16.0000 
2023.5676   10.4580    2.0650   -0.0218    3.9970   16.0000 
2023.8724   12.5090    2.0520   -0.0206    3.9010   16.0000 
2024.1772   11.8710    2.0690   -0.0201    3.8900   16.0000 
2024.4820   11.6640    2.0840   -0.0190    3.8490   16.0000 
2024.7868   13.5380    2.1300   -0.0156    3.5990   16.0000 
2025.0916   13.5500    2.3480   -0.0068    4.1410   16.0000 
2025.3964   13.3700    2.6890    0.0053    4.3830    1.0000 
2025.7012   13.3370    2.8790   -0.0001    4.4750    1.0000 
2026.0060   12.9420    2.8540   -0.0058    4.5370    1.0000 
2026.3108   12.8400    2.5150   -0.0122    4.1810   16.0000 
2026.6156   11.1180    2.2830   -0.0160    3.8160   16.0000 
2026.9204   11.5710    2.1140   -0.0189    3.9070   16.0000 
2027.2252   10.1340    2.0860   -0.0201    3.9170   16.0000 
2027.5300   10.0050    2.0940   -0.0205    3.8610   16.0000 
2027.8348    9.1040    2.0790   -0.0215    3.8550   16.0000 
2028.1396   10.1700    2.0690   -0.0215    3.9870   16.0000 
2028.4444   12.5460    2.0810   -0.0210    4.0270   16.0000 
2028.7492   11.7600    2.0890   -0.0204    3.9630   16.0000 
2029.0540   12.1050    2.0840   -0.0205    3.9730   16.0000 
2029.3588   12.9960    2.0810   -0.0206    3.9510   16.0000 
2029.6636   11.3190    2.0740   -0.0207    3.6520   16.0000 
2029.9684   13.5770    2.0910   -0.0178    3.4660   16.0000 
2030.2732   15.1680    2.2000   -0.0090    3.4240   16.0000 
2030.5780   14.3280    2.3930   -0.0001    4.0050   15.0000 
2030.8828   12.5370    2.5970   -0.0056    4.1470   15.0000 
2031.1876   11.4480    2.4700   -0.0133    3.6850   15.0000 
2031.4924   10.4870    2.1670   -0.0178    3.8570   16.0000 
2031.7972   11.4320    2.0550   -0.0196    3.5840   16.0000 
2032.1020   12.2570    2.0220   -0.0138    3.4020   16.0000 
2032.4068   14.2200    2.3480    0.0023    4.0970   16.0000 
2032.7116   21.0770    2.8220    0.0052    4.5640    1.0000 
2033.0164   29.3600    2.7850    0.0019    4.7410   18.0000 
2033.3212   33.4640    2.6890    0.0135    5.1410   18.0000 
2033.6260   34.4700    2.6730    0.0096    5.3340   18.0000 
2033.9308   30.5280    2.6990    0.0085    4.8720   18.0000 
2034.2356   27.1760    2.7270    0.0140    3.8840   18.0000 
2034.5404   28.4160    2.7460    0.0176    4.1640   18.0000 
2034.8452   29.0600    2.7570    0.0060    4.8190   18.0000 
2035.1500   27.8480    2.7800   -0.0002    4.9370   18.0000 
2035.4548   28.3250    2.7700   -0.0003    4.9140   18.0000 
2035.7596   28.5530    2.7520    0.0003    4.9960   18.0000 
2036.0644   27.4560    2.7440    0.0024    4.5540   18.0000 
2036.3692   24.2990    2.7350    0.0071    4.8460   18.0000 
2036.6740   23.5070    2.7190    0.0087    4.9750   18.0000 
2036.9788   24.4010    2.7090    0.0107    4.5250   18.0000 
2037.2836   25.4060    2.7240    0.0053    4.7000   18.0000 
2037.5884   26.1770    2.7470    0.0046    4.7080   18.0000 
2037.8932   25.3280    2.7610    0.0081    4.2440   18.0000 
2038.1980   23.4720    2.7600    0.0064    4.1670   18.0000 
2038.5028   28.7340    2.7740    0.0047    4.0760   18.0000 
2038.8076   27.0500    2.7420    0.0096    3.3980   18.0000 
2039.1124   27.8180    2.7090    0.0294    3.1550   18.0000 
2039.4172   26.5460    2.7110    0.0711    3.3380   12.0000 
2039.7220   29.3510    2.7320    0.1187    3.8020   12.0000 
2040.0268   26.5220    2.8000    0.0252    4.7020    1.0000 
2040.3316   24.3600    2.8660    0.0026    4.6670    1.0000 
2040.6364   25.2510    2.8230    0.0075    4.0910   18.0000 
2040.9412   26.5620    2.7510    0.0112    4.5790   18.0000 
2041.2460   28.2170    2.7400    0.0179    4.3990   18.0000 
2041.5508   31.9130    2.7500    0.0324    4.2900   18.0000 
2041.8556   24.5610    2.7350    0.0176    4.9110   18.0000 
2042.1604   20.9610    2.7310    0.0077    5.0120   18.0000 
2042.4652   21.7350    2.7350    0.0036    5.1350   18.0000 
2042.7700   20.8350    2.7320    0.0029    5.1150   18.0000 
2043.0748   18.3770    2.7160    0.0038    5.2360   18.0000 
2043.3796   22.4250    2.7230    0.0036    5.0880   18.0000 
2043.6844   32.2080    2.7130    0.0105    4.1810   18.0000 
2043.9892   38.7020    2.7040    0.0244    4.5230   18.0000 
2044.2940   41.1540    2.7120    0.0280    4.9900   18.0000 
2044.5988   38.5200    2.7140    0.0239    5.2170   18.0000 
2044.9036   34.0820    2.7170    0.0227    4.9600   18.0000 
2045.2084   37.2420    2.7070    0.0293    4.7900   18.0000 
2045.5132   37.0610    2.7080    0.0388    4.8850   18.0000 
2045.8180   35.5620    2.7230    0.0356    4.3460   18.0000 
2046.1228   33.7040    2.7150    0.0262    5.0470   18.0000 
2046.4276   30.8280    2.6990    0.0149    4.7320   18.0000 
2046.7324   27.2430    2.7140    0.0094    4.7770   18.0000 
2047.0372   27.5900    2.7100    0.0093    4.8720   18.0000 
2047.3420   30.6890    2.6990    0.0131    4.7860   18.0000 
2047.6468   25.1270    2.7120    0.0118    4.6310   18.0000 
2047.9516   20.2850    2.7240    0.0060    5.2980   18.0000 
2048.2564   19.0160    2.7270    0.0021    5.3950   18.0000 
2048.5612   19.1300    2.7190    0.0053    5.2580   18.0000 
2048.8660   20.4420    2.7030    0.0068    5.0840   18.0000 
2049.1708   19.2300    2.7110    0.0050    5.0160   18.0000 
2049.4756   19.6280    2.7280    0.0062    4.7800   18.0000 
2049.7804   20.6880    2.7290    0.0086    4.8980   18.0000 
2050.0852   23.3180    2.7140    0.0070    4.7480   18.0000 
2050.3900   23.5460    2.7180    0.0059    5.1110   18.0000 
2050.6948   23.4180    2.7260    0.0080    4.8490   18.0000 
2050.9996   24.1170    2.7360    0.0073    4.6420   18.0000 
2051.3044   24.8220    2.7450    0.0036    4.5290   18.0000 
2051.6092   25.1760    2.7440    0.0034    4.4600   18.0000 
2051.9140   25.6410    2.7420    0.0077    4.7800   18.0000 
2052.2188   25.0290    2.7500    0.0077    4.7940   18.0000 
2052.5236   24.1280    2.7460    0.0080    4.6200   18.0000 
2052.8284   28.8320    2.7410    0.0135    4.4800   18.0000 
