~VERSION INFORMATION
 VERS.                 2.0:   CWLS LOG ASCII STANDARD - VERSION 2.0
 WRAP.                  NO:   SINGLE LINE PER DEPTH STEP
 CREA.                 05/01/2018 16:52:08
#CREATED USING DSPetro VERSION 5000.10.1.3 BY H191660 ON 05/01/2018 16:52:08
~WELL INFORMATION
#MNEM.UNIT       DATA                          DESCRIPTION MNEMONIC
#---------      ---------------------------   --------------------------
 STRT    .M         1570.3300                 : START DEPTH
 STOP    .M         2429.2564                 : STOP DEPTH
 STEP    .M         0.3048                    : STEP VALUE
 NULL    .      -999.0000                     : NULL VALUE
 DATE    .      05/01/2018                    : LAS file Creation Date
 WELL .      BOYD_1_10_M4996             : Well Name
 COMP .      Neftex Exploration Insights : Company
 FLD  .                                  : Field
 UWI  .      DUSWL_BOYD_1                : Unique Well Identifier (UWI)
 LOC  .                                  : Location
 RWS  .      -999                        : Def_Rw
 WST  .      -999                        : Def_Rwt
 SRVC .                                  : Contractor
~CURVE INFORMATION
#MNEM              UNIT       API CODE   Curve Type Comments
#----------  --------------- ----------  ---------- -----------
 DEPTH      .M                         : Depth       
 GR_API     .API                       : GammaRay    Gamma Ray (API) - Measures the intensity of natural gamma-ray radiation emitted from formations containing radioactive elements, such as K, Th and U
 RHOZ_G_CC  .g/cc                      :             Formation Density - Measures the density of formation, including any void space or other materials contained in the subject volume
 NPHI_v_v   .dec                       : Neutron     
 PEF_B_E    .b/e-                      : PEF         Photoelectric Factor - A log of photoelectric absorption properties. Often expressed in an approximation unit barns/electron (b/e-)
 LITH       .                          :             
~A  DEPTH   GR_API  RHOZ_G_C~  NPHI_v_v  PEF_B_E     LITH   
# ...
1610.5636   27.0570    2.8360    0.0531    3.4810   12.0000 
1610.8684   23.5040    2.8570    0.0314    4.1130   12.0000 
1611.1732   20.1920    2.8900    0.0167    4.3820    1.0000 
1611.4780   18.5570    2.8960    0.0270    3.7020   12.0000 
1611.7828   31.2540    2.8560    0.0416    3.5780   12.0000 
1612.0876   54.3300    2.7880    0.0556    3.6150   12.0000 
1612.3924   57.9000    2.7950    0.0707    3.9760   22.0000 
1612.6972   35.7240    2.8410    0.0416    4.3140   22.0000 
1613.0020   22.2720    2.8820    0.0191    4.5010    1.0000 
1613.3068   20.4530    2.9100    0.0090    4.5990    1.0000 
1613.6116   20.1320    2.9180    0.0032    4.7280    1.0000 
1613.9164   19.8140    2.8870    0.0049    4.4370    1.0000 
1614.2212   28.8150    2.8310    0.0254    3.4900   12.0000 
1614.5260   34.1090    2.8120    0.0417    3.6390   12.0000 
1614.8308   36.2880    2.8350    0.0226    4.2970   12.0000 
1615.1356   24.5580    2.8980    0.0093    4.6930    1.0000 
1615.4404   15.0000    2.8570    0.0032    2.9700   12.0000 
1615.7452   19.8680    2.7920    0.0116    3.0110   12.0000 
1616.0500   24.0270    2.8540    0.0181    3.3550   12.0000 
1616.3548   21.2610    2.8500    0.0132    3.9040   12.0000 
1616.6596   24.1670    2.8010    0.0333    3.5950   12.0000 
1616.9644   31.4900    2.8230    0.0509    3.6120   12.0000 
1617.2692   36.3020    2.8480    0.0281    3.4380   12.0000 
1617.5740   39.8550    2.8570    0.0190    3.3710   12.0000 
1617.8788   35.4170    2.8790    0.0101    4.1730   12.0000 
1618.1836   23.9250    2.9300    0.0043    5.0540    1.0000 
1618.4884   18.2360    2.9420    0.0046    4.1240   12.0000 
1618.7932   24.9060    2.8290    0.0263    3.0460   12.0000 
1619.0980   27.6900    2.8310    0.0279    3.0890   12.0000 
1619.4028   32.5070    2.8460    0.0155    3.3140   12.0000 
1619.7076   45.8010    2.8590    0.0173    3.8360   12.0000 
1620.0124   52.3400    2.8230    0.0353    3.8810   12.0000 
1620.3172   36.1940    2.8130    0.0222    5.1590    1.0000 
1620.6220   18.8000    2.9180    0.0053    4.9070    1.0000 
1620.9268   15.6110    2.8800    0.0130    3.4630   12.0000 
1621.2316   27.0480    2.8060    0.0279    3.5140   12.0000 
1621.5364   37.7720    2.8070    0.0413    3.5530   12.0000 
1621.8412   42.1070    2.7940    0.0553    3.2400   12.0000 
1622.1460   42.5600    2.7930    0.0587    3.0560   12.0000 
1622.4508   46.3080    2.7820    0.0627    2.9380   12.0000 
1622.7556   44.1930    2.8000    0.0490    3.4670   12.0000 
1623.0604   36.7100    2.8220    0.0255    3.4520   12.0000 
1623.3652   29.0450    2.8540    0.0093    3.6830   12.0000 
1623.6700   14.4050    2.8970    0.0006    3.8370   12.0000 
1623.9748   15.9390    2.9210    0.0027    4.4760    1.0000 
1624.2796   30.5390    2.9410    0.0145    3.9390   12.0000 
1624.5844   40.1880    2.8660    0.0340    3.4190   12.0000 
1624.8892   32.7030    2.8850    0.0322    4.1410   12.0000 
1625.1940   31.6110    2.9100    0.0203    3.5790   12.0000 
1625.4988   39.5270    2.8510    0.0364    3.2080   12.0000 
1625.8036   35.5670    2.8660    0.0299    3.6990   12.0000 
1626.1084   28.7280    2.8760    0.0247    3.7860   12.0000 
1626.4132   26.6840    2.8740    0.0180    3.5600   12.0000 
1626.7180   18.1230    2.8920    0.0111    4.0450   12.0000 
1627.0228   19.5890    2.9160    0.0100    3.8260   12.0000 
1627.3276   18.9720    2.9120    0.0105    3.6330   12.0000 
1627.6324   13.2210    2.9330    0.0068    4.1350   12.0000 
1627.9372   13.5510    2.9560    0.0046    3.9910   12.0000 
1628.2420   20.1660    2.9560    0.0065    3.6890   12.0000 
1628.5468   23.9600    2.9030    0.0118    3.5590   12.0000 
1628.8516   27.0380    2.8670    0.0081    3.7820   12.0000 
1629.1564   16.0340    2.9330    0.0007    4.3780    1.0000 
1629.4612   12.7860    2.9600   -0.0029    4.7330    1.0000 
1629.7660   12.4020    2.9620   -0.0014    4.8720    1.0000 
1630.0708   19.5440    2.9410    0.0025    4.2840    1.0000 
1630.3756   26.0300    2.8930    0.0115    3.6010   12.0000 
1630.6804   21.2840    2.8760    0.0043    4.5040    1.0000 
1630.9852   10.6430    2.9300   -0.0024    5.8740    1.0000 
1631.2900   11.1540    2.9720   -0.0011    5.6370    1.0000 
1631.5948   12.1490    2.9730    0.0019    5.3100    1.0000 
1631.8996   12.0050    2.9560    0.0029    5.4280    1.0000 
1632.2044    9.7140    2.9540    0.0030    5.3820    1.0000 
1632.5092    9.7500    2.9650    0.0016    5.1860    1.0000 
1632.8140   12.4220    2.9640    0.0015    5.0360    1.0000 
1633.1188   14.0180    2.9470    0.0030    4.9400    1.0000 
1633.4236   17.5700    2.9480    0.0052    5.2180    1.0000 
1633.7284   20.4150    2.9240    0.0131    5.0020    1.0000 
1634.0332   21.7100    2.9060    0.0137    4.9820    1.0000 
1634.3380   21.7470    2.8930    0.0116    4.6770    1.0000 
1634.6428   14.6280    2.9200    0.0075    5.3630    1.0000 
1634.9476   16.9940    2.9300    0.0092    5.4990    1.0000 
1635.2524   20.1330    2.9150    0.0161    5.2160    1.0000 
1635.5572   17.1300    2.9620    0.0051    5.3650    1.0000 
1635.8620   12.2100    2.9670   -0.0018    5.1730    1.0000 
1636.1668   10.9920    2.9520   -0.0038    5.6740    1.0000 
1636.4716   16.1090    2.9650   -0.0029    6.1750    1.0000 
1636.7764   16.0230    2.9740   -0.0003    5.3100    1.0000 
1637.0812   20.5920    2.9380    0.0038    4.2960    1.0000 
1637.3860   27.5630    2.9280    0.0066    5.7010    1.0000 
1637.6908   26.1710    2.9530    0.0074    6.7530    1.0000 
1637.9956   20.0610    2.9210    0.0045    5.5700    1.0000 
1638.3004   16.2710    2.9440    0.0023    5.3960    1.0000 
1638.6052   13.5570    2.9550    0.0027    5.5050    1.0000 
1638.9100   17.1210    2.9200    0.0053    5.0260    1.0000 
1639.2148   16.3860    2.9180    0.0044    4.8480    1.0000 
1639.5196   17.4360    2.9270    0.0017    5.0070    1.0000 
1639.8244   15.6810    2.9480    0.0019    5.0380    1.0000 
1640.1292   14.3990    2.9690    0.0019    6.0610    1.0000 
1640.4340   17.0150    2.9840    0.0032    5.9880    1.0000 
1640.7388   19.8570    2.9900    0.0173    5.2060    1.0000 
1641.0436   26.0940    2.9520    0.0208    4.5900    1.0000 
1641.3484   35.3310    2.8860    0.0247    3.3810   12.0000 
1641.6532   39.9090    2.8530    0.0382    3.2090   12.0000 
1641.9580   38.5130    2.8330    0.0424    3.5270   12.0000 
1642.2628   36.2880    2.8390    0.0434    3.6430   12.0000 
1642.5676   32.7360    2.8560    0.0429    3.5790   12.0000 
1642.8724   34.9200    2.8560    0.0461    3.6800   12.0000 
1643.1772   36.6870    2.8270    0.0562    3.3150   12.0000 
1643.4820   32.5470    2.8300    0.0430    3.3440   12.0000 
1643.7868   30.1500    2.8300    0.0320    3.5500   12.0000 
1644.0916   30.2450    2.8380    0.0273    3.6470   12.0000 
1644.3964   31.1180    2.8230    0.0343    3.4000   12.0000 
1644.7012   34.1340    2.8140    0.0434    3.7160   12.0000 
1645.0060   36.0170    2.8610    0.0428    4.6710    1.0000 
1645.3108   32.8350    2.8980    0.0218    4.7310    1.0000 
1645.6156   27.2060    2.8870    0.0169    4.2850    1.0000 
1645.9204   23.1780    2.9100    0.0065    4.8810    1.0000 
1646.2252   18.5660    2.9350    0.0056    4.9240    1.0000 
1646.5300   23.2670    2.9100    0.0103    4.8580    1.0000 
1646.8348   21.6900    2.9080    0.0110    5.9320    1.0000 
1647.1396   16.4690    2.9460    0.0107    6.0290    1.0000 
1647.4444   17.7650    2.9510    0.0139    5.7780    1.0000 
1647.7492   16.0040    2.9600    0.0073    5.9880    1.0000 
1648.0540   16.5210    2.9640    0.0081    6.4150    1.0000 
1648.3588   17.0300    2.9650    0.0075    5.6940    1.0000 
1648.6636   11.0360    2.9740    0.0016    5.0740    1.0000 
1648.9684   15.9170    2.9790    0.0000    4.8000    1.0000 
1649.2732   22.1580    2.9500    0.0078    3.8310   12.0000 
1649.5780   28.3460    2.9110    0.0157    3.2900   12.0000 
1649.8828   30.4140    2.8650    0.0205    3.0780   12.0000 
1650.1876   29.4350    2.8380    0.0217    3.2430   12.0000 
1650.4924   30.1320    2.8050    0.0215    3.1820   12.0000 
