~VERSION INFORMATION
 VERS.                 2.0:   CWLS LOG ASCII STANDARD - VERSION 2.0
 WRAP.                  NO:   SINGLE LINE PER DEPTH STEP
 CREA.                 05/01/2018 16:52:08
#CREATED USING DSPetro VERSION 5000.10.1.3 BY H191660 ON 05/01/2018 16:52:08
~WELL INFORMATION
#MNEM.UNIT       DATA                          DESCRIPTION MNEMONIC
#---------      ---------------------------   --------------------------
 STRT    .M         1570.3300                 : START DEPTH
 STOP    .M         2429.2564                 : STOP DEPTH
 STEP    .M         0.3048                    : STEP VALUE
 NULL    .      -999.0000                     : NULL VALUE
 DATE    .      05/01/2018                    : LAS file Creation Date
 WELL .      BOYD_1_10_M4996             : Well Name
 COMP .      Neftex Exploration Insights : Company
 FLD  .                                  : Field
 UWI  .      DUSWL_BOYD_1                : Unique Well Identifier (UWI)
 LOC  .                                  : Location
 RWS  .      -999                        : Def_Rw
 WST  .      -999                        : Def_Rwt
 SRVC .                                  : Contractor
~CURVE INFORMATION
#MNEM              UNIT       API CODE   Curve Type Comments
#----------  --------------- ----------  ---------- -----------
 DEPTH      .M                         : Depth       
 GR_API     .API                       : GammaRay    Gamma Ray (API) - Measures the intensity of natural gamma-ray radiation emitted from formations containing radioactive elements, such as K, Th and U
 RHOZ_G_CC  .g/cc                      :             Formation Density - Measures the density of formation, including any void space or other materials contained in the subject volume
 NPHI_v_v   .dec                       : Neutron     
 PEF_B_E    .b/e-                      : PEF         Photoelectric Factor - A log of photoelectric absorption properties. Often expressed in an approximation unit barns/electron (b/e-)
 LITH       .                          :             
~A  DEPTH   GR_API  RHOZ_G_C~  NPHI_v_v  PEF_B_E     LITH   
# ...
1892.1988   59.1260    2.5490    0.1794    3.3030   37.0000 
1892.5036   62.4300    2.5440    0.1830    3.1040   37.0000 
1892.8084   64.5240    2.5400    0.1968    3.6170   37.0000 
1893.1132   70.9490    2.4980    0.2017    3.7250   37.0000 
1893.4180   74.9760    2.4810    0.2290    3.4730   37.0000 
1893.7228   74.0900    2.5700    0.2267    3.2640   37.0000 
1894.0276   75.7170    2.5450    0.2481    3.4470   37.0000 
1894.3324   75.5520    2.5170    0.2679    3.4680   37.0000 
1894.6372   76.1190    2.5360    0.2605    3.4830   37.0000 
1894.9420   71.9030    2.5470    0.2740    3.4610   37.0000 
1895.2468   67.9740    2.5360    0.2772    3.2470   37.0000 
1895.5516   65.0550    2.5310    0.2440    3.2000   37.0000 
1895.8564   72.2700    2.5330    0.2394    3.2760   37.0000 
1896.1612   76.9980    2.5020    0.2314    3.3310   37.0000 
1896.4660   80.7260    2.4610    0.2176    3.3770   37.0000 
1896.7708   76.7940    2.4220    0.1992    3.3040   37.0000 
1897.0756   72.8610    2.4080    0.1774    3.1770   22.0000 
1897.3804   74.2010    2.3950    0.1832    3.1960   22.0000 
1897.6852   76.6790    2.4710    0.2405    3.0810   37.0000 
1897.9900   77.4570    2.5280    0.2336    3.2270   37.0000 
1898.2948   78.7790    2.5570    0.2046    3.1460   37.0000 
1898.5996   78.9750    2.5350    0.2310    3.2010   37.0000 
1898.9044   79.3340    2.5290    0.2561    3.3230   37.0000 
1899.2092   81.2720    2.5570    0.2393    3.4810   37.0000 
1899.5140   83.0310    2.5880    0.2485    3.6430   37.0000 
1899.8188   76.6010    2.6520    0.2120    3.5340   37.0000 
1900.1236   79.9710    2.6320    0.2049    3.4730   37.0000 
1900.4284   81.2460    2.6030    0.2391    3.5410   37.0000 
1900.7332   78.4430    2.6240    0.2332    3.3310   37.0000 
1901.0380   74.2860    2.6040    0.2465    3.3170   37.0000 
1901.3428   70.2950    2.5830    0.2575    3.5750   37.0000 
1901.6476   68.9280    2.5980    0.2406    3.4060   37.0000 
1901.9524   65.7270    2.6260    0.2630    3.1810   37.0000 
1902.2572   45.4440    2.7220    0.1585    4.2400    1.0000 
1902.5620   24.9710    2.8240    0.0100    4.7390    1.0000 
1902.8668   19.0160    2.7900   -0.0060    4.1160    1.0000 
1903.1716   23.9340    2.5570   -0.0035    3.5960   16.0000 
1903.4764   45.5810    2.4550    0.0212    3.4870   16.0000 
1903.7812   68.9610    2.5410    0.1413    3.4010   37.0000 
1904.0860   76.3290    2.5930    0.1843    3.2520   37.0000 
1904.3908   77.4770    2.5890    0.1773    3.3840   37.0000 
1904.6956   78.4400    2.6000    0.1807    3.3650   37.0000 
1905.0004   81.7440    2.5780    0.1938    3.1860   37.0000 
1905.3052   86.9610    2.5400    0.2294    2.9780   37.0000 
1905.6100   93.0240    2.5040    0.2324    3.0660   37.0000 
1905.9148   89.8200    2.4880    0.2834    3.1060   37.0000 
1906.2196   89.0550    2.5120    0.2760    3.0910   37.0000 
1906.5244   88.0560    2.5610    0.2580    3.1570   37.0000 
1906.8292   82.0520    2.5860    0.2199    3.4950   37.0000 
1907.1340   76.4480    2.6350    0.1691    3.5940   37.0000 
1907.4388   71.3130    2.6580    0.1226    3.2680   37.0000 
1907.7436   66.4860    2.6990    0.0983    3.7070   37.0000 
1908.0484   79.3020    2.6580    0.1235    3.2970   37.0000 
1908.3532   85.2980    2.5650    0.1956    3.2000   37.0000 
1908.6580   90.5190    2.4950    0.2116    3.0910   37.0000 
1908.9628   90.1880    2.4710    0.2246    3.0760   37.0000 
1909.2676   91.3950    2.4760    0.2551    3.1150   37.0000 
1909.5724   89.1440    2.4900    0.2711    3.0000   37.0000 
1909.8772   86.7500    2.4930    0.2309    3.0160   37.0000 
1910.1820   84.2600    2.4880    0.2119    3.0230   37.0000 
1910.4868   89.4750    2.5060    0.2295    2.9830   37.0000 
1910.7916   90.1460    2.5450    0.2609    3.4020   37.0000 
1911.0964   82.6490    2.5910    0.2257    3.4410   37.0000 
1911.4012   72.0930    2.6260    0.2074    3.6140   37.0000 
1911.7060   70.2530    2.6410    0.1719    3.7440   37.0000 
1912.0108   70.8890    2.6470    0.1258    3.9050   37.0000 
1912.3156   76.7670    2.6170    0.0971    3.9160   37.0000 
1912.6204   78.8090    2.6250    0.1359    3.7870   37.0000 
1912.9252   82.7630    2.5980    0.1535    3.3740   37.0000 
1913.2300   85.4060    2.5400    0.1796    3.2470   37.0000 
1913.5348   88.4700    2.5040    0.1717    3.4810   37.0000 
1913.8396   90.7580    2.5340    0.1684    3.6450   37.0000 
1914.1444   86.2470    2.4960    0.1844    3.5170   37.0000 
1914.4492   87.3270    2.4400    0.1839    3.5270   37.0000 
1914.7540   88.9170    2.4550    0.2101    3.2040   37.0000 
1915.0588   89.1600    2.4780    0.2304    3.1240   37.0000 
1915.3636   85.8260    2.4860    0.2386    3.2610   37.0000 
1915.6684   82.3230    2.4890    0.2510    3.3030   37.0000 
1915.9732   77.6930    2.5050    0.2213    3.2870   37.0000 
1916.2780   69.4620    2.5050    0.1731    3.3930   37.0000 
1916.5828   78.2690    2.5050    0.1618    3.3400   37.0000 
1916.8876   84.3030    2.5220    0.1576    3.2680   37.0000 
1917.1924   79.8960    2.5590    0.1881    3.6020   37.0000 
1917.4972   62.3540    2.6240    0.1512    4.0830   22.0000 
1917.8020   50.1930    2.5890    0.1106    3.9170   22.0000 
1918.1068   33.4710    2.3050    0.0155    3.8600   16.0000 
1918.4116   14.6900    2.1190   -0.0150    3.8330   16.0000 
1918.7164   11.4570    2.0560   -0.0205    3.7660   16.0000 
1919.0212   10.1600    2.0590   -0.0218    3.6950   16.0000 
1919.3260    8.2010    2.0780   -0.0211    3.7950   16.0000 
1919.6308    8.3490    2.0860   -0.0207    3.8510   16.0000 
1919.9356   10.1490    2.0660   -0.0212    3.8770   16.0000 
1920.2404    8.2520    2.0440   -0.0213    4.0860   16.0000 
1920.5452    9.2900    2.0540   -0.0205    3.9270   16.0000 
1920.8500    9.7260    2.0870   -0.0193    3.9130   16.0000 
1921.1548    7.7160    2.2330   -0.0171    4.0160   15.0000 
1921.4596    7.6910    2.2420   -0.0169    3.8270   15.0000 
1921.7644    9.9120    2.0820   -0.0196    3.7810   16.0000 
1922.0692    9.9290    2.0940   -0.0197    3.8860   16.0000 
1922.3740    8.9370    2.1130   -0.0165    3.8200   16.0000 
1922.6788   14.5710    2.2400   -0.0090    4.1580   16.0000 
1922.9836   20.9220    2.6080    0.0008    4.1930   16.0000 
1923.2884   26.4390    2.6760    0.0096    3.8670   22.0000 
1923.5932   28.3100    2.6380    0.0303    3.4190   22.0000 
1923.8980   26.2370    2.6640    0.0326    3.1290   22.0000 
1924.2028   25.1060    2.6300    0.0196    3.2790   16.0000 
1924.5076   24.4760    2.5460    0.0105    3.4070   16.0000 
1924.8124   28.3100    2.4950    0.0183    3.3970   16.0000 
1925.1172   52.8410    2.5420    0.0787    3.2900   22.0000 
1925.4220   74.8940    2.5730    0.1606    3.4680   22.0000 
1925.7268   77.4170    2.5670    0.1993    3.5620   22.0000 
1926.0316   73.3790    2.5810    0.2167    3.4470   22.0000 
1926.3364   69.5000    2.6420    0.2228    3.6510   22.0000 
1926.6412   60.9860    2.6910    0.1440    3.8080   22.0000 
1926.9460   58.9070    2.6920    0.1225    3.6360   22.0000 
1927.2508   59.6940    2.6680    0.1322    3.3800   22.0000 
1927.5556   38.6250    2.6810    0.0768    3.7170   22.0000 
1927.8604   17.6210    2.3220   -0.0076    3.8330   22.0000 
1928.1652    9.0330    2.1020   -0.0177    3.7280   16.0000 
1928.4700   10.7840    2.0780   -0.0181    3.7620   16.0000 
1928.7748   11.3880    2.0910   -0.0185    3.7890   16.0000 
1929.0796   11.6060    2.0910   -0.0183    3.7790   16.0000 
1929.3844   16.7570    2.0950   -0.0173    3.6740   16.0000 
1929.6892   35.4740    2.2110   -0.0065    3.3700   16.0000 
1929.9940   67.9370    2.4020    0.0649    3.0250   22.0000 
1930.2988   78.7740    2.4590    0.0902    3.0800   22.0000 
1930.6036   78.1950    2.5020    0.1039    3.3700   22.0000 
1930.9084   54.6030    2.4630    0.0338    3.7060   16.0000 
1931.2132   29.5310    2.1930   -0.0054    3.7210   16.0000 
1931.5180   28.1780    2.1630   -0.0049    3.7210   16.0000 
1931.8228   33.4080    2.3330    0.0100    3.6340   16.0000 
1932.1276   23.7380    2.1860   -0.0070    3.7320   16.0000 
