~VERSION INFORMATION
 VERS.                 2.0:   CWLS LOG ASCII STANDARD - VERSION 2.0
 WRAP.                  NO:   SINGLE LINE PER DEPTH STEP
 CREA.                 05/01/2018 16:52:08
#CREATED USING DSPetro VERSION 5000.10.1.3 BY H191660 ON 05/01/2018 16:52:08
~WELL INFORMATION
#MNEM.UNIT       DATA                          DESCRIPTION MNEMONIC
#---------      ---------------------------   --------------------------
 STRT    .M         1570.3300                 : START DEPTH
 STOP    .M         2429.2564                 : STOP DEPTH
 STEP    .M         0.3048                    : STEP VALUE
 NULL    .      -999.0000                     : NULL VALUE
 DATE    .      05/01/2018                    : LAS file Creation Date
 WELL .      BOYD_1_10_M4996             : Well Name
 COMP .      Neftex Exploration Insights : Company
 FLD  .                                  : Field
 UWI  .      DUSWL_BOYD_1                : Unique Well Identifier (UWI)
 LOC  .                                  : Location
 RWS  .      -999                        : Def_Rw
 WST  .      -999                        : Def_Rwt
 SRVC .                                  : Contractor
~CURVE INFORMATION
#MNEM              UNIT       API CODE   Curve Type Comments
#----------  --------------- ----------  ---------- -----------
 DEPTH      .M                         : Depth       
 GR_API     .API                       : GammaRay    Gamma Ray (API) - Measures the intensity of natural gamma-ray radiation emitted from formations containing radioactive elements, such as K, Th and U
 RHOZ_G_CC  .g/cc                      :             Formation Density - Measures the density of formation, including any void space or other materials contained in the subject volume
 NPHI_v_v   .dec                       : Neutron     
 PEF_B_E    .b/e-                      : PEF         Photoelectric Factor - A log of photoelectric absorption properties. Often expressed in an approximation unit barns/electron (b/e-)
 LITH       .                          :             
~A  DEPTH   GR_API  RHOZ_G_C~  NPHI_v_v  PEF_B_E     LITH   
# ...
1932.4324   17.4740    2.1110   -0.0160    3.8050   16.0000 
1932.7372   12.3590    2.0840   -0.0190    3.7850   16.0000 
1933.0420    8.7360    2.0720   -0.0219    3.8810   16.0000 
1933.3468    9.3590    2.0690   -0.0215    3.9160   16.0000 
1933.6516   10.7490    2.0580   -0.0205    3.8120   16.0000 
1933.9564   10.1010    2.0870   -0.0204    3.8680   16.0000 
1934.2612   10.7790    2.1140   -0.0202    3.9740   16.0000 
1934.5660    8.9460    2.0670   -0.0207    3.9250   16.0000 
1934.8708    8.3670    2.0780   -0.0212    3.9470   16.0000 
1935.1756   10.8990    2.0960   -0.0215    3.9100   16.0000 
1935.4804   11.4350    2.0840   -0.0216    4.0920   16.0000 
1935.7852    9.7290    2.0500   -0.0212    3.9670   16.0000 
1936.0900   11.0690    2.0490   -0.0205    3.9700   16.0000 
1936.3948    9.3570    2.0470   -0.0207    3.8790   16.0000 
1936.6996    9.6260    2.0520   -0.0208    3.8470   16.0000 
1937.0044    9.5640    2.0400   -0.0209    3.8610   16.0000 
1937.3092    8.8100    2.0440   -0.0214    3.8200   16.0000 
1937.6140    6.7940    2.0490   -0.0207    3.8400   16.0000 
1937.9188    8.0120    2.0550   -0.0202    3.9600   16.0000 
1938.2236    8.3030    2.0570   -0.0204    4.1420   16.0000 
1938.5284    7.4270    2.0460   -0.0205    4.1920   16.0000 
1938.8332    7.9340    2.0670   -0.0204    4.1470   16.0000 
1939.1380    9.1640    2.0670   -0.0205    4.1230   16.0000 
1939.4428    9.5880    2.0810   -0.0193    4.1380   16.0000 
1939.7476   10.0650    2.1310   -0.0171    4.1510   16.0000 
1940.0524   10.5680    2.1700   -0.0150    4.0610   16.0000 
1940.3572   11.5350    2.2040   -0.0127    3.8470   16.0000 
1940.6620   15.4380    2.3670   -0.0100    4.4020   16.0000 
1940.9668   20.7740    2.5830    0.0044    4.5460   16.0000 
1941.2716   25.2810    2.6350    0.0134    3.7390   16.0000 
1941.5764   28.4700    2.6280    0.0264    3.5750   16.0000 
1941.8812   39.1400    2.6730    0.0468    3.0880   12.0000 
1942.1860   49.5380    2.7050    0.1058    3.2820   12.0000 
1942.4908   56.9670    2.7290    0.1529    3.6090   12.0000 
1942.7956   53.2250    2.7340    0.1347    3.5620   12.0000 
1943.1004   28.3520    2.8070    0.0644    4.2690    1.0000 
1943.4052   14.2410    2.9080    0.0104    5.1200    1.0000 
1943.7100    9.2510    2.9560   -0.0038    4.6730    1.0000 
1944.0148   12.1380    2.9540   -0.0049    4.6180    1.0000 
1944.3196   25.7280    2.9300   -0.0010    4.5960    1.0000 
1944.6244   45.6900    2.8320    0.0161    4.4430    1.0000 
1944.9292   39.1340    2.3790    0.0004    4.2940   16.0000 
1945.2340   13.5290    2.1620   -0.0154    3.5860   16.0000 
1945.5388   12.6360    2.0780   -0.0167    3.5270   16.0000 
1945.8436   15.5180    2.1080   -0.0147    3.5930   16.0000 
1946.1484   15.7850    2.2390   -0.0107    3.8370   16.0000 
1946.4532   14.2460    2.2140   -0.0137    3.7430   16.0000 
1946.7580   12.5270    2.1310   -0.0157    3.7500   16.0000 
1947.0628   11.3520    2.1010   -0.0180    3.8290   16.0000 
1947.3676   10.1060    2.0640   -0.0189    3.8790   16.0000 
1947.6724   12.7610    2.0600   -0.0190    3.8450   16.0000 
1947.9772   12.6570    2.0710   -0.0190    3.7640   16.0000 
1948.2820   15.7200    2.0750   -0.0179    3.5640   16.0000 
1948.5868   28.5810    2.1570    0.0053    3.2940   16.0000 
1948.8916   47.2460    2.3330    0.0451    3.4620   15.0000 
1949.1964   38.1120    2.3730    0.0069    3.5460   15.0000 
1949.5012   17.7060    2.1670   -0.0173    3.6970   16.0000 
1949.8060   11.4500    2.0700   -0.0188    3.8030   16.0000 
1950.1108   10.8810    2.0740   -0.0197    3.7540   16.0000 
1950.4156   10.5950    2.0790   -0.0201    3.7390   16.0000 
1950.7204   14.5490    2.0780   -0.0198    3.7360   16.0000 
1951.0252   26.4600    2.1720   -0.0119    3.6470   16.0000 
1951.3300   34.5530    2.3090   -0.0004    3.5490   15.0000 
1951.6348   21.2490    2.3070   -0.0106    3.8750   15.0000 
1951.9396   13.1520    2.2020   -0.0190    3.8580   16.0000 
1952.2444   11.6040    2.1350   -0.0192    3.7470   16.0000 
1952.5492   13.0590    2.1580   -0.0163    3.7810   16.0000 
1952.8540   10.4520    2.1450   -0.0197    3.8320   16.0000 
1953.1588    8.2050    2.0880   -0.0209    3.7930   16.0000 
1953.4636    8.0310    2.0620   -0.0204    3.8660   16.0000 
1953.7684   10.2650    2.0650   -0.0201    3.7460   16.0000 
1954.0732   10.0250    2.0690   -0.0203    3.7120   16.0000 
1954.3780    9.8780    2.0690   -0.0202    3.7710   16.0000 
1954.6828   13.0020    2.0690   -0.0187    3.5820   16.0000 
1954.9876   16.4100    2.1810   -0.0145    3.4590   16.0000 
1955.2924   16.2020    2.3000   -0.0100    3.6970   15.0000 
1955.5972   12.2730    2.2190   -0.0192    3.7570   15.0000 
1955.9020    9.0510    2.0910   -0.0207    3.7910   16.0000 
1956.2068    7.8750    2.0730   -0.0208    3.8000   16.0000 
1956.5116   10.1730    2.0660   -0.0214    3.8420   16.0000 
1956.8164   11.3760    2.0620   -0.0213    3.8920   16.0000 
1957.1212   10.3070    2.0680   -0.0205    3.8750   16.0000 
1957.4260    9.1410    2.0710   -0.0215    3.7660   16.0000 
1957.7308    8.9780    2.0720   -0.0211    3.8900   16.0000 
1958.0356   10.7420    2.0690   -0.0208    3.9580   16.0000 
1958.3404    9.2630    2.0700   -0.0208    3.8650   16.0000 
1958.6452   10.5950    2.0510   -0.0209    3.8620   16.0000 
1958.9500   12.0350    2.0530   -0.0207    3.9120   16.0000 
1959.2548   12.7250    2.0510   -0.0209    3.9340   16.0000 
1959.5596   13.5240    2.0640   -0.0202    3.8360   16.0000 
1959.8644   22.3760    2.1440   -0.0166    3.7370   16.0000 
1960.1692   31.2410    2.2580   -0.0079    3.7790   15.0000 
1960.4740   23.0160    2.3010   -0.0122    3.8640   15.0000 
1960.7788   14.6780    2.1230   -0.0167    3.7930   16.0000 
1961.0836   12.6440    2.0890   -0.0197    3.9190   16.0000 
1961.3884   11.2970    2.0760   -0.0206    3.8440   16.0000 
1961.6932   11.1450    2.0690   -0.0209    3.7240   16.0000 
1961.9980    8.9150    2.0580   -0.0209    3.8230   16.0000 
1962.3028    8.4840    2.0500   -0.0211    3.9000   16.0000 
1962.6076    9.4700    2.0530   -0.0212    3.8400   16.0000 
1962.9124    8.7110    2.0610   -0.0214    3.8510   16.0000 
1963.2172    7.7090    2.0670   -0.0210    3.8670   16.0000 
1963.5220    8.7480    2.0690   -0.0206    3.7040   16.0000 
1963.8268   17.7930    2.0590   -0.0178    3.6370   16.0000 
1964.1316   24.1970    2.1430   -0.0067    3.7040   15.0000 
1964.4364   22.1240    2.2300   -0.0062    3.6480   15.0000 
1964.7412   14.1900    2.1370   -0.0183    3.6990   16.0000 
1965.0460   10.7310    2.0770   -0.0215    3.7890   16.0000 
1965.3508    9.3950    2.0590   -0.0218    3.9090   16.0000 
1965.6556    8.3390    2.0640   -0.0220    3.9370   16.0000 
1965.9604    8.2850    2.0660   -0.0221    3.8400   16.0000 
1966.2652   11.2340    2.0600   -0.0208    3.6990   16.0000 
1966.5700   18.0000    2.0640   -0.0183    3.6040   16.0000 
1966.8748   32.2860    2.1400   -0.0076    3.5050   16.0000 
1967.1796   31.7180    2.3020    0.0019    3.7210   15.0000 
1967.4844   17.6910    2.2920   -0.0115    3.8910   15.0000 
1967.7892   11.5640    2.1270   -0.0186    3.9950   16.0000 
1968.0940   10.4960    2.0890   -0.0202    4.0710   16.0000 
1968.3988    9.4400    2.0820   -0.0211    4.0830   16.0000 
1968.7036    8.8580    2.0760   -0.0210    4.0190   16.0000 
1969.0084   11.2160    2.0710   -0.0210    3.9850   16.0000 
1969.3132   11.4060    2.0650   -0.0218    3.8350   16.0000 
1969.6180   10.0100    2.0610   -0.0213    3.7300   16.0000 
1969.9228   10.4960    2.0730   -0.0208    3.7720   16.0000 
1970.2276   11.6540    2.0800   -0.0206    3.8910   16.0000 
1970.5324   15.8480    2.0590   -0.0203    3.8560   16.0000 
1970.8372   20.6060    2.1210   -0.0169    3.7100   15.0000 
1971.1420   15.4200    2.2070   -0.0162    3.8060   15.0000 
1971.4468   10.0050    2.1130   -0.0195    3.8970   16.0000 
1971.7516    9.4730    2.0840   -0.0214    3.9450   16.0000 
1972.0564    9.4950    2.0660   -0.0217    4.0110   16.0000 
1972.3612   10.1610    2.0560   -0.0219    4.0120   16.0000 
