~VERSION INFORMATION
 VERS.                 2.0:   CWLS LOG ASCII STANDARD - VERSION 2.0
 WRAP.                  NO:   SINGLE LINE PER DEPTH STEP
 CREA.                 05/01/2018 16:52:08
#CREATED USING DSPetro VERSION 5000.10.1.3 BY H191660 ON 05/01/2018 16:52:08
~WELL INFORMATION
#MNEM.UNIT       DATA                          DESCRIPTION MNEMONIC
#---------      ---------------------------   --------------------------
 STRT    .M         1570.3300                 : START DEPTH
 STOP    .M         2429.2564                 : STOP DEPTH
 STEP    .M         0.3048                    : STEP VALUE
 NULL    .      -999.0000                     : NULL VALUE
 DATE    .      05/01/2018                    : LAS file Creation Date
 WELL .      BOYD_1_10_M4996             : Well Name
 COMP .      Neftex Exploration Insights : Company
 FLD  .                                  : Field
 UWI  .      DUSWL_BOYD_1                : Unique Well Identifier (UWI)
 LOC  .                                  : Location
 RWS  .      -999                        : Def_Rw
 WST  .      -999                        : Def_Rwt
 SRVC .                                  : Contractor
~CURVE INFORMATION
#MNEM              UNIT       API CODE   Curve Type Comments
#----------  --------------- ----------  ---------- -----------
 DEPTH      .M                         : Depth       
 GR_API     .API                       : GammaRay    Gamma Ray (API) - Measures the intensity of natural gamma-ray radiation emitted from formations containing radioactive elements, such as K, Th and U
 RHOZ_G_CC  .g/cc                      :             Formation Density - Measures the density of formation, including any void space or other materials contained in the subject volume
 NPHI_v_v   .dec                       : Neutron     
 PEF_B_E    .b/e-                      : PEF         Photoelectric Factor - A log of photoelectric absorption properties. Often expressed in an approximation unit barns/electron (b/e-)
 LITH       .                          :             
~A  DEPTH   GR_API  RHOZ_G_C~  NPHI_v_v  PEF_B_E     LITH   
# ...
2375.0020   11.4890    2.7170    0.0059    4.2500   18.0000 
2375.3068   11.3670    2.7270    0.0058    4.2940   18.0000 
2375.6116   10.7670    2.7310    0.0060    4.3060   18.0000 
2375.9164    9.5600    2.7430    0.0082    4.4590   18.0000 
2376.2212   10.8740    2.7470    0.0087    4.2790   18.0000 
2376.5260   12.2930    2.7470    0.0094    4.1870   18.0000 
2376.8308   13.2450    2.7480    0.0085    4.7950   18.0000 
2377.1356   11.2140    2.7380    0.0059    4.8150   18.0000 
2377.4404   10.0700    2.7230    0.0042    4.6800   18.0000 
2377.7452   11.6250    2.7340    0.0036    4.8460   18.0000 
2378.0500    9.4770    2.7370    0.0037    4.8180   18.0000 
2378.3548   10.7240    2.7370    0.0038    5.0070   18.0000 
2378.6596   12.5820    2.7400    0.0037    4.8710   18.0000 
2378.9644   12.5670    2.7330    0.0047    4.5710   18.0000 
2379.2692   11.1330    2.7190    0.0062    4.3400   18.0000 
2379.5740   12.6800    2.7350    0.0063    4.6350   18.0000 
2379.8788   11.5500    2.7290    0.0050    4.7860   18.0000 
2380.1836   12.7290    2.7240    0.0057    4.9630   18.0000 
2380.4884   13.9880    2.7380    0.0085    4.6720   18.0000 
2380.7932   13.3170    2.7220    0.0095    4.3820   18.0000 
2381.0980   14.2710    2.7270    0.0093    4.4630   18.0000 
2381.4028   14.6900    2.7320    0.0092    4.7240   18.0000 
2381.7076   13.7880    2.7260    0.0089    4.9090   18.0000 
2382.0124   12.9500    2.7170    0.0063    5.1160   18.0000 
2382.3172   11.9360    2.7340    0.0073    4.6100   18.0000 
2382.6220   12.0590    2.7230    0.0087    3.8930   18.0000 
2382.9268   12.4080    2.7380    0.0087    4.1600   18.0000 
2383.2316   11.8100    2.7480    0.0078    4.4680   18.0000 
2383.5364   13.7780    2.7320    0.0062    4.3470   18.0000 
2383.8412   12.6980    2.7200    0.0042    4.3940   18.0000 
2384.1460   11.6660    2.7220    0.0029    4.6310   18.0000 
2384.4508   12.1980    2.7320    0.0025    4.8780   18.0000 
2384.7556   15.7850    2.7270    0.0021    4.8080   18.0000 
2385.0604   16.8540    2.7450    0.0017    4.7220   18.0000 
2385.3652   14.7600    2.7570    0.0018    5.4710   18.0000 
2385.6700   15.3510    2.7470    0.0017    5.1030   18.0000 
2385.9748   16.0040    2.7370    0.0016    4.7300   18.0000 
2386.2796   15.5790    2.7430    0.0017    4.9370   18.0000 
2386.5844   22.5150    2.7320    0.0035    4.9690   18.0000 
2386.8892   57.7110    2.7240    0.0261    4.2740   18.0000 
2387.1940  115.5770    2.7150    0.1826    3.5010   37.0000 
2387.4988  117.1790    2.7120    0.2299    3.6930   37.0000 
2387.8036   63.6860    2.7210    0.1260    4.1980   37.0000 
2388.1084   44.5740    2.7100    0.0343    4.6260   18.0000 
2388.4132   70.6050    2.7320    0.0447    4.1780   18.0000 
2388.7180   85.4700    2.7570    0.1058    4.2510   37.0000 
2389.0228   93.9450    2.7560    0.1046    4.3390   37.0000 
2389.3276  107.0660    2.7220    0.1568    4.2150   37.0000 
2389.6324  122.6510    2.7030    0.1770    4.1050   37.0000 
2389.9372  132.7950    2.6960    0.1878    4.0870   37.0000 
2390.2420  141.3110    2.7020    0.1982    4.1050   37.0000 
2390.5468  145.4970    2.6880    0.2358    3.7770   37.0000 
2390.8516  136.9610    2.6960    0.2204    3.8200   37.0000 
2391.1564  129.6090    2.7110    0.2154    4.0100   37.0000 
2391.4612  139.1780    2.7150    0.2292    3.8640   37.0000 
2391.7660  137.6750    2.7110    0.2255    3.5980   37.0000 
2392.0708  139.3340    2.7400    0.2321    3.6190   37.0000 
2392.3756  141.2820    2.7310    0.2485    3.8600   37.0000 
2392.6804  144.4520    2.7130    0.2533    3.7740   37.0000 
2392.9852  136.6130    2.7020    0.2354    4.1520   37.0000 
2393.2900   90.7830    2.7110    0.1794    4.5440   22.0000 
2393.5948  108.3330    2.6930    0.1512    4.1680   22.0000 
2393.8996  129.4700    2.7060    0.2237    4.0070   37.0000 
2394.2044  137.1050    2.7070    0.2315    4.0260   37.0000 
2394.5092  139.7760    2.7120    0.2210    3.5500   37.0000 
2394.8140  142.5140    2.7060    0.2237    3.6060   37.0000 
2395.1188  137.4360    2.7160    0.2368    3.8590   37.0000 
2395.4236  114.0200    2.7210    0.2277    4.8480   37.0000 
2395.7284  104.2260    2.7110    0.1610    4.5450   37.0000 
2396.0332  124.8200    2.7200    0.1585    3.8280   37.0000 
2396.3380  130.0110    2.7240    0.2224    4.1270   37.0000 
2396.6428  126.5430    2.7090    0.2174    4.2220   37.0000 
2396.9476  129.5400    2.7170    0.2127    3.9270   37.0000 
2397.2524  126.4140    2.7130    0.2114    4.0590   37.0000 
2397.5572  123.1250    2.7180    0.1986    4.2760   37.0000 
2397.8620  124.7910    2.7180    0.1918    4.2980   37.0000 
2398.1668  127.3050    2.7130    0.1949    4.1520   37.0000 
2398.4716  125.2700    2.7240    0.2184    4.3590   37.0000 
2398.7764  119.3690    2.7270    0.2051    4.2590   37.0000 
2399.0812  122.8830    2.7230    0.1918    3.9590   37.0000 
2399.3860  132.0780    2.7220    0.1948    4.0740   37.0000 
2399.6908  133.4940    2.7180    0.1972    4.0400   37.0000 
2399.9956  129.0150    2.7240    0.2044    4.0890   37.0000 
2400.3004  130.4360    2.7220    0.2240    3.9160   37.0000 
2400.6052  133.1310    2.7180    0.2303    3.8020   37.0000 
2400.9100  130.5590    2.7130    0.2299    3.7850   37.0000 
2401.2148  127.3200    2.7310    0.2298    3.8220   37.0000 
2401.5196  124.1490    2.7230    0.2225    3.8600   37.0000 
2401.8244  129.3440    2.7160    0.2285    3.8100   37.0000 
2402.1292  136.2740    2.7170    0.2335    4.1880   37.0000 
2402.4340  131.6270    2.7070    0.2206    4.2620   37.0000 
2402.7388  135.1910    2.7160    0.2280    4.1040   37.0000 
2403.0436  137.3370    2.7270    0.2274    3.9470   37.0000 
2403.3484  133.4520    2.7330    0.2293    3.8830   37.0000 
2403.6532  134.4090    2.7280    0.2382    3.7690   37.0000 
2403.9580  136.3620    2.7120    0.2502    3.6340   37.0000 
2404.2628  135.7020    2.7160    0.2517    3.6370   37.0000 
2404.5676  138.4350    2.7180    0.2471    3.6310   37.0000 
2404.8724  141.6470    2.7010    0.2468    3.7810   37.0000 
2405.1772  146.4200    2.7000    0.2585    3.8900   37.0000 
2405.4820  145.3470    2.7010    0.2564    3.9880   37.0000 
2405.7868  138.3650    2.6890    0.2514    3.9420   37.0000 
2406.0916  139.0770    2.6980    0.2553    3.9000   37.0000 
2406.3964  141.4520    2.6920    0.2443    3.7870   37.0000 
2406.7012  138.4170    2.7040    0.2306    3.8820   37.0000 
2407.0060  134.5280    2.7010    0.2169    3.9050   37.0000 
2407.3108  131.2370    2.7150    0.2071    3.6960   37.0000 
2407.6156  133.5060    2.7270    0.2211    3.9510   37.0000 
2407.9204  131.3400    2.7260    0.2313    4.0240   37.0000 
2408.2252  133.4900    2.7130    0.2402    3.9840   37.0000 
2408.5300  128.9030    2.7050    0.2241    3.9210   37.0000 
2408.8348  119.8290    2.7120    0.2082    4.1300   37.0000 
2409.1396  113.8590    2.6990    0.1988    4.2570   37.0000 
2409.4444  113.4320    2.6940    0.1938    3.7540   37.0000 
2409.7492  120.7160    2.7290    0.1936    4.0200   37.0000 
2410.0540  105.9630    2.7210    0.1582    4.3720   37.0000 
2410.3588   76.7810    2.7110    0.1222    4.1090   22.0000 
2410.6636   62.3850    2.7180    0.0927    4.1030   22.0000 
2410.9684   57.1190    2.7170    0.0601    4.7000   22.0000 
2411.2732   65.5410    2.7030    0.0581    4.7140   22.0000 
2411.5780   79.0730    2.7090    0.0896    4.3080   22.0000 
2411.8828   88.4460    2.6970    0.1127    4.0550   22.0000 
2412.1876   85.8540    2.7050    0.1035    4.1130   22.0000 
2412.4924   80.3730    2.7080    0.1143    4.2720   22.0000 
2412.7972   90.5250    2.6840    0.1308    4.4850   22.0000 
2413.1020  107.8380    2.6930    0.1475    4.1080   37.0000 
2413.4068  109.6140    2.7030    0.1724    4.2810   37.0000 
2413.7116   92.2970    2.6970    0.1406    4.4680   37.0000 
2414.0164   66.1010    2.7070    0.0807    4.6320   22.0000 
2414.3212   48.7100    2.7120    0.0312    4.5560   18.0000 
2414.6260   48.2750    2.7180    0.0243    4.3460   18.0000 
2414.9308   48.0360    2.7230    0.0263    4.5330   18.0000 
