~VERSION INFORMATION
 VERS.                 2.0:   CWLS LOG ASCII STANDARD - VERSION 2.0
 WRAP.                  NO:   SINGLE LINE PER DEPTH STEP
 CREA.                 05/01/2018 16:52:08
#CREATED USING DSPetro VERSION 5000.10.1.3 BY H191660 ON 05/01/2018 16:52:08
~WELL INFORMATION
#MNEM.UNIT       DATA                          DESCRIPTION MNEMONIC
#---------      ---------------------------   --------------------------
 STRT    .M         1570.3300                 : START DEPTH
 STOP    .M         2429.2564                 : STOP DEPTH
 STEP    .M         0.3048                    : STEP VALUE
 NULL    .      -999.0000                     : NULL VALUE
 DATE    .      05/01/2018                    : LAS file Creation Date
 WELL .      BOYD_1_10_M4996             : Well Name
 COMP .      Neftex Exploration Insights : Company
 FLD  .                                  : Field
 UWI  .      DUSWL_BOYD_1                : Unique Well Identifier (UWI)
 LOC  .                                  : Location
 RWS  .      -999                        : Def_Rw
 WST  .      -999                        : Def_Rwt
 SRVC .                                  : Contractor
~CURVE INFORMATION
#MNEM              UNIT       API CODE   Curve Type Comments
#----------  --------------- ----------  ---------- -----------
 DEPTH      .M                         : Depth       
 GR_API     .API                       : GammaRay    Gamma Ray (API) - Measures the intensity of natural gamma-ray radiation emitted from formations containing radioactive elements, such as K, Th and U
 RHOZ_G_CC  .g/cc                      :             Formation Density - Measures the density of formation, including any void space or other materials contained in the subject volume
 NPHI_v_v   .dec                       : Neutron     
 PEF_B_E    .b/e-                      : PEF         Photoelectric Factor - A log of photoelectric absorption properties. Often expressed in an approximation unit barns/electron (b/e-)
 LITH       .                          :             
~A  DEPTH   GR_API  RHOZ_G_C~  NPHI_v_v  PEF_B_E     LITH   
# ...
2214.0676    0.0000    2.0540   -0.0234    4.0510   16.0000 
2214.3724    0.0000    2.0520   -0.0235    3.9410   16.0000 
2214.6772    0.0000    2.0610   -0.0236    3.9270   16.0000 
2214.9820    0.0000    2.0620   -0.0236    3.8540   16.0000 
2215.2868    0.0000    2.0600   -0.0238    3.9830   16.0000 
2215.5916    0.0000    2.0520   -0.0237    4.0510   16.0000 
2215.8964    0.0000    2.0490   -0.0237    3.9840   16.0000 
2216.2012    0.0000    2.0520   -0.0236    3.9300   16.0000 
2216.5060    0.0000    2.0560   -0.0234    4.0680   16.0000 
2216.8108    0.0000    2.0530   -0.0238    3.9410   16.0000 
2217.1156    0.0000    2.0650   -0.0240    4.0740   16.0000 
2217.4204    0.0000    2.0510   -0.0242    3.9870   16.0000 
2217.7252    0.0000    2.0550   -0.0241    4.0040   16.0000 
2218.0300    0.0000    2.0550   -0.0241    4.0780   16.0000 
2218.3348    0.0000    2.0510   -0.0239    4.1840   16.0000 
2218.6396    0.0000    2.0480   -0.0240    4.1150   16.0000 
2218.9444    0.0000    2.0460   -0.0238    4.0340   16.0000 
2219.2492    0.0000    2.0390   -0.0236    4.1070   16.0000 
2219.5540    0.0000    2.0410   -0.0237    4.0900   16.0000 
2219.8588    0.0000    2.0500   -0.0238    4.0400   16.0000 
2220.1636    0.0000    2.0570   -0.0238    4.0820   16.0000 
2220.4684    0.0000    2.0530   -0.0242    3.9640   16.0000 
2220.7732    0.0000    2.0560   -0.0243    4.0120   16.0000 
2221.0780    0.0000    2.0510   -0.0241    4.1100   16.0000 
2221.3828    0.0000    2.0430   -0.0238    4.0340   16.0000 
2221.6876    0.0000    2.0400   -0.0238    4.1180   16.0000 
2221.9924    0.0000    2.0390   -0.0237    4.1540   16.0000 
2222.2972    0.0000    2.0330   -0.0238    3.9750   16.0000 
2222.6020    0.0000    2.0400   -0.0237    4.0300   16.0000 
2222.9068    0.0000    2.0520   -0.0238    3.9170   16.0000 
2223.2116    0.0000    2.0440   -0.0238    3.7860   16.0000 
2223.5164    0.0000    2.0420   -0.0238    3.8440   16.0000 
2223.8212    0.0000    2.0620   -0.0238    3.9820   16.0000 
2224.1260    0.0000    2.0540   -0.0236    3.8440   16.0000 
2224.4308    0.0000    2.0450   -0.0233    3.8840   16.0000 
2224.7356    0.0000    2.0440   -0.0231    3.9780   16.0000 
2225.0404    0.0000    2.0430   -0.0232    3.8150   16.0000 
2225.3452    0.0000    2.0420   -0.0235    3.8460   16.0000 
2225.6500    0.0000    2.0430   -0.0230    3.8760   16.0000 
2225.9548    0.0000    2.0470   -0.0231    3.8810   16.0000 
2226.2596    0.0000    2.0540   -0.0231    3.9240   16.0000 
2226.5644    0.0000    2.0530   -0.0232    3.9840   16.0000 
2226.8692    0.0000    2.0480   -0.0225    4.0360   16.0000 
2227.1740    0.0000    2.0500   -0.0229    3.9650   16.0000 
2227.4788    0.0000    2.0420   -0.0234    3.9930   16.0000 
2227.7836    0.0000    2.0710   -0.0232    3.9530   16.0000 
2228.0884    0.0000    2.0730   -0.0229    3.8870   16.0000 
2228.3932    0.0000    2.0720   -0.0231    3.8540   16.0000 
2228.6980    0.0000    2.0650   -0.0231    3.9620   16.0000 
2229.0028    0.0000    2.0710   -0.0229    3.9040   16.0000 
2229.3076    0.0000    2.0670   -0.0229    3.9140   16.0000 
2229.6124    0.0000    2.0540   -0.0229    3.8030   16.0000 
2229.9172    0.0000    2.0640   -0.0230    3.8790   16.0000 
2230.2220    0.0000    2.0550   -0.0226    3.9260   16.0000 
2230.5268    0.0000    2.0510   -0.0224    3.8860   16.0000 
2230.8316    0.0000    2.0500   -0.0230    3.9540   16.0000 
2231.1364    0.0000    2.0570   -0.0236    3.9560   16.0000 
2231.4412    0.0000    2.0650   -0.0229    3.7440   16.0000 
2231.7460    0.0000    2.0720   -0.0231    3.8370   16.0000 
2232.0508    0.0000    2.0640   -0.0234    4.0030   16.0000 
2232.3556    0.0000    2.0660   -0.0237    3.7660   16.0000 
2232.6604    0.0000    2.0680   -0.0238    3.8230   16.0000 
2232.9652    0.0000    2.0580   -0.0234    4.0110   16.0000 
2233.2700    0.0000    2.0480   -0.0235    4.1840   16.0000 
2233.5748    0.0000    2.0440   -0.0232    3.7440   16.0000 
2233.8796    0.0000    1.9140   -0.0232    3.0170   11.0000 
2234.1844    0.0000    1.7030   -0.0211    2.3700   11.0000 
2234.4892    0.0000    1.6810   -0.0159    2.7110   11.0000 
2234.7940    0.0000    1.8500   -0.0207    3.0920   11.0000 
2235.0988    0.0000    1.8880   -0.0209    2.7930   11.0000 
2235.4036    0.0000    1.8750   -0.0180    2.7600   11.0000 
2235.7084    0.0000    1.8940   -0.0228    2.8290   11.0000 
2236.0132    0.0000    1.8820   -0.0218    2.7060   11.0000 
2236.3180    0.0000    1.9300   -0.0201    3.4100   16.0000 
2236.6228    0.0000    2.0470   -0.0221    3.7360   16.0000 
2236.9276    0.0000    2.0470   -0.0227    3.7220   16.0000 
2237.2324    0.0000    2.0370   -0.0229    3.7680   16.0000 
2237.5372    0.0000    1.9920   -0.0199    3.3380   16.0000 
2237.8420    0.0000    1.8380   -0.0174    2.8740   11.0000 
2238.1468    0.0000    1.7250   -0.0109    2.8780   11.0000 
2238.4516    0.0000    1.7590   -0.0133    2.9060   11.0000 
2238.7564    0.0000    1.7220   -0.0159    2.6350   11.0000 
2239.0612    0.0000    1.7580   -0.0173    3.1630   11.0000 
2239.3660    0.0000    1.9440   -0.0185    3.4080   16.0000 
2239.6708    0.0000    1.9060   -0.0200    2.4120   11.0000 
2239.9756    0.0000    1.6430   -0.0124    2.2060   11.0000 
2240.2804    0.0000    1.7060   -0.0124    3.1540   11.0000 
2240.5852    0.0000    1.9940   -0.0188    3.7670   16.0000 
2240.8900    0.0000    2.0610   -0.0215    3.8670   16.0000 
2241.1948    0.0000    2.0530   -0.0229    3.8970   16.0000 
2241.4996    0.0000    2.0580   -0.0233    3.9450   16.0000 
2241.8044    0.0000    2.0600   -0.0230    3.9510   16.0000 
2242.1092    0.0000    2.0590   -0.0231    3.8710   16.0000 
2242.4140    0.0000    2.0560   -0.0233    3.8910   16.0000 
2242.7188    0.0000    2.0570   -0.0239    3.9190   16.0000 
2243.0236    0.0000    2.0480   -0.0242    3.8070   16.0000 
2243.3284    0.0000    2.0580   -0.0240    3.9030   16.0000 
2243.6332    0.0000    2.0580   -0.0241    3.9650   16.0000 
2243.9380    0.0000    2.0020   -0.0236    3.9370   16.0000 
2244.2428    0.0000    1.9180   -0.0230    3.4180   16.0000 
2244.5476    0.0000    1.8300   -0.0217    3.0870   11.0000 
2244.8524    0.0000    1.7640   -0.0209    2.9760   11.0000 
2245.1572    0.0000    1.7280   -0.0210    2.7110   11.0000 
2245.4620    0.0000    1.7340   -0.0176    2.9110   11.0000 
2245.7668    0.0000    1.8610   -0.0185    3.0260   11.0000 
2246.0716    0.0000    1.9600   -0.0207    3.4270   16.0000 
2246.3764    0.0000    2.0210   -0.0225    3.8610   16.0000 
2246.6812    0.0000    2.0520   -0.0230    4.0780   16.0000 
2246.9860    0.0000    2.0260   -0.0231    4.0380   16.0000 
2247.2908    0.0000    1.9710   -0.0230    2.8460   11.0000 
2247.5956    0.0000    1.8600   -0.0218    2.6850   11.0000 
2247.9004    0.0000    1.9180   -0.0177    3.5270   16.0000 
2248.2052    0.0000    2.0390   -0.0214    4.0170   16.0000 
2248.5100    0.0000    2.0500   -0.0222    4.0290   16.0000 
2248.8148    0.0000    2.0380   -0.0228    3.9620   16.0000 
2249.1196    0.0000    2.0480   -0.0221    3.8480   16.0000 
2249.4244    0.0000    2.0500   -0.0227    3.7250   16.0000 
2249.7292    0.0000    2.0450   -0.0226    3.7560   16.0000 
2250.0340    0.0000    2.0530   -0.0227    3.8530   16.0000 
2250.3388    0.0000    2.0060   -0.0213    3.6060   16.0000 
2250.6436    0.0000    1.9720   -0.0217    3.5160   16.0000 
2250.9484    0.0000    1.9550   -0.0214    3.6040   16.0000 
2251.2532    0.0000    2.0250   -0.0227    3.7340   16.0000 
2251.5580    0.0000    2.0470   -0.0234    3.7940   16.0000 
2251.8628    0.0000    2.0480   -0.0234    3.8030   16.0000 
2252.1676    0.0000    2.0430   -0.0228    3.9190   16.0000 
2252.4724    0.0000    2.0430   -0.0227    4.0450   16.0000 
2252.7772    0.0000    2.0470   -0.0225    4.0570   16.0000 
2253.0820    0.0000    2.0410   -0.0227    4.0330   16.0000 
2253.3868    0.0000    2.0360   -0.0227    3.9810   16.0000 
2253.6916    0.0000    2.0380   -0.0228    3.9810   16.0000 
2253.9964    0.0000    1.9740   -0.0225    3.9560   16.0000 
