~VERSION INFORMATION
 VERS.                 2.0:   CWLS LOG ASCII STANDARD - VERSION 2.0
 WRAP.                  NO:   SINGLE LINE PER DEPTH STEP
 CREA.                 05/01/2018 16:52:08
#CREATED USING DSPetro VERSION 5000.10.1.3 BY H191660 ON 05/01/2018 16:52:08
~WELL INFORMATION
#MNEM.UNIT       DATA                          DESCRIPTION MNEMONIC
#---------      ---------------------------   --------------------------
 STRT    .M         1570.3300                 : START DEPTH
 STOP    .M         2429.2564                 : STOP DEPTH
 STEP    .M         0.3048                    : STEP VALUE
 NULL    .      -999.0000                     : NULL VALUE
 DATE    .      05/01/2018                    : LAS file Creation Date
 WELL .      BOYD_1_10_M4996             : Well Name
 COMP .      Neftex Exploration Insights : Company
 FLD  .                                  : Field
 UWI  .      DUSWL_BOYD_1                : Unique Well Identifier (UWI)
 LOC  .                                  : Location
 RWS  .      -999                        : Def_Rw
 WST  .      -999                        : Def_Rwt
 SRVC .                                  : Contractor
~CURVE INFORMATION
#MNEM              UNIT       API CODE   Curve Type Comments
#----------  --------------- ----------  ---------- -----------
 DEPTH      .M                         : Depth       
 GR_API     .API                       : GammaRay    Gamma Ray (API) - Measures the intensity of natural gamma-ray radiation emitted from formations containing radioactive elements, such as K, Th and U
 RHOZ_G_CC  .g/cc                      :             Formation Density - Measures the density of formation, including any void space or other materials contained in the subject volume
 NPHI_v_v   .dec                       : Neutron     
 PEF_B_E    .b/e-                      : PEF         Photoelectric Factor - A log of photoelectric absorption properties. Often expressed in an approximation unit barns/electron (b/e-)
 LITH       .                          :             
~A  DEPTH   GR_API  RHOZ_G_C~  NPHI_v_v  PEF_B_E     LITH   
# ...
2173.8340   11.2530    2.0880   -0.0220    3.9200   16.0000 
2174.1388   11.9160    2.0820   -0.0220    3.8530   16.0000 
2174.4436   12.1670    2.0810   -0.0225    3.9200   16.0000 
2174.7484   10.0770    2.0820   -0.0227    3.9970   16.0000 
2175.0532   11.5160    2.0840   -0.0228    4.0680   16.0000 
2175.3580   12.4170    2.0820   -0.0218    4.0880   16.0000 
2175.6628   11.2880    2.0940   -0.0223    4.0200   16.0000 
2175.9676   10.2210    2.1030   -0.0221    3.9490   16.0000 
2176.2724   10.2180    2.1080   -0.0214    3.8790   16.0000 
2176.5772   11.3600    2.1080   -0.0215    3.9530   16.0000 
2176.8820   10.7480    2.0930   -0.0220    3.8990   16.0000 
2177.1868   11.8910    2.1090   -0.0223    3.8170   16.0000 
2177.4916   12.4940    2.1160   -0.0224    3.9540   16.0000 
2177.7964   10.7730    2.0870   -0.0231    3.8600   16.0000 
2178.1012   10.0040    2.0670   -0.0233    3.9780   16.0000 
2178.4060   10.2900    2.0700   -0.0233    3.9660   16.0000 
2178.7108   11.3130    2.0690   -0.0233    3.9160   16.0000 
2179.0156   10.4300    2.0650   -0.0231    3.9020   16.0000 
2179.3204    9.7740    2.0610   -0.0228    3.9240   16.0000 
2179.6252    9.4470    2.0580   -0.0230    3.8700   16.0000 
2179.9300   10.6280    2.0610   -0.0231    3.9570   16.0000 
2180.2348   11.5250    2.0640   -0.0232    3.9980   16.0000 
2180.5396   11.5370    2.0650   -0.0226    3.8450   16.0000 
2180.8444   10.6350    2.0750   -0.0224    3.9310   16.0000 
2181.1492   12.3720    2.0820   -0.0226    3.9350   16.0000 
2181.4540   12.6080    2.0710   -0.0227    3.9190   16.0000 
2181.7588   10.7660    2.0660   -0.0226    4.0110   16.0000 
2182.0636    9.6390    2.0600   -0.0223    4.0470   16.0000 
2182.3684   10.5390    2.0590   -0.0227    3.9870   16.0000 
2182.6732   10.3130    2.0620   -0.0213    3.9480   16.0000 
2182.9780   11.4530    2.0650   -0.0207    3.8740   16.0000 
2183.2828   11.5880    2.0680   -0.0212    4.0720   16.0000 
2183.5876   10.0940    2.0690   -0.0219    4.1730   16.0000 
2183.8924   11.1200    2.0590   -0.0220    4.2090   16.0000 
2184.1972   10.0440    2.0470   -0.0222    4.0680   16.0000 
2184.5020   10.8270    2.0590   -0.0223    3.8270   16.0000 
2184.8068   10.4730    2.0670   -0.0221    3.6520   16.0000 
2185.1116   11.6630    2.0730   -0.0213    3.5840   16.0000 
2185.4164   12.6180    2.0810   -0.0212    3.8180   16.0000 
2185.7212   11.3690    2.0800   -0.0209    4.1220   16.0000 
2186.0260   11.8550    2.0650   -0.0205    4.2270   16.0000 
2186.3308   10.9610    2.0610   -0.0198    4.1500   16.0000 
2186.6356   10.5900    2.0600   -0.0200    3.6250   16.0000 
2186.9404   11.8400    2.0560   -0.0114    3.1230   16.0000 
2187.2452   14.1270    2.1720    0.0138    2.9960   16.0000 
2187.5500   16.9320    2.4720    0.0278    2.8970   16.0000 
2187.8548   21.3630    2.7380    0.0363    2.9340   12.0000 
2188.1596   25.9640    2.7450    0.0470    2.9070   12.0000 
2188.4644   24.1220    2.7560    0.0488    2.8130   12.0000 
2188.7692   23.1660    2.7570    0.0519    2.7670   12.0000 
2189.0740   25.2660    2.7360    0.0609    2.6960   12.0000 
2189.3788   21.6330    2.7230    0.0750    2.8120   12.0000 
2189.6836   22.1700    2.7300    0.0766    2.8590   12.0000 
2189.9884   24.3230    2.7550    0.0845    2.8520   12.0000 
2190.2932   25.6380    2.7790    0.0919    2.9270   12.0000 
2190.5980   25.7130    2.7640    0.0869    2.9970   12.0000 
2190.9028   27.2070    2.7480    0.1048    2.9470   12.0000 
2191.2076   25.7820    2.7660    0.1336    3.1390   12.0000 
2191.5124   27.6330    2.7650    0.1286    3.0210   12.0000 
2191.8172   27.8790    2.7580    0.1218    2.8670   12.0000 
2192.1220   25.9040    2.7630    0.1251    2.9480   12.0000 
2192.4268   24.7620    2.7470    0.1366    2.9920   12.0000 
2192.7316   26.0990    2.7510    0.1286    2.9740   12.0000 
2193.0364   25.1390    2.7760    0.1276    2.8790   12.0000 
2193.3412   25.3920    2.8100    0.1229    3.0560   12.0000 
2193.6460   27.1140    2.7980    0.1186    3.3030   12.0000 
2193.9508   28.3100    2.7780    0.1348    3.0540   12.0000 
2194.2556   25.0370    2.7470    0.1443    3.1040   12.0000 
2194.5604   26.8370    2.7220    0.1260    3.0640   12.0000 
2194.8652   29.0330    2.7550    0.1292    3.3270   12.0000 
2195.1700   32.5130    2.7740    0.1450    3.1620   12.0000 
2195.4748   29.2880    2.7110    0.1708    3.2500   12.0000 
2195.7796   28.4520    2.7140    0.1822    3.2480   12.0000 
2196.0844   26.8920    2.7460    0.1435    3.2000   12.0000 
2196.3892   24.9860    2.7530    0.1311    3.2060   12.0000 
2196.6940   26.7660    2.7200    0.1327    3.0010   12.0000 
2196.9988   28.9380    2.7270    0.1643    2.8360   12.0000 
2197.3036   28.3920    2.7400    0.1373    3.0170   12.0000 
2197.6084   28.9920    2.7460    0.1066    3.1230   12.0000 
2197.9132   27.6870    2.7460    0.1114    2.9380   12.0000 
2198.2180   26.5710    2.7360    0.1302    3.1520   12.0000 
2198.5228   27.5900    2.7550    0.1434    3.3290   12.0000 
2198.8276   28.1270    2.7320    0.1134    3.3850   12.0000 
2199.1324   26.3910    2.7070    0.1301    3.0660   12.0000 
2199.4372   26.2200    2.6920    0.1701    3.1420   12.0000 
2199.7420   25.4490    2.6750    0.1890    3.1020   12.0000 
2200.0468   24.1940    2.7110    0.1482    3.0760   12.0000 
2200.3516   23.7830    2.7330    0.1306    2.9610   12.0000 
2200.6564   26.5370    2.7530    0.1286    2.9750   12.0000 
2200.9612   25.9440    2.7820    0.1016    2.9150   12.0000 
2201.2660   28.6910    2.7940    0.0868    3.0250   12.0000 
2201.5708   30.4860    2.7710    0.0793    2.9060   12.0000 
2201.8756   32.3580    2.7620    0.0652    2.8800   12.0000 
2202.1804   34.2330    2.7310    0.0583    2.9500   12.0000 
2202.4852   36.1950    2.6800    0.0491    3.1020   16.0000 
2202.7900   38.3390    2.6350    0.0387    3.2120   16.0000 
2203.0948   39.4850    2.6660    0.0313    3.3550   16.0000 
2203.3996   36.0860    2.5790    0.0161    3.4800   16.0000 
2203.7044   39.4190    2.4940    0.0182    3.4920   16.0000 
2204.0092   36.1550    2.5850    0.0290    3.5560   16.0000 
2204.3140   26.2430    2.1980   -0.0014    3.3830   16.0000 
2204.6188   13.6590    2.0750   -0.0189    3.7600   16.0000 
2204.9236   12.7490    2.0780   -0.0225    3.9790   16.0000 
2205.2284   13.0020    2.0590   -0.0216    3.8590   16.0000 
2205.5332   12.2210    2.0610   -0.0224    3.8950   16.0000 
2205.8380   10.1310    2.0610   -0.0229    3.9750   16.0000 
2206.1428   11.5190    2.0520   -0.0232    3.9540   16.0000 
2206.4476   10.8110    2.0560   -0.0233    3.8680   16.0000 
2206.7524   11.1050    2.0620   -0.0235    3.8060   16.0000 
2207.0572   11.2860    2.0560   -0.0230    3.9040   16.0000 
2207.3620   13.6310    2.0550   -0.0232    4.0140   16.0000 
2207.6668   14.0570    2.0580   -0.0233    4.0780   16.0000 
2207.9716   12.2030    2.0640   -0.0231    4.0700   16.0000 
2208.2764   13.1130    2.0600   -0.0239    3.7900   16.0000 
2208.5812    0.0000    2.0610   -0.0238    3.7980   16.0000 
2208.8860    0.0000    2.0630   -0.0236    3.8680   16.0000 
2209.1908    0.0000    2.0660   -0.0229    3.9180   16.0000 
2209.4956    0.0000    2.0620   -0.0228    3.8640   16.0000 
2209.8004    0.0000    2.0670   -0.0237    3.7740   16.0000 
2210.1052    0.0000    2.0650   -0.0240    3.8560   16.0000 
2210.4100    0.0000    2.0560   -0.0233    3.9620   16.0000 
2210.7148    0.0000    2.0620   -0.0234    3.9160   16.0000 
2211.0196    0.0000    2.0590   -0.0235    3.7810   16.0000 
2211.3244    0.0000    2.0620   -0.0236    3.8950   16.0000 
2211.6292    0.0000    2.0630   -0.0240    3.8530   16.0000 
2211.9340    0.0000    2.0580   -0.0241    3.9400   16.0000 
2212.2388    0.0000    2.0530   -0.0241    3.9940   16.0000 
2212.5436    0.0000    2.0520   -0.0240    4.0060   16.0000 
2212.8484    0.0000    2.0410   -0.0238    4.0420   16.0000 
2213.1532    0.0000    2.0430   -0.0235    4.0130   16.0000 
2213.4580    0.0000    2.0550   -0.0235    4.0900   16.0000 
2213.7628    0.0000    2.0560   -0.0233    4.1720   16.0000 
