~VERSION INFORMATION
 VERS.                 2.0:   CWLS LOG ASCII STANDARD - VERSION 2.0
 WRAP.                  NO:   SINGLE LINE PER DEPTH STEP
 CREA.                 05/01/2018 16:52:08
#CREATED USING DSPetro VERSION 5000.10.1.3 BY H191660 ON 05/01/2018 16:52:08
~WELL INFORMATION
#MNEM.UNIT       DATA                          DESCRIPTION MNEMONIC
#---------      ---------------------------   --------------------------
 STRT    .M         1570.3300                 : START DEPTH
 STOP    .M         2429.2564                 : STOP DEPTH
 STEP    .M         0.3048                    : STEP VALUE
 NULL    .      -999.0000                     : NULL VALUE
 DATE    .      05/01/2018                    : LAS file Creation Date
 WELL .      BOYD_1_10_M4996             : Well Name
 COMP .      Neftex Exploration Insights : Company
 FLD  .                                  : Field
 UWI  .      DUSWL_BOYD_1                : Unique Well Identifier (UWI)
 LOC  .                                  : Location
 RWS  .      -999                        : Def_Rw
 WST  .      -999                        : Def_Rwt
 SRVC .                                  : Contractor
~CURVE INFORMATION
#MNEM              UNIT       API CODE   Curve Type Comments
#----------  --------------- ----------  ---------- -----------
 DEPTH      .M                         : Depth       
 GR_API     .API                       : GammaRay    Gamma Ray (API) - Measures the intensity of natural gamma-ray radiation emitted from formations containing radioactive elements, such as K, Th and U
 RHOZ_G_CC  .g/cc                      :             Formation Density - Measures the density of formation, including any void space or other materials contained in the subject volume
 NPHI_v_v   .dec                       : Neutron     
 PEF_B_E    .b/e-                      : PEF         Photoelectric Factor - A log of photoelectric absorption properties. Often expressed in an approximation unit barns/electron (b/e-)
 LITH       .                          :             
~A  DEPTH   GR_API  RHOZ_G_C~  NPHI_v_v  PEF_B_E     LITH   
# ...
2334.7684   30.0890    2.7140    0.0098    4.7280   18.0000 
2335.0732   28.0500    2.7160    0.0129    4.8360   18.0000 
2335.3780   34.9290    2.7140    0.0113    4.4000   18.0000 
2335.6828   38.8490    2.7220    0.0139    4.4230   18.0000 
2335.9876   40.3940    2.7270    0.0147    4.3970   18.0000 
2336.2924   34.1930    2.7190    0.0127    4.3610   18.0000 
2336.5972   27.9810    2.7090    0.0096    4.5050   18.0000 
2336.9020   26.4900    2.6950    0.0078    4.7050   18.0000 
2337.2068   25.9410    2.6930    0.0062    4.7850   18.0000 
2337.5116   25.0950    2.7090    0.0060    4.6380   18.0000 
2337.8164   26.4020    2.7190    0.0057    4.4030   18.0000 
2338.1212   26.9300    2.7170    0.0059    4.3010   18.0000 
2338.4260   26.5650    2.7140    0.0080    4.3310   18.0000 
2338.7308   26.3150    2.7300    0.0098    4.3540   18.0000 
2339.0356   28.2470    2.7250    0.0111    4.2470   18.0000 
2339.3404   26.9690    2.7220    0.0119    4.2550   18.0000 
2339.6452   30.0230    2.7280   -0.0004    4.0750   18.0000 
2339.9500   32.3340    2.7420    0.0109    3.8520   18.0000 
2340.2548   32.0930    2.7310    0.0114    4.2520   18.0000 
2340.5596   30.1370    2.7210    0.0117    4.7650   18.0000 
2340.8644   27.8460    2.7130    0.0096    4.6120   18.0000 
2341.1692   27.3810    2.7130    0.0059    5.0500   18.0000 
2341.4740   30.5430    2.7210    0.0052    5.3030   18.0000 
2341.7788   33.2730    2.7140    0.0080    5.0860   18.0000 
2342.0836   33.9240    2.7240    0.0085    4.7970   18.0000 
2342.3884   29.7630    2.7160    0.0080    4.2990   18.0000 
2342.6932   31.5960    2.7070    0.0068    4.5120   18.0000 
2342.9980   31.7690    2.7030    0.0067    4.6920   18.0000 
2343.3028   30.4410    2.7020    0.0068    4.9060   18.0000 
2343.6076   28.4180    2.7060    0.0068    5.0510   18.0000 
2343.9124   27.9210    2.7070    0.0058    4.8340   18.0000 
2344.2172   31.0850    2.6980    0.0067    4.7100   18.0000 
2344.5220   32.2920    2.7040    0.0072    4.9310   18.0000 
2344.8268   30.5520    2.7080    0.0067    4.7940   18.0000 
2345.1316   36.4580    2.7070    0.0072    4.6460   18.0000 
2345.4364   40.2030    2.6970    0.0097    5.0050   18.0000 
2345.7412   39.1890    2.6870    0.0088    5.2590   18.0000 
2346.0460   36.4260    2.6950    0.0063    5.3370   18.0000 
2346.3508   34.0910    2.6990    0.0075    4.8390   18.0000 
2346.6556   33.2570    2.7120    0.0087    4.6830   18.0000 
2346.9604   39.8850    2.7100    0.0106    4.6020   18.0000 
2347.2652   39.9450    2.7030    0.0112    4.9160   18.0000 
2347.5700   35.6250    2.7000    0.0091    5.2770   18.0000 
2347.8748   33.2360    2.7040    0.0073    4.7270   18.0000 
2348.1796   50.3220    2.6990    0.0089    4.6550   18.0000 
2348.4844   58.8560    2.6830    0.0148    4.2990   18.0000 
2348.7892   60.6420    2.6820    0.0160    4.1230   18.0000 
2349.0940   54.2070    2.6840    0.0169    4.1470   18.0000 
2349.3988   58.0200    2.6810    0.0168    4.3560   18.0000 
2349.7036   60.8730    2.6930    0.0157    4.5850   18.0000 
2350.0084   60.3920    2.7000    0.0144    4.7860   18.0000 
2350.3132   61.2210    2.7050    0.0140    4.6600   18.0000 
2350.6180   61.9370    2.7050    0.0150    4.3580   18.0000 
2350.9228   59.1920    2.7010    0.0165    4.5610   18.0000 
2351.2276   58.5890    2.6910    0.0151    4.7360   18.0000 
2351.5324   53.1500    2.6910    0.0118    4.7220   18.0000 
2351.8372   40.6650    2.7030    0.0080    4.6200   18.0000 
2352.1420   47.8370    2.7070    0.0073    4.6480   18.0000 
2352.4468   63.3470    2.7010    0.0108    4.7450   18.0000 
2352.7516   69.3720    2.6930    0.0147    4.9960   18.0000 
2353.0564   51.5240    2.6990    0.0099    4.8860   18.0000 
2353.3612   45.6750    2.6980    0.0065    4.7470   18.0000 
2353.6660   55.9370    2.6740    0.0078    4.6550   18.0000 
2353.9708   60.4040    2.6830    0.0098    4.9160   18.0000 
2354.2756   50.7290    2.6900    0.0066    5.1190   18.0000 
2354.5804   46.0620    2.6930    0.0075    5.2630   18.0000 
2354.8852   64.0970    2.6960    0.0108    5.0110   18.0000 
2355.1900   60.9150    2.7000    0.0074    5.2260   18.0000 
2355.4948   39.4850    2.6990    0.0042    5.5270   18.0000 
2355.7996   29.5140    2.6950    0.0035    5.3230   18.0000 
2356.1044   25.2620    2.6900    0.0028    5.0720   18.0000 
2356.4092   22.5180    2.6810    0.0021    4.9130   18.0000 
2356.7140   24.0090    2.6900    0.0024    4.7890   18.0000 
2357.0188   29.3760    2.6990    0.0064    4.9280   18.0000 
2357.3236   30.8070    2.6990    0.0069    5.0600   18.0000 
2357.6284   35.1570    2.6960    0.0048    5.1150   18.0000 
2357.9332   39.3360    2.6860    0.0067    4.8000   18.0000 
2358.2380   31.5090    2.6930    0.0067    4.6390   18.0000 
2358.5428   34.4220    2.6930    0.0019    4.8820   18.0000 
2358.8476   38.4890    2.6910    0.0011    4.8060   18.0000 
2359.1524   36.3810    2.6950    0.0017    4.9830   18.0000 
2359.4572   35.5370    2.6990    0.0023    4.9010   18.0000 
2359.7620   39.6680    2.7000    0.0032    4.7060   18.0000 
2360.0668   37.9160    2.7020    0.0036    4.7140   18.0000 
2360.3716   34.5200    2.7090    0.0037    4.8750   18.0000 
2360.6764   28.8560    2.7120    0.0028    5.1850   18.0000 
2360.9812   27.8910    2.7020    0.0025    5.0160   18.0000 
2361.2860   29.2620    2.6980    0.0021    4.5860   18.0000 
2361.5908   29.3210    2.7000    0.0016    4.7080   18.0000 
2361.8956   30.0860    2.7010    0.0018    4.7570   18.0000 
2362.2004   31.6940    2.7030    0.0037    4.6300   18.0000 
2362.5052   31.0430    2.6920    0.0032    4.5910   18.0000 
2362.8100   30.3240    2.6960    0.0026    5.1040   18.0000 
2363.1148   36.7700    2.6910    0.0025    5.0660   18.0000 
2363.4196   40.5290    2.6830    0.0024    4.8700   18.0000 
2363.7244   42.1320    2.6770    0.0027    4.7380   18.0000 
2364.0292   44.3960    2.6750    0.0032    5.1010   18.0000 
2364.3340   45.1640    2.6800    0.0043    4.6890   18.0000 
2364.6388   39.4290    2.6970    0.0034    4.6250   18.0000 
2364.9436   32.4330    2.7140    0.0016    4.4570   18.0000 
2365.2484   29.9730    2.7210    0.0016    4.5090   18.0000 
2365.5532   29.7980    2.7040    0.0025    4.7360   18.0000 
2365.8580   28.9710    2.6910    0.0026    4.9510   18.0000 
2366.1628   24.9620    2.6870    0.0023    5.0320   18.0000 
2366.4676   23.4570    2.7130    0.0019    4.7080   18.0000 
2366.7724   19.0940    2.7240    0.0018    4.6180   18.0000 
2367.0772   12.3500    2.7340    0.0022    4.4360   18.0000 
2367.3820   13.7190    2.7450    0.0019    4.2310   18.0000 
2367.6868   14.9720    2.7570    0.0013    4.4180   18.0000 
2367.9916   15.0960    2.7460    0.0005    4.5040   18.0000 
2368.2964   14.5500    2.7410   -0.0003    4.5570   18.0000 
2368.6012   11.4380    2.7210   -0.0012    4.5930   18.0000 
2368.9060   12.0260    2.7130   -0.0014    4.5300   18.0000 
2369.2108   12.9230    2.7030   -0.0015    4.7680   18.0000 
2369.5156   13.2240    2.6960   -0.0013    4.9740   18.0000 
2369.8204   11.9160    2.7080   -0.0014    4.7590   18.0000 
2370.1252   11.7860    2.7200   -0.0015    4.8340   18.0000 
2370.4300   12.7410    2.7300   -0.0007    4.9010   18.0000 
2370.7348   12.6180    2.7280    0.0010    4.7040   18.0000 
2371.0396   11.4080    2.7380    0.0076    4.4770   18.0000 
2371.3444    9.9770    2.7420    0.0050    4.5940   18.0000 
2371.6492   10.4580    2.7340    0.0011    4.9530   18.0000 
2371.9540   12.1920    2.7160   -0.0006    5.0420   18.0000 
2372.2588   14.0330    2.7190   -0.0013    4.8170   18.0000 
2372.5636   13.0070    2.7140   -0.0010    4.8110   18.0000 
2372.8684   11.7470    2.7170   -0.0005    4.6720   18.0000 
2373.1732   12.7740    2.7230   -0.0004    4.6770   18.0000 
2373.4780   11.6310    2.7190    0.0001    4.4800   18.0000 
2373.7828   10.2510    2.7180    0.0010    4.3250   18.0000 
2374.0876    9.8280    2.7230    0.0020    4.4360   18.0000 
2374.3924   10.8440    2.7150    0.0027    4.5100   18.0000 
2374.6972   11.3160    2.7050    0.0055    4.3480   18.0000 
