~VERSION INFORMATION
 VERS.                 2.0:   CWLS LOG ASCII STANDARD - VERSION 2.0
 WRAP.                  NO:   SINGLE LINE PER DEPTH STEP
 CREA.                 05/01/2018 16:52:08
#CREATED USING DSPetro VERSION 5000.10.1.3 BY H191660 ON 05/01/2018 16:52:08
~WELL INFORMATION
#MNEM.UNIT       DATA                          DESCRIPTION MNEMONIC
#---------      ---------------------------   --------------------------
 STRT    .M         1570.3300                 : START DEPTH
 STOP    .M         2429.2564                 : STOP DEPTH
 STEP    .M         0.3048                    : STEP VALUE
 NULL    .      -999.0000                     : NULL VALUE
 DATE    .      05/01/2018                    : LAS file Creation Date
 WELL .      BOYD_1_10_M4996             : Well Name
 COMP .      Neftex Exploration Insights : Company
 FLD  .                                  : Field
 UWI  .      DUSWL_BOYD_1                : Unique Well Identifier (UWI)
 LOC  .                                  : Location
 RWS  .      -999                        : Def_Rw
 WST  .      -999                        : Def_Rwt
 SRVC .                                  : Contractor
~CURVE INFORMATION
#MNEM              UNIT       API CODE   Curve Type Comments
#----------  --------------- ----------  ---------- -----------
 DEPTH      .M                         : Depth       
 GR_API     .API                       : GammaRay    Gamma Ray (API) - Measures the intensity of natural gamma-ray radiation emitted from formations containing radioactive elements, such as K, Th and U
 RHOZ_G_CC  .g/cc                      :             Formation Density - Measures the density of formation, including any void space or other materials contained in the subject volume
 NPHI_v_v   .dec                       : Neutron     
 PEF_B_E    .b/e-                      : PEF         Photoelectric Factor - A log of photoelectric absorption properties. Often expressed in an approximation unit barns/electron (b/e-)
 LITH       .                          :             
~A  DEPTH   GR_API  RHOZ_G_C~  NPHI_v_v  PEF_B_E     LITH   
# ...
2254.3012    0.0000    1.9980   -0.0227    3.8230   16.0000 
2254.6060    0.0000    2.0450   -0.0231    3.9200   16.0000 
2254.9108    0.0000    2.0540   -0.0234    4.0180   16.0000 
2255.2156    0.0000    2.0360   -0.0225    3.7280   16.0000 
2255.5204    0.0000    1.9580   -0.0216    3.2090   11.0000 
2255.8252    0.0000    1.8120   -0.0202    2.9660   11.0000 
2256.1300    0.0000    1.8520   -0.0198    3.0190   11.0000 
2256.4348    0.0000    1.8920   -0.0218    3.2960   11.0000 
2256.7396    0.0000    1.9890   -0.0219    3.6370   16.0000 
2257.0444    0.0000    2.0280   -0.0224    3.8680   16.0000 
2257.3492    0.0000    2.0490   -0.0228    3.9130   16.0000 
2257.6540    0.0000    2.0470   -0.0232    3.8820   16.0000 
2257.9588    0.0000    2.0390   -0.0233    3.9570   16.0000 
2258.2636    0.0000    2.0500   -0.0234    4.0790   16.0000 
2258.5684    0.0000    2.0510   -0.0233    4.1230   16.0000 
2258.8732    0.0000    2.0400   -0.0233    4.0320   16.0000 
2259.1780    0.0000    2.0460   -0.0223    4.0580   16.0000 
2259.4828    0.0000    2.0480   -0.0229    3.9520   16.0000 
2259.7876    0.0000    2.0490   -0.0228    3.9540   16.0000 
2260.0924    0.0000    2.0450   -0.0224    3.9930   16.0000 
2260.3972    0.0000    2.0330   -0.0216    3.8610   16.0000 
2260.7020    0.0000    2.0340   -0.0217    3.9010   16.0000 
2261.0068    0.0000    2.0360   -0.0216    3.9450   16.0000 
2261.3116    0.0000    2.0420   -0.0219    3.9450   16.0000 
2261.6164    0.0000    2.0330   -0.0227    3.9950   16.0000 
2261.9212    0.0000    2.0360   -0.0227    3.9250   16.0000 
2262.2260    0.0000    2.0400   -0.0220    3.8460   16.0000 
2262.5308    0.0000    2.0410   -0.0220    3.7620   16.0000 
2262.8356    0.0000    2.0480   -0.0221    3.8340   16.0000 
2263.1404    0.0000    2.0520   -0.0227    3.9800   16.0000 
2263.4452    0.0000    2.0550   -0.0228    3.9200   16.0000 
2263.7500    0.0000    2.0590   -0.0226    3.9140   16.0000 
2264.0548    0.0000    2.0600   -0.0226    4.0140   16.0000 
2264.3596    0.0000    2.0450   -0.0225    4.0000   16.0000 
2264.6644    0.0000    2.0520   -0.0226    3.9570   16.0000 
2264.9692    0.0000    2.0630   -0.0227    3.9560   16.0000 
2265.2740    0.0000    2.0470   -0.0225    4.0670   16.0000 
2265.5788    0.0000    2.0360   -0.0225    3.9610   16.0000 
2265.8836    0.0000    2.0440   -0.0230    4.0330   16.0000 
2266.1884    0.0000    2.0300   -0.0234    4.0650   16.0000 
2266.4932    0.0000    2.0340   -0.0241    3.9790   16.0000 
2266.7980    0.0000    2.0290   -0.0230    3.9450   16.0000 
2267.1028    0.0000    2.0280   -0.0212    3.8120   16.0000 
2267.4076    0.0000    2.0330   -0.0225    3.8770   16.0000 
2267.7124    0.0000    2.0330   -0.0224    3.9620   16.0000 
2268.0172    0.0000    2.0360   -0.0209    3.7790   16.0000 
2268.3220    0.0000    2.0400   -0.0230    3.8660   16.0000 
2268.6268    0.0000    2.0380   -0.0240    3.9340   16.0000 
2268.9316    0.0000    2.0380   -0.0242    3.9960   16.0000 
2269.2364    0.0000    2.0350   -0.0236    4.0580   16.0000 
2269.5412    0.0000    2.0310   -0.0229    4.1100   16.0000 
2269.8460    0.0000    2.0420   -0.0229    3.9740   16.0000 
2270.1508    0.0000    2.0430   -0.0230    3.8690   16.0000 
2270.4556    0.0000    2.0560   -0.0227    3.9850   16.0000 
2270.7604    0.0000    2.0450   -0.0225    3.9180   16.0000 
2271.0652    0.0000    2.0430   -0.0218    3.8550   16.0000 
2271.3700    0.0000    2.0410   -0.0218    3.9270   16.0000 
2271.6748    0.0000    2.0410   -0.0220    3.9710   16.0000 
2271.9796    0.0000    2.0500   -0.0219    3.9690   16.0000 
2272.2844    0.0000    2.0430   -0.0213    4.0130   16.0000 
2272.5892    0.0000    2.0360   -0.0211    4.1450   16.0000 
2272.8940    0.0000    2.0240   -0.0213    4.1510   16.0000 
2273.1988    0.0000    2.0350   -0.0220    4.0140   16.0000 
2273.5036    0.0000    2.0460   -0.0221    3.8800   16.0000 
2273.8084    0.0000    2.0480   -0.0221    3.8760   16.0000 
2274.1132    0.0000    2.0520   -0.0225    3.9520   16.0000 
2274.4180    0.0000    2.0490   -0.0223    3.9580   16.0000 
2274.7228    0.0000    2.0420   -0.0222    3.9730   16.0000 
2275.0276    0.0000    2.0510   -0.0239    4.0490   16.0000 
2275.3324    0.0000    2.0370   -0.0226    4.0740   16.0000 
2275.6372    0.0000    2.0200   -0.0219    4.0570   16.0000 
2275.9420    0.0000    2.0350   -0.0221    4.0030   16.0000 
2276.2468    0.0000    2.0520   -0.0222    3.9120   16.0000 
2276.5516    0.0000    2.0470   -0.0223    3.9700   16.0000 
2276.8564    0.0000    2.0530   -0.0235    3.9700   16.0000 
2277.1612    0.0000    2.0570   -0.0238    3.9080   16.0000 
2277.4660    0.0000    2.0560   -0.0243    4.0080   16.0000 
2277.7708    0.0000    2.0560   -0.0242    4.0070   16.0000 
2278.0756    0.0000    2.0670   -0.0239    3.9180   16.0000 
2278.3804    0.0000    2.0640   -0.0240    3.9070   16.0000 
2278.6852    0.0000    2.0560   -0.0238    3.9050   16.0000 
2278.9900    0.0000    2.0500   -0.0232    3.8190   16.0000 
2279.2948    0.0000    2.0540   -0.0234    3.9650   16.0000 
2279.5996    0.0000    2.0460   -0.0228    3.9230   16.0000 
2279.9044    0.0000    2.0530   -0.0233    3.9070   16.0000 
2280.2092    0.0000    2.0560   -0.0241    3.8450   16.0000 
2280.5140    0.0000    2.0450   -0.0243    3.7890   16.0000 
2280.8188    0.0000    2.0430   -0.0241    3.7560   16.0000 
2281.1236    0.0000    2.0450   -0.0240    3.8360   16.0000 
2281.4284    0.0000    2.0500   -0.0241    3.9140   16.0000 
2281.7332    0.0000    2.0490   -0.0237    3.9370   16.0000 
2282.0380    0.0000    2.0400   -0.0236    3.9490   16.0000 
2282.3428    0.0000    2.0410   -0.0238    3.9530   16.0000 
2282.6476    0.0000    2.0500   -0.0235    4.0050   16.0000 
2282.9524    0.0000    2.0540   -0.0235    4.0020   16.0000 
2283.2572    0.0000    2.0370   -0.0231    3.9360   16.0000 
2283.5620    0.0000    2.0410   -0.0232    3.9100   16.0000 
2283.8668    0.0000    2.0420   -0.0235    3.9540   16.0000 
2284.1716    0.0000    2.0420   -0.0233    3.8950   16.0000 
2284.4764    0.0000    2.0530   -0.0234    3.9700   16.0000 
2284.7812    0.0000    2.0560   -0.0241    4.0600   16.0000 
2285.0860    0.0000    2.0530   -0.0244    4.0870   16.0000 
2285.3908    0.0000    2.0560   -0.0246    4.1100   16.0000 
2285.6956    0.0000    2.0500   -0.0243    4.0280   16.0000 
2286.0004    0.0000    2.0590   -0.0247    3.9930   16.0000 
2286.3052    0.0000    2.0600   -0.0242    4.0990   16.0000 
2286.6100    0.0000    2.0590   -0.0245    4.1600   16.0000 
2286.9148    0.0000    2.0520   -0.0246    3.9940   16.0000 
2287.2196    0.0000    2.0520   -0.0244    4.3240   16.0000 
2287.5244    0.0000    2.0510   -0.0240    4.2290   16.0000 
2287.8292    0.0000    2.0440   -0.0237    4.1050   16.0000 
2288.1340    0.0000    2.0470   -0.0232    4.1330   16.0000 
2288.4388    0.0000    2.0470   -0.0228    4.0820   16.0000 
2288.7436    0.0000    2.0420   -0.0228    4.0190   16.0000 
2289.0484    0.0000    2.0380   -0.0229    4.2050   16.0000 
2289.3532    0.0000    2.0470   -0.0238    4.0940   16.0000 
2289.6580    0.0000    2.0540   -0.0242    3.9060   16.0000 
2289.9628    0.0000    2.0540   -0.0247    3.9180   16.0000 
2290.2676    0.0000    2.0530   -0.0244    3.8590   16.0000 
2290.5724    0.0000    2.0390   -0.0244    3.9510   16.0000 
2290.8772    0.0000    2.0540   -0.0246    4.0280   16.0000 
2291.1820    0.0000    2.0430   -0.0248    4.1290   16.0000 
2291.4868    0.0000    2.0410   -0.0247    4.1500   16.0000 
2291.7916    0.0000    2.0580   -0.0246    4.0280   16.0000 
2292.0964    0.0000    2.0590   -0.0247    4.1020   16.0000 
2292.4012    0.0000    2.0430   -0.0247    3.9930   16.0000 
2292.7060    0.0000    2.0500   -0.0246    4.0130   16.0000 
2293.0108    0.0000    2.0470   -0.0246    3.9840   16.0000 
2293.3156    0.0000    2.0580   -0.0238    3.8780   16.0000 
2293.6204    0.0000    2.0650   -0.0233    3.7510   16.0000 
2293.9252    0.0000    2.0630   -0.0239    3.8210   16.0000 
2294.2300    0.0000    2.0580   -0.0240    3.8470   16.0000 
