~VERSION INFORMATION
 VERS.                 2.0:   CWLS LOG ASCII STANDARD - VERSION 2.0
 WRAP.                  NO:   SINGLE LINE PER DEPTH STEP
 CREA.                 05/01/2018 16:52:08
#CREATED USING DSPetro VERSION 5000.10.1.3 BY H191660 ON 05/01/2018 16:52:08
~WELL INFORMATION
#MNEM.UNIT       DATA                          DESCRIPTION MNEMONIC
#---------      ---------------------------   --------------------------
 STRT    .M         1570.3300                 : START DEPTH
 STOP    .M         2429.2564                 : STOP DEPTH
 STEP    .M         0.3048                    : STEP VALUE
 NULL    .      -999.0000                     : NULL VALUE
 DATE    .      05/01/2018                    : LAS file Creation Date
 WELL .      BOYD_1_10_M4996             : Well Name
 COMP .      Neftex Exploration Insights : Company
 FLD  .                                  : Field
 UWI  .      DUSWL_BOYD_1                : Unique Well Identifier (UWI)
 LOC  .                                  : Location
 RWS  .      -999                        : Def_Rw
 WST  .      -999                        : Def_Rwt
 SRVC .                                  : Contractor
~CURVE INFORMATION
#MNEM              UNIT       API CODE   Curve Type Comments
#----------  --------------- ----------  ---------- -----------
 DEPTH      .M                         : Depth       
 GR_API     .API                       : GammaRay    Gamma Ray (API) - Measures the intensity of natural gamma-ray radiation emitted from formations containing radioactive elements, such as K, Th and U
 RHOZ_G_CC  .g/cc                      :             Formation Density - Measures the density of formation, including any void space or other materials contained in the subject volume
 NPHI_v_v   .dec                       : Neutron     
 PEF_B_E    .b/e-                      : PEF         Photoelectric Factor - A log of photoelectric absorption properties. Often expressed in an approximation unit barns/electron (b/e-)
 LITH       .                          :             
~A  DEPTH   GR_API  RHOZ_G_C~  NPHI_v_v  PEF_B_E     LITH   
# ...
1691.0308   18.3750    2.0340   -0.0133    3.3320   16.0000 
1691.3356   18.5330    2.0630   -0.0134    3.5310   16.0000 
1691.6404   16.0830    2.0680   -0.0154    3.7210   16.0000 
1691.9452   14.8610    2.0520   -0.0116    3.3160   16.0000 
1692.2500   31.5770    2.0410    0.0656    2.5520   16.0000 
1692.5548   51.0890    2.2100    0.1777    2.8200   22.0000 
1692.8596   54.7350    2.5520    0.1514    3.1650   22.0000 
1693.1644   56.4540    2.6240    0.1505    3.0140   22.0000 
1693.4692   60.4440    2.5630    0.1532    3.0610   22.0000 
1693.7740   63.3380    2.5600    0.1503    3.2860   22.0000 
1694.0788   65.8760    2.5740    0.1598    3.2590   22.0000 
1694.3836   68.7150    2.5510    0.1725    3.0670   22.0000 
1694.6884   67.0820    2.5690    0.1815    3.2520   22.0000 
1694.9932   60.1290    2.5930    0.1552    2.8460   22.0000 
1695.2980   53.0600    2.1340    0.0679    2.2620   16.0000 
1695.6028   36.0080    1.7030    0.0165    2.3260   16.0000 
1695.9076   21.4230    1.8500   -0.0054    2.9670   16.0000 
1696.2124   16.1270    2.0360   -0.0106    3.3560   16.0000 
1696.5172   13.5530    2.0710   -0.0156    3.6060   16.0000 
1696.8220   13.8170    2.0590   -0.0171    3.8240   16.0000 
1697.1268   13.2060    2.0670   -0.0173    3.8050   16.0000 
1697.4316   18.6240    2.0620   -0.0118    3.4800   16.0000 
1697.7364   26.9940    2.0190    0.0273    3.0700   16.0000 
1698.0412   34.6020    1.8780    0.0717    2.6580   16.0000 
1698.3460   26.3420    1.8070    0.0101    2.9710   16.0000 
1698.6508   16.5290    1.9680   -0.0045    3.3730   16.0000 
1698.9556   15.2910    1.9970   -0.0064    3.1290   16.0000 
1699.2604   16.4820    1.9390    0.0067    2.7790   16.0000 
1699.5652   17.6510    2.0280    0.0712    3.0950   16.0000 
1699.8700   40.4180    2.3900    0.0995    3.4600   22.0000 
1700.1748   63.9950    2.5900    0.1305    3.1630   22.0000 
1700.4796   66.0560    2.6110    0.2034    3.2480   22.0000 
1700.7844   63.1500    2.6380    0.2193    3.3250   22.0000 
1701.0892   54.6050    2.6540    0.1908    3.4860   22.0000 
1701.3940   55.9350    2.6720    0.1671    3.4170   22.0000 
1701.6988   58.2540    2.6740    0.1539    3.5220   22.0000 
1702.0036   56.5560    2.6670    0.1428    3.4520   22.0000 
1702.3084   58.3920    2.6790    0.1377    3.5620   22.0000 
1702.6132   60.0890    2.6760    0.1143    3.4760   22.0000 
1702.9180   57.9710    2.4470    0.0366    3.0060   22.0000 
1703.2228   29.7890    1.9800   -0.0050    3.2030   22.0000 
1703.5276   17.9900    2.0130   -0.0137    3.4090   16.0000 
1703.8324   15.8670    2.0300   -0.0134    3.4280   16.0000 
1704.1372   25.0350    2.0540    0.0175    3.2290   16.0000 
1704.4420   38.6810    2.1820    0.1074    3.1200   15.0000 
1704.7468   49.3400    2.1930    0.0703    3.1630   15.0000 
1705.0516   40.3790    2.2740    0.0106    3.1320   15.0000 
1705.3564   49.5290    2.3620    0.0338    2.9480   15.0000 
1705.6612   67.5570    2.4340    0.1053    3.0530   22.0000 
1705.9660   70.7370    2.5620    0.1656    3.1230   22.0000 
1706.2708   67.8020    2.5880    0.1738    3.1460   22.0000 
1706.5756   64.6010    2.6020    0.1456    3.0580   22.0000 
1706.8804   60.9870    2.6230    0.1266    3.2470   22.0000 
1707.1852   61.3610    2.6190    0.1342    3.2240   22.0000 
1707.4900   64.3440    2.5790    0.1245    3.2730   22.0000 
1707.7948   61.4640    2.4320    0.1096    3.1290   22.0000 
1708.0996   45.6660    2.1920    0.0783    2.6670   16.0000 
1708.4044   33.5820    1.9320    0.0421    2.4500   16.0000 
1708.7092   27.5820    1.9530    0.0410    2.7760   16.0000 
1709.0140   24.1520    2.0810    0.0203    2.9070   16.0000 
1709.3188   21.0900    2.0950    0.0024    2.9670   16.0000 
1709.6236   26.5560    2.0570    0.0024    2.9470   16.0000 
1709.9284   30.2370    1.9790    0.0008    2.8440   16.0000 
1710.2332   25.2000    1.9740    0.0061    2.6760   16.0000 
1710.5380   30.4800    1.9690    0.0083    2.8310   16.0000 
1710.8428   36.0800    2.0490    0.0226    2.8980   16.0000 
1711.1476   37.3190    2.0960    0.0407    2.9900   16.0000 
1711.4524   26.6040    2.0330   -0.0036    3.1390   16.0000 
1711.7572   18.3420    2.0440   -0.0107    3.1480   16.0000 
1712.0620   22.6160    2.0290   -0.0075    2.9260   16.0000 
1712.3668   27.4800    2.0330    0.0038    2.8360   16.0000 
1712.6716   33.1380    2.1470    0.0292    3.2290   16.0000 
1712.9764   33.5910    2.2170    0.0161    3.4660   16.0000 
1713.2812   34.5720    2.2470    0.0049    3.5190   16.0000 
1713.5860   40.5260    2.2840    0.0186    3.1930   15.0000 
1713.8908   43.4060    2.2620    0.0402    3.1430   15.0000 
1714.1956   44.8190    2.2140    0.0328    3.0020   15.0000 
1714.5004   36.6840    2.0710    0.0125    3.0670   16.0000 
1714.8052   27.3330    2.0920   -0.0035    3.1230   16.0000 
1715.1100   22.9920    2.1250   -0.0012    3.2650   16.0000 
1715.4148   25.6160    2.1680   -0.0015    3.4430   16.0000 
1715.7196   23.2050    2.1240   -0.0087    3.5240   16.0000 
1716.0244   20.2830    2.0780   -0.0111    3.2520   16.0000 
1716.3292   25.7750    2.1200   -0.0038    3.0750   16.0000 
1716.6340   23.2350    2.1570   -0.0069    3.2180   16.0000 
1716.9388   17.4780    2.1290   -0.0127    3.4040   16.0000 
1717.2436   16.5110    2.1020   -0.0159    3.4870   16.0000 
1717.5484   16.4240    2.1160   -0.0156    3.3970   16.0000 
1717.8532   19.0880    2.1530   -0.0111    3.4970   16.0000 
1718.1580   18.8880    2.1390   -0.0123    3.6870   16.0000 
1718.4628   16.4780    2.1060   -0.0149    3.7180   16.0000 
1718.7676   19.1330    2.1140   -0.0150    3.6830   16.0000 
1719.0724   19.6310    2.1230   -0.0131    3.5220   16.0000 
1719.3772   18.0630    2.1140   -0.0128    3.4750   16.0000 
1719.6820   18.0960    2.0930   -0.0140    3.6400   16.0000 
1719.9868   29.9510    2.1010   -0.0101    3.2440   16.0000 
1720.2916   40.3820    2.1100    0.0045    2.9150   16.0000 
1720.5964   28.7090    2.0690   -0.0043    3.1640   16.0000 
1720.9012   18.3050    2.0520   -0.0137    3.3040   16.0000 
1721.2060   14.7440    2.0540   -0.0153    3.4100   16.0000 
1721.5108   14.2880    2.0700   -0.0162    3.4940   16.0000 
1721.8156   15.4010    2.0790   -0.0162    3.6270   16.0000 
1722.1204   20.1710    2.0840   -0.0151    3.6400   16.0000 
1722.4252   27.1830    2.0890   -0.0104    3.5740   16.0000 
1722.7300   36.2990    2.1970    0.0010    3.5230   15.0000 
1723.0348   30.3090    2.2150   -0.0050    3.5080   15.0000 
1723.3396   19.9400    2.1190   -0.0135    3.5600   16.0000 
1723.6444   13.7570    2.0890   -0.0170    3.6750   16.0000 
1723.9492   12.3030    2.0760   -0.0187    3.7460   16.0000 
1724.2540   16.8930    2.0390   -0.0189    3.6980   16.0000 
1724.5588   20.9150    2.0490   -0.0160    3.4940   16.0000 
1724.8636   25.5410    2.0770   -0.0104    3.2940   16.0000 
1725.1684   37.2950    2.0780    0.0064    3.1670   16.0000 
1725.4732   54.5090    2.1520    0.1029    3.2030   16.0000 
1725.7780   61.6520    2.2830    0.1258    3.1340   22.0000 
1726.0828   67.4040    2.3730    0.1251    3.1670   22.0000 
1726.3876   67.2540    2.4920    0.1322    3.1120   22.0000 
1726.6924   63.9330    2.5690    0.1409    3.1960   22.0000 
1726.9972   62.6070    2.5940    0.1499    3.3380   22.0000 
1727.3020   58.8320    2.6280    0.1407    3.5400   22.0000 
1727.6068   58.0410    2.6090    0.1363    3.5110   22.0000 
1727.9116   56.6810    2.6040    0.1367    3.3940   22.0000 
1728.2164   62.4560    2.6310    0.1380    3.4850   22.0000 
1728.5212   64.8290    2.6390    0.1322    3.5430   22.0000 
1728.8260   66.3690    2.6110    0.1493    3.3010   22.0000 
1729.1308   64.9710    2.6070    0.1562    3.1370   22.0000 
1729.4356   63.9150    2.6210    0.1501    3.0300   22.0000 
1729.7404   64.3040    2.6150    0.1590    3.0290   22.0000 
1730.0452   63.5010    2.5890    0.1528    2.9940   22.0000 
1730.3500   62.8070    2.6230    0.1507    3.0480   22.0000 
1730.6548   67.9010    2.6270    0.1513    3.0690   22.0000 
1730.9596   67.2570    2.6300    0.1433    3.0200   22.0000 
