~VERSION INFORMATION
 VERS.                 2.0:   CWLS LOG ASCII STANDARD - VERSION 2.0
 WRAP.                  NO:   SINGLE LINE PER DEPTH STEP
 CREA.                 05/01/2018 16:52:08
#CREATED USING DSPetro VERSION 5000.10.1.3 BY H191660 ON 05/01/2018 16:52:08
~WELL INFORMATION
#MNEM.UNIT       DATA                          DESCRIPTION MNEMONIC
#---------      ---------------------------   --------------------------
 STRT    .M         1570.3300                 : START DEPTH
 STOP    .M         2429.2564                 : STOP DEPTH
 STEP    .M         0.3048                    : STEP VALUE
 NULL    .      -999.0000                     : NULL VALUE
 DATE    .      05/01/2018                    : LAS file Creation Date
 WELL .      BOYD_1_10_M4996             : Well Name
 COMP .      Neftex Exploration Insights : Company
 FLD  .                                  : Field
 UWI  .      DUSWL_BOYD_1                : Unique Well Identifier (UWI)
 LOC  .                                  : Location
 RWS  .      -999                        : Def_Rw
 WST  .      -999                        : Def_Rwt
 SRVC .                                  : Contractor
~CURVE INFORMATION
#MNEM              UNIT       API CODE   Curve Type Comments
#----------  --------------- ----------  ---------- -----------
 DEPTH      .M                         : Depth       
 GR_API     .API                       : GammaRay    Gamma Ray (API) - Measures the intensity of natural gamma-ray radiation emitted from formations containing radioactive elements, such as K, Th and U
 RHOZ_G_CC  .g/cc                      :             Formation Density - Measures the density of formation, including any void space or other materials contained in the subject volume
 NPHI_v_v   .dec                       : Neutron     
 PEF_B_E    .b/e-                      : PEF         Photoelectric Factor - A log of photoelectric absorption properties. Often expressed in an approximation unit barns/electron (b/e-)
 LITH       .                          :             
~A  DEPTH   GR_API  RHOZ_G_C~  NPHI_v_v  PEF_B_E     LITH   
1570.3300   22.6910 -999.0000    0.1830 -999.0000 -999.0000 
1570.6348   24.0420 -999.0000    0.1976 -999.0000 -999.0000 
1570.9396   20.1990 -999.0000    0.2304 -999.0000 -999.0000 
1571.2444   20.2380 -999.0000    0.2414 -999.0000 -999.0000 
1571.5492   21.4070 -999.0000    0.2282 -999.0000 -999.0000 
1571.8540   22.7520 -999.0000    0.2194 -999.0000 -999.0000 
1572.1588   23.8710 -999.0000    0.2119 -999.0000 -999.0000 
1572.4636   22.7150 -999.0000    0.2203 -999.0000 -999.0000 
1572.7684   21.3210 -999.0000    0.2694 -999.0000 -999.0000 
1573.0732   21.4110 -999.0000    0.3013 -999.0000 -999.0000 
1573.3780   23.0060 -999.0000    0.2612 -999.0000 -999.0000 
1573.6828   23.5220 -999.0000    0.2064 -999.0000 -999.0000 
1573.9876   24.9900 -999.0000    0.2139 -999.0000 -999.0000 
1574.2924   25.7480 -999.0000    0.2053 -999.0000 -999.0000 
1574.5972   24.5280 -999.0000    0.1966 -999.0000 -999.0000 
1574.9020   21.7650 -999.0000    0.1931 -999.0000 -999.0000 
1575.2068   20.1230 -999.0000    0.1720 -999.0000 -999.0000 
1575.5116   22.2510 -999.0000    0.1914 -999.0000 -999.0000 
1575.8164   23.1240 -999.0000    0.2133 -999.0000 -999.0000 
1576.1212   23.1000 -999.0000    0.2187 -999.0000 -999.0000 
1576.4260   21.9990 -999.0000    0.2260 -999.0000 -999.0000 
1576.7308   22.2890 -999.0000    0.1874 -999.0000 -999.0000 
1577.0356   26.5050 -999.0000    0.1848 -999.0000 -999.0000 
1577.3404   32.6870 -999.0000    0.1500 -999.0000 -999.0000 
1577.6452   33.2060 -999.0000    0.1169 -999.0000 -999.0000 
1577.9500   29.1270 -999.0000    0.0954 -999.0000 -999.0000 
1578.2548   25.2230 -999.0000    0.1399 -999.0000 -999.0000 
1578.5596   23.2320 -999.0000    0.1403 -999.0000 -999.0000 
1578.8644   21.6590 -999.0000    0.1264 -999.0000 -999.0000 
1579.1692   23.4860 -999.0000    0.1074 -999.0000 -999.0000 
1579.4740   25.3860 -999.0000    0.0953 -999.0000 -999.0000 
1579.7788   23.3280 -999.0000    0.0847 -999.0000 -999.0000 
1580.0836   23.6610 -999.0000    0.0846 -999.0000 -999.0000 
1580.3884   25.7910 -999.0000    0.0843 -999.0000 -999.0000 
1580.6932   26.6600 -999.0000    0.0768 -999.0000 -999.0000 
1580.9980   24.9590 -999.0000    0.0556 -999.0000 -999.0000 
1581.3028   27.0350 -999.0000    0.0365 -999.0000 -999.0000 
1581.6076   27.6110 -999.0000    0.0311 -999.0000 -999.0000 
1581.9124   27.4040 -999.0000    0.0276 -999.0000 -999.0000 
1582.2172   25.6490 -999.0000    0.0264 -999.0000 -999.0000 
1582.5220   24.9200 -999.0000    0.0286 -999.0000 -999.0000 
1582.8268   27.0470 -999.0000    0.0274 -999.0000 -999.0000 
1583.1316   25.1150 -999.0000    0.0239 -999.0000 -999.0000 
1583.4364   27.9540 -999.0000    0.0223 -999.0000 -999.0000 
1583.7412   30.6120 -999.0000    0.0237 -999.0000 -999.0000 
1584.0460   25.8780 -999.0000    0.0183 -999.0000 -999.0000 
1584.3508   20.2440 -999.0000    0.0070 -999.0000 -999.0000 
1584.6556   18.9080 -999.0000    0.0024 -999.0000 -999.0000 
1584.9604   14.5920 -999.0000   -0.0032 -999.0000 -999.0000 
1585.2652   13.1300 -999.0000   -0.0023 -999.0000 -999.0000 
1585.5700   19.7960 -999.0000    0.0061 -999.0000 -999.0000 
1585.8748   24.7290 -999.0000    0.0233 -999.0000 -999.0000 
1586.1796   17.9660 -999.0000    0.0103 -999.0000 -999.0000 
1586.4844   14.6610 -999.0000    0.0077 -999.0000 -999.0000 
1586.7892   14.5860 -999.0000    0.0086 -999.0000 -999.0000 
1587.0940   14.6780 -999.0000    0.0109 -999.0000 -999.0000 
1587.3988   21.4050 -999.0000    0.0285 -999.0000 -999.0000 
1587.7036   28.3100 -999.0000    0.1002 -999.0000 -999.0000 
1588.0084   31.9940 -999.0000    0.1166 -999.0000 -999.0000 
1588.3132   23.5490 -999.0000    0.0699 -999.0000 -999.0000 
1588.6180   18.3330 -999.0000    0.0486 -999.0000 -999.0000 
1588.9228   22.7960 -999.0000    0.0515 -999.0000 -999.0000 
1589.2276   20.7360 -999.0000    0.0356 -999.0000 -999.0000 
1589.5324   25.7370 -999.0000    0.0566 -999.0000 -999.0000 
1589.8372   27.1460 -999.0000    0.0805 -999.0000 -999.0000 
1590.1420   21.6870    2.7980    0.0501 -999.0000 -999.0000 
1590.4468   17.9610    2.8280    0.0274 -999.0000 -999.0000 
1590.7516   17.1630    2.8080    0.0151 -999.0000 -999.0000 
1591.0564   22.8060    2.7880    0.0421 -999.0000 -999.0000 
1591.3612   23.0280    2.8220    0.0864 -999.0000 -999.0000 
1591.6660   26.2250    2.7070    0.1261 -999.0000   12.0000 
1591.9708   29.0640    2.8730    0.1658    5.0250   12.0000 
1592.2756   22.8360    2.7840    0.0518    2.3710   12.0000 
1592.5804   14.0940    2.9020   -0.0011    4.6240   12.0000 
1592.8852   25.0640    2.9520    0.0009    5.2640    1.0000 
1593.1900   27.1880    2.9520    0.0025    5.5980    1.0000 
1593.4948   26.4450    2.9650   -0.0003    6.2760    1.0000 
1593.7996   30.0690    2.9530    0.0016    6.2710    1.0000 
1594.1044   34.8270    2.9280    0.0137    5.6480    1.0000 
1594.4092   27.9950    2.9170    0.0097    4.6480    1.0000 
1594.7140   18.9000    2.9580    0.0033    4.7540    1.0000 
1595.0188   24.8450    2.9290    0.0075    4.7240    1.0000 
1595.3236   25.5500    2.9210    0.0126    5.5750    1.0000 
1595.6284   17.7030    2.9560    0.0015    6.1680    1.0000 
1595.9332   23.7000    2.9600    0.0005    4.9720    1.0000 
1596.2380   25.6490    2.9430    0.0032    4.9470    1.0000 
1596.5428   21.2520    2.9460    0.0000    6.0420    1.0000 
1596.8476   14.7230    2.9590   -0.0045    5.8430    1.0000 
1597.1524   15.8910    2.9950   -0.0055    6.0200    1.0000 
1597.4572   14.6150    3.0280   -0.0034    6.4210    1.0000 
1597.7620   10.5350    2.9940   -0.0033    6.7710    1.0000 
1598.0668    9.5600    2.9710   -0.0037    5.3630    1.0000 
1598.3716    8.9420    2.9810   -0.0025    5.1490    1.0000 
1598.6764   10.0040    2.9910   -0.0019    4.9380    1.0000 
1598.9812   15.1130    2.9390    0.0064    4.4690    1.0000 
1599.2860   19.9820    2.8380    0.0167    3.7400   12.0000 
1599.5908   21.2160    2.8120    0.0326    3.3690   12.0000 
1599.8956   21.2540    2.8300    0.0521    3.3740   12.0000 
1600.2004   23.6090    2.8310    0.0454    3.5510   12.0000 
1600.5052   32.9630    2.8470    0.0321    3.8940   12.0000 
1600.8100   40.3430    2.8550    0.0340    3.9180   22.0000 
1601.1148   30.1700    2.8660    0.0262    4.0120   22.0000 
1601.4196   21.7340    2.9220    0.0109    4.5270    1.0000 
1601.7244   18.0660    2.9620    0.0032    5.0380    1.0000 
1602.0292   13.2110    2.9720   -0.0008    5.2440    1.0000 
1602.3340   12.5300    2.9790   -0.0047    5.1060    1.0000 
1602.6388   10.3520    2.9940   -0.0071    5.2250    1.0000 
1602.9436    8.4210    2.9930   -0.0070    5.4160    1.0000 
1603.2484   10.0110    2.9710   -0.0060    5.2810    1.0000 
1603.5532    7.0650    2.9740   -0.0059    5.0960    1.0000 
1603.8580    9.1970    2.9650   -0.0054    4.8820    1.0000 
1604.1628   14.6720    2.9380   -0.0004    4.7140    1.0000 
1604.4676   20.3250    2.8860    0.0098    3.8300   12.0000 
1604.7724   23.1140    2.7990    0.0268    3.7080   12.0000 
1605.0772   26.1330    2.8250    0.0415    3.8360   12.0000 
1605.3820   24.1430    2.8300    0.0296    3.8000   12.0000 
1605.6868   21.5520    2.8060    0.0384    3.3010   12.0000 
1605.9916   18.6030    2.7970    0.0285    2.9060   12.0000 
1606.2964   13.2680    2.7930    0.0364    3.1980   12.0000 
1606.6012   13.4840    2.8050    0.0570    3.5380   12.0000 
1606.9060   20.0880    2.8210    0.0582    3.5790   12.0000 
1607.2108   38.6330    2.8120    0.0560    3.3380   12.0000 
1607.5156   53.9000    2.7960    0.0748    3.1750   22.0000 
1607.8204   41.4030    2.8250    0.0631    3.5290   12.0000 
1608.1252   25.4390    2.8580    0.0313    3.5850   12.0000 
1608.4300   23.1450    2.8510    0.0396    3.1540   12.0000 
1608.7348   22.8860    2.8420    0.0329    3.3680   12.0000 
1609.0396   20.2880    2.8430    0.0441    3.1880   12.0000 
1609.3444   24.6320    2.8580    0.0349    3.4440   12.0000 
1609.6492   22.9950    2.8830    0.0179    3.7360   12.0000 
1609.9540   25.2510    2.8480    0.0148    3.3810   12.0000 
1610.2588   23.4930    2.8210    0.0439    3.2790   12.0000 
