~VERSION INFORMATION
 VERS.                 2.0:   CWLS LOG ASCII STANDARD - VERSION 2.0
 WRAP.                  NO:   SINGLE LINE PER DEPTH STEP
 CREA.                 05/01/2018 16:52:08
#CREATED USING DSPetro VERSION 5000.10.1.3 BY H191660 ON 05/01/2018 16:52:08
~WELL INFORMATION
#MNEM.UNIT       DATA                          DESCRIPTION MNEMONIC
#---------      ---------------------------   --------------------------
 STRT    .M         1570.3300                 : START DEPTH
 STOP    .M         2429.2564                 : STOP DEPTH
 STEP    .M         0.3048                    : STEP VALUE
 NULL    .      -999.0000                     : NULL VALUE
 DATE    .      05/01/2018                    : LAS file Creation Date
 WELL .      BOYD_1_10_M4996             : Well Name
 COMP .      Neftex Exploration Insights : Company
 FLD  .                                  : Field
 UWI  .      DUSWL_BOYD_1                : Unique Well Identifier (UWI)
 LOC  .                                  : Location
 RWS  .      -999                        : Def_Rw
 WST  .      -999                        : Def_Rwt
 SRVC .                                  : Contractor
~CURVE INFORMATION
#MNEM              UNIT       API CODE   Curve Type Comments
#----------  --------------- ----------  ---------- -----------
 DEPTH      .M                         : Depth       
 GR_API     .API                       : GammaRay    Gamma Ray (API) - Measures the intensity of natural gamma-ray radiation emitted from formations containing radioactive elements, such as K, Th and U
 RHOZ_G_CC  .g/cc                      :             Formation Density - Measures the density of formation, including any void space or other materials contained in the subject volume
 NPHI_v_v   .dec                       : Neutron     
 PEF_B_E    .b/e-                      : PEF         Photoelectric Factor - A log of photoelectric absorption properties. Often expressed in an approximation unit barns/electron (b/e-)
 LITH       .                          :             
~A  DEPTH   GR_API  RHOZ_G_C~  NPHI_v_v  PEF_B_E     LITH   
# ...
2053.1332   26.1950    2.7530    0.0160    4.5860   18.0000 
2053.4380   24.0830    2.7380    0.0142    4.5100   18.0000 
2053.7428   25.6880    2.7340    0.0120    4.5370   18.0000 
2054.0476   23.2290    2.7290    0.0073    5.0150   18.0000 
2054.3524   20.4200    2.7230    0.0035    5.4300   18.0000 
2054.6572   18.3360    2.7180    0.0013    5.4900   18.0000 
2054.9620   18.5070    2.7380    0.0012    4.7910   18.0000 
2055.2668   19.8170    2.7400    0.0032    4.8170   18.0000 
2055.5716   19.3830    2.7400    0.0055    4.6850   18.0000 
2055.8764   15.3900    2.7490    0.0025    4.8240   18.0000 
2056.1812   16.7490    2.7450    0.0021    4.8040   18.0000 
2056.4860   17.6310    2.7590    0.0046    4.6230   18.0000 
2056.7908   18.5160    2.7450    0.0053    4.7790   18.0000 
2057.0956   17.9090    2.7160    0.0052    4.7290   18.0000 
2057.4004   17.3580    2.7200    0.0047    4.6290   18.0000 
2057.7052   16.1000    2.7310    0.0044    4.8350   18.0000 
2058.0100   15.2480    2.7280    0.0037    4.7970   18.0000 
2058.3148   15.1860    2.7260    0.0033    4.4720   18.0000 
2058.6196   16.8000    2.7350    0.0040    4.4080   18.0000 
2058.9244   18.5220    2.7470    0.0055    4.5690   18.0000 
2059.2292   21.9720    2.7310    0.0069    4.9050   18.0000 
2059.5340   31.6350    2.7080    0.0121    4.7290   18.0000 
2059.8388   34.0100    2.7130    0.0255    4.5660   18.0000 
2060.1436   31.9610    2.7220    0.0443    4.4840   18.0000 
2060.4484   27.9030    2.7220    0.0368    4.5310   18.0000 
2060.7532   23.2320    2.7180    0.0214    4.6980   18.0000 
2061.0580   17.9730    2.7140    0.0088    4.8650   18.0000 
2061.3628   17.0570    2.7070    0.0044    5.0800   18.0000 
2061.6676   19.5060    2.7110    0.0025    4.8560   18.0000 
2061.9724   19.4330    2.7070    0.0049    4.4560   18.0000 
2062.2772   22.0430    2.7030    0.0093    4.7060   18.0000 
2062.5820   24.2450    2.6980    0.0149    4.6010   18.0000 
2062.8868   23.1090    2.7230    0.0304    4.6960   18.0000 
2063.1916   22.4990    2.7380    0.0340    4.4130   18.0000 
2063.4964   26.5560    2.7580    0.0378    3.9010   12.0000 
2063.8012   28.4490    2.7540    0.0476    3.9800   12.0000 
2064.1060   26.6580    2.7440    0.0560    4.0360   12.0000 
2064.4108   28.0170    2.7660    0.0575    4.2410   12.0000 
2064.7156   29.6730    2.7660    0.0533    4.5850   12.0000 
2065.0204   30.6140    2.7450    0.0562    4.6360   12.0000 
2065.3252   31.0280    2.7430    0.0610    4.4850   12.0000 
2065.6300   28.7000    2.7400    0.0424    4.3590    1.0000 
2065.9348   25.2800    2.8510    0.0228    4.8760    1.0000 
2066.2396   21.5210    2.8910    0.0110    4.9200    1.0000 
2066.5444   24.0720    2.8770    0.0115    4.8580    1.0000 
2066.8492   24.2970    2.8510    0.0194    4.2880    1.0000 
2067.1540   23.3270    2.8860    0.0174    4.2200    1.0000 
2067.4588   23.3250    2.9080    0.0182    4.4610    1.0000 
2067.7636   26.5350    2.8940    0.0327    4.5420    1.0000 
2068.0684   28.9710    2.8910    0.0282    4.5680    1.0000 
2068.3732   24.4920    2.8940    0.0219    4.5590    1.0000 
2068.6780   26.6250    2.8920    0.0190    4.0790   12.0000 
2068.9828   31.2800    2.8730    0.0366    3.8020   12.0000 
2069.2876   30.9740    2.8550    0.0483    3.8270   12.0000 
2069.5924   27.2120    2.8260    0.0476    4.1380   12.0000 
2069.8972   28.2260    2.7810    0.0597    4.3420   12.0000 
2070.2020   27.8640    2.7320    0.1051    3.9300   12.0000 
2070.5068   30.8910    2.7050    0.1272    3.3570   12.0000 
2070.8116   34.6860    2.7110    0.1427    3.2830   12.0000 
2071.1164   37.6620    2.7210    0.1311    3.3640   12.0000 
2071.4212   32.4590    2.7460    0.0979    3.6470   12.0000 
2071.7260   27.0170    2.7620    0.0554    3.6200   12.0000 
2072.0308   22.0500    2.7590    0.0436    3.5960   12.0000 
2072.3356   22.5090    2.7760    0.0613    3.6330   12.0000 
2072.6404   25.8570    2.7710    0.0436    3.6250   12.0000 
2072.9452   19.3980    2.7820    0.0159    3.9040   12.0000 
2073.2500   13.4250    2.8470    0.0012    4.1620    1.0000 
2073.5548   10.1820    2.9370   -0.0028    4.4910    1.0000 
2073.8596    9.4700    2.7940   -0.0061    3.8830    1.0000 
2074.1644    8.8070    2.2640   -0.0130    3.4030   16.0000 
2074.4692    8.9870    2.0840   -0.0182    3.6020   16.0000 
2074.7740    8.9100    2.0620   -0.0192    3.7310   16.0000 
2075.0788    7.5210    2.0650   -0.0187    3.8180   16.0000 
2075.3836    9.0060    2.0640   -0.0189    3.8520   16.0000 
2075.6884    9.6000    2.0560   -0.0187    3.8970   16.0000 
2075.9932    9.2370    2.0470   -0.0187    3.8220   16.0000 
2076.2980    9.7670    2.0570   -0.0189    3.8230   16.0000 
2076.6028   11.3060    2.0530   -0.0191    3.8390   16.0000 
2076.9076   10.5110    2.0600   -0.0187    3.7270   16.0000 
2077.2124    9.1860    2.0630   -0.0187    3.8170   16.0000 
2077.5172   10.0320    2.0580   -0.0201    3.8920   16.0000 
2077.8220   10.7360    2.0630   -0.0202    3.8660   16.0000 
2078.1268    8.8730    2.0700   -0.0201    3.8260   16.0000 
2078.4316    9.7010    2.0540   -0.0197    3.8350   16.0000 
2078.7364    9.0920    2.0440   -0.0197    3.8050   16.0000 
2079.0412    6.7130    2.0490   -0.0196    3.8630   16.0000 
2079.3460    8.4180    2.0460   -0.0197    3.9420   16.0000 
2079.6508   10.6770    2.0490   -0.0194    3.7740   16.0000 
2079.9556   11.0270    2.0560   -0.0187    3.7980   16.0000 
2080.2604    9.6440    2.0530   -0.0190    3.7540   16.0000 
2080.5652    9.5090    2.0600   -0.0197    3.6340   16.0000 
2080.8700   12.1970    2.0620   -0.0201    3.5980   16.0000 
2081.1748   12.8970    2.0670   -0.0202    3.6830   16.0000 
2081.4796   10.1990    2.0610   -0.0199    3.7560   16.0000 
2081.7844    8.2790    2.0580   -0.0198    3.8350   16.0000 
2082.0892    8.5800    2.0500   -0.0196    3.9250   16.0000 
2082.3940    6.9080    2.0520   -0.0195    3.9190   16.0000 
2082.6988    8.6810    2.0560   -0.0193    3.7080   16.0000 
2083.0036   10.5890    2.0490   -0.0191    3.7170   16.0000 
2083.3084   10.8750    2.0490   -0.0192    3.8530   16.0000 
2083.6132    9.2520    2.0480   -0.0193    3.9280   16.0000 
2083.9180    8.1030    2.0530   -0.0194    3.7920   16.0000 
2084.2228    9.1710    2.0550   -0.0194    3.8800   16.0000 
2084.5276    8.0940    2.0510   -0.0194    3.8080   16.0000 
2084.8324   10.4850    2.0500   -0.0196    3.8500   16.0000 
2085.1372   10.1880    2.0590   -0.0196    3.7650   16.0000 
2085.4420    8.5500    2.0830   -0.0185    3.7350   16.0000 
2085.7468    9.5580    2.1480   -0.0130    3.8200   16.0000 
2086.0516   10.3200    2.1660   -0.0124    3.6890   15.0000 
2086.3564    9.0560    2.1010   -0.0161    3.9100   16.0000 
2086.6612    7.7900    2.0650   -0.0188    3.9470   16.0000 
2086.9660    8.7450    2.0460   -0.0190    3.8390   16.0000 
2087.2708    8.4450    2.0460   -0.0192    3.8550   16.0000 
2087.5756    8.6690    2.0520   -0.0193    3.9040   16.0000 
2087.8804    9.7310    2.0600   -0.0193    3.8880   16.0000 
2088.1852    9.0710    2.0630   -0.0194    3.7880   16.0000 
2088.4900    8.3430    2.0600   -0.0195    3.8400   16.0000 
2088.7948    7.1970    2.0650   -0.0192    3.8220   16.0000 
2089.0996    7.5590    2.0550   -0.0184    3.8410   16.0000 
2089.4044    8.7330    2.0670   -0.0176    3.7770   16.0000 
2089.7092    8.2370    2.0820   -0.0177    3.9680   16.0000 
2090.0140    9.1830    2.0940   -0.0183    3.8860   16.0000 
2090.3188    8.8110    2.0750   -0.0181    3.8740   16.0000 
2090.6236    7.7360    2.0550   -0.0188    3.8180   16.0000 
2090.9284    9.5760    2.0420   -0.0195    3.7480   16.0000 
2091.2332   10.0400    2.0450   -0.0197    3.7320   16.0000 
2091.5380    8.6660    2.0570   -0.0198    3.7440   16.0000 
2091.8428    9.6080    2.0690   -0.0194    3.6420   16.0000 
2092.1476    8.0450    2.0670   -0.0190    3.7410   16.0000 
2092.4524    7.5510    2.0630   -0.0195    3.8140   16.0000 
2092.7572    7.1850    2.0660   -0.0201    3.8780   16.0000 
2093.0620    6.5790    2.0600   -0.0206    3.8950   16.0000 
