~VERSION INFORMATION
 VERS.                 2.0:   CWLS LOG ASCII STANDARD - VERSION 2.0
 WRAP.                  NO:   SINGLE LINE PER DEPTH STEP
 CREA.                 05/01/2018 16:52:08
#CREATED USING DSPetro VERSION 5000.10.1.3 BY H191660 ON 05/01/2018 16:52:08
~WELL INFORMATION
#MNEM.UNIT       DATA                          DESCRIPTION MNEMONIC
#---------      ---------------------------   --------------------------
 STRT    .M         1570.3300                 : START DEPTH
 STOP    .M         2429.2564                 : STOP DEPTH
 STEP    .M         0.3048                    : STEP VALUE
 NULL    .      -999.0000                     : NULL VALUE
 DATE    .      05/01/2018                    : LAS file Creation Date
 WELL .      BOYD_1_10_M4996             : Well Name
 COMP .      Neftex Exploration Insights : Company
 FLD  .                                  : Field
 UWI  .      DUSWL_BOYD_1                : Unique Well Identifier (UWI)
 LOC  .                                  : Location
 RWS  .      -999                        : Def_Rw
 WST  .      -999                        : Def_Rwt
 SRVC .                                  : Contractor
~CURVE INFORMATION
#MNEM              UNIT       API CODE   Curve Type Comments
#----------  --------------- ----------  ---------- -----------
 DEPTH      .M                         : Depth       
 GR_API     .API                       : GammaRay    Gamma Ray (API) - Measures the intensity of natural gamma-ray radiation emitted from formations containing radioactive elements, such as K, Th and U
 RHOZ_G_CC  .g/cc                      :             Formation Density - Measures the density of formation, including any void space or other materials contained in the subject volume
 NPHI_v_v   .dec                       : Neutron     
 PEF_B_E    .b/e-                      : PEF         Photoelectric Factor - A log of photoelectric absorption properties. Often expressed in an approximation unit barns/electron (b/e-)
 LITH       .                          :             
~A  DEPTH   GR_API  RHOZ_G_C~  NPHI_v_v  PEF_B_E     LITH   
# ...
1731.2644   69.5040    2.5930    0.1357    2.9080   22.0000 
1731.5692   70.0140    2.5960    0.1647    3.2700   22.0000 
1731.8740   62.3510    2.5980    0.1232    3.2590   22.0000 
1732.1788   45.2490    2.2930    0.0432    3.2040   16.0000 
1732.4836   24.7500    2.1040   -0.0014    3.3290   16.0000 
1732.7884   18.0960    2.0990   -0.0059    3.2550   16.0000 
1733.0932   21.8910    2.1220   -0.0014    3.1910   16.0000 
1733.3980   24.7440    2.1210    0.0001    3.0750   16.0000 
1733.7028   23.0780    2.0890   -0.0072    3.3160   16.0000 
1734.0076   16.0730    2.0660   -0.0118    3.1850   16.0000 
1734.3124   21.0720    2.0600   -0.0101    3.1610   16.0000 
1734.6172   21.8730    2.1430   -0.0052    3.2430   16.0000 
1734.9220   21.4310    2.1730   -0.0081    3.2720   16.0000 
1735.2268   28.7060    2.2110   -0.0038    3.3110   16.0000 
1735.5316   25.6730    2.2150   -0.0041    3.4290   16.0000 
1735.8364   19.3830    2.1730   -0.0089    3.5880   16.0000 
1736.1412   14.0510    2.1390   -0.0138    3.6130   16.0000 
1736.4460   16.5300    2.1200   -0.0142    3.5320   16.0000 
1736.7508   18.9470    2.1320   -0.0113    3.4950   16.0000 
1737.0556   20.8170    2.1570   -0.0100    3.4470   16.0000 
1737.3604   22.0430    2.1830   -0.0093    3.4950   16.0000 
1737.6652   19.8050    2.1920   -0.0072    3.5860   16.0000 
1737.9700   20.6840    2.1820   -0.0094    3.4620   16.0000 
1738.2748   17.3150    2.1380   -0.0121    3.4750   16.0000 
1738.5796   19.8720    2.1280   -0.0105    3.5650   16.0000 
1738.8844   19.4210    2.1460   -0.0124    3.7040   16.0000 
1739.1892   14.5610    2.1300   -0.0159    3.7580   16.0000 
1739.4940   11.7960    2.1070   -0.0180    3.8050   16.0000 
1739.7988   10.6520    2.0840   -0.0194    3.8950   16.0000 
1740.1036   10.9880    2.0520   -0.0196    3.9680   16.0000 
1740.4084   13.7640    2.0580   -0.0188    3.9260   16.0000 
1740.7132   17.4470    2.0840   -0.0164    3.5960   16.0000 
1741.0180   23.2710    2.1250   -0.0055    3.2670   16.0000 
1741.3228   35.6030    2.2970    0.0163    3.3580   15.0000 
1741.6276   35.0300    2.3000    0.0057    3.4630   15.0000 
1741.9324   40.2200    2.1840    0.0066    3.3220   15.0000 
1742.2372   53.4480    2.2900    0.0432    3.2420   15.0000 
1742.5420   63.5580    2.5010    0.1012    3.2700   22.0000 
1742.8468   56.0100    2.4900    0.0723    3.2680   22.0000 
1743.1516   42.0800    2.2580    0.0084    3.1930   16.0000 
1743.4564   26.6060    2.1890   -0.0010    3.2980   16.0000 
1743.7612   20.8350    2.1630   -0.0056    3.4550   16.0000 
1744.0660   17.8170    2.1460   -0.0109    3.4880   16.0000 
1744.3708   21.3140    2.1040   -0.0077    3.2900   16.0000 
1744.6756   30.7140    2.1520    0.0066    3.1490   16.0000 
1744.9804   29.8400    2.1960   -0.0009    3.2830   16.0000 
1745.2852   16.8270    2.1180   -0.0127    3.4040   16.0000 
1745.5900   23.0010    2.0630   -0.0073    3.3000   16.0000 
1745.8948   25.6470    2.1440    0.0037    3.2880   16.0000 
1746.1996   22.0310    2.1820   -0.0057    3.5010   16.0000 
1746.5044   17.0070    2.1140   -0.0146    3.7090   16.0000 
1746.8092   12.6290    2.0810   -0.0170    3.8460   16.0000 
1747.1140   12.0060    2.0700   -0.0151    3.8180   16.0000 
1747.4188   13.3020    2.0780   -0.0148    3.7530   16.0000 
1747.7236   12.8670    2.0800   -0.0154    3.8810   16.0000 
1748.0284   11.8020    2.0660   -0.0164    3.9640   16.0000 
1748.3332   10.5350    2.0600   -0.0177    3.8700   16.0000 
1748.6380   13.2680    2.0690   -0.0180    3.8180   16.0000 
1748.9428   16.6940    2.1040   -0.0164    3.8030   16.0000 
1749.2476   19.5270    2.1190   -0.0130    3.6570   16.0000 
1749.5524   22.1900    2.1440   -0.0090    3.4490   16.0000 
1749.8572   30.3600    2.2110    0.0067    3.4300   16.0000 
1750.1620   37.8560    2.2900    0.0178    3.5910   15.0000 
1750.4668   34.8630    2.3570    0.0147    3.5850   15.0000 
1750.7716   29.4650    2.2940    0.0045    3.5090   15.0000 
1751.0764   24.6060    2.2390   -0.0067    3.5570   16.0000 
1751.3812   20.8200    2.1840   -0.0085    3.5570   16.0000 
1751.6860   19.4030    2.1530   -0.0089    3.5430   16.0000 
1751.9908   18.8460    2.1440   -0.0102    3.5390   16.0000 
1752.2956   17.8520    2.1420   -0.0107    3.5260   16.0000 
1752.6004   16.8800    2.1290   -0.0116    3.4360   16.0000 
1752.9052   19.8410    2.1090   -0.0109    3.4310   16.0000 
1753.2100   25.2560    2.1330   -0.0065    3.3210   16.0000 
1753.5148   29.3550    2.1640   -0.0027    3.3440   16.0000 
1753.8196   23.5350    2.1370   -0.0070    3.4520   16.0000 
1754.1244   13.0200    2.1130   -0.0122    3.5810   16.0000 
1754.4292   12.9750    2.1040   -0.0148    3.4650   16.0000 
1754.7340   17.1800    2.0820   -0.0126    3.3780   16.0000 
1755.0388   19.9070    2.1510   -0.0077    3.5030   16.0000 
1755.3436   18.2630    2.2100   -0.0101    3.6030   16.0000 
1755.6484   14.3510    2.1360   -0.0140    3.5030   16.0000 
1755.9532   14.3210    2.0780   -0.0143    3.3280   16.0000 
1756.2580   17.4240    2.1070   -0.0123    3.3440   16.0000 
1756.5628   19.0490    2.1650   -0.0092    3.2810   16.0000 
1756.8676   16.3920    2.1390   -0.0117    3.4100   16.0000 
1757.1724   13.6020    2.1060   -0.0140    3.5460   16.0000 
1757.4772   12.0230    2.1060   -0.0155    3.6390   16.0000 
1757.7820   12.3110    2.1020   -0.0161    3.7470   16.0000 
1758.0868   13.6140    2.0930   -0.0167    3.7800   16.0000 
1758.3916   12.6240    2.0760   -0.0170    3.6900   16.0000 
1758.6964   15.7580    2.0940   -0.0157    3.6840   16.0000 
1759.0012   20.2920    2.2410   -0.0045    3.6870   16.0000 
1759.3060   20.4390    2.2790   -0.0059    3.5520   16.0000 
1759.6108   20.1020    2.1370   -0.0069    3.5850   16.0000 
1759.9156   37.7550    2.2660    0.0138    3.4150   15.0000 
1760.2204   49.9220    2.3100    0.0347    3.2690   15.0000 
1760.5252   26.9060    2.1540    0.0047    3.3780   16.0000 
1760.8300   24.6320    2.1320   -0.0063    3.2820   16.0000 
1761.1348   34.1490    2.2290    0.0018    3.0750   16.0000 
1761.4396   38.1920    2.3480    0.0114    3.1880   15.0000 
1761.7444   33.7460    2.2710    0.0003    3.4590   16.0000 
1762.0492   20.6660    2.1550   -0.0108    3.6370   16.0000 
1762.3540   16.1990    2.0970   -0.0146    3.6280   16.0000 
1762.6588   17.7860    2.1240   -0.0113    3.5560   16.0000 
1762.9636   18.5840    2.1760   -0.0097    3.6540   16.0000 
1763.2684   13.9100    2.1590   -0.0131    3.8500   16.0000 
1763.5732   12.2670    2.0970   -0.0171    3.9210   16.0000 
1763.8780   11.7660    2.0620   -0.0179    3.9100   16.0000 
1764.1828   10.8720    2.0520   -0.0178    3.9440   16.0000 
1764.4876   10.7700    2.0380   -0.0181    3.9880   16.0000 
1764.7924   15.5660    2.0560   -0.0174    3.9020   16.0000 
1765.0972   23.8800    2.0860   -0.0114    3.5700   16.0000 
1765.4020   40.2380    2.1520    0.0249    3.3420   16.0000 
1765.7068   62.7360    2.3820    0.1048    3.0760   22.0000 
1766.0116   71.9360    2.5260    0.1119    3.0840   22.0000 
1766.3164   67.8650    2.5180    0.1280    3.0780   22.0000 
1766.6212   59.4360    2.5110    0.1371    3.3190   22.0000 
1766.9260   42.8810    2.3720    0.0732    3.2230   16.0000 
1767.2308   31.2470    2.1940    0.0110    3.2950   16.0000 
1767.5356   26.0130    2.1110   -0.0051    3.2090   16.0000 
1767.8404   29.6820    2.1380   -0.0030    3.2150   16.0000 
1768.1452   29.5680    2.1890   -0.0058    3.2510   16.0000 
1768.4500   21.1290    2.2060   -0.0103    3.4450   16.0000 
1768.7548   14.4150    2.1430   -0.0150    3.6500   16.0000 
1769.0596   11.0310    2.0890   -0.0178    3.7950   16.0000 
1769.3644    8.9390    2.0740   -0.0184    3.8360   16.0000 
1769.6692   11.7900    2.0880   -0.0187    3.9040   16.0000 
1769.9740   12.5250    2.1040   -0.0158    3.9990   16.0000 
1770.2788   12.5570    2.1040   -0.0144    3.8630   16.0000 
1770.5836   14.8100    2.0920   -0.0153    3.6000   16.0000 
1770.8884   18.4800    2.1000   -0.0150    3.4010   16.0000 
1771.1932   27.6050    2.1500   -0.0034    3.2400   16.0000 
