~VERSION INFORMATION
 VERS.                 2.0:   CWLS LOG ASCII STANDARD - VERSION 2.0
 WRAP.                  NO:   SINGLE LINE PER DEPTH STEP
 CREA.                 05/01/2018 16:52:08
#CREATED USING DSPetro VERSION 5000.10.1.3 BY H191660 ON 05/01/2018 16:52:08
~WELL INFORMATION
#MNEM.UNIT       DATA                          DESCRIPTION MNEMONIC
#---------      ---------------------------   --------------------------
 STRT    .M         1570.3300                 : START DEPTH
 STOP    .M         2429.2564                 : STOP DEPTH
 STEP    .M         0.3048                    : STEP VALUE
 NULL    .      -999.0000                     : NULL VALUE
 DATE    .      05/01/2018                    : LAS file Creation Date
 WELL .      BOYD_1_10_M4996             : Well Name
 COMP .      Neftex Exploration Insights : Company
 FLD  .                                  : Field
 UWI  .      DUSWL_BOYD_1                : Unique Well Identifier (UWI)
 LOC  .                                  : Location
 RWS  .      -999                        : Def_Rw
 WST  .      -999                        : Def_Rwt
 SRVC .                                  : Contractor
~CURVE INFORMATION
#MNEM              UNIT       API CODE   Curve Type Comments
#----------  --------------- ----------  ---------- -----------
 DEPTH      .M                         : Depth       
 GR_API     .API                       : GammaRay    Gamma Ray (API) - Measures the intensity of natural gamma-ray radiation emitted from formations containing radioactive elements, such as K, Th and U
 RHOZ_G_CC  .g/cc                      :             Formation Density - Measures the density of formation, including any void space or other materials contained in the subject volume
 NPHI_v_v   .dec                       : Neutron     
 PEF_B_E    .b/e-                      : PEF         Photoelectric Factor - A log of photoelectric absorption properties. Often expressed in an approximation unit barns/electron (b/e-)
 LITH       .                          :             
~A  DEPTH   GR_API  RHOZ_G_C~  NPHI_v_v  PEF_B_E     LITH   
# ...
1851.9652   34.1010    2.8420    0.0284    3.2960   12.0000 
1852.2700   40.9970    2.7700    0.0750    3.1680   12.0000 
1852.5748   43.9560    2.7740    0.0900    3.3860   12.0000 
1852.8796   35.4950    2.7730    0.0358    3.4380   12.0000 
1853.1844   18.6020    2.7520    0.0429    3.3460   12.0000 
1853.4892   22.4010    2.7600    0.0809    3.3400   12.0000 
1853.7940   32.6490    2.7540    0.0991    3.2790   12.0000 
1854.0988   45.2780    2.7200    0.1171    3.1630   12.0000 
1854.4036   57.6710    2.6940    0.1478    3.2000   22.0000 
1854.7084   63.1320    2.7170    0.1606    3.6150   22.0000 
1855.0132   57.0920    2.7340    0.1363    3.8620   22.0000 
1855.3180   41.2820    2.7700    0.0580    4.2290    1.0000 
1855.6228   23.3550    2.8520    0.0118    4.5910    1.0000 
1855.9276   21.4200    2.8040    0.0355    4.0200    1.0000 
1856.2324   43.8060    2.6630    0.1134    3.2890   22.0000 
1856.5372   60.6770    2.6740    0.1641    3.3720   22.0000 
1856.8420   53.5320    2.6980    0.1678    3.3130   22.0000 
1857.1468   40.7300    2.7110    0.1676    3.4720   22.0000 
1857.4516   36.4910    2.7000    0.1545    3.3610   22.0000 
1857.7564   38.5070    2.7100    0.1371    3.0860   22.0000 
1858.0612   44.9270    2.7110    0.1360    3.0450   22.0000 
1858.3660   52.5950    2.7300    0.1325    3.2990   22.0000 
1858.6708   46.9970    2.7740    0.1242    3.5470   12.0000 
1858.9756   39.4940    2.7630    0.1086    3.4180   12.0000 
1859.2804   48.5300    2.7120    0.1307    3.4100   22.0000 
1859.5852   53.3880    2.7120    0.1349    3.5720   22.0000 
1859.8900   40.0230    2.7680    0.1034    3.5980   12.0000 
1860.1948   38.3690    2.7860    0.0937    3.3660   12.0000 
1860.4996   44.1960    2.7560    0.1067    3.4610   12.0000 
1860.8044   30.2610    2.7660    0.0624    3.5820   12.0000 
1861.1092   20.3100    2.7800    0.0407    3.3450   12.0000 
1861.4140   17.0370    2.7460    0.0990    3.1080   12.0000 
1861.7188   19.3370    2.7420    0.1177    3.1830   12.0000 
1862.0236   25.2110    2.7410    0.1137    3.0060   12.0000 
1862.3284   38.8530    2.7360    0.1231    3.1600   12.0000 
1862.6332   35.8740    2.7840    0.0770    3.9540   12.0000 
1862.9380   25.1400    2.8730    0.0118    4.8280    1.0000 
1863.2428   22.4600    2.8810    0.0150    4.3500    1.0000 
1863.5476   24.9390    2.8040    0.0428    3.1010   22.0000 
1863.8524   22.8650    2.7460    0.0335    3.2430   22.0000 
1864.1572   18.5850    2.6780    0.0305    3.3230   22.0000 
1864.4620   18.4260    2.6290    0.0282    3.3910   22.0000 
1864.7668   17.0270    2.6070    0.0249    3.4920   22.0000 
1865.0716   26.5350    2.5940    0.0511    3.3470   22.0000 
1865.3764   38.8670    2.6740    0.1347    3.2340   22.0000 
1865.6812   49.5750    2.6990    0.1590    3.3060   22.0000 
1865.9860   59.2700    2.6970    0.1696    3.3170   22.0000 
1866.2908   60.9080    2.6950    0.1600    3.3640   22.0000 
1866.5956   61.3410    2.6900    0.1513    3.2760   22.0000 
1866.9004   58.8510    2.7200    0.1291    3.4960   22.0000 
1867.2052   52.2890    2.7540    0.1035    3.7610   12.0000 
1867.5100   39.8160    2.7810    0.0693    3.8480   12.0000 
1867.8148   30.6420    2.8070    0.0358    3.6350   12.0000 
1868.1196   23.5970    2.7750    0.0223    3.4170   12.0000 
1868.4244   26.4210    2.7340    0.0274    3.5350   12.0000 
1868.7292   36.4730    2.7190    0.0949    3.3480   12.0000 
1869.0340   53.3670    2.6280    0.1710    3.0360   22.0000 
1869.3388   63.0440    2.6150    0.2155    3.1320   22.0000 
1869.6436   65.2070    2.6640    0.1933    3.1980   22.0000 
1869.9484   60.3470    2.6920    0.1638    3.4930   22.0000 
1870.2532   56.8830    2.7260    0.1369    3.6910   22.0000 
1870.5580   54.2600    2.7470    0.1144    3.3640   22.0000 
1870.8628   49.1330    2.7540    0.0809    3.4620   22.0000 
1871.1676   35.7110    2.7310    0.0294    3.5020   22.0000 
1871.4724   25.5170    2.7010    0.0378    3.3380   22.0000 
1871.7772   26.7810    2.7200    0.0562    3.1470   22.0000 
1872.0820   29.1960    2.7090    0.0467    3.1270   22.0000 
1872.3868   31.2510    2.6900    0.0358    3.2090   22.0000 
1872.6916   27.6840    2.6480    0.0279    3.3760   22.0000 
1872.9964   24.8810    2.6080    0.0239    3.5750   22.0000 
1873.3012   36.3920    2.6290    0.0276    3.6410   22.0000 
1873.6060   43.7750    2.6640    0.0365    3.2840   22.0000 
1873.9108   52.9260    2.6860    0.0888    3.3010   22.0000 
1874.2156   56.3000    2.6910    0.1062    3.4120   22.0000 
1874.5204   58.4460    2.6860    0.1139    3.4370   22.0000 
1874.8252   60.9770    2.6460    0.1565    3.2380   22.0000 
1875.1300   61.6490    2.6250    0.1632    3.3010   22.0000 
1875.4348   53.3250    2.6390    0.1525    3.2920   22.0000 
1875.7396   53.2160    2.6550    0.1480    3.1770   22.0000 
1876.0444   56.4630    2.6410    0.1338    3.2870   22.0000 
1876.3492   56.5410    2.6510    0.1189    3.4030   22.0000 
1876.6540   59.9120    2.6510    0.1249    3.1070   22.0000 
1876.9588   56.7540    2.6490    0.1399    3.1630   22.0000 
1877.2636   61.5450    2.6470    0.1590    3.0280   22.0000 
1877.5684   61.8030    2.6500    0.1494    3.1280   22.0000 
1877.8732   48.5760    2.6530    0.1031    3.4640   22.0000 
1878.1780   35.2530    2.5490    0.0295    3.6750   22.0000 
1878.4828   18.8430    2.1860   -0.0101    3.6330   16.0000 
1878.7876   10.7880    2.0820   -0.0197    3.8310   16.0000 
1879.0924   11.0930    2.0720   -0.0210    3.9470   16.0000 
1879.3972   11.5410    2.0630   -0.0215    3.9910   16.0000 
1879.7020   10.8260    2.0510   -0.0212    4.0000   16.0000 
1880.0068   10.2360    2.0600   -0.0213    3.8910   16.0000 
1880.3116    9.7790    2.0620   -0.0216    3.8540   16.0000 
1880.6164    9.5780    2.0630   -0.0218    3.9150   16.0000 
1880.9212   10.2440    2.0740   -0.0221    3.8850   16.0000 
1881.2260    9.1400    2.0750   -0.0225    3.9730   16.0000 
1881.5308    8.3790    2.0680   -0.0222    3.9970   16.0000 
1881.8356    9.8400    2.0640   -0.0221    3.9050   16.0000 
1882.1404    8.9550    2.0690   -0.0222    3.8920   16.0000 
1882.4452    8.6120    2.0770   -0.0216    3.9900   16.0000 
1882.7500    8.9280    2.0770   -0.0217    3.9630   16.0000 
1883.0548    9.0000    2.0610   -0.0222    4.0370   16.0000 
1883.3596    9.6920    2.0740   -0.0217    4.1370   16.0000 
1883.6644    9.3980    2.0780   -0.0219    4.0650   16.0000 
1883.9692   10.3280    2.0700   -0.0219    3.9270   16.0000 
1884.2740   11.2340    2.0760   -0.0220    4.0010   16.0000 
1884.5788   11.4900    2.0800   -0.0194    4.0220   16.0000 
1884.8836   10.4220    2.1120   -0.0148    4.0300   16.0000 
1885.1884   15.1680    2.3250   -0.0060    4.1020   15.0000 
1885.4932   17.6390    2.4880   -0.0004    3.9210   15.0000 
1885.7980   22.6770    2.5040    0.0044    3.6210   15.0000 
1886.1028   37.2170    2.5610    0.0734    3.2100   22.0000 
1886.4076   50.8400    2.6040    0.1557    3.1320   22.0000 
1886.7124   45.9600    2.5470    0.0792    3.6130   22.0000 
1887.0172   21.3650    2.1940   -0.0045    3.8730   16.0000 
1887.3220   13.0880    2.0700   -0.0172    3.8200   16.0000 
1887.6268   12.0770    2.0680   -0.0194    3.8460   16.0000 
1887.9316   11.3910    2.0720   -0.0199    3.9560   16.0000 
1888.2364   10.8800    2.0730   -0.0200    4.0580   16.0000 
1888.5412   12.0330    2.0680   -0.0204    4.1060   16.0000 
1888.8460   14.1860    2.0800   -0.0205    4.0440   16.0000 
1889.1508   17.5440    2.0970   -0.0177    4.0400   16.0000 
1889.4556   20.6570    2.1540   -0.0133    3.9350   16.0000 
1889.7604   22.5770    2.2230   -0.0095    3.8920   15.0000 
1890.0652   20.1540    2.2190   -0.0100    3.8180   15.0000 
1890.3700   25.1400    2.2450   -0.0071    3.8210   15.0000 
1890.6748   49.2320    2.4230    0.0591    3.8110   15.0000 
1890.9796   64.4870    2.5650    0.1532    3.6420   37.0000 
1891.2844   62.7630    2.5880    0.1635    3.5400   37.0000 
1891.5892   57.7200    2.5870    0.1588    3.6380   37.0000 
1891.8940   54.4370    2.5650    0.1637    3.7200   37.0000 
