~VERSION INFORMATION
 VERS.                 2.0:   CWLS LOG ASCII STANDARD - VERSION 2.0
 WRAP.                  NO:   SINGLE LINE PER DEPTH STEP
 CREA.                 05/01/2018 17:03:03
#CREATED USING DSPetro VERSION 5000.10.1.3 BY H191660 ON 05/01/2018 17:03:03
~WELL INFORMATION
#MNEM.UNIT       DATA                          DESCRIPTION MNEMONIC
#---------      ---------------------------   --------------------------
 STRT    .M         45.1104                   : START DEPTH
 STOP    .M         2469.4896                 : STOP DEPTH
 STEP    .M         0.3048                    : STEP VALUE
 NULL    .      -999.0000                     : NULL VALUE
 DATE    .      05/01/2018                    : LAS file Creation Date
 WELL .      JOHNSON_2_1                 : Well Name
 COMP .      Neftex Exploration Insights : Company
 FLD  .                                  : Field
 UWI  .      DUSWL_JO_2_1                : Unique Well Identifier (UWI)
 LOC  .                                  : Location
 RWS  .      -999                        : Def_Rw
 WST  .      -999                        : Def_Rwt
 SRVC .                                  : Contractor
~CURVE INFORMATION
#MNEM              UNIT       API CODE   Curve Type Comments
#----------  --------------- ----------  ---------- -----------
 DEPTH      .M                         : Depth       
 CAL_INCH   .inch                      :             Caliper Log - A representation of the measured diameter of a borehole along its depth
 GR_API     .API                       : GammaRay    Gamma Ray (API) - Measures the intensity of natural gamma-ray radiation emitted from formations containing radioactive elements, such as K, Th and U
 RHOZ_G_CC  .g/cc                      :             Formation Density - Measures the density of formation, including any void space or other materials contained in the subject volume
 NPHI_v_v   .dec                       : Neutron     
 PEF_B_E    .b/e-                      : PEF         Photoelectric Factor - A log of photoelectric absorption properties. Often expressed in an approximation unit barns/electron (b/e-)
 LITH       .                          :             
~A  DEPTH  CAL_INCH   GR_API  RHOZ_G_C~  NPHI_v_v  PEF_B_E     LITH   
# ...
 699.5160   12.6100   98.0600 -999.0000 -999.0000   22.7130    3.0000 
 699.8208   12.5970  109.0820 -999.0000 -999.0000   20.5240    3.0000 
 700.1256   12.5930  102.9630 -999.0000 -999.0000   21.9130    3.0000 
 700.4304   12.5770   94.5720 -999.0000 -999.0000   23.1350    3.0000 
 700.7352   12.5680   86.7150 -999.0000 -999.0000   25.4360    3.0000 
 701.0400   12.5050   88.3760 -999.0000 -999.0000   24.1930    3.0000 
 701.3448   12.5680   99.3980 -999.0000 -999.0000   25.2000    3.0000 
 701.6496   12.5950   89.0900 -999.0000 -999.0000   25.7870    3.0000 
 701.9544   12.5940   89.3290 -999.0000 -999.0000   24.1720    3.0000 
 702.2592   12.5420  104.1720 -999.0000 -999.0000   24.4590    3.0000 
 702.5640   12.5610  108.2390 -999.0000 -999.0000   21.9210    3.0000 
 702.8688   12.5730  109.2450 -999.0000 -999.0000   21.6360    3.0000 
 703.1736   12.5760  107.9870 -999.0000 -999.0000   24.9540    3.0000 
 703.4784   12.5840  103.2540 -999.0000 -999.0000   26.5460    3.0000 
 703.7832   12.5800  101.4470 -999.0000 -999.0000   24.6450    3.0000 
 704.0880   12.5800  104.1280 -999.0000 -999.0000   24.6950    3.0000 
 704.3928   12.5910  101.1420 -999.0000 -999.0000   24.0240    3.0000 
 704.6976   12.5950  105.0240 -999.0000 -999.0000   22.3850    3.0000 
 705.0024   12.5790  103.5290 -999.0000 -999.0000   22.5320    3.0000 
 705.3072   12.5700  108.8440 -999.0000 -999.0000   25.3470    3.0000 
 705.6120   12.5740  109.1950 -999.0000 -999.0000   25.3360    3.0000 
 705.9168   12.5690  106.9100 -999.0000 -999.0000   24.2490    3.0000 
 706.2216   12.5730  109.1770 -999.0000 -999.0000   24.8720    3.0000 
 706.5264   12.5840  105.8730 -999.0000 -999.0000   25.9010    3.0000 
 706.8312   12.5790  101.6710 -999.0000 -999.0000   25.1020    3.0000 
 707.1360   12.5790  103.1010 -999.0000 -999.0000   24.3370    3.0000 
 707.4408   12.5780   99.8090 -999.0000 -999.0000   23.3220    3.0000 
 707.7456   12.5980  103.5610 -999.0000 -999.0000   22.7270    3.0000 
 708.0504   12.5690  103.9150 -999.0000 -999.0000   22.5850    3.0000 
 708.3552   12.5840  106.4220 -999.0000 -999.0000   23.5090    3.0000 
 708.6600   12.5750  104.5030 -999.0000 -999.0000   27.0980    3.0000 
 708.9648   12.5640  103.6620 -999.0000 -999.0000   26.0000    3.0000 
 709.2696   12.5640  104.0080 -999.0000 -999.0000   25.1990    3.0000 
 709.5744   12.5750  102.9810 -999.0000 -999.0000   24.3040    3.0000 
 709.8792   12.4150  107.2260 -999.0000 -999.0000   25.5960    3.0000 
 710.1840   12.5450  109.6750 -999.0000 -999.0000   25.7900    3.0000 
 710.4888   12.5660  100.8780 -999.0000 -999.0000   25.1920    3.0000 
 710.7936   12.5930  100.0820 -999.0000 -999.0000   24.2980    3.0000 
 711.0984   12.5620  101.9380 -999.0000 -999.0000   23.3890    3.0000 
 711.4032   12.5610  102.0400 -999.0000 -999.0000   22.6950    3.0000 
 711.7080   12.5640  104.2590 -999.0000 -999.0000   22.8760    3.0000 
 712.0128   12.5560  105.4480 -999.0000 -999.0000   24.5880    3.0000 
 712.3176   12.5470  103.3620 -999.0000 -999.0000   25.1260    3.0000 
 712.6224   12.5500  105.8720 -999.0000 -999.0000   24.3710    3.0000 
 712.9272   12.5580  110.4110 -999.0000 -999.0000   25.4990    3.0000 
 713.2320   12.5690  113.3360 -999.0000 -999.0000   27.8320    3.0000 
 713.5368   12.5650  110.1540 -999.0000 -999.0000   24.4980    3.0000 
 713.8416   12.5580  109.0180 -999.0000 -999.0000   20.5260    3.0000 
 714.1464   12.5730  112.2420 -999.0000 -999.0000   20.5630    3.0000 
 714.4512   12.5760  111.1460 -999.0000 -999.0000   23.1990    3.0000 
 714.7560   12.5790  107.2490 -999.0000 -999.0000   25.1620    3.0000 
 715.0608   12.5830  105.8640 -999.0000 -999.0000   26.8980    3.0000 
 715.3656   12.5510  103.2750 -999.0000 -999.0000   26.4820    3.0000 
 715.6704   12.5380  103.3870 -999.0000 -999.0000   23.7680    3.0000 
 715.9752   12.5690   99.9600 -999.0000 -999.0000   21.4590    3.0000 
 716.2800   12.5730   98.4520 -999.0000 -999.0000   22.6590    3.0000 
 716.5848   12.5760   97.3700 -999.0000 -999.0000   24.0110    3.0000 
 716.8896   12.5720   99.8280 -999.0000 -999.0000   23.4640    3.0000 
 717.1944   12.5790  102.2800 -999.0000 -999.0000   23.4010    3.0000 
 717.4992   12.5870  104.7860 -999.0000 -999.0000   25.8820    3.0000 
 717.8040   12.5780  110.1080 -999.0000 -999.0000   27.7520    3.0000 
 718.1088   12.5900  109.9810 -999.0000 -999.0000   24.3690    3.0000 
 718.4136   12.5730  108.2890 -999.0000 -999.0000   22.8130    3.0000 
 718.7184   12.5650  106.1200 -999.0000 -999.0000   25.0040    3.0000 
 719.0232   12.5710  107.1340 -999.0000 -999.0000   24.6710    3.0000 
 719.3280   12.5680  103.7810 -999.0000 -999.0000   23.5700    3.0000 
 719.6328   12.5510  102.9390 -999.0000 -999.0000   25.2950    3.0000 
 719.9376   12.5710  101.4300 -999.0000 -999.0000   25.2720    3.0000 
 720.2424   12.5670  102.5590 -999.0000 -999.0000   23.1200    3.0000 
 720.5472   12.5620   99.8000 -999.0000 -999.0000   25.7180    3.0000 
 720.8520   12.5610  105.4260 -999.0000 -999.0000   26.8440    3.0000 
 721.1568   12.5650  107.4470 -999.0000 -999.0000   22.5950    3.0000 
 721.4616   12.5680  101.7610 -999.0000 -999.0000   21.0770    3.0000 
 721.7664   12.5760  104.7540 -999.0000 -999.0000   24.5370    3.0000 
 722.0712   12.5600  103.1980 -999.0000 -999.0000   27.5530    3.0000 
 722.3760   12.5840  104.3880 -999.0000 -999.0000   26.6330    3.0000 
 722.6808   12.6150  108.9940 -999.0000 -999.0000   25.8320    3.0000 
 722.9856   12.6510  111.3080 -999.0000 -999.0000   26.1580    3.0000 
 723.2904   12.6380  102.2720 -999.0000 -999.0000   27.0560    3.0000 
 723.5952   12.6380   99.2740 -999.0000 -999.0000   26.8900    3.0000 
 723.9000   12.6650   99.8610 -999.0000 -999.0000   24.4500    3.0000 
 724.2048   12.6480  102.4260 -999.0000 -999.0000   25.6470    3.0000 
 724.5096   12.6480  106.9670 -999.0000 -999.0000   23.7470    3.0000 
 724.8144   12.6870  102.4100 -999.0000 -999.0000   22.7670    3.0000 
 725.1192   12.6570   98.4510 -999.0000 -999.0000   24.0020    3.0000 
 725.4240   12.5970   99.3390 -999.0000 -999.0000   25.7620    3.0000 
 725.7288   12.5890  104.6560 -999.0000 -999.0000   24.5570    3.0000 
 726.0336   12.5730  102.8420 -999.0000 -999.0000   24.2700    3.0000 
 726.3384   12.5720  102.8500 -999.0000 -999.0000   24.8820    3.0000 
 726.6432   12.5960  106.3080 -999.0000 -999.0000   25.1940    3.0000 
 726.9480   12.6400  113.7910 -999.0000 -999.0000   25.3880    3.0000 
 727.2528   12.6450  117.2550 -999.0000 -999.0000   27.5930    3.0000 
 727.5576   12.5800  113.7160 -999.0000 -999.0000   27.8200    3.0000 
 727.8624   12.5630  109.6270 -999.0000 -999.0000   25.9810    3.0000 
 728.1672   12.5660  110.8280 -999.0000 -999.0000   25.3000    3.0000 
 728.4720   12.5650  112.4290 -999.0000 -999.0000   25.2040    3.0000 
 728.7768   12.5720  107.9930 -999.0000 -999.0000   26.1630    3.0000 
 729.0816   12.5880  111.2850 -999.0000 -999.0000   26.3190    3.0000 
 729.3864   12.6480  114.4590 -999.0000 -999.0000   26.4050    3.0000 
 729.6912   12.6560  107.9330 -999.0000 -999.0000   25.7830    3.0000 
 729.9960   12.6440  108.5740 -999.0000 -999.0000   26.3830    3.0000 
 730.3008   12.6670  112.0960 -999.0000 -999.0000   25.5120    3.0000 
 730.6056   12.6750  114.3660 -999.0000 -999.0000   24.9870    3.0000 
 730.9104   12.6790  111.3640 -999.0000 -999.0000   23.4430    3.0000 
 731.2152   12.6860  107.1630 -999.0000 -999.0000   24.5710    3.0000 
 731.5200   12.6730  100.2760 -999.0000 -999.0000   25.5770    3.0000 
 731.8248   12.5940   90.7490 -999.0000 -999.0000   24.5450    3.0000 
 732.1296   12.5930   91.4650 -999.0000 -999.0000   25.2170    3.0000 
 732.4344   12.5890  102.5370 -999.0000 -999.0000   25.2430    3.0000 
 732.7392   12.6000  103.0130 -999.0000 -999.0000   24.9950    3.0000 
 733.0440   12.6310  105.8780 -999.0000 -999.0000   24.2290    3.0000 
 733.3488   12.6710  114.9080 -999.0000 -999.0000   24.0040    3.0000 
 733.6536   12.6980  119.3420 -999.0000 -999.0000   25.7870    3.0000 
