~VERSION INFORMATION
 VERS.                 2.0:   CWLS LOG ASCII STANDARD - VERSION 2.0
 WRAP.                  NO:   SINGLE LINE PER DEPTH STEP
 CREA.                 05/01/2018 17:03:03
#CREATED USING DSPetro VERSION 5000.10.1.3 BY H191660 ON 05/01/2018 17:03:03
~WELL INFORMATION
#MNEM.UNIT       DATA                          DESCRIPTION MNEMONIC
#---------      ---------------------------   --------------------------
 STRT    .M         45.1104                   : START DEPTH
 STOP    .M         2469.4896                 : STOP DEPTH
 STEP    .M         0.3048                    : STEP VALUE
 NULL    .      -999.0000                     : NULL VALUE
 DATE    .      05/01/2018                    : LAS file Creation Date
 WELL .      JOHNSON_2_1                 : Well Name
 COMP .      Neftex Exploration Insights : Company
 FLD  .                                  : Field
 UWI  .      DUSWL_JO_2_1                : Unique Well Identifier (UWI)
 LOC  .                                  : Location
 RWS  .      -999                        : Def_Rw
 WST  .      -999                        : Def_Rwt
 SRVC .                                  : Contractor
~CURVE INFORMATION
#MNEM              UNIT       API CODE   Curve Type Comments
#----------  --------------- ----------  ---------- -----------
 DEPTH      .M                         : Depth       
 CAL_INCH   .inch                      :             Caliper Log - A representation of the measured diameter of a borehole along its depth
 GR_API     .API                       : GammaRay    Gamma Ray (API) - Measures the intensity of natural gamma-ray radiation emitted from formations containing radioactive elements, such as K, Th and U
 RHOZ_G_CC  .g/cc                      :             Formation Density - Measures the density of formation, including any void space or other materials contained in the subject volume
 NPHI_v_v   .dec                       : Neutron     
 PEF_B_E    .b/e-                      : PEF         Photoelectric Factor - A log of photoelectric absorption properties. Often expressed in an approximation unit barns/electron (b/e-)
 LITH       .                          :             
~A  DEPTH  CAL_INCH   GR_API  RHOZ_G_C~  NPHI_v_v  PEF_B_E     LITH   
# ...
 527.3040   13.3720  100.1670 -999.0000 -999.0000   21.5210    3.0000 
 527.6088   13.4000  107.8290 -999.0000 -999.0000   19.7490    3.0000 
 527.9136   13.4800  115.2520 -999.0000 -999.0000   23.3050    3.0000 
 528.2184   13.5000  121.1790 -999.0000 -999.0000   25.7010    3.0000 
 528.5232   13.4960  122.4350 -999.0000 -999.0000   28.1800    3.0000 
 528.8280   13.4440  119.0810 -999.0000 -999.0000   28.0480    3.0000 
 529.1328   13.4320  116.2060 -999.0000 -999.0000   29.5810    3.0000 
 529.4376   13.3720  101.8360 -999.0000 -999.0000   31.2100    3.0000 
 529.7424   13.0640   66.0310 -999.0000 -999.0000   26.2050    3.0000 
 530.0472   12.2860   31.4840 -999.0000 -999.0000   16.6130    3.0000 
 530.3520   12.1300   25.9150 -999.0000 -999.0000   14.7690    3.0000 
 530.6568   12.0660   27.5900 -999.0000 -999.0000   13.7160    3.0000 
 530.9616   12.0580   25.3140 -999.0000 -999.0000   14.1110    3.0000 
 531.2664   12.1020   23.3970 -999.0000 -999.0000   14.4340    3.0000 
 531.5712   12.1180   23.1570 -999.0000 -999.0000   14.3870    3.0000 
 531.8760   12.1900   22.8570 -999.0000 -999.0000   17.0690    3.0000 
 532.1808   12.1940   22.6160 -999.0000 -999.0000   18.1350    3.0000 
 532.4856   12.1300   26.4470 -999.0000 -999.0000   17.3210    3.0000 
 532.7904   12.1420   28.3620 -999.0000 -999.0000   15.5370    3.0000 
 533.0952   12.4330   29.6780 -999.0000 -999.0000   13.0470    3.0000 
 533.4000   12.6290   30.9350 -999.0000 -999.0000   12.1370    3.0000 
 533.7048   12.2290   25.3650 -999.0000 -999.0000   12.7710    3.0000 
 534.0096   11.8140   23.9270 -999.0000 -999.0000   12.6160    3.0000 
 534.3144   11.6190   25.2430 -999.0000 -999.0000   13.4660    3.0000 
 534.6192   11.6780   24.2850 -999.0000 -999.0000   13.3110    3.0000 
 534.9240   11.8580   22.6670 -999.0000 -999.0000   13.5150    3.0000 
 535.2288   12.1170   23.8040 -999.0000 -999.0000   14.0540    3.0000 
 535.5336   12.2170   25.3590 -999.0000 -999.0000   15.6110    3.0000 
 535.8384   12.3050   24.3410 -999.0000 -999.0000   14.7490    3.0000 
 536.1432   12.3690   22.9630 -999.0000 -999.0000   12.5810    3.0000 
 536.4480   12.4080   22.9610 -999.0000 -999.0000   14.8810    3.0000 
 536.7528   12.4360   22.7210 -999.0000 -999.0000   15.5280    3.0000 
 537.0576   12.3960   19.9660 -999.0000 -999.0000   15.1450    3.0000 
 537.3624   12.3560   22.4790 -999.0000 -999.0000   17.2280    3.0000 
 537.6672   12.3080   25.7110 -999.0000 -999.0000   17.1690    3.0000 
 537.9720   12.2480   31.6980 -999.0000 -999.0000   14.7500    3.0000 
 538.2768   12.2480   37.0850 -999.0000 -999.0000   16.5700    3.0000 
 538.5816   12.3120   39.3000 -999.0000 -999.0000   17.1930    3.0000 
 538.8864   12.3240   42.8910 -999.0000 -999.0000   16.9660    3.0000 
 539.1912   12.2160   43.2490 -999.0000 -999.0000   18.3430    3.0000 
 539.4960   12.2120   40.0750 -999.0000 -999.0000   19.2660    3.0000 
 539.8008   12.2600   35.8830 -999.0000 -999.0000   17.0860    3.0000 
 540.1056   12.2920   36.7200 -999.0000 -999.0000   15.6980    3.0000 
 540.4104   12.3040   35.7010 -999.0000 -999.0000   15.2310    3.0000 
 540.7152   12.3280   33.1850 -999.0000 -999.0000   16.8470    3.0000 
 541.0200   12.3320   30.2510 -999.0000 -999.0000   17.7940    3.0000 
 541.3248   12.3510   32.1660 -999.0000 -999.0000   15.3030    3.0000 
 541.6296   12.3310   37.3140 -999.0000 -999.0000   15.7100    3.0000 
 541.9344   12.3350   39.9470 -999.0000 -999.0000   15.0040    3.0000 
 542.2392   12.3630   40.7840 -999.0000 -999.0000   14.1900    3.0000 
 542.5440   12.3510   40.9630 -999.0000 -999.0000   15.2440    3.0000 
 542.8488   12.3070   38.8670 -999.0000 -999.0000   15.2440    3.0000 
 543.1536   12.3830   33.5370 -999.0000 -999.0000   13.1130    3.0000 
 543.4584   12.3150   30.0040 -999.0000 -999.0000   13.4960    3.0000 
 543.7632   12.2510   27.9670 -999.0000 -999.0000   12.5380    3.0000 
 544.0680   12.2270   26.2890 -999.0000 -999.0000   12.1560    3.0000 
 544.3728   12.3310   24.3730 -999.0000 -999.0000   13.5330    3.0000 
 544.6776   12.3390   20.2400 -999.0000 -999.0000   12.6710    3.0000 
 544.9824   12.3390   21.2570 -999.0000 -999.0000   11.7250    3.0000 
 545.2872   12.4300   28.5610 -999.0000 -999.0000   10.7310    3.0000 
 545.5920   12.4540   28.6200 -999.0000 -999.0000   10.5520    3.0000 
 545.8968   12.4100   26.4630 -999.0000 -999.0000   13.3780    3.0000 
 546.2016   12.3500   26.3420 -999.0000 -999.0000   12.8510    3.0000 
 546.5064   12.3980   30.4730 -999.0000 -999.0000   12.2290    3.0000 
 546.8112   12.4940   33.9440 -999.0000 -999.0000   11.4990    3.0000 
 547.1160   12.5540   34.7810 -999.0000 -999.0000   12.1810    3.0000 
 547.4208   12.6330   35.9180 -999.0000 -999.0000   12.7090    3.0000 
 547.7256   12.6410   37.1740 -999.0000 -999.0000   13.0680    3.0000 
 548.0304   12.6410   39.1490 -999.0000 -999.0000   12.1220    3.0000 
 548.3352   12.6210   38.9680 -999.0000 -999.0000   10.8890    3.0000 
 548.6400   12.5670   34.7170 -999.0000 -999.0000   11.7320    3.0000 
 548.9448   12.5270   33.9390 -999.0000 -999.0000   11.8250    3.0000 
 549.2496   12.6150   33.8810 -999.0000 -999.0000   10.5810    3.0000 
 549.5544   12.6420   33.9890 -999.0000 -999.0000    9.5670    3.0000 
 549.8592   12.6010   35.5380 -999.0000 -999.0000    8.8620    3.0000 
 550.1640   12.5010   32.2990 -999.0000 -999.0000    9.6660    3.0000 
 550.4688   12.6040   32.7720 -999.0000 -999.0000    9.3070    3.0000 
 550.7736   12.6230   31.0220 -999.0000 -999.0000    8.9400    3.0000 
 551.0784   12.6020   31.9200 -999.0000 -999.0000    9.2760    3.0000 
 551.3832   12.5030   34.0040 -999.0000 -999.0000    8.6410    3.0000 
 551.6880   12.4820   32.7270 -999.0000 -999.0000    8.5130    3.0000 
 551.9928   12.5460   31.2340 -999.0000 -999.0000    8.9790    3.0000 
 552.2976   12.6170   31.7110 -999.0000 -999.0000    8.9930    3.0000 
 552.6024   12.5650   30.9190 -999.0000 -999.0000    8.9600    3.0000 
 552.9072   12.5720   32.0390 -999.0000 -999.0000    8.6510    3.0000 
 553.2120   12.6150   28.6240 -999.0000 -999.0000    8.4140    3.0000 
 553.5168   12.5590   27.9030 -999.0000 -999.0000    8.4370    3.0000 
 553.8216   12.5380   31.8510 -999.0000 -999.0000    8.5480    3.0000 
 554.1264   12.6100   37.8830 -999.0000 -999.0000    8.3230    3.0000 
 554.4312   12.5450   40.6290 -999.0000 -999.0000    8.4060    3.0000 
 554.7360   12.4650   35.6550 -999.0000 -999.0000    8.8520    3.0000 
 555.0408   12.3210   30.9740 -999.0000 -999.0000    9.3800    3.0000 
 555.3456   12.3480   36.2280 -999.0000 -999.0000    9.3430    3.0000 
 555.6504   12.4080   39.8810 -999.0000 -999.0000    9.5740    3.0000 
 555.9552   12.3440   34.4930 -999.0000 -999.0000    9.9570    3.0000 
 556.2600   12.2560   32.9220 -999.0000 -999.0000    9.9580    3.0000 
 556.5648   12.1950   33.0380 -999.0000 -999.0000   10.0330    3.0000 
 556.8696   12.3590   37.1070 -999.0000 -999.0000    9.6140    3.0000 
 557.1744   12.5900   39.4410 -999.0000 -999.0000    9.8800    3.0000 
 557.4792   12.6370   42.0660 -999.0000 -999.0000   11.4020    3.0000 
 557.7840   12.6340   41.0950 -999.0000 -999.0000   13.1140    3.0000 
 558.0888   12.6130   37.2640 -999.0000 -999.0000   12.6360    3.0000 
 558.3936   12.5810   37.3270 -999.0000 -999.0000   12.3850    3.0000 
 558.6984   12.5680   41.3250 -999.0000 -999.0000   12.3030    3.0000 
 559.0032   12.7390   46.4650 -999.0000 -999.0000   12.2080    3.0000 
 559.3080   12.8580   48.9160 -999.0000 -999.0000   15.1890    3.0000 
 559.6128   12.8060   50.6400 -999.0000 -999.0000   15.8850    3.0000 
 559.9176   12.8620   49.9860 -999.0000 -999.0000   14.7370    3.0000 
 560.2224   12.9010   52.5430 -999.0000 -999.0000   14.4070    3.0000 
 560.5272   12.9330   50.5650 -999.0000 -999.0000   16.5470    3.0000 
 560.8320   12.9880   48.6990 -999.0000 -999.0000   18.4510    3.0000 
 561.1368   13.0040   51.5600 -999.0000 -999.0000   18.6810    3.0000 
 561.4416   13.0220   56.4640 -999.0000 -999.0000   17.3690    3.0000 
