~VERSION INFORMATION
 VERS.                 2.0:   CWLS LOG ASCII STANDARD - VERSION 2.0
 WRAP.                  NO:   SINGLE LINE PER DEPTH STEP
 CREA.                 05/01/2018 17:03:03
#CREATED USING DSPetro VERSION 5000.10.1.3 BY H191660 ON 05/01/2018 17:03:03
~WELL INFORMATION
#MNEM.UNIT       DATA                          DESCRIPTION MNEMONIC
#---------      ---------------------------   --------------------------
 STRT    .M         45.1104                   : START DEPTH
 STOP    .M         2469.4896                 : STOP DEPTH
 STEP    .M         0.3048                    : STEP VALUE
 NULL    .      -999.0000                     : NULL VALUE
 DATE    .      05/01/2018                    : LAS file Creation Date
 WELL .      JOHNSON_2_1                 : Well Name
 COMP .      Neftex Exploration Insights : Company
 FLD  .                                  : Field
 UWI  .      DUSWL_JO_2_1                : Unique Well Identifier (UWI)
 LOC  .                                  : Location
 RWS  .      -999                        : Def_Rw
 WST  .      -999                        : Def_Rwt
 SRVC .                                  : Contractor
~CURVE INFORMATION
#MNEM              UNIT       API CODE   Curve Type Comments
#----------  --------------- ----------  ---------- -----------
 DEPTH      .M                         : Depth       
 CAL_INCH   .inch                      :             Caliper Log - A representation of the measured diameter of a borehole along its depth
 GR_API     .API                       : GammaRay    Gamma Ray (API) - Measures the intensity of natural gamma-ray radiation emitted from formations containing radioactive elements, such as K, Th and U
 RHOZ_G_CC  .g/cc                      :             Formation Density - Measures the density of formation, including any void space or other materials contained in the subject volume
 NPHI_v_v   .dec                       : Neutron     
 PEF_B_E    .b/e-                      : PEF         Photoelectric Factor - A log of photoelectric absorption properties. Often expressed in an approximation unit barns/electron (b/e-)
 LITH       .                          :             
~A  DEPTH  CAL_INCH   GR_API  RHOZ_G_C~  NPHI_v_v  PEF_B_E     LITH   
# ...
1973.8848   11.5130   25.9010    2.0560   -0.0224    4.4770   16.0000 
1974.1896   11.4850   26.4390    2.0720   -0.0213    4.4310   16.0000 
1974.4944   11.4450   30.3920    2.0630   -0.0212    4.6160   16.0000 
1974.7992   11.5610   31.3490    2.0560   -0.0211    4.6340   16.0000 
1975.1040   11.5090   31.0480    2.0580   -0.0207    4.2460   16.0000 
1975.4088   11.1130   29.1300    2.0610   -0.0204    4.0820   16.0000 
1975.7136   10.9410   30.2670    2.0680   -0.0199    4.1440   16.0000 
1976.0184   10.7980   34.0400    2.1080   -0.0207    4.4020   16.0000 
1976.3232   11.2610   30.5640    2.1230   -0.0225    4.5270   16.0000 
1976.6280   11.2490   27.1470    2.0760   -0.0221    4.4290   16.0000 
1976.9328   11.4240   25.1090    2.0650   -0.0218    4.4030   16.0000 
1977.2376   11.6240   27.7440    2.0620   -0.0225    4.3810   16.0000 
1977.5424   11.6360   29.0610    2.0520   -0.0228    4.2990   16.0000 
1977.8472   11.6320   28.1610    2.0560   -0.0231    4.3270   16.0000 
1978.1520   11.5040   28.1600    2.0520   -0.0228    4.2180   16.0000 
1978.4568   11.4800   31.0340    2.0670   -0.0219    4.2420   16.0000 
1978.7616   11.5240   31.2120    2.0790   -0.0206    4.2640   16.0000 
1979.0664   11.3560   29.4740    2.0790   -0.0207    4.2400   16.0000 
1979.3712   11.3920   30.7310    2.0760   -0.0211    4.0960   16.0000 
1979.6760   11.4520   30.3700    2.0800   -0.0226    4.2040   16.0000 
1979.9808   11.2920   30.0090    2.1000   -0.0218    4.3050   16.0000 
1980.2856   11.2040   30.0080    2.1090   -0.0215    4.3170   16.0000 
1980.5904   11.3200   27.9700    2.0820   -0.0230    4.2150   16.0000 
1980.8952   11.4830   26.6510    2.0780   -0.0231    4.2830   16.0000 
1981.2000   11.5830   28.5670    2.0720   -0.0226    4.3570   16.0000 
1981.5048   11.7750   32.1000    2.0830   -0.0206    4.1570   16.0000 
1981.8096   11.7510   35.6340    2.1380   -0.0192    4.3480   16.0000 
1982.1144   11.3350   32.6970    2.1430   -0.0190    4.4340   16.0000 
1982.4192   10.9600   31.7970    2.1030   -0.0187    4.3380   16.0000 
1982.7240   10.8680   35.3300    2.0990   -0.0183    4.4980   16.0000 
1983.0288   11.2830   34.9700    2.1160   -0.0181    4.4940   16.0000 
1983.3336   11.3990   31.0740    2.0870   -0.0194    4.2200   16.0000 
1983.6384   11.3070   29.2750    2.0750   -0.0206    4.1570   16.0000 
1983.9432   11.3310   30.7720    2.0730   -0.0206    4.2750   16.0000 
1984.2480   11.5220   31.9690    2.0620   -0.0220    4.1070   16.0000 
1984.5528   11.7420   33.5850    2.0580   -0.0221    3.9970   16.0000 
1984.8576   11.3100   36.9990    2.1360   -0.0179    3.9450   16.0000 
1985.1624   10.9030   39.6930    2.2980   -0.0117    4.3370   16.0000 
1985.4672   10.8150   37.7750    2.2110   -0.0151    4.3740   16.0000 
1985.7720   10.9150   36.5750    2.0760   -0.0203    4.4620   16.0000 
1986.0768   11.4060   32.4400    2.0640   -0.0215    4.4080   16.0000 
1986.3816   11.6690   33.1580    2.0830   -0.0213    4.4500   16.0000 
1986.6864   11.2460   35.9130    2.0780   -0.0190    4.4820   16.0000 
1986.9912   11.4260   36.7500    2.0780   -0.0111    4.3960   16.0000 
1987.2960   11.5130   44.0580    2.2450    0.0223    4.4590   16.0000 
1987.6008    9.8640   57.8960    2.5880    0.0447    4.4330   22.0000 
1987.9056    9.6080   64.9640    2.6870    0.0484    3.9710   22.0000 
1988.2104    9.2600   65.1430    2.7300    0.0464    4.1590   22.0000 
1988.5152    9.1210   64.0630    2.7250    0.0425    4.1930   22.0000 
1988.8200    8.9810   63.0430    2.6360    0.0561    4.0950   22.0000 
1989.1248    9.0880   59.8670    2.6130    0.0646    3.9630   22.0000 
1989.4296    9.0720   66.5760    2.7100    0.0809    3.9190   22.0000 
1989.7344    9.0960   65.6760    2.7460    0.0736    4.2400   22.0000 
1990.0392    9.0320   59.6240    2.6510    0.0664    4.1980   22.0000 
1990.3440    8.9160   63.2770    2.6070    0.0910    3.9080   22.0000 
1990.6488    8.9360   65.6720    2.7190    0.0911    4.5040   22.0000 
1990.9536    9.0480   57.0440    2.7320    0.0505    4.6290   22.0000 
1991.2584    9.0560   55.7240    2.6590    0.0521    4.1740   22.0000 
1991.5632    9.1280   61.8340    2.7130    0.0651    4.1660   22.0000 
1991.8680    9.0800   63.9890    2.7370    0.0700    4.0100   22.0000 
1992.1728    9.1160   68.9610    2.7110    0.0960    3.6720   22.0000 
1992.4776    9.2030   81.2410    2.6540    0.1272    3.9530   22.0000 
1992.7824    9.1950   81.7190    2.6580    0.1489    4.4410   22.0000 
1993.0872    9.1590   72.7310    2.6820    0.1293    3.9950   22.0000 
1993.3920    9.1470   75.0670    2.6450    0.1422    3.8550   22.0000 
1993.6968    9.1710   74.4660    2.6430    0.2036    3.7830   22.0000 
1994.0016    9.1190   72.1280    2.6620    0.1884    3.6670   22.0000 
1994.3064    9.0950   73.2650    2.6590    0.1445    3.5630   22.0000 
1994.6112    9.0910   73.0840    2.6450    0.1389    3.6070   22.0000 
1994.9160    9.1390   67.9910    2.6820    0.1521    3.7680   22.0000 
1995.2208    9.1270   66.7910    2.6910    0.1290    3.8880   22.0000 
1995.5256    9.0790   67.2090    2.6710    0.1147    3.9920   22.0000 
1995.8304    9.0030   69.7240    2.6930    0.1163    4.1160   22.0000 
1996.1352    8.8910   68.5250    2.7060    0.0981    4.0060   22.0000 
1996.4400    8.8150   70.2610    2.6780    0.0853    3.8560   22.0000 
1996.7448    8.8030   64.2690    2.7020    0.0705    3.9020   22.0000 
1997.0496    8.7750   48.3310    2.8430    0.0310    4.7990    1.0000 
1997.3544    8.7630   36.4080    2.7840    0.0015    4.1550   22.0000 
1997.6592    8.7750   39.8210    2.7230    0.0252    4.0370   22.0000 
1997.9640    8.7860   47.7280    2.8260    0.0497    4.4190    1.0000 
1998.2688    8.7780   44.4920    2.9060    0.0251    5.1140    1.0000 
1998.5736    8.7300   35.0850    2.9540    0.0073    5.2460    1.0000 
1998.8784    8.7060   33.0460    2.9430    0.0024    4.1840    1.0000 
1999.1832    8.7100   37.8380    2.8300    0.0127    3.6130   22.0000 
1999.4880    8.7260   44.8470    2.7250    0.0543    3.3710   22.0000 
1999.7928    8.7020   56.1680    2.7130    0.1195    3.6230   22.0000 
2000.0976    8.7100   59.1630    2.7450    0.1153    3.7280   22.0000 
2000.4024    8.7340   47.0590    2.6980    0.0768    3.5480   22.0000 
2000.7072    8.7580   37.1730    2.6390    0.1210    3.6460   22.0000 
2001.0120    8.8220   33.9970    2.6490    0.1585    3.7360   22.0000 
2001.3168    8.9450   34.7140    2.6580    0.1007    3.5340   22.0000 
2001.6216    9.0370   41.8420    2.6830    0.1079    3.4180   22.0000 
2001.9264    9.0770   53.1040    2.6950    0.1600    3.4540   22.0000 
2002.2312    8.9650   66.6430    2.6880    0.1588    3.3480   22.0000 
2002.5360    8.8690   76.6470    2.7020    0.1511    3.3040   22.0000 
2002.8408    8.8130   76.8850    2.7650    0.1364    3.7200   22.0000 
2003.1456    8.7810   65.9200    2.7980    0.1205    3.9370   22.0000 
2003.4504    8.7010   43.9310    2.8950    0.0526    4.2350    1.0000 
2003.7552    8.6290   31.2290    2.9400    0.0138    4.1690    1.0000 
2004.0600    8.6970   38.6570    2.7210    0.0754    3.5130   22.0000 
2004.3648    8.7730   55.7300    2.7030    0.1784    3.4210   22.0000 
2004.6696    8.7970   65.7340    2.7580    0.1807    3.5550   22.0000 
2004.9744    8.8010   57.4050    2.7480    0.1360    3.3450   22.0000 
2005.2792    8.8720   49.1360    2.7050    0.1140    3.3930   22.0000 
2005.5840    8.8880   44.9410    2.6850    0.1339    3.4770   22.0000 
2005.8888    8.8680   51.4700    2.6890    0.1527    3.4790   22.0000 
2006.1936    8.8400   54.8240    2.6840    0.1707    3.3330   22.0000 
2006.4984    8.7840   61.7120    2.7000    0.1760    3.5850   22.0000 
2006.8032    8.7760   63.8080    2.7240    0.1371    3.9000   22.0000 
2007.1080    8.7960   48.4100    2.7240    0.0703    3.7700   22.0000 
2007.4128    8.7880   45.6520    2.6870    0.1170    3.5220   22.0000 
2007.7176    8.7880   60.6890    2.7010    0.1708    3.4200   22.0000 
2008.0224    8.7320   63.3240    2.7130    0.1694    3.3620   22.0000 
