~VERSION INFORMATION
 VERS.                 2.0:   CWLS LOG ASCII STANDARD - VERSION 2.0
 WRAP.                  NO:   SINGLE LINE PER DEPTH STEP
 CREA.                 05/01/2018 17:03:03
#CREATED USING DSPetro VERSION 5000.10.1.3 BY H191660 ON 05/01/2018 17:03:03
~WELL INFORMATION
#MNEM.UNIT       DATA                          DESCRIPTION MNEMONIC
#---------      ---------------------------   --------------------------
 STRT    .M         45.1104                   : START DEPTH
 STOP    .M         2469.4896                 : STOP DEPTH
 STEP    .M         0.3048                    : STEP VALUE
 NULL    .      -999.0000                     : NULL VALUE
 DATE    .      05/01/2018                    : LAS file Creation Date
 WELL .      JOHNSON_2_1                 : Well Name
 COMP .      Neftex Exploration Insights : Company
 FLD  .                                  : Field
 UWI  .      DUSWL_JO_2_1                : Unique Well Identifier (UWI)
 LOC  .                                  : Location
 RWS  .      -999                        : Def_Rw
 WST  .      -999                        : Def_Rwt
 SRVC .                                  : Contractor
~CURVE INFORMATION
#MNEM              UNIT       API CODE   Curve Type Comments
#----------  --------------- ----------  ---------- -----------
 DEPTH      .M                         : Depth       
 CAL_INCH   .inch                      :             Caliper Log - A representation of the measured diameter of a borehole along its depth
 GR_API     .API                       : GammaRay    Gamma Ray (API) - Measures the intensity of natural gamma-ray radiation emitted from formations containing radioactive elements, such as K, Th and U
 RHOZ_G_CC  .g/cc                      :             Formation Density - Measures the density of formation, including any void space or other materials contained in the subject volume
 NPHI_v_v   .dec                       : Neutron     
 PEF_B_E    .b/e-                      : PEF         Photoelectric Factor - A log of photoelectric absorption properties. Often expressed in an approximation unit barns/electron (b/e-)
 LITH       .                          :             
~A  DEPTH  CAL_INCH   GR_API  RHOZ_G_C~  NPHI_v_v  PEF_B_E     LITH   
# ...
1112.8248   12.8070    9.8260    4.6270    0.0272   -0.5590    3.0000 
1113.1296   12.8060   11.9620    4.7180    0.0269   -0.1830    3.0000 
1113.4344   12.8090   11.1000    4.4220    0.0269    0.1110    3.0000 
1113.7392   12.7950   10.7810    4.7120    0.0271    0.0790    3.0000 
1114.0440   12.8050   13.3790    4.5820    0.0271   -0.0230    3.0000 
1114.3488   12.8030   16.1070    4.3090    0.0269    0.0190    3.0000 
1114.6536   12.8060   17.1600    4.3040    0.0268    0.4060    3.0000 
1114.9584   12.8120   15.7020    4.3270    0.0268    0.6990    3.0000 
1115.2632   12.8220   13.1670    4.3310    0.0265    0.7750    3.0000 
1115.5680   12.8970   14.5190    4.5430    0.0265    0.8280    3.0000 
1115.8728   12.9030   13.1150    4.6680    0.0268    0.4740    3.0000 
1116.1776   12.9210   13.3860    4.6850    0.0270    0.0350    3.0000 
1116.4824   12.9270   16.7180    4.3610    0.0270    0.0160    3.0000 
1116.7872   12.9930   23.7530    4.2400    0.0271    0.0580    3.0000 
1117.0920   12.9880   33.7810    4.6670    0.0270    0.7100    3.0000 
1117.3968   13.0580   30.7640    4.6520    0.0268    1.3750    3.0000 
1117.7016   13.0650   19.3180    4.1760    0.0268    0.6370    3.0000 
1118.0064   12.9550   19.6430    4.1330    0.0268    0.5110    3.0000 
1118.3112   12.8900   21.0490    4.5220    0.0268    0.7300    3.0000 
1118.6160   13.0280   20.1310    4.6630    0.0268   -0.0070    3.0000 
1118.9208   13.1500   19.0940    4.6280    0.0269   -0.2660    3.0000 
1119.2256   13.1800   17.6910    4.6310    0.0270   -0.1170    3.0000 
1119.5304   13.2060   15.5160    4.6200    0.0271   -0.2910    3.0000 
1119.8352   13.2170   15.6040    4.4800    0.0271   -0.4410    3.0000 
1120.1400   13.2620   16.1130    4.5390    0.0270   -0.3890    3.0000 
1120.4448   13.3450   17.1030    4.5580    0.0269   -0.2050    3.0000 
1120.7496   13.4110   17.6740    4.3570    0.0267    0.1610    3.0000 
1121.0544   13.5330   16.1020    4.5640    0.0265    1.3270    3.0000 
1121.3592   13.6990   15.6540    4.7150    0.0262    2.9130    3.0000 
1121.6640   13.7690   13.7980    4.6160    0.0260    3.6190    3.0000 
1121.9688   13.7740   14.3470    4.5460    0.0255    7.8520    3.0000 
1122.2736   13.6910   15.5540    4.4550    0.0256    9.8600    3.0000 
1122.5784   13.3600   14.0680    4.4290    0.0265    6.4600    3.0000 
1122.8832   13.2010   14.9780    4.3380    0.0270    1.3840    3.0000 
1123.1880   13.0900   16.3060    4.6790    0.0270    0.2700    3.0000 
1123.4928   12.9910   15.1180    4.6040    0.0270    0.2320    3.0000 
1123.7976   12.9550   14.6490    4.4170    0.0269    0.3380    3.0000 
1124.1024   12.9680   15.9160    4.5290    0.0269    0.3480    3.0000 
1124.4072   12.9610   16.2270    4.4450    0.0268    0.2860    3.0000 
1124.7120   12.9810   15.0980    4.4260    0.0266    0.2720    3.0000 
1125.0168   13.0580   13.4340    4.4380    0.0266    1.3340    3.0000 
1125.3216   13.0550   13.7430    4.3610    0.0268    1.2960    3.0000 
1125.6264   12.9960   18.6070    4.1700    0.0268    1.5930    3.0000 
1125.9312   12.9720   33.7760    4.2260    0.0263    2.3330    3.0000 
1126.2360   12.9770   51.9360    4.3540    0.0255    7.8580    3.0000 
1126.5408   12.9700   46.0750    4.5550    0.0258    7.0670    3.0000 
1126.8456   12.9500   24.8790    4.5240    0.0264    2.4340    3.0000 
1127.1504   12.9670   20.8160    4.5960    0.0267    0.8410    3.0000 
1127.4552   12.9640   25.5600    4.7600    0.0268    0.3360    3.0000 
1127.7600   12.9720   28.0850    4.8740    0.0268    0.2620    3.0000 
1128.0648   12.9690   28.4570    4.3420    0.0268    0.4630    3.0000 
1128.3696   12.9620   28.9460    4.1330    0.0268    0.3180    3.0000 
1128.6744   12.9510   26.5010    4.1810    0.0270    0.3030    3.0000 
1128.9792   12.9510   19.5620    4.6220    0.0271    0.1460    3.0000 
1129.2840   12.9400   15.1980    4.6060    0.0272   -0.1310    3.0000 
1129.5888   12.9410   15.1490    4.5830    0.0271   -0.2170    3.0000 
1129.8936   12.9690   14.5000    4.5130    0.0268    0.2710    3.0000 
1130.1984   12.9980   15.6490    4.3920    0.0268    0.5440    3.0000 
1130.5032   12.9830   20.2130    4.3410    0.0269    0.3270    3.0000 
1130.8080   12.9840   20.8220    4.4940    0.0269    0.3490    3.0000 
1131.1128   12.9440   19.5740    4.4050    0.0269    0.4190    3.0000 
1131.4176   12.9570   17.2450    4.4650    0.0271   -0.0020    3.0000 
1131.7224   12.9700   14.8600    4.5410    0.0271   -0.3630    3.0000 
1132.0272   12.9780   15.1710    4.6020    0.0271   -0.4130    3.0000 
1132.3320   12.9710   12.6640    4.5700    0.0271   -0.2830    3.0000 
1132.6368   12.9830   11.5970    4.3950    0.0270   -0.1770    3.0000 
1132.9416   12.9960   13.1650    4.3750    0.0269    0.3830    3.0000 
1133.2464   12.9730   16.3510    4.2100    0.0267    0.5010    3.0000 
1133.5512   12.9860   15.8210    4.0290    0.0259    0.5580    3.0000 
1133.8560   13.0140   15.1720    4.1310    0.0261    3.1040    3.0000 
1134.1608   12.9590   15.4230    4.3830    0.0268    2.4920    3.0000 
1134.4656   12.9760   16.6940    4.6020    0.0269    0.4320    3.0000 
1134.7704   12.9210   15.8040    4.6660    0.0267    0.3820    3.0000 
1135.0752   12.9010   15.3950    4.3280    0.0266    0.8340    3.0000 
1135.3800   12.9580   13.2500    4.1770    0.0268    2.0290    3.0000 
1135.6848   12.9590   16.0750    3.8780    0.0271    3.1630    3.0000 
1135.9896   12.9310   16.3270    4.1950    0.0272    2.5630    3.0000 
1136.2944   12.8720   16.0970    4.5920    0.0271    1.2330    3.0000 
1136.5992   12.8930   15.2670    4.2320    0.0270    0.7400    3.0000 
1136.9040   12.9330   16.6570    4.3680    0.0270    0.7140    3.0000 
1137.2088   12.9700   18.7050    4.3080    0.0270    0.9030    3.0000 
1137.5136   12.9990   20.8120    4.3250    0.0271    1.0210    3.0000 
1137.8184   13.0480   20.8240    4.4350    0.0270    1.4020    3.0000 
1138.1232   13.1240   17.2380    4.9420    0.0269    1.3040    3.0000 
1138.4280   13.1530   13.8930    4.9420    0.0268    1.1460    3.0000 
1138.7328   13.0850   12.7040    4.2560    0.0268    1.2760    3.0000 
1139.0376   12.9070   15.3540    4.3660    0.0270    1.1420    3.0000 
1139.3424   12.9790   16.9200    4.6240    0.0271    0.9600    3.0000 
1139.6472   13.4510   22.8610    4.1500    0.0271    0.4920    3.0000 
1139.9520   13.4200   36.2920    3.8730    0.0272    0.5490    3.0000 
1140.2568   13.2730   35.3440    4.2220    0.0273    0.7510    3.0000 
1140.5616   13.2290   27.4450    4.3480    0.0272    0.4850    3.0000 
1140.8664   13.1820   22.0640    4.4060    0.0272    0.0040    3.0000 
1141.1712   13.1190   21.3550    4.4780    0.0272   -0.1170    3.0000 
1141.4760   12.9680   23.3420    4.3490    0.0272    0.0850    3.0000 
1141.7808   12.8650   26.4070    4.4710    0.0273    0.4060    3.0000 
1142.0856   12.8130   29.5910    4.6210    0.0273    0.9300    3.0000 
1142.3904   12.7940   31.8180    4.0970    0.0273    1.1200    3.0000 
1142.6952   12.7790   25.7770    4.3270    0.0273    0.9260    3.0000 
1143.0000   12.7830   21.8940    4.3970    0.0273    0.5180    3.0000 
1143.3048   12.7680   24.6620    4.0200    0.0275    0.4310    3.0000 
1143.6096   12.7890   28.1460    3.8250    0.0274    1.0400    3.0000 
1143.9144   12.7780   28.4570    3.9170    0.0272    1.1570    3.0000 
1144.2192   12.7740   33.1980    4.0930    0.0270    1.3460    3.0000 
1144.5240   12.7750   42.7950    4.1090    0.0270    2.6600    3.0000 
1144.8288   12.7920   47.0000    3.8980    0.0270    3.5080    3.0000 
1145.1336   12.7840   46.4130    3.9760    0.0271    4.6540    3.0000 
1145.4384   12.7930   37.3180    4.5930    0.0271    5.5010    3.0000 
1145.7432   12.7980   28.2220    4.5750    0.0270    3.0940    3.0000 
1146.0480   12.8060   33.5040    4.1950    0.0270    1.8360    3.0000 
1146.3528   12.8230   41.8400    4.2170    0.0270    4.4900    3.0000 
1146.6576   12.8640   42.2690    4.0420    0.0269    6.2830    3.0000 
1146.9624   12.8970   32.2770    3.8730    0.0272    4.7610    3.0000 
