~VERSION INFORMATION
 VERS.                 2.0:   CWLS LOG ASCII STANDARD - VERSION 2.0
 WRAP.                  NO:   SINGLE LINE PER DEPTH STEP
 CREA.                 05/01/2018 17:03:03
#CREATED USING DSPetro VERSION 5000.10.1.3 BY H191660 ON 05/01/2018 17:03:03
~WELL INFORMATION
#MNEM.UNIT       DATA                          DESCRIPTION MNEMONIC
#---------      ---------------------------   --------------------------
 STRT    .M         45.1104                   : START DEPTH
 STOP    .M         2469.4896                 : STOP DEPTH
 STEP    .M         0.3048                    : STEP VALUE
 NULL    .      -999.0000                     : NULL VALUE
 DATE    .      05/01/2018                    : LAS file Creation Date
 WELL .      JOHNSON_2_1                 : Well Name
 COMP .      Neftex Exploration Insights : Company
 FLD  .                                  : Field
 UWI  .      DUSWL_JO_2_1                : Unique Well Identifier (UWI)
 LOC  .                                  : Location
 RWS  .      -999                        : Def_Rw
 WST  .      -999                        : Def_Rwt
 SRVC .                                  : Contractor
~CURVE INFORMATION
#MNEM              UNIT       API CODE   Curve Type Comments
#----------  --------------- ----------  ---------- -----------
 DEPTH      .M                         : Depth       
 CAL_INCH   .inch                      :             Caliper Log - A representation of the measured diameter of a borehole along its depth
 GR_API     .API                       : GammaRay    Gamma Ray (API) - Measures the intensity of natural gamma-ray radiation emitted from formations containing radioactive elements, such as K, Th and U
 RHOZ_G_CC  .g/cc                      :             Formation Density - Measures the density of formation, including any void space or other materials contained in the subject volume
 NPHI_v_v   .dec                       : Neutron     
 PEF_B_E    .b/e-                      : PEF         Photoelectric Factor - A log of photoelectric absorption properties. Often expressed in an approximation unit barns/electron (b/e-)
 LITH       .                          :             
~A  DEPTH  CAL_INCH   GR_API  RHOZ_G_C~  NPHI_v_v  PEF_B_E     LITH   
# ...
1560.5760   13.1560   13.8570    2.8810    0.0257   25.0320    3.0000 
1560.8808   13.1870   13.0320    2.9670    0.0260   23.4030    3.0000 
1561.1856   13.2110   16.2520    2.8830    0.0262   21.8600    3.0000 
1561.4904   13.0870   22.5350    3.0680    0.0265   20.1020    3.0000 
1561.7952   12.9710   29.9530    3.0820    0.0269   17.1350    3.0000 
1562.1000   12.8670   31.8080    2.9930    0.0274    8.8650    3.0000 
1562.4048   12.8230   31.3770    2.9540    0.0277    5.5280    3.0000 
1562.7096   12.8190   30.8380    3.1340    0.0278    4.8100    3.0000 
1563.0144   12.8220   26.7000    3.3650    0.0276    2.8380    3.0000 
1563.3192   12.8340   22.1520    3.3890    0.0272    0.9240    3.0000 
1563.6240   12.8330   22.8000    3.2010    0.0271    1.2110    3.0000 
1563.9288   12.8140   30.5120    3.1050    0.0270    7.6870    3.0000 
1564.2336   12.8170   31.6450    3.1250    0.0268   12.3800    3.0000 
1564.5384   12.8090   36.1310    2.9170    0.0271   12.2120    3.0000 
1564.8432   12.8120   38.5760    2.9510    0.0277    9.0200    3.0000 
1565.1480   12.8190   33.7250    3.2380    0.0278    4.4120    3.0000 
1565.4528   12.8040   29.9450    3.2870    0.0277    4.7710    3.0000 
1565.7576   12.8110   26.8300    3.0320    0.0276    4.6640    3.0000 
1566.0624   12.8380   29.0450    3.1320    0.0277    4.9190    3.0000 
1566.3672   12.8420   25.7400    3.1470    0.0278    5.9740    3.0000 
1566.6720   12.8530   24.1720    3.1750    0.0279    4.9470    3.0000 
1566.9768   12.8330   31.0040    3.0910    0.0279    2.4930    3.0000 
1567.2816   12.8770   32.3660    2.8650    0.0277    5.8680    3.0000 
1567.5864   12.9400   29.5470    2.8130    0.0274    9.0650    3.0000 
1567.8912   12.9990   29.4270    2.9170    0.0272   11.8790    3.0000 
1568.1960   12.9950   29.7850    2.9350    0.0270   14.3820    3.0000 
1568.5008   13.0000   28.1620    2.9680    0.0269   15.3760    3.0000 
1568.8056   13.0600   25.2200    3.0800    0.0272   14.5870    3.0000 
1569.1104   13.0630   26.9530    3.1380    0.0274   11.8250    3.0000 
1569.4152   13.0590   34.1190    3.1090    0.0277    9.4430    3.0000 
1569.7200   13.0030   36.3980    2.7980    0.0278    8.0200    3.0000 
1570.0248   13.0180   36.0380    2.9300    0.0280    5.9360    3.0000 
1570.3296   13.0410   34.2490    3.2810    0.0278    5.9860    3.0000 
1570.6344   13.0970   32.4960    3.0770    0.0274    7.3750    3.0000 
1570.9392   13.0220   28.9090    2.9710    0.0273    9.4580    3.0000 
1571.2440   12.9660   29.3860    2.9550    0.0270   13.0730    3.0000 
1571.5488   13.0090   28.5370    2.9550    0.0268   15.2380    3.0000 
1571.8536   13.0610   28.5270    2.8870    0.0269   16.8200    3.0000 
1572.1584   13.0640   28.8340    2.7560    0.0271   16.4380    3.0000 
1572.4632   13.0030   29.9580    2.8910    0.0271   15.7100    3.0000 
1572.7680   12.9720   32.0460    3.3330    0.0275   13.3650    3.0000 
1573.0728   12.9560   37.0050    3.2180    0.0279    5.0830    3.0000 
1573.3776   12.9270   42.2220    3.1820    0.0281    1.9490    3.0000 
1573.6824   12.9110   36.1670    3.2730    0.0279    3.3260    3.0000 
1573.9872   12.8550   31.3120    3.4250    0.0278    4.7870    3.0000 
1574.2920   12.8980   25.0290    3.2530    0.0276    3.9030    3.0000 
1574.5968   12.9290   26.6920    2.9280    0.0274    5.0430    3.0000 
1574.9016   12.8890   24.5940    2.7380    0.0275    8.1190    3.0000 
1575.2064   12.8730   23.4520    2.7410    0.0275    7.6660    3.0000 
1575.5112   12.8480   28.0420    3.1980    0.0277    7.5480    3.0000 
1575.8160   12.8520   29.3530    3.3540    0.0279    3.9820    3.0000 
1576.1208   12.8390   28.2870    3.6170    0.0279    1.4550    3.0000 
1576.4256   12.8160   30.7240    3.4890    0.0278    1.8410    3.0000 
1576.7304   12.8270   33.4140    2.9700    0.0277    3.7440    3.0000 
1577.0352   12.8310   33.2930    3.0470    0.0279    3.1830    3.0000 
1577.3400   12.8390   34.3050    3.2910    0.0280    3.0530    3.0000 
1577.6448   12.8260   32.9780    3.2470    0.0278    3.3910    3.0000 
1577.9496   12.8300   32.0720    3.1210    0.0277    4.0970    3.0000 
1578.2544   12.8170   34.0470    3.2760    0.0278    4.6500    3.0000 
1578.5592   12.8130   34.5210    3.2500    0.0278    3.8720    3.0000 
1578.8640   12.8050   33.6260    3.1740    0.0278    2.7470    3.0000 
1579.1688   12.8240   31.7130    3.2360    0.0279    1.8620    3.0000 
1579.4736   12.8280   29.4370    3.2040    0.0279    2.0760    3.0000 
1579.7784   12.8080   35.4000    3.5660    0.0279    2.1730    3.0000 
1580.0832   12.7840   37.9100    3.3850    0.0279    1.9830    3.0000 
1580.3880   12.7240   35.0360    3.4090    0.0280    1.4920    3.0000 
1580.6928   12.7350   32.5210    3.4070    0.0279    1.3990    3.0000 
1580.9976   12.7350   30.1870    3.2020    0.0279    1.4720    3.0000 
1581.3024   12.7350   30.6650    3.1110    0.0279    1.9040    3.0000 
1581.6072   12.7340   34.4270    3.0660    0.0277    3.3290    3.0000 
1581.9120   12.7420   36.8060    2.9300    0.0277    3.8090    3.0000 
1582.2168   12.7500   37.4630    3.1310    0.0279    3.5100    3.0000 
1582.5216   12.7540   35.4220    3.3280    0.0279    2.4210    3.0000 
1582.8264   12.7850   28.1240    3.5520    0.0280    1.8360    3.0000 
1583.1312   12.8210   28.3520    3.4600    0.0280    1.5870    3.0000 
1583.4360   12.8130   34.0370    3.5110    0.0279    1.5030    3.0000 
1583.7408   12.8170   34.3850    3.5170    0.0278    1.4810    3.0000 
1584.0456   12.8240   31.3990    3.4350    0.0277    2.3210    3.0000 
1584.3504   12.8280   30.4320    3.5480    0.0276    2.8220    3.0000 
1584.6552   12.8310   31.3180    3.3070    0.0274    3.9620    3.0000 
1584.9600   12.8500   32.7430    3.2510    0.0275    5.0870    3.0000 
1585.2648   12.8500   30.2920    3.4680    0.0274    4.5490    3.0000 
1585.5696   12.8580   28.4820    3.5880    0.0275    3.1400    3.0000 
1585.8744   12.8820   26.5150    3.4680    0.0276    1.0800    3.0000 
1586.1792   12.8500   29.0260    3.8110    0.0276    0.7360    3.0000 
1586.4840   12.8330   29.7270    4.1620    0.0276    0.7000    3.0000 
1586.7888   12.8370   29.1270    4.3190    0.0275    0.4500    3.0000 
1587.0936   12.8800   32.5930    4.0270    0.0275    0.2730    3.0000 
1587.3984   12.8990   35.3950    3.7120    0.0276    0.2130    3.0000 
1587.7032   12.8320   34.7400    3.9850    0.0276    0.2290    3.0000 
1588.0080   12.8470   31.0270    3.8830    0.0274    0.0710    3.0000 
1588.3128   12.8740   27.2530    3.8160    0.0273   -0.0250    3.0000 
1588.6176   12.9260   23.1140    4.1030    0.0273    0.0020    3.0000 
1588.9224   12.9060   27.0010    3.7280    0.0274    0.0120    3.0000 
1589.2272   12.8230   30.1600    3.8270    0.0277    0.0230    3.0000 
1589.5320   12.8260   29.0760    4.0240    0.0276   -0.1060    3.0000 
1589.8368   12.8700   34.4610    3.8670    0.0276   -0.1960    3.0000 
1590.1416   12.8350   32.8480    3.9040    0.0277   -0.1850    3.0000 
1590.4464   12.8210   31.1060    3.9920    0.0275   -0.1240    3.0000 
1590.7512   12.8210   31.2260    3.7940    0.0276   -0.0540    3.0000 
1591.0560   12.8320   26.3120    3.8140    0.0276    0.0780    3.0000 
1591.3608   12.8290   25.8960    3.7380    0.0274    0.2100    3.0000 
1591.6656   12.8250   28.4600    3.6110    0.0274    0.2930    3.0000 
1591.9704   12.8490   29.1740    3.3690    0.0273    0.4650    3.0000 
1592.2752   12.8320   28.1470    3.2520    0.0275    0.7660    3.0000 
1592.5800   12.8280   28.1480    3.0520    0.0274    1.0290    3.0000 
1592.8848   12.8190   29.1600    3.1830    0.0274    0.6240    3.0000 
1593.1896   12.8150   28.8540    3.6060    0.0275    0.1340    3.0000 
1593.4944   12.8340   29.0360    3.8150    0.0274    0.1830    3.0000 
1593.7992   12.8100   28.0140    3.5580    0.0272    0.9480    3.0000 
1594.1040   12.8210   27.1070    3.5790    0.0273    1.0330    3.0000 
1594.4088   12.8250   27.1000    3.8720    0.0275    0.4490    3.0000 
1594.7136   12.8280   26.8000    3.7220    0.0274    0.1750    3.0000 
