~VERSION INFORMATION
 VERS.                 2.0:   CWLS LOG ASCII STANDARD - VERSION 2.0
 WRAP.                  NO:   SINGLE LINE PER DEPTH STEP
 CREA.                 05/01/2018 17:03:03
#CREATED USING DSPetro VERSION 5000.10.1.3 BY H191660 ON 05/01/2018 17:03:03
~WELL INFORMATION
#MNEM.UNIT       DATA                          DESCRIPTION MNEMONIC
#---------      ---------------------------   --------------------------
 STRT    .M         45.1104                   : START DEPTH
 STOP    .M         2469.4896                 : STOP DEPTH
 STEP    .M         0.3048                    : STEP VALUE
 NULL    .      -999.0000                     : NULL VALUE
 DATE    .      05/01/2018                    : LAS file Creation Date
 WELL .      JOHNSON_2_1                 : Well Name
 COMP .      Neftex Exploration Insights : Company
 FLD  .                                  : Field
 UWI  .      DUSWL_JO_2_1                : Unique Well Identifier (UWI)
 LOC  .                                  : Location
 RWS  .      -999                        : Def_Rw
 WST  .      -999                        : Def_Rwt
 SRVC .                                  : Contractor
~CURVE INFORMATION
#MNEM              UNIT       API CODE   Curve Type Comments
#----------  --------------- ----------  ---------- -----------
 DEPTH      .M                         : Depth       
 CAL_INCH   .inch                      :             Caliper Log - A representation of the measured diameter of a borehole along its depth
 GR_API     .API                       : GammaRay    Gamma Ray (API) - Measures the intensity of natural gamma-ray radiation emitted from formations containing radioactive elements, such as K, Th and U
 RHOZ_G_CC  .g/cc                      :             Formation Density - Measures the density of formation, including any void space or other materials contained in the subject volume
 NPHI_v_v   .dec                       : Neutron     
 PEF_B_E    .b/e-                      : PEF         Photoelectric Factor - A log of photoelectric absorption properties. Often expressed in an approximation unit barns/electron (b/e-)
 LITH       .                          :             
~A  DEPTH  CAL_INCH   GR_API  RHOZ_G_C~  NPHI_v_v  PEF_B_E     LITH   
# ...
1422.8064   12.9160   13.1950    4.7130    0.0274    0.1300    3.0000 
1423.1112   12.8760   15.1690    4.8680    0.0272   -0.2140    3.0000 
1423.4160   12.8550   16.6540    4.4430    0.0273   -0.2580    3.0000 
1423.7208   12.9430   15.5110    3.6240    0.0277    0.8530    3.0000 
1424.0256   12.9420   16.2190    3.3700    0.0277    1.1780    3.0000 
1424.3304   12.9290   19.5130    3.4420    0.0277    0.3510    3.0000 
1424.6352   12.8700   18.0740    3.0750    0.0276    0.5190    3.0000 
1424.9400   12.9260   15.8570    2.8390    0.0271    4.1240    3.0000 
1425.2448   13.0370   13.7010    2.9050    0.0266    8.4710    3.0000 
1425.5496   13.0170   11.1870    3.0860    0.0264    8.4100    3.0000 
1425.8544   12.9570   10.7050    3.3670    0.0266   16.3920    3.0000 
1426.1592   12.8810   11.6560    2.8310    0.0266   20.5950    3.0000 
1426.4640   12.8720   13.7420    2.7190    0.0262   19.6620    3.0000 
1426.7688   12.8720   16.9730    2.8820    0.0265   16.1570    3.0000 
1427.0736   12.8760   19.3050    3.5340    0.0283    4.6440    3.0000 
1427.3784   12.8710   16.3690    4.2240    0.0296   -0.0120    3.0000 
1427.6832   12.8670   13.0810    4.6190    0.0298   -0.9910    3.0000 
1427.9880   12.8740   13.0700    4.7110    0.0297   -1.0510    3.0000 
1428.2928   12.9140   13.5520    4.3140    0.0297   -0.9770    3.0000 
1428.5976   12.9300   11.9800    4.3850    0.0297   -1.0970    3.0000 
1428.9024   12.9580   11.5540    4.3370    0.0296   -1.2620    3.0000 
1429.2072   13.0290   15.7990    3.9580    0.0279   -1.1400    3.0000 
1429.5120   13.0770   19.2560    3.2700    0.0269    2.9290    3.0000 
1429.8168   13.1210   16.7500    2.6990    0.0265   12.3140    3.0000 
1430.1216   13.1240   14.0410    2.6130    0.0263   15.4640    3.0000 
1430.4264   13.1670   15.4830    3.0200    0.0269   14.8050    3.0000 
1430.7312   13.2350   15.6460    4.0330    0.0283    6.2260    3.0000 
1431.0360   13.2510    8.2200    4.7410    0.0297   -1.0750    3.0000 
1431.3408   13.2740    6.4710    4.5010    0.0299   -1.6350    3.0000 
1431.6456   13.2940   11.7370    3.0530    0.0294   -1.5390    3.0000 
1431.9504   13.4330   12.0890    1.6980    0.0208   -1.2990    3.0000 
1432.2552   17.5400    9.5730    1.3450    0.0150    5.3680    3.0000 
1432.5600   21.5960    9.5690    1.2820    0.0130   21.2190    3.0000 
1432.8648   22.9450    9.6290    1.6900    0.0132   50.1480    3.0000 
1433.1696   22.6650    9.0160    2.0920    0.0160   39.7820    3.0000 
1433.4744   22.7960    8.4830    1.6410    0.0174   25.2660    3.0000 
1433.7792   22.8680    8.9480    1.4420    0.0148   45.5530    3.0000 
1434.0840   22.8800   10.0810    1.2700    0.0128   53.2030    3.0000 
1434.3888   22.9150   10.6120    1.2780    0.0123   52.0570    3.0000 
1434.6936   22.9190   10.4380    1.4860    0.0126   51.1460    3.0000 
1434.9984   22.2250   10.0750    1.4370    0.0145   43.4970    3.0000 
1435.3032   19.3240    9.7130    1.4790    0.0150   35.9460    3.0000 
1435.6080   19.9540    9.3480    2.8390    0.0198   28.8130    3.0000 
1435.9128   15.6910    8.8230    4.5430    0.0241    8.9690    3.0000 
1436.2176   14.2660    8.0320    4.4160    0.0247   -1.6100    3.0000 
1436.5224   14.4580    6.9430    4.6460    0.0246   -1.4790    3.0000 
1436.8272   14.3330    6.6420    5.1730    0.0269   -0.9260    3.0000 
1437.1320   13.7150    7.1100    4.9380    0.0294   -0.8780    3.0000 
1437.4368   13.5750    7.1720    4.7800    0.0300   -1.3440    3.0000 
1437.7416   13.4280    6.3980    4.9670    0.0300   -1.6170    3.0000 
1438.0464   13.4160    6.4510    4.8230    0.0300   -1.6400    3.0000 
1438.3512   13.4510    7.1560    4.3560    0.0297   -1.6390    3.0000 
1438.6560   13.4380    7.3820    4.5030    0.0293   -1.4940    3.0000 
1438.9608   13.3380    7.1450    4.3220    0.0295   -1.2530    3.0000 
1439.2656   13.3050   10.0780    4.3170    0.0296   -1.0720    3.0000 
1439.5704   13.4250   13.4190    3.4640    0.0288   -0.6990    3.0000 
1439.8752   13.3970   13.6490    3.1460    0.0277    2.1370    3.0000 
1440.1800   13.3530   13.1720    3.0180    0.0272    3.7660    3.0000 
1440.4848   13.2920   13.2170    3.1900    0.0267    0.7880    3.0000 
1440.7896   13.4160   12.9110    3.1760    0.0262    0.4540    3.0000 
1441.0944   13.5500   11.8860    3.3750    0.0260    0.2990    3.0000 
1441.3992   13.5740   10.9930    3.3850    0.0258    0.3710    3.0000 
1441.7040   13.5220   12.2350    3.3490    0.0258    0.4440    3.0000 
1442.0088   13.5220   16.7830    3.4300    0.0260    0.8770    3.0000 
1442.3136   13.6370   23.7210    3.1670    0.0264    7.2810    3.0000 
1442.6184   13.5610   23.2390    2.8470    0.0270   15.9470    3.0000 
1442.9232   13.4730   19.4700    2.9250    0.0268   15.5300    3.0000 
1443.2280   13.4650   17.6640    2.9730    0.0263   17.4460    3.0000 
1443.5328   13.4760   16.6370    2.9620    0.0261   20.5230    3.0000 
1443.8376   13.5240   15.4990    2.6990    0.0262   21.3610    3.0000 
1444.1424   13.5440   15.9760    2.7970    0.0264   20.3570    3.0000 
1444.4472   13.5390   16.5720    2.8130    0.0266   14.3120    3.0000 
1444.7520   13.4710   15.4300    2.7210    0.0268   17.2110    3.0000 
1445.0568   13.5270   15.4260    2.9220    0.0273   17.5930    3.0000 
1445.3616   13.6430   14.7600    3.9630    0.0280    5.5420    3.0000 
1445.6664   13.5540    8.9050    5.2220    0.0292   -0.9810    3.0000 
1445.9712   13.4660    7.2200    5.2190    0.0300   -1.6720    3.0000 
1446.2760   13.4140    7.6890    4.6650    0.0299   -1.7450    3.0000 
1446.5808   13.4490   10.7480    4.7390    0.0298   -1.5530    3.0000 
1446.8856   13.5050   11.0970    4.9440    0.0298   -1.3840    3.0000 
1447.1904   13.4420   10.2490    4.9500    0.0299   -1.3960    3.0000 
1447.4952   13.3890   12.8810    5.3020    0.0298   -1.4770    3.0000 
1447.8000   13.3810   14.1270    4.8370    0.0296   -1.2130    3.0000 
1448.1048   13.4240    9.4680    4.5480    0.0297   -1.2720    3.0000 
1448.4096   13.4280    8.6860    4.7560    0.0297   -1.5700    3.0000 
1448.7144   13.2480    8.6810    4.7370    0.0299   -1.6670    3.0000 
1449.0192   13.2720    8.0680    4.7490    0.0299   -1.6550    3.0000 
1449.3240   13.3440    7.2820    4.5850    0.0299   -1.6740    3.0000 
1449.6288   13.3190    7.8690    4.9400    0.0299   -1.6480    3.0000 
1449.9336   13.1230   13.0790    4.4510    0.0299   -1.3110    3.0000 
1450.2384   13.0910   18.5120    3.5400    0.0297   -0.9390    3.0000 
1450.5432   13.1540   23.2370    3.0310    0.0289   -0.1980    3.0000 
1450.8480   13.1690   23.5800    2.9410    0.0286   -0.2330    3.0000 
1451.1528   13.0740   23.7030    2.8810    0.0287   -0.3860    3.0000 
1451.4576   12.9970   26.0930    2.8980    0.0287   -0.3140    3.0000 
1451.7624   13.0730   26.6210    3.0000    0.0287   -0.1830    3.0000 
1452.0672   13.1640   26.2590    3.0120    0.0287   -0.2640    3.0000 
1452.3720   13.1280   26.1380    2.9960    0.0289   -0.5510    3.0000 
1452.6768   13.0160   24.9380    3.8050    0.0292   -0.9080    3.0000 
1452.9816   13.0760   14.1070    4.6270    0.0297   -1.4090    3.0000 
1453.2864   13.1510    9.3670    4.7350    0.0300   -1.7300    3.0000 
1453.5912   13.1350    8.1050    4.9680    0.0300   -1.7540    3.0000 
1453.8960   13.0700   10.8560    4.9260    0.0299   -1.6240    3.0000 
1454.2008   12.9910   11.2780    4.9400    0.0297   -1.4080    3.0000 
1454.5056   13.1340    7.7930    4.9870    0.0298   -1.4790    3.0000 
1454.8104   13.1220    6.4230    4.9910    0.0300   -1.6930    3.0000 
1455.1152   13.0620    7.1290    4.7420    0.0300   -1.5860    3.0000 
1455.4200   13.0370   10.1800    4.0360    0.0297   -1.4640    3.0000 
1455.7248   13.0610   15.9730    3.6820    0.0297   -1.2590    3.0000 
1456.0296   13.0690   24.1710    2.9780    0.0293   -0.5520    3.0000 
1456.3344   13.0250   29.6090    2.9540    0.0288   -0.2870    3.0000 
1456.6392   12.9970   35.8990    3.1190    0.0287   -0.4430    3.0000 
1456.9440   13.0290   36.6050    3.1070    0.0288   -0.5850    3.0000 
