~VERSION INFORMATION
 VERS.                 2.0:   CWLS LOG ASCII STANDARD - VERSION 2.0
 WRAP.                  NO:   SINGLE LINE PER DEPTH STEP
 CREA.                 05/01/2018 17:03:03
#CREATED USING DSPetro VERSION 5000.10.1.3 BY H191660 ON 05/01/2018 17:03:03
~WELL INFORMATION
#MNEM.UNIT       DATA                          DESCRIPTION MNEMONIC
#---------      ---------------------------   --------------------------
 STRT    .M         45.1104                   : START DEPTH
 STOP    .M         2469.4896                 : STOP DEPTH
 STEP    .M         0.3048                    : STEP VALUE
 NULL    .      -999.0000                     : NULL VALUE
 DATE    .      05/01/2018                    : LAS file Creation Date
 WELL .      JOHNSON_2_1                 : Well Name
 COMP .      Neftex Exploration Insights : Company
 FLD  .                                  : Field
 UWI  .      DUSWL_JO_2_1                : Unique Well Identifier (UWI)
 LOC  .                                  : Location
 RWS  .      -999                        : Def_Rw
 WST  .      -999                        : Def_Rwt
 SRVC .                                  : Contractor
~CURVE INFORMATION
#MNEM              UNIT       API CODE   Curve Type Comments
#----------  --------------- ----------  ---------- -----------
 DEPTH      .M                         : Depth       
 CAL_INCH   .inch                      :             Caliper Log - A representation of the measured diameter of a borehole along its depth
 GR_API     .API                       : GammaRay    Gamma Ray (API) - Measures the intensity of natural gamma-ray radiation emitted from formations containing radioactive elements, such as K, Th and U
 RHOZ_G_CC  .g/cc                      :             Formation Density - Measures the density of formation, including any void space or other materials contained in the subject volume
 NPHI_v_v   .dec                       : Neutron     
 PEF_B_E    .b/e-                      : PEF         Photoelectric Factor - A log of photoelectric absorption properties. Often expressed in an approximation unit barns/electron (b/e-)
 LITH       .                          :             
~A  DEPTH  CAL_INCH   GR_API  RHOZ_G_C~  NPHI_v_v  PEF_B_E     LITH   
# ...
2421.6360    6.0000    0.0000    2.0000    0.4500    0.0000   11.0000 
2421.9408    6.0000    0.0000    2.0000    0.4500    0.0000   11.0000 
2422.2456    6.0000    0.0000    2.0000    0.4500    0.0000   11.0000 
2422.5504    6.0000    0.0000    2.0000    0.4500    0.0000   11.0000 
2422.8552    6.0000    0.0000    2.0000    0.4500    0.0000   11.0000 
2423.1600    6.0000    0.0000    2.0000    0.4500    0.0000   11.0000 
2423.4648    6.0000    0.0000    2.0000    0.4500    0.0000   11.0000 
2423.7696    6.0000    0.0000    2.0000    0.4500    0.0000   11.0000 
2424.0744    6.0000    0.0000    2.0000    0.4500    0.0000   11.0000 
2424.3792    6.0000    0.0000    2.0000    0.4500    0.0000   11.0000 
2424.6840    6.0000    0.0000    2.0000    0.4500    0.0000   11.0000 
2424.9888    6.0000    0.0000    2.0000    0.4500    0.0000   11.0000 
2425.2936    6.0000    0.0000    2.0000    0.4500    0.0000   11.0000 
2425.5984    6.0000    0.0000    2.0000    0.4500    0.0000   11.0000 
2425.9032    6.0000    0.0000    2.0000    0.4500    0.0000   11.0000 
2426.2080    6.0000    0.0000    2.0000    0.4500    0.0000   11.0000 
2426.5128    6.0000    0.0000    2.0000    0.4500    0.0000   11.0000 
2426.8176    6.0000    0.0000    2.0000    0.4500    0.0000   11.0000 
2427.1224    6.0000    0.0000    2.0000    0.4500    0.0000   11.0000 
2427.4272    6.0000    0.0000    2.0000    0.4500    0.0000   11.0000 
2427.7320    6.0000    0.0000    2.0000    0.4500    0.0000   11.0000 
2428.0368    6.0000    0.0000    2.0000    0.4500    0.0000   11.0000 
2428.3416    6.0000    0.0000    2.0000    0.4500    0.0000   11.0000 
2428.6464    6.0000    0.0000    2.0000    0.4500    0.0000   11.0000 
2428.9512    6.0000    0.0000    2.0000    0.4500    0.0000   11.0000 
2429.2560    6.0000    0.0000    2.0000    0.4500    0.0000   11.0000 
2429.5608    6.0000    0.0000    2.0000    0.4500    0.0000   11.0000 
2429.8656    6.0000    0.0000    2.0000    0.4500    0.0000   11.0000 
2430.1704    6.0000    0.0000    2.0000    0.4500    0.0000   11.0000 
2430.4752    6.0000    0.0000    2.0000    0.4500    0.0000   11.0000 
2430.7800    6.0000    0.0000    2.0000    0.4500    0.0000   11.0000 
2431.0848    6.0000    0.0000    2.0000    0.4500    0.0000   11.0000 
2431.3896    6.0000    0.0000    2.0000    0.4500    0.0000   11.0000 
2431.6944    6.0000    0.0000    2.0000    0.4500    0.0000   11.0000 
2431.9992    6.0000    0.0000    2.0000    0.4500    0.0000   11.0000 
2432.3040    6.0000    0.0000    2.0000    0.4500    0.0000   11.0000 
2432.6088    6.0000    0.0000    2.0000    0.4500    0.0000   11.0000 
2432.9136    6.0000    0.0000    2.0000    0.4500    0.0000   11.0000 
2433.2184    6.0000    0.0000    2.0000    0.4500    0.0000   11.0000 
2433.5232    6.0000    0.0000    2.0000    0.4500    0.0000   11.0000 
2433.8280    6.0000    0.0000    2.0000    0.4500    0.0000   11.0000 
2434.1328    6.0000    0.0000    2.0000    0.4500    0.0000   11.0000 
2434.4376    6.0000    0.0000    2.0000    0.4500    0.0000   11.0000 
2434.7424    6.0000    0.0000    2.0000    0.4500    0.0000   11.0000 
2435.0472    6.0000    0.0000    2.0000    0.4500    0.0000   11.0000 
2435.3520    6.0000    0.0000    2.0000    0.4500    0.0000   11.0000 
2435.6568    6.0000    0.0000    2.0000    0.4500    0.0000   11.0000 
2435.9616    6.0000    0.0000    2.0000    0.4500    0.0000   11.0000 
2436.2664    6.0000    0.0000    2.0000    0.4500    0.0000   11.0000 
2436.5712    6.0000    0.0000    2.0000    0.4500    0.0000   11.0000 
2436.8760    6.0000    0.0000    2.0000    0.4500    0.0000   11.0000 
2437.1808    6.0000    0.0000    2.0000    0.4500    0.0000   11.0000 
2437.4856    6.0000    0.0000    2.0000    0.4500    0.0000   11.0000 
2437.7904    6.0000    0.0000    2.0000    0.4500    0.0000   11.0000 
2438.0952    6.0000    0.0000    2.0000    0.4500    0.0000   11.0000 
2438.4000    6.0000    0.0000    2.0000    0.4500    0.0000   11.0000 
2438.7048    6.0000    0.0000    2.0000    0.4500    0.0000   11.0000 
2439.0096    6.0000    0.0000    2.0000    0.4500    0.0000   11.0000 
2439.3144    6.0000    0.0000    2.0000    0.4500    0.0000   11.0000 
2439.6192    6.0000    0.0000    2.0000    0.4500    0.0000   11.0000 
2439.9240    6.0000    0.0000    2.0000    0.4500    0.0000   11.0000 
2440.2288    6.0000    0.0000    2.0000    0.4500    0.0000   11.0000 
2440.5336    6.0000    0.0000    2.0000    0.4500    0.0000   11.0000 
2440.8384    6.0000    0.0000    2.0000    0.4500    0.0000   11.0000 
2441.1432    6.0000    0.0000    2.0000    0.4500    0.0000   11.0000 
2441.4480    6.0000    0.0000    2.0000    0.4500    0.0000   11.0000 
2441.7528    6.0000    0.0000    2.0000    0.4500    0.0000   11.0000 
2442.0576    6.0000    0.0000    2.0000    0.4500    0.0000   11.0000 
2442.3624    6.0000    0.0000    2.0000    0.4500    0.0000   11.0000 
2442.6672    6.0000    0.0000    2.0000    0.4500    0.0000   11.0000 
2442.9720    6.0000    0.0000    2.0000    0.4500    0.0000   11.0000 
2443.2768    6.0000    0.0000    2.0000    0.4500    0.0000   11.0000 
2443.5816    6.0000    0.0000    2.0000    0.4500    0.0000   11.0000 
2443.8864    6.0000    0.0000    2.0000    0.4500    0.0000   11.0000 
2444.1912    6.0000    0.0000    2.0000    0.4500    0.0000   11.0000 
2444.4960    6.0000    0.0000    2.0000    0.4500    0.0000   11.0000 
2444.8008    6.0000    0.0000    2.0000    0.4500    0.0000   11.0000 
2445.1056    6.0000    0.0000    2.0000    0.4500    0.0000   11.0000 
2445.4104    6.0000    0.0000    2.0000    0.4500    0.0000   11.0000 
2445.7152    6.0000    0.0000    2.0000    0.4500    0.0000   11.0000 
2446.0200    6.0000    0.0000    2.0000    0.4500    0.0000   11.0000 
2446.3248    6.0000    0.0000    2.0000    0.4500    0.0000   11.0000 
2446.6296    6.0000    0.0000    2.0000    0.4500    0.0000   11.0000 
2446.9344    6.0000    0.0000    2.0000    0.4500    0.0000   11.0000 
2447.2392    6.0000    0.0000    2.0000    0.4500    0.0000   11.0000 
2447.5440    6.0000    0.0000    2.0000    0.4500    0.0000   11.0000 
2447.8488    6.0000    0.0000    2.0000    0.4500    0.0000   11.0000 
2448.1536    6.0000    0.0000    2.0000    0.4500    0.0000   11.0000 
2448.4584    6.0000    0.0000    2.0000    0.4500    0.0000   11.0000 
2448.7632    6.0000    0.0000    2.0000    0.4500    0.0000   11.0000 
2449.0680    6.0000    0.0000    2.0000    0.4500    0.0000   11.0000 
2449.3728    6.0000    0.0000    2.0000    0.4500    0.0000   11.0000 
2449.6776    6.0000    0.0000    2.0000    0.4500    0.0000   11.0000 
2449.9824    6.0000    0.0000    2.0000    0.4500    0.0000   11.0000 
2450.2872    6.0000    0.0000    2.0000    0.4500    0.0000   11.0000 
2450.5920    6.0000    0.0000    2.0000    0.4500    0.0000   11.0000 
2450.8968    6.0000    0.0000    2.0000    0.4500    0.0000   11.0000 
2451.2016    6.0000    0.0000    2.0000    0.4500    0.0000   11.0000 
2451.5064    6.0000    0.0000    2.0000    0.4500    0.0000   11.0000 
2451.8112    6.0000    0.0000    2.0000    0.4500    0.0000   11.0000 
2452.1160    6.0000    0.0000    2.0000    0.4500    0.0000   11.0000 
2452.4208    6.0000    0.0000    2.0000    0.4500    0.0000   11.0000 
2452.7256    6.0000    0.0000    2.0000    0.4500    0.0000   11.0000 
2453.0304    6.0000    0.0000    2.0000    0.4500    0.0000   11.0000 
2453.3352    6.0000    0.0000    2.0000    0.4500    0.0000   11.0000 
2453.6400    6.0000    0.0000    2.0000    0.4500    0.0000   11.0000 
2453.9448    6.0000    0.0000    2.0000    0.4500    0.0000   11.0000 
2454.2496    6.0000    0.0000    2.0000    0.4500    0.0000   11.0000 
2454.5544    6.0000    0.0000    2.0000    0.4500    0.0000   11.0000 
2454.8592    6.0000    0.0000    2.0000    0.4500    0.0000   11.0000 
2455.1640    6.0000    0.0000    2.0000    0.4500    0.0000   11.0000 
2455.4688    6.0000    0.0000    2.0000    0.4500    0.0000   11.0000 
2455.7736    6.0000    0.0000    2.0000    0.4500    0.0000   11.0000 
