~VERSION INFORMATION
 VERS.                 2.0:   CWLS LOG ASCII STANDARD - VERSION 2.0
 WRAP.                  NO:   SINGLE LINE PER DEPTH STEP
 CREA.                 05/01/2018 17:03:03
#CREATED USING DSPetro VERSION 5000.10.1.3 BY H191660 ON 05/01/2018 17:03:03
~WELL INFORMATION
#MNEM.UNIT       DATA                          DESCRIPTION MNEMONIC
#---------      ---------------------------   --------------------------
 STRT    .M         45.1104                   : START DEPTH
 STOP    .M         2469.4896                 : STOP DEPTH
 STEP    .M         0.3048                    : STEP VALUE
 NULL    .      -999.0000                     : NULL VALUE
 DATE    .      05/01/2018                    : LAS file Creation Date
 WELL .      JOHNSON_2_1                 : Well Name
 COMP .      Neftex Exploration Insights : Company
 FLD  .                                  : Field
 UWI  .      DUSWL_JO_2_1                : Unique Well Identifier (UWI)
 LOC  .                                  : Location
 RWS  .      -999                        : Def_Rw
 WST  .      -999                        : Def_Rwt
 SRVC .                                  : Contractor
~CURVE INFORMATION
#MNEM              UNIT       API CODE   Curve Type Comments
#----------  --------------- ----------  ---------- -----------
 DEPTH      .M                         : Depth       
 CAL_INCH   .inch                      :             Caliper Log - A representation of the measured diameter of a borehole along its depth
 GR_API     .API                       : GammaRay    Gamma Ray (API) - Measures the intensity of natural gamma-ray radiation emitted from formations containing radioactive elements, such as K, Th and U
 RHOZ_G_CC  .g/cc                      :             Formation Density - Measures the density of formation, including any void space or other materials contained in the subject volume
 NPHI_v_v   .dec                       : Neutron     
 PEF_B_E    .b/e-                      : PEF         Photoelectric Factor - A log of photoelectric absorption properties. Often expressed in an approximation unit barns/electron (b/e-)
 LITH       .                          :             
~A  DEPTH  CAL_INCH   GR_API  RHOZ_G_C~  NPHI_v_v  PEF_B_E     LITH   
# ...
 837.2856   12.7130  206.3350 -999.0000 -999.0000   28.2910    3.0000 
 837.5904   12.7800  198.5320 -999.0000 -999.0000   26.7740    3.0000 
 837.8952   12.7760  206.9080 -999.0000 -999.0000   24.7180    3.0000 
 838.2000   12.7000  209.0740 -999.0000 -999.0000   25.7700    3.0000 
 838.5048   12.7460  212.5810 -999.0000 -999.0000   28.0020    3.0000 
 838.8096   12.7680  209.8630 -999.0000 -999.0000   29.6840    3.0000 
 839.1144   12.8070  182.6100 -999.0000 -999.0000   27.5450    3.0000 
 839.4192   12.8650  157.3330 -999.0000 -999.0000   26.4370    3.0000 
 839.7240   12.8230  182.5640 -999.0000 -999.0000   30.7050    3.0000 
 840.0288   12.7940  201.5040 -999.0000 -999.0000   29.2000    3.0000 
 840.3336   12.7960  195.0170 -999.0000 -999.0000   23.9370    3.0000 
 840.6384   12.8250  189.8420 -999.0000 -999.0000   20.4090    3.0000 
 840.9432   12.8440  182.9910 -999.0000 -999.0000   19.7200    3.0000 
 841.2480   12.8700  180.6330 -999.0000 -999.0000   19.9780    3.0000 
 841.5528   12.9280  174.3250 -999.0000 -999.0000   22.9170    3.0000 
 841.8576   12.9620  153.2890 -999.0000 -999.0000   25.6520    3.0000 
 842.1624   13.0010  130.1500 -999.0000 -999.0000   22.7000    3.0000 
 842.4672   13.0150  136.8220 -999.0000 -999.0000   21.5200    3.0000 
 842.7720   12.9890  142.7800 -999.0000 -999.0000   25.5360    3.0000 
 843.0768   13.0030  149.1590 -999.0000 -999.0000   24.7030    3.0000 
 843.3816   13.0010  151.1710 -999.0000 -999.0000   21.1620    3.0000 
 843.6864   12.9640  141.0880 -999.0000 -999.0000   20.7970    3.0000 
 843.9912   12.9740  142.6800 -999.0000 -999.0000   21.7250    3.0000 
 844.2960   12.9770  145.2820 -999.0000 -999.0000   23.1670    3.0000 
 844.6008   12.9870  139.3370 -999.0000 -999.0000   23.3640    3.0000 
 844.9056   12.9730  135.1210 -999.0000 -999.0000   21.4300    3.0000 
 845.2104   12.9800  133.2420 -999.0000 -999.0000   17.4570    3.0000 
 845.5152   13.0020  134.1100 -999.0000 -999.0000   17.9060    3.0000 
 845.8200   12.9720  131.5140 -999.0000 -999.0000   17.5390    3.0000 
 846.1248   12.9860  137.2950 -999.0000 -999.0000   17.7620    3.0000 
 846.4296   13.0130  133.9760 -999.0000 -999.0000   19.6330    3.0000 
 846.7344   13.0270  135.2090 -999.0000 -999.0000   19.3990    3.0000 
 847.0392   13.0410  139.3150 -999.0000 -999.0000   21.6440    3.0000 
 847.3440   13.0760  139.5880 -999.0000 -999.0000   23.4700    3.0000 
 847.6488   13.0820  141.6570 -999.0000 -999.0000   20.5160    3.0000 
 847.9536   13.0640  136.0140 -999.0000 -999.0000   20.7970    3.0000 
 848.2584   13.0630  130.8440 -999.0000 -999.0000   22.1420    3.0000 
 848.5632   13.0570  130.1600 -999.0000 -999.0000   19.3810    3.0000 
 848.8680   13.1030  133.4250 -999.0000 -999.0000   19.8770    3.0000 
 849.1728   13.1530  134.7140 -999.0000 -999.0000   21.7990    3.0000 
 849.4776   13.1840  137.8590 -999.0000 -999.0000   22.6900    3.0000 
 849.7824   13.1780  137.8940 -999.0000 -999.0000   22.9350    3.0000 
 850.0872   13.1800  133.4390 -999.0000 -999.0000   23.7900    3.0000 
 850.3920   13.1830  131.9780 -999.0000 -999.0000   22.5260    3.0000 
 850.6968   13.2050  128.5440 -999.0000 -999.0000   21.4650    3.0000 
 851.0016   13.2710  129.2950 -999.0000 -999.0000   22.0930    3.0000 
 851.3064   13.2850  129.5070 -999.0000 -999.0000   21.1400    3.0000 
 851.6112   13.2840  127.3850 -999.0000 -999.0000   20.4390    3.0000 
 851.9160   13.2860  132.3860 -999.0000 -999.0000   20.8640    3.0000 
 852.2208   13.2920  135.1740 -999.0000 -999.0000   22.3420    3.0000 
 852.5256   13.2820  133.7680 -999.0000 -999.0000   22.8150    3.0000 
 852.8304   13.1850  130.4520 -999.0000 -999.0000   22.5930    3.0000 
 853.1352   13.1630  125.5190 -999.0000 -999.0000   21.1730    3.0000 
 853.4400   13.1610  126.9870 -999.0000 -999.0000   18.9030    3.0000 
 853.7448   13.1440  128.1060 -999.0000 -999.0000   19.4820    3.0000 
 854.0496   13.1620  128.1320 -999.0000 -999.0000   18.2300    3.0000 
 854.3544   13.1960  126.2560 -999.0000 -999.0000   16.9880    3.0000 
 854.6592   13.1950  123.8950 -999.0000 -999.0000   17.8440    3.0000 
 854.9640   13.1890  121.0560 -999.0000 -999.0000   18.6640    3.0000 
 855.2688   13.2270  117.3800 -999.0000 -999.0000   18.5020    3.0000 
 855.5736   13.2250  112.2120 -999.0000 -999.0000   17.9070    3.0000 
 855.8784   13.2520  111.6480 -999.0000 -999.0000   17.9010    3.0000 
 856.1832   13.2420  110.7860 -999.0000 -999.0000   17.9300    3.0000 
 856.4880   13.2520  112.0140 -999.0000 -999.0000   17.2050    3.0000 
 856.7928   13.2630  119.6510 -999.0000 -999.0000   17.3640    3.0000 
 857.0976   13.3610  121.7210 -999.0000 -999.0000   18.4360    3.0000 
 857.4024   13.4030  118.4070 -999.0000 -999.0000   19.8890    3.0000 
 857.7072   13.4330  124.0690 -999.0000 -999.0000   20.0850    3.0000 
 858.0120   13.4480  123.2100 -999.0000 -999.0000   19.3600    3.0000 
 858.3168   13.5180  123.7260 -999.0000 -999.0000   19.1850    3.0000 
 858.6216   13.5370  121.8420 -999.0000 -999.0000   19.9690    3.0000 
 858.9264   13.5580  121.3370 -999.0000 -999.0000   19.6520    3.0000 
 859.2312   13.5610  120.9480 -999.0000 -999.0000   20.2310    3.0000 
 859.5360   13.6190  121.8820 -999.0000 -999.0000   19.5780    3.0000 
 859.8408   13.5810  121.9780 -999.0000 -999.0000   18.0500    3.0000 
 860.1456   13.5800  124.5240 -999.0000 -999.0000   18.6290    3.0000 
 860.4504   13.5860  132.1650 -999.0000 -999.0000   18.4800    3.0000 
 860.7552   13.5760  131.5870 -999.0000 -999.0000   20.5100    3.0000 
 861.0600   13.5540  127.4400 -999.0000 -999.0000   23.2330    3.0000 
 861.3648   13.5560  123.5250 -999.0000 -999.0000   23.3830    3.0000 
 861.6696   13.5470  123.3210 -999.0000 -999.0000   21.5790    3.0000 
 861.9744   13.5090  124.0680 -999.0000 -999.0000   21.3330    3.0000 
 862.2792   13.4560  122.6080 -999.0000 -999.0000   19.7940    3.0000 
 862.5840   13.4220  122.2800 -999.0000 -999.0000   19.3430    3.0000 
 862.8888   13.4000  124.3490 -999.0000 -999.0000   20.5700    3.0000 
 863.1936   13.3540  125.7580 -999.0000 -999.0000   20.8860    3.0000 
 863.4984   13.3130  120.8890 -999.0000 -999.0000   21.7070    3.0000 
 863.8032   13.2910  121.1050 -999.0000 -999.0000   22.0480    3.0000 
 864.1080   13.2700  120.1180 -999.0000 -999.0000   20.4240    3.0000 
 864.4128   13.2720  117.3980 -999.0000 -999.0000   21.1000    3.0000 
 864.7176   13.2780  120.7860 -999.0000 -999.0000   20.8050    3.0000 
 865.0224   13.2890  120.5190 -999.0000 -999.0000   21.0140    3.0000 
 865.3272   13.3030  119.2420 -999.0000 -999.0000   22.3000    3.0000 
 865.6320   13.2810  118.7880 -999.0000 -999.0000   22.8450    3.0000 
 865.9368   13.2040  111.3490 -999.0000 -999.0000   19.7480    3.0000 
 866.2416   13.1780  110.7890 -999.0000 -999.0000   17.5130    3.0000 
 866.5464   13.1600  107.5310 -999.0000 -999.0000   18.2110    3.0000 
 866.8512   13.1390  109.7170 -999.0000 -999.0000   19.3070    3.0000 
 867.1560   13.1170  115.1370 -999.0000 -999.0000   21.0480    3.0000 
 867.4608   13.1000  116.3740 -999.0000 -999.0000   21.0890    3.0000 
 867.7656   13.0460  116.0490 -999.0000 -999.0000   21.5850    3.0000 
 868.0704   13.0610  116.2600 -999.0000 -999.0000   20.7390    3.0000 
 868.3752   13.1150  109.4110 -999.0000 -999.0000   20.8420    3.0000 
 868.6800   13.1130  106.1560 -999.0000 -999.0000   20.6800    3.0000 
 868.9848   13.1070  111.8770 -999.0000 -999.0000   20.3980    3.0000 
 869.2896   13.1010  116.7000 -999.0000 -999.0000   18.6410    3.0000 
 869.5944   13.1360  122.7780 -999.0000 -999.0000   19.5440    3.0000 
 869.8992   13.1380  123.7700 -999.0000 -999.0000   22.0990    3.0000 
 870.2040   13.1440  118.4220 -999.0000 -999.0000   22.6920    3.0000 
 870.5088   13.1470  117.4980 -999.0000 -999.0000   21.7280    3.0000 
 870.8136   13.1850  113.1630 -999.0000 -999.0000   20.5360    3.0000 
 871.1184   13.2390  108.1080 -999.0000 -999.0000   20.9720    3.0000 
 871.4232   13.2730  121.9680 -999.0000 -999.0000   19.7080    3.0000 
