~VERSION INFORMATION
 VERS.                 2.0:   CWLS LOG ASCII STANDARD - VERSION 2.0
 WRAP.                  NO:   SINGLE LINE PER DEPTH STEP
 CREA.                 05/01/2018 17:03:03
#CREATED USING DSPetro VERSION 5000.10.1.3 BY H191660 ON 05/01/2018 17:03:03
~WELL INFORMATION
#MNEM.UNIT       DATA                          DESCRIPTION MNEMONIC
#---------      ---------------------------   --------------------------
 STRT    .M         45.1104                   : START DEPTH
 STOP    .M         2469.4896                 : STOP DEPTH
 STEP    .M         0.3048                    : STEP VALUE
 NULL    .      -999.0000                     : NULL VALUE
 DATE    .      05/01/2018                    : LAS file Creation Date
 WELL .      JOHNSON_2_1                 : Well Name
 COMP .      Neftex Exploration Insights : Company
 FLD  .                                  : Field
 UWI  .      DUSWL_JO_2_1                : Unique Well Identifier (UWI)
 LOC  .                                  : Location
 RWS  .      -999                        : Def_Rw
 WST  .      -999                        : Def_Rwt
 SRVC .                                  : Contractor
~CURVE INFORMATION
#MNEM              UNIT       API CODE   Curve Type Comments
#----------  --------------- ----------  ---------- -----------
 DEPTH      .M                         : Depth       
 CAL_INCH   .inch                      :             Caliper Log - A representation of the measured diameter of a borehole along its depth
 GR_API     .API                       : GammaRay    Gamma Ray (API) - Measures the intensity of natural gamma-ray radiation emitted from formations containing radioactive elements, such as K, Th and U
 RHOZ_G_CC  .g/cc                      :             Formation Density - Measures the density of formation, including any void space or other materials contained in the subject volume
 NPHI_v_v   .dec                       : Neutron     
 PEF_B_E    .b/e-                      : PEF         Photoelectric Factor - A log of photoelectric absorption properties. Often expressed in an approximation unit barns/electron (b/e-)
 LITH       .                          :             
~A  DEPTH  CAL_INCH   GR_API  RHOZ_G_C~  NPHI_v_v  PEF_B_E     LITH   
# ...
1250.5944   12.9330   16.6530    2.9220    0.0276   11.5040    3.0000 
1250.8992   12.9340   22.7140    3.1960    0.0277    9.5520    3.0000 
1251.2040   12.9430   40.9970    2.9430    0.0272    6.7260    3.0000 
1251.5088   12.9510   40.3480    2.9100    0.0271    7.1790    3.0000 
1251.8136   13.0120   19.2740    2.8100    0.0276    7.4880    3.0000 
1252.1184   13.1050   20.5410    2.7630    0.0279    6.3250    3.0000 
1252.4232   13.0250   35.2880    2.7890    0.0279    4.4440    3.0000 
1252.7280   12.9100   36.4950    2.8570    0.0279    3.3300    3.0000 
1253.0328   12.9110   17.6350    2.8650    0.0277    4.2610    3.0000 
1253.3376   12.9120   15.1290    2.7820    0.0275    8.7930    3.0000 
1253.6424   12.9880   17.3570    2.6890    0.0276   10.2030    3.0000 
1253.9472   13.0770   20.1240    2.7350    0.0277    7.3290    3.0000 
1254.2520   13.1170   19.4760    2.8850    0.0276    5.6040    3.0000 
1254.5568   13.1460   16.7910    2.7850    0.0273    6.2250    3.0000 
1254.8616   13.0790   18.3580    2.7660    0.0272    8.4840    3.0000 
1255.1664   13.0080   18.0690    2.7640    0.0272    9.8220    3.0000 
1255.4712   12.9560   21.8530    2.6990    0.0273   11.8890    3.0000 
1255.7760   12.9570   24.1400    2.8590    0.0275   11.6360    3.0000 
1256.0808   12.9260   21.4540    2.8890    0.0275   10.5460    3.0000 
1256.3856   12.9260   20.3850    2.7460    0.0276   10.7110    3.0000 
1256.6904   12.9950   20.3370    2.8740    0.0278    8.2440    3.0000 
1256.9952   12.9440   17.7710    2.7760    0.0276    9.0200    3.0000 
1257.3000   12.9600   17.6020    2.7050    0.0273   11.4460    3.0000 
1257.6048   12.9970   18.9320    2.8070    0.0271   12.9880    3.0000 
1257.9096   13.0100   17.8620    2.8710    0.0270   14.4690    3.0000 
1258.2144   12.9540   16.0740    2.7680    0.0270   14.9220    3.0000 
1258.5192   12.9030   15.9650    2.8480    0.0272   11.4500    3.0000 
1258.8240   12.8720   18.4300    2.7820    0.0274    9.0910    3.0000 
1259.1288   12.8490   19.9390    2.9000    0.0277    9.0290    3.0000 
1259.4336   12.8260   22.1060    2.8730    0.0276    8.5360    3.0000 
1259.7384   12.8420   25.8910    2.8270    0.0275    8.7010    3.0000 
1260.0432   12.8430   23.5640    2.7520    0.0275   10.3870    3.0000 
1260.3480   12.8520   26.5720    2.9100    0.0276   10.2170    3.0000 
1260.6528   12.8360   26.8210    3.0580    0.0277    9.7120    3.0000 
1260.9576   12.8450   23.0590    2.9280    0.0277    9.4830    3.0000 
1261.2624   12.8260   21.8130    2.7250    0.0278    9.2650    3.0000 
1261.5672   12.8470   25.5970    2.6780    0.0277    9.6700    3.0000 
1261.8720   12.8630   28.0640    2.8240    0.0277   11.7260    3.0000 
1262.1768   12.8360   26.0380    2.7000    0.0278   11.4840    3.0000 
1262.4816   12.8170   25.3290    2.6330    0.0277   10.0470    3.0000 
1262.7864   12.8210   21.0880    2.6210    0.0277    9.5060    3.0000 
1263.0912   12.8260   22.1760    2.6660    0.0278    8.1400    3.0000 
1263.3960   12.8470   20.8680    2.8650    0.0277    7.8030    3.0000 
1263.7008   12.9030   18.9600    2.9950    0.0276    9.1050    3.0000 
1264.0056   12.8760   19.3910    2.9760    0.0276   10.3950    3.0000 
1264.3104   12.8610   20.7790    2.8580    0.0276   10.4410    3.0000 
1264.6152   12.8610   21.1480    2.6310    0.0275   12.9270    3.0000 
1264.9200   12.8980   22.9540    2.7470    0.0276   11.7290    3.0000 
1265.2248   12.8070   27.0990    2.7780    0.0278    7.4560    3.0000 
1265.5296   12.7760   29.4470    2.7220    0.0278    5.6590    3.0000 
1265.8344   12.8120   25.9820    2.7490    0.0278    4.2330    3.0000 
1266.1392   12.8330   24.2550    2.7170    0.0277    3.0230    3.0000 
1266.4440   12.8460   25.3440    2.8490    0.0277    4.3720    3.0000 
1266.7488   12.8380   26.9740    2.8070    0.0277    6.7390    3.0000 
1267.0536   12.9350   26.3230    2.7220    0.0277    6.2820    3.0000 
1267.3584   12.9270   23.7560    2.7840    0.0279    3.8160    3.0000 
1267.6632   12.8400   25.5630    2.8240    0.0276    3.3470    3.0000 
1267.9680   12.7730   32.0440    2.8510    0.0275    4.2910    3.0000 
1268.2728   12.7660   34.6310    2.7390    0.0273    7.5190    3.0000 
1268.5776   12.7780   26.0750    2.7300    0.0274    9.6710    3.0000 
1268.8824   12.8190   22.4290    2.5170    0.0276   12.7550    3.0000 
1269.1872   12.8400   25.5550    2.6130    0.0278   14.1170    3.0000 
1269.4920   12.8400   24.1880    2.8040    0.0276   14.6410    3.0000 
1269.7968   12.8690   18.4470    2.8450    0.0275   15.7280    3.0000 
1270.1016   12.8700   17.2610    2.8350    0.0274   16.5040    3.0000 
1270.4064   12.8390   16.3100    2.8170    0.0273   15.3170    3.0000 
1270.7112   12.8390   15.1240    2.7060    0.0272   15.4940    3.0000 
1271.0160   12.8520   15.7340    2.8340    0.0274   15.8510    3.0000 
1271.3208   12.8290   16.7620    2.8360    0.0271   17.4040    3.0000 
1271.6256   12.7940   18.0330    2.7930    0.0271   18.0120    3.0000 
1271.9304   12.7620   16.1260    2.7320    0.0273   13.6910    3.0000 
1272.2352   12.9230   14.5190    2.7940    0.0275    9.1420    3.0000 
1272.5400   12.8000   18.2440    2.9000    0.0275    6.3760    3.0000 
1272.8448   12.7680   18.0140    3.0360    0.0277    4.7470    3.0000 
1273.1496   12.8290   15.3900    3.0640    0.0279    2.9620    3.0000 
1273.4544   12.7980   15.1590    2.9450    0.0279    3.0440    3.0000 
1273.7592   12.7380   14.5720    2.8370    0.0278    4.4660    3.0000 
1274.0640   12.7190   19.5550    2.9390    0.0279    5.1580    3.0000 
1274.3688   12.7880   20.0440    3.2430    0.0281    2.7510    3.0000 
1274.6736   12.8010   15.5010    3.9070    0.0289   -0.5180    3.0000 
1274.9784   12.8050   10.8380    4.3620    0.0295   -1.2380    3.0000 
1275.2832   12.7980    9.2300    5.0030    0.0294   -1.3720    3.0000 
1275.5880   12.7910    7.9230    5.0310    0.0294   -1.2660    3.0000 
1275.8928   12.8430    9.9710    4.6980    0.0295   -1.1480    3.0000 
1276.1976   12.8000   13.1570    4.7520    0.0295   -0.8990    3.0000 
1276.5024   12.8010   17.6000    4.5490    0.0293   -0.6260    3.0000 
1276.8072   12.7930   21.2630    4.1170    0.0291   -0.1730    3.0000 
1277.1120   12.8860   18.0990    4.3130    0.0293   -0.5460    3.0000 
1277.4168   12.8310   13.9770    4.1480    0.0296   -0.7520    3.0000 
1277.7216   12.8630   13.8080    4.1120    0.0296   -0.8500    3.0000 
1278.0264   12.8400   12.9220    4.1720    0.0296   -0.8880    3.0000 
1278.3312   12.8530   10.2930    4.2000    0.0296   -1.1530    3.0000 
1278.6360   12.8490    8.4470    4.5180    0.0298   -1.3950    3.0000 
1278.9408   12.8500    9.4750    4.4070    0.0299   -1.4200    3.0000 
1279.2456   12.8550   11.8820    4.1820    0.0296   -1.3030    3.0000 
1279.5504   12.8550   14.2290    4.6580    0.0295   -1.0650    3.0000 
1279.8552   12.8400   17.5940    4.8480    0.0293   -0.9240    3.0000 
1280.1600   12.8010   19.5810    4.8750    0.0293   -1.0340    3.0000 
1280.4648   12.6980   16.8970    4.6220    0.0291   -0.6650    3.0000 
1280.7696   12.6580   14.0320    4.3730    0.0292   -0.7990    3.0000 
1281.0744   12.6430   13.2640    4.2690    0.0296   -1.0530    3.0000 
1281.3792   12.6440   11.4780    4.5110    0.0297   -1.1270    3.0000 
1281.6840   12.6490   12.3280    4.3360    0.0296   -1.0450    3.0000 
1281.9888   12.6650   12.3380    4.0970    0.0295   -0.8670    3.0000 
1282.2936   12.6460   11.3900    3.8780    0.0296   -0.7740    3.0000 
1282.5984   12.6710   12.2390    4.1400    0.0297   -0.7880    3.0000 
1282.9032   12.6480   18.7190    3.8210    0.0296   -0.6470    3.0000 
1283.2080   12.6520   22.9840    2.9980    0.0291    0.7630    3.0000 
1283.5128   12.6650   21.3760    2.8410    0.0285    2.1370    3.0000 
1283.8176   12.6540   20.6680    2.8170    0.0285    1.3460    3.0000 
1284.1224   12.6580   19.7200    2.9410    0.0285    0.8880    3.0000 
1284.4272   12.6590   24.4010    3.0050    0.0283    1.3290    3.0000 
1284.7320   12.6720   24.1110    2.8720    0.0282    1.0520    3.0000 
