~VERSION INFORMATION
 VERS.                 2.0:   CWLS LOG ASCII STANDARD - VERSION 2.0
 WRAP.                  NO:   SINGLE LINE PER DEPTH STEP
 CREA.                 05/01/2018 17:03:03
#CREATED USING DSPetro VERSION 5000.10.1.3 BY H191660 ON 05/01/2018 17:03:03
~WELL INFORMATION
#MNEM.UNIT       DATA                          DESCRIPTION MNEMONIC
#---------      ---------------------------   --------------------------
 STRT    .M         45.1104                   : START DEPTH
 STOP    .M         2469.4896                 : STOP DEPTH
 STEP    .M         0.3048                    : STEP VALUE
 NULL    .      -999.0000                     : NULL VALUE
 DATE    .      05/01/2018                    : LAS file Creation Date
 WELL .      JOHNSON_2_1                 : Well Name
 COMP .      Neftex Exploration Insights : Company
 FLD  .                                  : Field
 UWI  .      DUSWL_JO_2_1                : Unique Well Identifier (UWI)
 LOC  .                                  : Location
 RWS  .      -999                        : Def_Rw
 WST  .      -999                        : Def_Rwt
 SRVC .                                  : Contractor
~CURVE INFORMATION
#MNEM              UNIT       API CODE   Curve Type Comments
#----------  --------------- ----------  ---------- -----------
 DEPTH      .M                         : Depth       
 CAL_INCH   .inch                      :             Caliper Log - A representation of the measured diameter of a borehole along its depth
 GR_API     .API                       : GammaRay    Gamma Ray (API) - Measures the intensity of natural gamma-ray radiation emitted from formations containing radioactive elements, such as K, Th and U
 RHOZ_G_CC  .g/cc                      :             Formation Density - Measures the density of formation, including any void space or other materials contained in the subject volume
 NPHI_v_v   .dec                       : Neutron     
 PEF_B_E    .b/e-                      : PEF         Photoelectric Factor - A log of photoelectric absorption properties. Often expressed in an approximation unit barns/electron (b/e-)
 LITH       .                          :             
~A  DEPTH  CAL_INCH   GR_API  RHOZ_G_C~  NPHI_v_v  PEF_B_E     LITH   
# ...
1698.3456    9.0450   33.0920    2.9490   -0.0056    5.9470    1.0000 
1698.6504    8.9010   33.2070    2.9660   -0.0007    8.1270    1.0000 
1698.9552    8.9920   38.4140    2.9380    0.0052    7.5910    1.0000 
1699.2600    9.0880   37.6910    2.9400    0.0017    5.5050    1.0000 
1699.5648    8.9880   39.6030    2.9550   -0.0002    6.0880   22.0000 
1699.8696    8.9510   53.6190    2.8650    0.0185    5.5120   22.0000 
1700.1744    8.9950   57.5690    2.8140    0.0267    4.1890   22.0000 
1700.4792    9.0150   54.2070    2.8490    0.0196    6.0730    1.0000 
1700.7840    8.9860   44.9140    2.9060    0.0110    7.2750    1.0000 
1701.0888    8.9860   29.6900    2.9850   -0.0008    5.6810    1.0000 
1701.3936    9.1130   26.7490    2.9740   -0.0076    6.2700    1.0000 
1701.6984    9.1890   31.6570    2.9430   -0.0053    5.7730    1.0000 
1702.0032    9.0330   33.2690    2.9480   -0.0041    4.9250    1.0000 
1702.3080    9.0120   29.3100    2.9660   -0.0077    5.7140    1.0000 
1702.6128    9.2040   28.7050    2.9600   -0.0089    6.2950    1.0000 
1702.9176    9.2200   31.6950    2.9530   -0.0083    5.5720    1.0000 
1703.2224    9.1310   36.5430    2.9290   -0.0013    5.3720    1.0000 
1703.5272    9.2150   52.1160    2.8600    0.0083    5.2900   22.0000 
1703.8320    9.2660   52.4100    2.8750    0.0037    5.4290   22.0000 
1704.1368    9.1700   34.3700    3.0020   -0.0074    5.9290    1.0000 
1704.4416    9.1420   31.0090    2.9720   -0.0044    6.1860    1.0000 
1704.7464    9.2570   44.8430    2.9040    0.0004    5.1650    1.0000 
1705.0512    9.2290   38.5460    2.9430   -0.0058    5.6140    1.0000 
1705.3560    9.1250   30.5720    2.9700   -0.0085    6.9780    1.0000 
1705.6608    9.1080   33.9820    2.9590   -0.0061    6.8840    1.0000 
1705.9656    9.2760   45.4790    2.8930    0.0034    5.3300   12.0000 
1706.2704    9.2510   46.8520    2.8770    0.0113    4.7740   12.0000 
1706.5752    9.1070   39.9560    2.9360   -0.0009    5.3010    1.0000 
1706.8800    9.0830   30.0650    2.9790   -0.0075    5.6810    1.0000 
1707.1848    9.3460   30.1790    3.0100   -0.0103    5.9200    1.0000 
1707.4896    9.2740   30.6530    2.9990   -0.0102    5.8020    1.0000 
1707.7944    9.0500   28.0110    2.9650   -0.0102    5.5640    1.0000 
1708.0992    9.2250   23.9320    2.9740   -0.0124    5.2360    1.0000 
1708.4040    9.3360   23.8660    2.9870   -0.0118    6.6320    1.0000 
1708.7088    9.0880   23.1420    2.9830   -0.0107    6.4620    1.0000 
1709.0136    9.1600   22.9560    2.9830   -0.0089    5.2770    1.0000 
1709.3184    9.3310   29.4200    2.9610   -0.0047    4.1490    1.0000 
1709.6232    9.1750   34.7470    2.9110    0.0022    3.5130    1.0000 
1709.9280    8.9630   30.8470    2.8900    0.0049    3.4170    1.0000 
1710.2328    9.0350   35.1540    2.8550    0.0079    3.4370   12.0000 
1710.5376    9.1100   40.5400    2.8350    0.0093    3.3180   12.0000 
1710.8424    9.1620   39.0960    2.8980    0.0017    4.6860    1.0000 
1711.1472    9.0490   34.9570    2.9660   -0.0034    5.9790    1.0000 
1711.4520    9.1410   29.0800    2.9840   -0.0083    6.1200    1.0000 
1711.7568    9.2720   28.4150    2.9780   -0.0101    5.9780    1.0000 
1712.0616    9.2480   26.7910    2.9590   -0.0103    5.5270    1.0000 
1712.3664    9.0560   25.7070    2.9730   -0.0101    6.0500    1.0000 
1712.6712    9.0950   24.4440    2.9890   -0.0108    5.6160    1.0000 
1712.9760    9.2910   23.9580    2.9920   -0.0117    5.6800    1.0000 
1713.2808    9.1780   22.5740    2.9800   -0.0109    5.0380    1.0000 
1713.5856    9.0300   23.1070    2.9780   -0.0084    5.2100    1.0000 
1713.8904    9.0900   25.7360    2.9780   -0.0093    6.5650    1.0000 
1714.1952    9.1210   25.2500    2.9810   -0.0110    6.2060    1.0000 
1714.5000    9.0490   25.3640    2.9690   -0.0092    5.2590    1.0000 
1714.8048    9.0080   27.5740    2.9250   -0.0054    4.3650    1.0000 
1715.1096    9.0520   34.0970    2.8230    0.0115    3.5010   12.0000 
1715.4144    8.9800   33.2520    2.8120    0.0345    3.4040   12.0000 
1715.7192    8.8990   37.1390    2.8470    0.0451    3.4280   12.0000 
1716.0240    8.8350   42.2260    2.8790    0.0170    4.3060    1.0000 
1716.3288    8.8790   38.7450    2.9090    0.0045    4.4830    1.0000 
1716.6336    9.0220   34.8440    2.8290    0.0165    3.5970   12.0000 
1716.9384    8.9250   36.0950    2.8260    0.0239    3.5230   12.0000 
1717.2432    8.8450   34.7700    2.8340    0.0175    3.4910   12.0000 
1717.5480    8.9130   33.1470    2.8260    0.0291    3.3160   12.0000 
1717.8528    9.0200   34.5190    2.8490    0.0380    3.5580   12.0000 
1718.1576    9.0040   43.7970    2.8320    0.0203    3.6100   12.0000 
1718.4624    8.9390   54.9350    2.8220    0.0266    3.8580   12.0000 
1718.7672    8.8230   57.2050    2.8700    0.0375    5.0650   22.0000 
1719.0720    8.9310   41.9210    2.9090    0.0124    5.8160   22.0000 
1719.3768    9.0820   31.2510    2.8830    0.0035    3.8210   22.0000 
1719.6816    8.9940   35.5570    2.8410    0.0206    3.3150   12.0000 
1719.9864    8.8610   35.4910    2.8160    0.0236    3.4320   12.0000 
1720.2912    8.9690   35.4850    2.8080    0.0587    3.4400   12.0000 
1720.5960    9.0120   42.3670    2.8790    0.0415    4.1200   12.0000 
1720.9008    8.9280   39.7840    2.9150    0.0047    4.3780    1.0000 
1721.2056    8.8710   32.3480    2.8450    0.0121    3.5170   12.0000 
1721.5104    8.9510   30.7850    2.8020    0.0343    3.4550   12.0000 
1721.8152    8.9980   31.9160    2.8420    0.0480    3.8770   12.0000 
1722.1200    8.9820   33.8870    2.8730    0.0299    3.8250   12.0000 
1722.4248    8.8220   32.6220    2.9060    0.0042    3.8780    1.0000 
1722.7296    8.8690   33.3920    2.9210    0.0028    4.5960    1.0000 
1723.0344    9.0120   37.6980    2.8610    0.0151    4.0360    1.0000 
1723.3392    9.0640   56.6230    2.7910    0.0296    3.8970   22.0000 
1723.6440    8.9280   68.4200    2.7850    0.0495    5.0950   22.0000 
1723.9488    8.7550   59.1850    2.8590    0.0418    5.3060   22.0000 
1724.2536    8.9550   47.1950    2.9010    0.0120    5.7880    1.0000 
1724.5584    9.0660   35.5060    2.9520    0.0021    6.0030    1.0000 
1724.8632    8.8180   32.3240    2.9380   -0.0013    6.2200    1.0000 
1725.1680    8.6860   31.2380    2.9280   -0.0035    6.2060    1.0000 
1725.4728    8.8530   31.5290    2.9210   -0.0015    4.7030    1.0000 
1725.7776    8.9840   40.7480    2.8660    0.0081    3.8530    1.0000 
1726.0824    8.8840   52.3630    2.8300    0.0155    4.6890   12.0000 
1726.3872    8.7310   49.3600    2.8630    0.0132    4.9600    1.0000 
1726.6920    8.8070   43.0620    2.8830    0.0101    4.8420    1.0000 
1726.9968    8.8500   34.7880    2.9250    0.0009    5.5390    1.0000 
1727.3016    8.7900   30.1680    2.9180    0.0020    4.2160    1.0000 
1727.6064    8.7300   34.8320    2.8760    0.0099    4.1120    1.0000 
1727.9112    8.8170   33.4480    2.8500    0.0216    4.2170   12.0000 
1728.2160    8.9120   33.0810    2.8430    0.0276    3.6890   12.0000 
1728.5208    8.7960   35.7090    2.8480    0.0291    3.5590   12.0000 
1728.8256    8.7600   40.7340    2.8540    0.0317    3.4880   12.0000 
1729.1304    8.8190   47.8550    2.8450    0.0200    3.2000   12.0000 
1729.4352    8.8420   50.1850    2.8440    0.0158    3.3060   12.0000 
1729.7400    8.8340   49.9370    2.8510    0.0080    4.3080    1.0000 
1730.0448    8.7620   38.0680    2.9260    0.0015    4.7190    1.0000 
1730.3496    8.7490   30.4520    2.9220    0.0094    3.4450    1.0000 
1730.6544    8.9120   34.8770    2.8490    0.0251    3.1430   12.0000 
1730.9592    8.9160   38.2240    2.8300    0.0176    3.3060   12.0000 
1731.2640    8.7830   43.0110    2.8680    0.0094    4.2120    1.0000 
1731.5688    8.8350   58.8780    2.8440    0.0121    4.3960   22.0000 
1731.8736    8.9060   64.2630    2.8310    0.0160    4.7560   22.0000 
1732.1784    8.8060   42.8050    2.9000    0.0045    6.7530    1.0000 
1732.4832    8.7530   29.4390    2.9350   -0.0030    6.9100    1.0000 
