~VERSION INFORMATION
 VERS.                 2.0:   CWLS LOG ASCII STANDARD - VERSION 2.0
 WRAP.                  NO:   SINGLE LINE PER DEPTH STEP
 CREA.                 05/01/2018 17:03:03
#CREATED USING DSPetro VERSION 5000.10.1.3 BY H191660 ON 05/01/2018 17:03:03
~WELL INFORMATION
#MNEM.UNIT       DATA                          DESCRIPTION MNEMONIC
#---------      ---------------------------   --------------------------
 STRT    .M         45.1104                   : START DEPTH
 STOP    .M         2469.4896                 : STOP DEPTH
 STEP    .M         0.3048                    : STEP VALUE
 NULL    .      -999.0000                     : NULL VALUE
 DATE    .      05/01/2018                    : LAS file Creation Date
 WELL .      JOHNSON_2_1                 : Well Name
 COMP .      Neftex Exploration Insights : Company
 FLD  .                                  : Field
 UWI  .      DUSWL_JO_2_1                : Unique Well Identifier (UWI)
 LOC  .                                  : Location
 RWS  .      -999                        : Def_Rw
 WST  .      -999                        : Def_Rwt
 SRVC .                                  : Contractor
~CURVE INFORMATION
#MNEM              UNIT       API CODE   Curve Type Comments
#----------  --------------- ----------  ---------- -----------
 DEPTH      .M                         : Depth       
 CAL_INCH   .inch                      :             Caliper Log - A representation of the measured diameter of a borehole along its depth
 GR_API     .API                       : GammaRay    Gamma Ray (API) - Measures the intensity of natural gamma-ray radiation emitted from formations containing radioactive elements, such as K, Th and U
 RHOZ_G_CC  .g/cc                      :             Formation Density - Measures the density of formation, including any void space or other materials contained in the subject volume
 NPHI_v_v   .dec                       : Neutron     
 PEF_B_E    .b/e-                      : PEF         Photoelectric Factor - A log of photoelectric absorption properties. Often expressed in an approximation unit barns/electron (b/e-)
 LITH       .                          :             
~A  DEPTH  CAL_INCH   GR_API  RHOZ_G_C~  NPHI_v_v  PEF_B_E     LITH   
# ...
1836.1152   10.5710   77.7920    2.3550    0.0785    3.7470   16.0000 
1836.4200    9.8870   77.1070    2.4830    0.1084    3.5710   16.0000 
1836.7248    9.9490   70.0160    2.5530    0.1177    3.4180   22.0000 
1837.0296   10.0070   70.3520    2.5820    0.1195    3.5090   22.0000 
1837.3344    9.9180   76.5590    2.5670    0.1389    3.4700   22.0000 
1837.6392    9.8560   77.4370    2.6060    0.1356    3.3980   22.0000 
1837.9440    9.8550   71.4200    2.5890    0.1194    3.4850   22.0000 
1838.2488    9.9650   73.2540    2.5720    0.1036    3.4420   22.0000 
1838.5536   10.0670   73.0520    2.5850    0.0825    3.3870   22.0000 
1838.8584   10.4770   66.7990    2.4130    0.0290    3.6120   22.0000 
1839.1632   11.8370   59.5900    2.2380   -0.0046    3.6680   16.0000 
1839.4680   11.3330   52.7950    2.1730   -0.0101    3.5290   16.0000 
1839.7728   10.8080   47.3840    2.1800   -0.0149    3.7680   16.0000 
1840.0776   11.6450   44.0620    2.2030   -0.0162    3.9490   16.0000 
1840.3824   12.2620   43.3810    2.2160   -0.0135    4.0620   16.0000 
1840.6872   11.7380   42.5800    2.1900   -0.0127    4.0460   16.0000 
1840.9920   11.9360   43.3350    2.1680   -0.0149    3.9370   16.0000 
1841.2968   12.6330   38.9950    2.1350   -0.0167    3.8420   16.0000 
1841.6016   13.0710   38.1960    2.1160   -0.0140    4.0530   16.0000 
1841.9064   12.5180   39.4900    2.1700   -0.0109    4.2900   16.0000 
1842.2112   12.4330   42.9390    2.2180   -0.0098    4.2380   16.0000 
1842.5160   11.4970   41.8390    2.1210   -0.0146    4.2230   16.0000 
1842.8208   11.3440   39.3620    2.0780   -0.0170    4.1760   16.0000 
1843.1256   12.6400   41.9740    2.0980   -0.0155    3.9830   16.0000 
1843.4304   12.8820   46.9210    2.1580   -0.0098    3.8130   16.0000 
1843.7352   12.5010   46.4200    2.2030   -0.0011    3.9600   16.0000 
1844.0400   11.9690   45.3820    2.1500   -0.0055    4.1670   16.0000 
1844.3448   12.5140   43.8020    2.0740   -0.0145    4.1620   16.0000 
1844.6496   12.3410   44.1360    2.1020   -0.0159    4.0260   16.0000 
1844.9544   11.5210   47.1070    2.1720   -0.0103    3.9550   16.0000 
1845.2592   11.4790   45.1720    2.2210   -0.0043    3.9500   16.0000 
1845.5640   11.6300   44.6080    2.2570   -0.0027    4.0690   16.0000 
1845.8688   11.6400   48.8380    2.2140   -0.0065    4.0210   16.0000 
1846.1736   12.2540   41.2670    2.1390   -0.0137    4.0020   16.0000 
1846.4784   12.3400   36.8150    2.1590   -0.0135    3.9430   16.0000 
1846.7832   11.6830   39.6020    2.1940   -0.0117    3.9580   16.0000 
1847.0880   11.9260   39.1060    2.1720   -0.0129    3.9100   16.0000 
1847.3928   11.4730   37.3430    2.1560   -0.0132    4.0550   16.0000 
1847.6976   11.6390   34.2090    2.1150   -0.0169    4.2240   16.0000 
1848.0024   12.1690   34.2410    2.0740   -0.0210    4.2410   16.0000 
1848.3072   12.5860   32.6630    2.0550   -0.0216    4.1370   16.0000 
1848.6120   12.7090   33.2980    2.0690   -0.0215    4.1240   16.0000 
1848.9168   12.8270   34.3530    2.0850   -0.0213    4.2130   16.0000 
1849.2216   12.7540   35.5880    2.0980   -0.0187    4.1380   16.0000 
1849.5264   12.8200   33.7080    2.0950   -0.0185    4.1240   16.0000 
1849.8312   12.9700   33.9840    2.0900   -0.0199    4.2630   16.0000 
1850.1360   13.0690   36.9560    2.1050   -0.0174    4.3440   16.0000 
1850.4408   12.3560   37.4710    2.1390   -0.0133    3.8870   16.0000 
1850.7456   12.3620   36.7900    2.1490   -0.0156    3.7770   16.0000 
1851.0504   12.2210   38.9210    2.1470   -0.0168    4.0500   16.0000 
1851.3552   12.6590   39.0200    2.1320   -0.0175    4.1770   16.0000 
1851.6600   13.1210   44.3260    2.1130   -0.0095    4.0740   16.0000 
1851.9648   12.0930   49.0390    2.1670    0.0034    4.0140   16.0000 
1852.2696   11.7000   43.9820    2.1700   -0.0053    4.0570   16.0000 
1852.5744   11.5580   38.7490    2.1460   -0.0127    3.7920   16.0000 
1852.8792   11.4690   38.9070    2.1560   -0.0146    3.7190   16.0000 
1853.1840   11.6240   42.6580    2.1680   -0.0125    3.9610   16.0000 
1853.4888   12.3910   43.5390    2.1650   -0.0133    4.0960   16.0000 
1853.7936   12.7930   41.9020    2.1440   -0.0120    4.1110   16.0000 
1854.0984   12.9960   40.2020    2.1250   -0.0098    3.7880   16.0000 
1854.4032   12.6750   43.4770    2.1440   -0.0086    3.8040   16.0000 
1854.7080   11.7700   46.6930    2.1590   -0.0102    4.0410   16.0000 
1855.0128   11.7250   44.5150    2.1370   -0.0139    4.0900   16.0000 
1855.3176   11.9950   43.1750    2.1280   -0.0150    3.9860   16.0000 
1855.6224   12.4330   39.4970    2.1020   -0.0162    4.0810   16.0000 
1855.9272   12.4120   38.2190    2.0840   -0.0180    3.8120   16.0000 
1856.2320   12.7460   35.6820    2.0840   -0.0196    4.0810   16.0000 
1856.5368   12.5530   33.6240    2.0660   -0.0195    4.5470   16.0000 
1856.8416   12.6440   37.2580    2.0490   -0.0177    4.6160   16.0000 
1857.1464   12.8620   52.2180    2.0990   -0.0064    4.1210   16.0000 
1857.4512   12.7130   71.2580    2.3360    0.0564    3.6580   22.0000 
1857.7560   11.5920   80.6480    2.5420    0.1211    3.8110   22.0000 
1858.0608   10.3040   80.8670    2.4890    0.1257    3.6990   22.0000 
1858.3656   10.2550   83.3050    2.5240    0.1436    3.5120   22.0000 
1858.6704   10.2540   83.6420    2.5960    0.1328    3.5690   22.0000 
1858.9752   10.1440   82.0650    2.5930    0.1298    3.4040   22.0000 
1859.2800   10.0430   82.1640    2.5980    0.1335    3.4500   22.0000 
1859.5848   10.0210   74.8290    2.6340    0.1333    3.8290   22.0000 
1859.8896   10.0120   72.9520    2.6360    0.1325    4.0550   22.0000 
1860.1944    9.9590   75.8690    2.6100    0.1500    4.0540   22.0000 
1860.4992    9.9060   78.0060    2.6220    0.1482    3.5810   22.0000 
1860.8040    9.9480   77.4460    2.6490    0.1371    3.2920   22.0000 
1861.1088    9.8790   79.5830    2.6190    0.1254    3.3990   22.0000 
1861.4136    9.8020   78.7820    2.6020    0.1443    3.6110   22.0000 
1861.7184    9.8000   74.5670    2.6210    0.1705    3.7020   22.0000 
1862.0232    9.8430   77.3650    2.6400    0.1502    3.7330   22.0000 
1862.3280    9.7780   79.9240    2.6690    0.1401    3.6350   22.0000 
1862.6328    9.6970   80.0840    2.6480    0.1449    3.4660   22.0000 
1862.9376    9.6750   84.4420    2.6250    0.1482    3.4170   22.0000 
1863.2424    9.8460   88.3800    2.5890    0.1485    3.2700   22.0000 
1863.5472    9.8610   80.5060    2.5930    0.1444    3.1680   22.0000 
1863.8520    9.7230   87.9200    2.6120    0.1492    3.2610   22.0000 
1864.1568    9.6980   93.7180    2.6140    0.1561    3.4930   22.0000 
1864.4616    9.8050   84.3450    2.5930    0.1399    3.6800   22.0000 
1864.7664    9.9190   69.7010    2.5530    0.0820    3.7730   22.0000 
1865.0712   10.0340   59.4340    2.4410    0.0226    3.7810   22.0000 
1865.3760   10.1010   48.5650    2.2930    0.0031    4.0740   16.0000 
1865.6808   10.2590   43.7480    2.1690   -0.0070    4.1780   16.0000 
1865.9856   10.7540   40.0160    2.1240   -0.0103    4.0750   16.0000 
1866.2904   11.5240   41.6140    2.1170   -0.0122    3.9140   16.0000 
1866.5952   11.3860   44.8320    2.1770   -0.0101    3.8030   16.0000 
1866.9000   11.1690   48.4090    2.2310   -0.0064    3.8870   16.0000 
1867.2048   11.0520   55.6430    2.2590    0.0016    4.0260   16.0000 
1867.5096   11.0070   50.8880    2.2110    0.0030    4.1210   16.0000 
1867.8144   11.3570   39.5440    2.1160   -0.0124    4.1390   16.0000 
1868.1192   11.8040   37.0100    2.0930   -0.0191    4.3620   16.0000 
1868.4240   12.1100   36.2740    2.1260   -0.0168    4.1080   16.0000 
1868.7288   11.3700   40.4460    2.1570   -0.0137    3.9110   16.0000 
1869.0336   11.0090   39.2280    2.1420   -0.0155    4.1600   16.0000 
1869.3384   11.5590   39.0320    2.1090   -0.0181    4.0000   16.0000 
1869.6432   11.7180   35.6580    2.1210   -0.0167    3.9190   16.0000 
1869.9480   10.8650   38.6930    2.1680   -0.0137    4.1800   16.0000 
1870.2528   10.7480   36.8790    2.1640   -0.0139    4.1220   16.0000 
