~VERSION INFORMATION
 VERS.                 2.0:   CWLS LOG ASCII STANDARD - VERSION 2.0
 WRAP.                  NO:   SINGLE LINE PER DEPTH STEP
 CREA.                 05/01/2018 17:03:03
#CREATED USING DSPetro VERSION 5000.10.1.3 BY H191660 ON 05/01/2018 17:03:03
~WELL INFORMATION
#MNEM.UNIT       DATA                          DESCRIPTION MNEMONIC
#---------      ---------------------------   --------------------------
 STRT    .M         45.1104                   : START DEPTH
 STOP    .M         2469.4896                 : STOP DEPTH
 STEP    .M         0.3048                    : STEP VALUE
 NULL    .      -999.0000                     : NULL VALUE
 DATE    .      05/01/2018                    : LAS file Creation Date
 WELL .      JOHNSON_2_1                 : Well Name
 COMP .      Neftex Exploration Insights : Company
 FLD  .                                  : Field
 UWI  .      DUSWL_JO_2_1                : Unique Well Identifier (UWI)
 LOC  .                                  : Location
 RWS  .      -999                        : Def_Rw
 WST  .      -999                        : Def_Rwt
 SRVC .                                  : Contractor
~CURVE INFORMATION
#MNEM              UNIT       API CODE   Curve Type Comments
#----------  --------------- ----------  ---------- -----------
 DEPTH      .M                         : Depth       
 CAL_INCH   .inch                      :             Caliper Log - A representation of the measured diameter of a borehole along its depth
 GR_API     .API                       : GammaRay    Gamma Ray (API) - Measures the intensity of natural gamma-ray radiation emitted from formations containing radioactive elements, such as K, Th and U
 RHOZ_G_CC  .g/cc                      :             Formation Density - Measures the density of formation, including any void space or other materials contained in the subject volume
 NPHI_v_v   .dec                       : Neutron     
 PEF_B_E    .b/e-                      : PEF         Photoelectric Factor - A log of photoelectric absorption properties. Often expressed in an approximation unit barns/electron (b/e-)
 LITH       .                          :             
~A  DEPTH  CAL_INCH   GR_API  RHOZ_G_C~  NPHI_v_v  PEF_B_E     LITH   
# ...
2146.0968   10.0880   24.9440    2.1060   -0.0206    4.1160   16.0000 
2146.4016   10.3450   26.2110    2.0850   -0.0211    4.0110   16.0000 
2146.7064   10.5410   25.2030    2.0670   -0.0224    4.1610   16.0000 
2147.0112   10.5820   22.6940    2.0640   -0.0228    4.2940   16.0000 
2147.3160   10.5260   23.8440    2.0760   -0.0228    4.2120   16.0000 
2147.6208   10.2790   26.0700    2.1050   -0.0212    4.3380   16.0000 
2147.9256   10.0560   26.0210    2.1070   -0.0200    4.4250   16.0000 
2148.2304    9.9450   25.3090    2.0930   -0.0200    4.3130   16.0000 
2148.5352   10.1970   23.9390    2.0690   -0.0215    4.5350   16.0000 
2148.8400   10.3020   24.2470    2.0470   -0.0227    4.4760   16.0000 
2149.1448   10.3660   26.9550    2.0510   -0.0222    4.2580   16.0000 
2149.4496   10.3630   28.1040    2.0840   -0.0212    4.3680   16.0000 
2149.7544   10.4470   26.3740    2.1170   -0.0190    4.3570   16.0000 
2150.0592   10.3800   25.8440    2.1200   -0.0192    4.1010   16.0000 
2150.3640   10.4090   24.6550    2.0810   -0.0211    4.1890   16.0000 
2150.6688   10.4330   25.6830    2.0620   -0.0221    4.2920   16.0000 
2150.9736   10.4420   25.1530    2.0560   -0.0221    4.1960   16.0000 
2151.2784   10.4020   23.0640    2.0570   -0.0222    4.0620   16.0000 
2151.5832   10.2470   24.1520    2.0930   -0.0216    4.2380   16.0000 
2151.8880   10.0640   26.6750    2.1140   -0.0208    4.4030   16.0000 
2152.1928   10.2800   26.5660    2.0840   -0.0217    4.3290   16.0000 
2152.4976   10.2690   25.9150    2.0780   -0.0218    4.3630   16.0000 
2152.8024   10.3410   26.5240    2.0710   -0.0219    4.4060   16.0000 
2153.1072   10.4490   27.2500    2.0670   -0.0219    4.3160   16.0000 
2153.4120   10.3900   27.9180    2.0660   -0.0226    4.0820   16.0000 
2153.7168   10.6540   24.6300    2.0550   -0.0238    4.0220   16.0000 
2154.0216   10.6910   24.5190    2.0450   -0.0238    4.1110   16.0000 
2154.3264   10.6870   26.9240    2.0430   -0.0238    4.1610   16.0000 
2154.6312   10.6880   28.7300    2.0620   -0.0230    4.3670   16.0000 
2154.9360   10.5650   31.2560    2.1050   -0.0211    4.4440   16.0000 
2155.2408   10.3130   28.3290    2.1350   -0.0211    4.4180   16.0000 
2155.5456   10.4780   25.2210    2.0830   -0.0215    4.3900   16.0000 
2155.8504   10.5340   23.8510    2.0540   -0.0224    4.4780   16.0000 
2156.1552   10.4030   25.3570    2.0520   -0.0225    4.5510   16.0000 
2156.4600   10.4040   26.9840    2.0440   -0.0225    4.2490   16.0000 
2156.7648   10.3400   27.0510    2.0490   -0.0221    4.2030   16.0000 
2157.0696   10.3570   28.3180    2.0520   -0.0221    4.4460   16.0000 
2157.3744   10.3770   29.1050    2.0480   -0.0219    4.4940   16.0000 
2157.6792   10.3220   28.0950    2.0620   -0.0220    4.4700   16.0000 
2157.9840   10.3460   26.4850    2.0660   -0.0224    4.2600   16.0000 
2158.2888   10.3950   25.5350    2.0540   -0.0226    4.2260   16.0000 
2158.5936   10.4670   24.5240    2.0560   -0.0226    4.2750   16.0000 
2158.8984   10.4400   23.9340    2.0570   -0.0226    4.3950   16.0000 
2159.2032   10.4640   23.5820    2.0460   -0.0226    4.2330   16.0000 
2159.5080   10.5330   24.2510    2.0500   -0.0229    4.0400   16.0000 
2159.8128   10.5290   25.8750    2.0550   -0.0231    4.0740   16.0000 
2160.1176   10.5020   24.7450    2.0490   -0.0229    4.1660   16.0000 
2160.4224   10.4460   24.1540    2.0520   -0.0225    4.2000   16.0000 
2160.7272   10.4390   24.8810    2.0500   -0.0226    4.2570   16.0000 
2161.0320   10.4550   24.9490    2.0510   -0.0226    4.1370   16.0000 
2161.3368   10.5240   26.1550    2.0620   -0.0226    4.1690   16.0000 
2161.6416   10.5360   26.5220    2.0650   -0.0228    4.1150   16.0000 
2161.9464   10.5290   22.3970    2.0690   -0.0220    4.2520   16.0000 
2162.2512   10.4610   22.8820    2.0640   -0.0220    4.3080   16.0000 
2162.5560   10.5060   26.7840    2.0490   -0.0225    4.2140   16.0000 
2162.8608   10.4620   27.0320    2.0520   -0.0226    4.2480   16.0000 
2163.1656   10.4750   27.3390    2.0540   -0.0227    4.1670   16.0000 
2163.4704   10.5590   27.5260    2.0590   -0.0227    4.0970   16.0000 
2163.7752   10.5920   23.1000    2.0510   -0.0227    4.1870   16.0000 
2164.0800   10.5720   22.6870    2.0450   -0.0227    4.2070   16.0000 
2164.3848   10.5690   25.5130    2.0390   -0.0228    4.1670   16.0000 
2164.6896   10.5210   23.8420    2.0460   -0.0228    4.2800   16.0000 
2164.9944   10.6020   22.4120    2.0440   -0.0230    4.1280   16.0000 
2165.2992   10.5460   25.5950    2.0470   -0.0231    4.0800   16.0000 
2165.6040   10.5270   24.9440    2.0440   -0.0230    4.1120   16.0000 
2165.9088   10.5230   24.2920    2.0430   -0.0229    4.2070   16.0000 
2166.2136   10.4040   25.2590    2.0590   -0.0221    4.2790   16.0000 
2166.5184   10.2490   25.9850    2.0800   -0.0212    4.3830   16.0000 
2166.8232   10.4450   25.8730    2.0700   -0.0219    4.4530   16.0000 
2167.1280   10.4850   25.1610    2.0520   -0.0222    4.4920   16.0000 
2167.4328   10.4340   25.3490    2.0420   -0.0222    4.5340   16.0000 
2167.7376   10.4340   26.9150    2.0360   -0.0222    4.3720   16.0000 
2168.0424   10.3990   26.9820    2.0350   -0.0223    4.3800   16.0000 
2168.3472   10.4390   27.8870    2.0360   -0.0219    4.3190   16.0000 
2168.6520   10.3200   27.5960    2.0390   -0.0218    4.1630   16.0000 
2168.9568   10.3290   27.9630    2.0440   -0.0217    4.1130   16.0000 
2169.2616   10.2090   28.6890    2.0670   -0.0209    4.3210   16.0000 
2169.5664   10.1020   28.2760    2.0890   -0.0203    4.4350   16.0000 
2169.8712   10.0660   27.8060    2.1030   -0.0203    4.4520   16.0000 
2170.1760   10.1190   26.4340    2.1230   -0.0189    4.4100   16.0000 
2170.4808   10.1750   27.2810    2.1470   -0.0173    4.3880   16.0000 
2170.7856   10.2000   29.8640    2.1780   -0.0163    4.5660   16.0000 
2171.0904   10.0840   28.7330    2.1860   -0.0164    4.6470   16.0000 
2171.3952   10.2680   29.9990    2.2010   -0.0171    4.3650   16.0000 
2171.7000    9.9570   28.2690    2.2440   -0.0155    4.4410   16.0000 
2172.0048    9.8500   27.3170    2.1460   -0.0156    4.3970   16.0000 
2172.3096   10.3100   29.1220    2.0970   -0.0174    4.2270   16.0000 
2172.6144   10.1070   30.1470    2.0880   -0.0185    4.2720   16.0000 
2172.9192   10.0710   28.2970    2.0680   -0.0195    4.3240   16.0000 
2173.2240   10.2910   25.6080    2.0500   -0.0222    4.2020   16.0000 
2173.5288   10.5510   24.1180    2.0370   -0.0236    4.2920   16.0000 
2173.8336   10.6560   24.2450    2.0300   -0.0239    4.4900   16.0000 
2174.1384   10.4920   25.3300    2.0340   -0.0224    4.6470   16.0000 
2174.4432   10.1650   26.0560    2.0500   -0.0203    4.8010   16.0000 
2174.7480   10.0540   25.5250    2.1760   -0.0170    5.2170   16.0000 
2175.0528    9.7990   25.5920    2.3400   -0.0126    5.1510   16.0000 
2175.3576    9.5880   25.8400    2.4550   -0.0077    4.4620   16.0000 
2175.6624    9.4480   25.7270    2.5500   -0.0027    4.2520   16.0000 
2175.9672    9.4290   27.4710    2.4600   -0.0054    4.4240   16.0000 
2176.2720    9.4410   27.4180    2.2320   -0.0130    4.3160   16.0000 
2176.5768    9.6700   31.2010    2.0990   -0.0176    4.2800   16.0000 
2176.8816   10.0290   29.6510    2.0780   -0.0188    4.3530   16.0000 
2177.1864   10.1620   26.6630    2.0770   -0.0196    4.4410   16.0000 
2177.4912   10.2900   25.7720    2.0640   -0.0207    4.4630   16.0000 
2177.7960   10.4260   25.6000    2.0440   -0.0213    4.3190   16.0000 
2178.1008   10.3190   24.9490    2.0500   -0.0212    4.4200   16.0000 
2178.4056   10.2560   28.0120    2.0580   -0.0207    4.4840   16.0000 
2178.7104   10.1280   28.7380    2.0760   -0.0197    4.4860   16.0000 
2179.0152   10.2370   27.8460    2.0970   -0.0197    4.2520   16.0000 
2179.3200   10.1770   27.6730    2.1710   -0.0174    4.3840   16.0000 
2179.6248    9.6980   27.4420    2.4510   -0.0066    4.8900   16.0000 
2179.9296    9.3590   26.6700    2.6570   -0.0001    5.7480   18.0000 
2180.2344    9.1920   23.6830    2.7840    0.0034    6.1620   18.0000 
