~VERSION INFORMATION
 VERS.                 2.0:   CWLS LOG ASCII STANDARD - VERSION 2.0
 WRAP.                  NO:   SINGLE LINE PER DEPTH STEP
 CREA.                 05/01/2018 17:03:03
#CREATED USING DSPetro VERSION 5000.10.1.3 BY H191660 ON 05/01/2018 17:03:03
~WELL INFORMATION
#MNEM.UNIT       DATA                          DESCRIPTION MNEMONIC
#---------      ---------------------------   --------------------------
 STRT    .M         45.1104                   : START DEPTH
 STOP    .M         2469.4896                 : STOP DEPTH
 STEP    .M         0.3048                    : STEP VALUE
 NULL    .      -999.0000                     : NULL VALUE
 DATE    .      05/01/2018                    : LAS file Creation Date
 WELL .      JOHNSON_2_1                 : Well Name
 COMP .      Neftex Exploration Insights : Company
 FLD  .                                  : Field
 UWI  .      DUSWL_JO_2_1                : Unique Well Identifier (UWI)
 LOC  .                                  : Location
 RWS  .      -999                        : Def_Rw
 WST  .      -999                        : Def_Rwt
 SRVC .                                  : Contractor
~CURVE INFORMATION
#MNEM              UNIT       API CODE   Curve Type Comments
#----------  --------------- ----------  ---------- -----------
 DEPTH      .M                         : Depth       
 CAL_INCH   .inch                      :             Caliper Log - A representation of the measured diameter of a borehole along its depth
 GR_API     .API                       : GammaRay    Gamma Ray (API) - Measures the intensity of natural gamma-ray radiation emitted from formations containing radioactive elements, such as K, Th and U
 RHOZ_G_CC  .g/cc                      :             Formation Density - Measures the density of formation, including any void space or other materials contained in the subject volume
 NPHI_v_v   .dec                       : Neutron     
 PEF_B_E    .b/e-                      : PEF         Photoelectric Factor - A log of photoelectric absorption properties. Often expressed in an approximation unit barns/electron (b/e-)
 LITH       .                          :             
~A  DEPTH  CAL_INCH   GR_API  RHOZ_G_C~  NPHI_v_v  PEF_B_E     LITH   
# ...
 251.7648 -999.0000   21.0100 -999.0000 -999.0000 -999.0000    3.0000 
 252.0696 -999.0000   19.6860 -999.0000 -999.0000 -999.0000    3.0000 
 252.3744 -999.0000   20.7000 -999.0000 -999.0000 -999.0000    3.0000 
 252.6792 -999.0000   18.5960 -999.0000 -999.0000 -999.0000    3.0000 
 252.9840 -999.0000   17.9320 -999.0000 -999.0000 -999.0000    3.0000 
 253.2888 -999.0000   20.0860 -999.0000 -999.0000 -999.0000    3.0000 
 253.5936 -999.0000   22.4200 -999.0000 -999.0000 -999.0000    3.0000 
 253.8984 -999.0000   22.8950 -999.0000 -999.0000 -999.0000    3.0000 
 254.2032 -999.0000   22.0510 -999.0000 -999.0000 -999.0000    3.0000 
 254.5080 -999.0000   19.8270 -999.0000 -999.0000 -999.0000    3.0000 
 254.8128 -999.0000   18.6230 -999.0000 -999.0000 -999.0000    3.0000 
 255.1176 -999.0000   21.6770 -999.0000 -999.0000 -999.0000    3.0000 
 255.4224 -999.0000   22.0920 -999.0000 -999.0000 -999.0000    3.0000 
 255.7272 -999.0000   18.9680 -999.0000 -999.0000 -999.0000    3.0000 
 256.0320 -999.0000   21.0620 -999.0000 -999.0000 -999.0000    3.0000 
 256.3368 -999.0000   21.3570 -999.0000 -999.0000 -999.0000    3.0000 
 256.6416 -999.0000   20.3330 -999.0000 -999.0000 -999.0000    3.0000 
 256.9464 -999.0000   17.6900 -999.0000 -999.0000 -999.0000    3.0000 
 257.2512 -999.0000   19.1830 -999.0000 -999.0000 -999.0000    3.0000 
 257.5560 -999.0000   22.3560 -999.0000 -999.0000 -999.0000    3.0000 
 257.8608 -999.0000   24.0290 -999.0000 -999.0000 -999.0000    3.0000 
 258.1656 -999.0000   21.8070 -999.0000 -999.0000 -999.0000    3.0000 
 258.4704 -999.0000   21.6800 -999.0000 -999.0000 -999.0000    3.0000 
 258.7752 -999.0000   21.4370 -999.0000 -999.0000 -999.0000    3.0000 
 259.0800 -999.0000   21.5310 -999.0000 -999.0000   46.9200    3.0000 
 259.3848 -999.0000   19.4950 -999.0000 -999.0000   46.4650    3.0000 
 259.6896 -999.0000   21.9480 -999.0000 -999.0000   49.3870    3.0000 
 259.9944 -999.0000   21.4690 -999.0000 -999.0000   46.1660    3.0000 
 260.2992 -999.0000   20.9290 -999.0000 -999.0000   44.2920    3.0000 
 260.6040 -999.0000   22.6040 -999.0000 -999.0000   44.3760    3.0000 
 260.9088 -999.0000   21.4060 -999.0000 -999.0000   45.3170    3.0000 
 261.2136 -999.0000   19.4890 -999.0000 -999.0000   44.6280    3.0000 
 261.5184 -999.0000   21.3440 -999.0000 -999.0000   50.4300    3.0000 
 261.8232 -999.0000   19.4270 -999.0000 -999.0000   54.8730    3.0000 
 262.1280 -999.0000   18.0490 -999.0000 -999.0000   51.3890    3.0000 
 262.4328 -999.0000   20.8020 -999.0000 -999.0000   56.0950    3.0000 
 262.7376 -999.0000   20.2020 -999.0000 -999.0000   57.3760    3.0000 
 263.0424 -999.0000   19.4230 -999.0000 -999.0000   51.8560    3.0000 
 263.3472 -999.0000   19.3620 -999.0000 -999.0000   53.3290    3.0000 
 263.6520 -999.0000   19.6610 -999.0000 -999.0000   54.0840    3.0000 
 263.9568 -999.0000   17.3840 -999.0000 -999.0000   54.9460    3.0000 
 264.2616 -999.0000   15.2880 -999.0000 -999.0000   50.3120    3.0000 
 264.5664 -999.0000   16.0050 -999.0000 -999.0000   46.6840    3.0000 
 264.8712 -999.0000   18.7590 -999.0000 -999.0000   47.2110    3.0000 
 265.1760 -999.0000   20.3740 -999.0000 -999.0000   48.0980    3.0000 
 265.4808 -999.0000   20.6130 -999.0000 -999.0000   47.4870    3.0000 
 265.7856   12.9460   20.3720 -999.0000 -999.0000   45.5230    3.0000 
 266.0904   12.9340   19.3530 -999.0000 -999.0000   41.6370    3.0000 
 266.3952   12.9140   21.7470 -999.0000 -999.0000   42.0560    3.0000 
 266.7000   12.9140   21.8060 -999.0000 -999.0000   36.8830    3.0000 
 267.0048   12.9060   19.8890 -999.0000 -999.0000   40.1650    3.0000 
 267.3096   12.9180   21.0260 -999.0000 -999.0000   42.9430    3.0000 
 267.6144   12.9260   21.6830 -999.0000 -999.0000   44.1770    3.0000 
 267.9192   12.9100   21.5620 -999.0000 -999.0000   43.6620    3.0000 
 268.2240   12.9140   21.6810 -999.0000 -999.0000   46.2670    3.0000 
 268.5288   12.9180   22.9970 -999.0000 -999.0000   49.2610    3.0000 
 268.8336   12.9100   21.9790 -999.0000 -999.0000   46.8310    3.0000 
 269.1384   12.9180   20.5410 -999.0000 -999.0000   49.0700    3.0000 
 269.4432   12.9090   22.0960 -999.0000 -999.0000   45.2260    3.0000 
 269.7480   12.9090   22.9930 -999.0000 -999.0000   44.6690    3.0000 
 270.0528   12.9170   20.4180 -999.0000 -999.0000   46.9630    3.0000 
 270.3576   12.9170   19.5190 -999.0000 -999.0000   46.2930    3.0000 
 270.6624   12.9010   19.9370 -999.0000 -999.0000   49.9690    3.0000 
 270.9672   12.9050   18.8580 -999.0000 -999.0000   53.5620    3.0000 
 271.2720   12.9130   19.2760 -999.0000 -999.0000   46.5330    3.0000 
 271.5768   12.8970   20.2330 -999.0000 -999.0000   45.1920    3.0000 
 271.8816   12.9130   21.0110 -999.0000 -999.0000   50.5450    3.0000 
 272.1864   12.9210   20.9500 -999.0000 -999.0000   44.2870    3.0000 
 272.4912   12.9210   20.0510 -999.0000 -999.0000   41.2580    3.0000 
 272.7960   12.9170   19.5110 -999.0000 -999.0000   43.3540    3.0000 
 273.1008   12.9170   20.2880 -999.0000 -999.0000   43.2700    3.0000 
 273.4056   12.9130   20.8260 -999.0000 -999.0000   42.8990    3.0000 
 273.7104   12.9210   21.1250 -999.0000 -999.0000   43.2350    3.0000 
 274.0152   12.9200   21.3030 -999.0000 -999.0000   40.7560    3.0000 
 274.3200   12.9120   21.7210 -999.0000 -999.0000   39.5710    3.0000 
 274.6248   12.9160   19.9840 -999.0000 -999.0000   38.6130    3.0000 
 274.9296   12.9000   18.6660 -999.0000 -999.0000   38.2420    3.0000 
 275.2344   12.9160   21.8980 -999.0000 -999.0000   36.8890    3.0000 
 275.5392   12.9400   32.3740 -999.0000 -999.0000   34.8890    3.0000 
 275.8440   13.2550   64.1060 -999.0000 -999.0000   36.2550    3.0000 
 276.1488   13.8180   90.1490 -999.0000 -999.0000   37.8000    3.0000 
 276.4536   13.8580   96.0760 -999.0000 -999.0000   31.7290    3.0000 
 276.7584   14.0300   97.9910 -999.0000 -999.0000   32.3520    3.0000 
 277.0632   14.1890  103.9170 -999.0000 -999.0000   33.0340    3.0000 
 277.3680   14.3370  104.2150 -999.0000 -999.0000   30.2800    3.0000 
 277.6728   14.4680   94.0360 -999.0000 -999.0000   32.5320    3.0000 
 277.9776   14.5920   89.5440 -999.0000 -999.0000   30.4000    3.0000 
 278.2824   14.6520   92.6570 -999.0000 -999.0000   29.0240    3.0000 
 278.5872   14.7830   97.9840 -999.0000 -999.0000   29.3470    3.0000 
 278.8920   14.8910  101.1570 -999.0000 -999.0000   25.9460    3.0000 
 279.1968   14.9790  101.0360 -999.0000 -999.0000   28.2580    3.0000 
 279.5016   15.0390  100.1370 -999.0000 -999.0000   30.7970    3.0000 
 279.8064   15.0430   99.2380 -999.0000 -999.0000   29.7430    3.0000 
 280.1112   15.2020  105.2840 -999.0000 -999.0000   29.3360    3.0000 
 280.4160   15.3060  117.9160 -999.0000 -999.0000   31.9830    3.0000 
 280.7208   15.4340  121.3870 -999.0000 -999.0000   30.9290    3.0000 
 281.0256   15.5490  110.4900 -999.0000 -999.0000   32.9770    3.0000 
 281.3304   15.7170  103.0050 -999.0000 -999.0000   37.9710    3.0000 
 281.6352   15.9160  104.5600 -999.0000 -999.0000   31.7440    3.0000 
 281.9400   16.1330  106.4750 -999.0000 -999.0000   26.7630    3.0000 
 282.2448   16.1690  111.6830 -999.0000 -999.0000   24.6190    3.0000 
 282.5496   16.2170  139.1640 -999.0000 -999.0000   30.2960    3.0000 
 282.8544   16.3090  153.1330 -999.0000 -999.0000   31.4090    3.0000 
 283.1592   16.4000  151.2160 -999.0000 -999.0000   28.1050    3.0000 
 283.4640   16.5560  151.3350 -999.0000 -999.0000   26.6680    3.0000 
 283.7688   16.7320  157.0220 -999.0000 -999.0000   27.1590    3.0000 
 284.0736   16.9390  159.7750 -999.0000 -999.0000   28.1290    3.0000 
 284.3784   17.1150  152.2300 -999.0000 -999.0000   30.1410    3.0000 
 284.6832   17.3020  167.3770 -999.0000 -999.0000   29.0040    3.0000 
 284.9880   17.5850  219.5840 -999.0000 -999.0000   34.4640    3.0000 
 285.2928   17.7970  258.3200 -999.0000 -999.0000   40.9070    3.0000 
 285.5976   17.8250  275.3230 -999.0000 -999.0000   44.8470    3.0000 
 285.9024   16.0050  272.9870 -999.0000 -999.0000   51.6670    3.0000 
