~VERSION INFORMATION
 VERS.                 2.0:   CWLS LOG ASCII STANDARD - VERSION 2.0
 WRAP.                  NO:   SINGLE LINE PER DEPTH STEP
 CREA.                 05/01/2018 17:03:03
#CREATED USING DSPetro VERSION 5000.10.1.3 BY H191660 ON 05/01/2018 17:03:03
~WELL INFORMATION
#MNEM.UNIT       DATA                          DESCRIPTION MNEMONIC
#---------      ---------------------------   --------------------------
 STRT    .M         45.1104                   : START DEPTH
 STOP    .M         2469.4896                 : STOP DEPTH
 STEP    .M         0.3048                    : STEP VALUE
 NULL    .      -999.0000                     : NULL VALUE
 DATE    .      05/01/2018                    : LAS file Creation Date
 WELL .      JOHNSON_2_1                 : Well Name
 COMP .      Neftex Exploration Insights : Company
 FLD  .                                  : Field
 UWI  .      DUSWL_JO_2_1                : Unique Well Identifier (UWI)
 LOC  .                                  : Location
 RWS  .      -999                        : Def_Rw
 WST  .      -999                        : Def_Rwt
 SRVC .                                  : Contractor
~CURVE INFORMATION
#MNEM              UNIT       API CODE   Curve Type Comments
#----------  --------------- ----------  ---------- -----------
 DEPTH      .M                         : Depth       
 CAL_INCH   .inch                      :             Caliper Log - A representation of the measured diameter of a borehole along its depth
 GR_API     .API                       : GammaRay    Gamma Ray (API) - Measures the intensity of natural gamma-ray radiation emitted from formations containing radioactive elements, such as K, Th and U
 RHOZ_G_CC  .g/cc                      :             Formation Density - Measures the density of formation, including any void space or other materials contained in the subject volume
 NPHI_v_v   .dec                       : Neutron     
 PEF_B_E    .b/e-                      : PEF         Photoelectric Factor - A log of photoelectric absorption properties. Often expressed in an approximation unit barns/electron (b/e-)
 LITH       .                          :             
~A  DEPTH  CAL_INCH   GR_API  RHOZ_G_C~  NPHI_v_v  PEF_B_E     LITH   
# ...
 389.5344   12.8870    8.1730 -999.0000 -999.0000   -1.5960    3.0000 
 389.8392   12.8790    7.7530 -999.0000 -999.0000   -1.4160    3.0000 
 390.1440   12.8310    8.0520 -999.0000 -999.0000   -1.2120    3.0000 
 390.4488   12.7950   10.8050 -999.0000 -999.0000   -0.6370    3.0000 
 390.7536   12.7910   17.0900 -999.0000 -999.0000    0.1530    3.0000 
 391.0584   12.7670   14.2750 -999.0000 -999.0000    1.1000    3.0000 
 391.3632   12.7670   14.2740 -999.0000 -999.0000    0.1780    3.0000 
 391.6680   12.7710   20.2010 -999.0000 -999.0000    4.2490    3.0000 
 391.9728   12.7830   26.6060 -999.0000 -999.0000    6.1780    3.0000 
 392.2776   12.8950   38.5200 -999.0000 -999.0000    1.5200    3.0000 
 392.5824   12.9270   63.2460 -999.0000 -999.0000    0.6460    3.0000 
 392.8872   12.9540   93.5400 -999.0000 -999.0000    9.1840    3.0000 
 393.1920   13.0540   86.1750 -999.0000 -999.0000   22.9910    3.0000 
 393.4968   13.0740   73.6610 -999.0000 -999.0000   16.9200    3.0000 
 393.8016   13.0940   89.0470 -999.0000 -999.0000   19.1350    3.0000 
 394.1064   13.0500   60.0080 -999.0000 -999.0000   24.3210    3.0000 
 394.4112   13.0020   30.5490 -999.0000 -999.0000   10.8250    3.0000 
 394.7160   12.9700   27.6150 -999.0000 -999.0000    1.4730    3.0000 
 395.0208   12.9580   40.9650 -999.0000 -999.0000    6.5990    3.0000 
 395.3256   12.9860   37.6110 -999.0000 -999.0000   10.2750    3.0000 
 395.6304   12.9860   39.5260 -999.0000 -999.0000    4.4910    3.0000 
 395.9352   13.1050   64.8510 -999.0000 -999.0000    9.3650    3.0000 
 396.2400   13.2050   51.0200 -999.0000 -999.0000   16.3710    3.0000 
 396.5448   13.0380   20.4840 -999.0000 -999.0000    2.5160    3.0000 
 396.8496   12.9780   18.3280 -999.0000 -999.0000   -0.7890    3.0000 
 397.1544   12.9660   39.4020 -999.0000 -999.0000    0.6850    3.0000 
 397.4592   13.0130   56.5840 -999.0000 -999.0000    7.7980    3.0000 
 397.7640   13.0650   55.6850 -999.0000 -999.0000   10.2650    3.0000 
 398.0688   13.1490   74.3640 -999.0000 -999.0000    9.8460    3.0000 
 398.3736   13.4040  107.5320 -999.0000 -999.0000   23.2460    3.0000 
 398.6784   13.5640   98.6100 -999.0000 -999.0000   29.3650    3.0000 
 398.9832   13.4800   68.6740 -999.0000 -999.0000   23.6050    3.0000 
 399.2880   13.2640   50.5310 -999.0000 -999.0000   14.2170    3.0000 
 399.5928   13.2400   57.4750 -999.0000 -999.0000    7.6790    3.0000 
 399.8976   13.5720   85.3150 -999.0000 -999.0000   17.2470    3.0000 
 400.2024   14.1140  111.2980 -999.0000 -999.0000   34.9100    3.0000 
 400.5072   14.0110  118.1230 -999.0000 -999.0000   36.0600    3.0000 
 400.8120   13.7190  108.8420 -999.0000 -999.0000   29.1630    3.0000 
 401.1168   13.5990  103.8710 -999.0000 -999.0000   27.2350    3.0000 
 401.4216   13.5110   98.4820 -999.0000 -999.0000   23.5470    3.0000 
 401.7264   13.4400   95.4270 -999.0000 -999.0000   21.6670    3.0000 
 402.0312   13.4040   89.3190 -999.0000 -999.0000   27.8100    3.0000 
 402.3360   13.3120   58.1250 -999.0000 -999.0000   23.6550    3.0000 
 402.6408   13.3120   61.2970 -999.0000 -999.0000    5.3820    3.0000 
 402.9456   13.4710   72.0130 -999.0000 -999.0000   18.0870    3.0000 
 403.2504   13.3390   41.2980 -999.0000 -999.0000   18.4710    3.0000 
 403.5552   13.2600   34.6510 -999.0000 -999.0000    5.3830    3.0000 
 403.8600   13.3870   60.3350 -999.0000 -999.0000    6.6760    3.0000 
 404.1648   13.4910   74.9430 -999.0000 -999.0000   14.2920    3.0000 
 404.4696   13.4950   94.2210 -999.0000 -999.0000   15.4420    3.0000 
 404.7744   13.7340  111.5830 -999.0000 -999.0000   26.1360    3.0000 
 405.0792   13.8660  114.2760 -999.0000 -999.0000   32.2310    3.0000 
 405.3840   13.8900  106.5510 -999.0000 -999.0000   28.0640    3.0000 
 405.6888   13.8660   76.6740 -999.0000 -999.0000   27.5490    3.0000 
 405.9936   13.6020   50.3890 -999.0000 -999.0000   16.4370    3.0000 
 406.2984   13.3230   46.9760 -999.0000 -999.0000   10.5100    3.0000 
 406.6032   13.2710   31.4680 -999.0000 -999.0000    6.2590    3.0000 
 406.9080   13.2630   22.7850 -999.0000 -999.0000   -0.2190    3.0000 
 407.2128   13.2750   23.5030 -999.0000 -999.0000   -0.3150    3.0000 
 407.5176   13.2070   13.2640 -999.0000 -999.0000   -0.7940    3.0000 
 407.8224   13.1510   22.2430 -999.0000 -999.0000   -1.0330    3.0000 
 408.1272   13.1030   58.6450 -999.0000 -999.0000    2.2840    3.0000 
 408.4320   13.0710   67.9240 -999.0000 -999.0000   14.5940    3.0000 
 408.7368   13.0750   46.3690 -999.0000 -999.0000   14.5470    3.0000 
 409.0416   13.0670   41.8780 -999.0000 -999.0000    6.3440    3.0000 
 409.3464   13.0670   44.4510 -999.0000 -999.0000    7.1230    3.0000 
 409.6512   13.0670   33.9130 -999.0000 -999.0000    5.2550    3.0000 
 409.9560   13.0630   26.2480 -999.0000 -999.0000    1.7230    3.0000 
 410.2608   13.0620   25.4690 -999.0000 -999.0000    2.5850    3.0000 
 410.5656   13.0700   20.4390 -999.0000 -999.0000    1.1840    3.0000 
 410.8704   13.0620   17.0250 -999.0000 -999.0000   -0.4560    3.0000 
 411.1752   13.0620   36.1830 -999.0000 -999.0000    0.9690    3.0000 
 411.4800   13.0980   65.7590 -999.0000 -999.0000    8.2260    3.0000 
 411.7848   13.1540   76.2950 -999.0000 -999.0000   20.7990    3.0000 
 412.0896   13.1060   45.2800 -999.0000 -999.0000   15.8540    3.0000 
 412.3944   13.0780   24.2640 -999.0000 -999.0000    2.2270    3.0000 
 412.6992   13.1100   41.4470 -999.0000 -999.0000    0.7190    3.0000 
 413.0040   13.1740   71.8610 -999.0000 -999.0000   10.5020    3.0000 
 413.3088   13.1940   84.7920 -999.0000 -999.0000   16.1540    3.0000 
 413.6136   13.2210  102.0940 -999.0000 -999.0000   21.3760    3.0000 
 413.9184   13.2890  108.3800 -999.0000 -999.0000   28.7400    3.0000 
 414.2232   13.1770   90.2970 -999.0000 -999.0000   31.1230    3.0000 
 414.5280   13.1010   79.5190 -999.0000 -999.0000   26.9680    3.0000 
 414.8328   13.0690   83.5890 -999.0000 -999.0000   21.4240    3.0000 
 415.1376   13.0610   81.6730 -999.0000 -999.0000   21.6400    3.0000 
 415.4424   13.0610   91.7900 -999.0000 -999.0000   18.8140    3.0000 
 415.7472   13.2130  113.4630 -999.0000 -999.0000   24.6220    3.0000 
 416.0520   14.1310  124.2990 -999.0000 -999.0000   29.8190    3.0000 
 416.3568   13.6600  132.0810 -999.0000 -999.0000   30.0230    3.0000 
 416.6616   13.4240  133.5770 -999.0000 -999.0000   28.6940    3.0000 
 416.9664   13.4400  121.9010 -999.0000 -999.0000   27.0420    3.0000 
 417.2712   13.3480   76.5770 -999.0000 -999.0000   24.6110    3.0000 
 417.5760   13.1850   46.4000 -999.0000 -999.0000   12.9120    3.0000 
 417.8808   13.0930   49.5720 -999.0000 -999.0000    7.1040    3.0000 
 418.1856   13.1290   78.5490 -999.0000 -999.0000   20.1810    3.0000 
 418.4904   13.2240   94.8340 -999.0000 -999.0000   25.0430    3.0000 
 418.7952   13.3040   97.4670 -999.0000 -999.0000   23.8580    3.0000 
 419.1000   13.4160   99.2030 -999.0000 -999.0000   21.5350    3.0000 
 419.4048   13.5200  105.3690 -999.0000 -999.0000   23.7980    3.0000 
 419.7096   13.5630  105.9660 -999.0000 -999.0000   28.0250    3.0000 
 420.0144   13.5150   69.8620 -999.0000 -999.0000   32.3600    3.0000 
 420.3192   13.3360   46.5710 -999.0000 -999.0000   18.8530    3.0000 
 420.6240   13.2640   38.5470 -999.0000 -999.0000    6.3880    3.0000 
 420.9288   13.3520   37.9470 -999.0000 -999.0000    1.4900    3.0000 
 421.2336   13.3710   46.4480 -999.0000 -999.0000    2.8200    3.0000 
 421.5384   13.3590   46.4470 -999.0000 -999.0000    4.8910    3.0000 
 421.8432   13.3590   62.9110 -999.0000 -999.0000    7.1190    3.0000 
 422.1480   13.3230   83.7450 -999.0000 -999.0000   19.5850    3.0000 
 422.4528   13.2990   88.5340 -999.0000 -999.0000   20.8900    3.0000 
 422.7576   13.4070  119.8460 -999.0000 -999.0000   20.6510    3.0000 
 423.0624   13.4310  108.7690 -999.0000 -999.0000   29.7760    3.0000 
 423.3672   13.3470   69.8510 -999.0000 -999.0000   28.2790    3.0000 
 423.6720   13.2390   45.4220 -999.0000 -999.0000   15.5980    3.0000 
