~VERSION INFORMATION
 VERS.                 2.0:   CWLS LOG ASCII STANDARD - VERSION 2.0
 WRAP.                  NO:   SINGLE LINE PER DEPTH STEP
 CREA.                 05/01/2018 17:03:03
#CREATED USING DSPetro VERSION 5000.10.1.3 BY H191660 ON 05/01/2018 17:03:03
~WELL INFORMATION
#MNEM.UNIT       DATA                          DESCRIPTION MNEMONIC
#---------      ---------------------------   --------------------------
 STRT    .M         45.1104                   : START DEPTH
 STOP    .M         2469.4896                 : STOP DEPTH
 STEP    .M         0.3048                    : STEP VALUE
 NULL    .      -999.0000                     : NULL VALUE
 DATE    .      05/01/2018                    : LAS file Creation Date
 WELL .      JOHNSON_2_1                 : Well Name
 COMP .      Neftex Exploration Insights : Company
 FLD  .                                  : Field
 UWI  .      DUSWL_JO_2_1                : Unique Well Identifier (UWI)
 LOC  .                                  : Location
 RWS  .      -999                        : Def_Rw
 WST  .      -999                        : Def_Rwt
 SRVC .                                  : Contractor
~CURVE INFORMATION
#MNEM              UNIT       API CODE   Curve Type Comments
#----------  --------------- ----------  ---------- -----------
 DEPTH      .M                         : Depth       
 CAL_INCH   .inch                      :             Caliper Log - A representation of the measured diameter of a borehole along its depth
 GR_API     .API                       : GammaRay    Gamma Ray (API) - Measures the intensity of natural gamma-ray radiation emitted from formations containing radioactive elements, such as K, Th and U
 RHOZ_G_CC  .g/cc                      :             Formation Density - Measures the density of formation, including any void space or other materials contained in the subject volume
 NPHI_v_v   .dec                       : Neutron     
 PEF_B_E    .b/e-                      : PEF         Photoelectric Factor - A log of photoelectric absorption properties. Often expressed in an approximation unit barns/electron (b/e-)
 LITH       .                          :             
~A  DEPTH  CAL_INCH   GR_API  RHOZ_G_C~  NPHI_v_v  PEF_B_E     LITH   
# ...
2283.8664    8.5850   19.7990    2.0670   -0.0175    3.8760   16.0000 
2284.1712    8.5380   19.9930    2.0580   -0.0176    3.8630   16.0000 
2284.4760    8.5350   21.3830    2.0540   -0.0168    3.9970   16.0000 
2284.7808    8.5560   21.3980    2.0520   -0.0173    3.9440   16.0000 
2285.0856    8.6010   21.5340    2.0450   -0.0175    3.9280   16.0000 
2285.3904    8.5980   20.6520    2.0490   -0.0174    4.0210   16.0000 
2285.6952    8.5950   22.5220    2.0440   -0.0177    4.0790   16.0000 
2286.0000    8.5840   23.3100    2.0420   -0.0179    4.3590   16.0000 
2286.3048    8.6410   19.7950    2.0440   -0.0180    4.2060   16.0000 
2286.6096    8.6860   21.3080    2.0440   -0.0175    4.0820   16.0000 
2286.9144    8.6350   20.5430    2.0420   -0.0175    4.1770   16.0000 
2287.2192    8.5920   21.2180    2.0390   -0.0173    4.1670   16.0000 
2287.5240    8.5890   23.8670    2.0500   -0.0173    4.2400   16.0000 
2287.8288    8.5900   21.9050    2.0530   -0.0175    4.2960   16.0000 
2288.1336    8.5910   23.4770    2.0540   -0.0172    4.2410   16.0000 
2288.4384    8.5400   24.0900    2.0820   -0.0155    4.3270   16.0000 
2288.7432    8.5290   23.5660    2.1000   -0.0154    4.3700   16.0000 
2289.0480    8.5180   22.5010    2.0750   -0.0158    4.1480   16.0000 
2289.3528    8.5230   21.3200    2.0760   -0.0172    4.0610   16.0000 
2289.6576    8.5280   21.9360    2.0690   -0.0172    4.3110   16.0000 
2289.9624    8.5330   21.0530    2.0590   -0.0171    4.3200   16.0000 
2290.2672    8.5660   21.5460    2.0610   -0.0170    4.2520   16.0000 
2290.5720    8.5710   23.3570    2.0830   -0.0167    4.0890   16.0000 
2290.8768    8.5680   23.7910    2.1440   -0.0142    4.3430   16.0000 
2291.1816    8.5210   23.5080    2.1420   -0.0140    4.3240   16.0000 
2291.4864    8.5500   22.4450    2.0730   -0.0152    4.0480   16.0000 
2291.7912    8.5710   20.8440    2.0660   -0.0166    4.1610   16.0000 
2292.0960    8.5680   21.0400    2.0790   -0.0166    4.3030   16.0000 
2292.4008    8.5770   22.4930    2.0920   -0.0166    4.2900   16.0000 
2292.7056    8.6220   23.9440    2.1020   -0.0153    4.2520   16.0000 
2293.0104    8.5830   22.8830    2.0810   -0.0157    4.3670   16.0000 
2293.3152    8.5600   23.1380    2.0930   -0.0156    4.3250   16.0000 
2293.6200    8.5610   23.9320    2.1220   -0.0145    4.0800   16.0000 
2293.9248    8.6380   23.5890    2.0960   -0.0153    4.0520   16.0000 
2294.2296    8.6710   22.4680    2.0690   -0.0172    4.2430   16.0000 
2294.5344    8.6640   20.0880    2.0760   -0.0167    4.2690   16.0000 
2294.8392    8.6570   20.1050    2.0810   -0.0168    4.1380   16.0000 
2295.1440    8.6580   18.3840    2.0710   -0.0167    4.0980   16.0000 
2295.4488    8.6680   17.6230    2.0510   -0.0172    4.0190   16.0000 
2295.7536    8.6610   20.8090    2.0400   -0.0169    3.7540   16.0000 
2296.0584    8.6980   23.2810    2.0640   -0.0175    3.8820   16.0000 
2296.3632    8.6790   21.8000    2.0680   -0.0181    4.2730   16.0000 
2296.6680    8.6760   21.7560    2.0580   -0.0181    4.2250   16.0000 
2296.9728    8.7210   23.2670    2.0490   -0.0179    4.1770   16.0000 
2297.2776    8.7500   22.4450    2.0430   -0.0178    4.3920   16.0000 
2297.5824    8.7510   24.5540    2.0520   -0.0179    4.3720   16.0000 
2297.8872    8.7480   23.3130    2.0560   -0.0178    4.4030   16.0000 
2298.1920    8.7410   20.2760    2.0550   -0.0179    4.2890   16.0000 
2298.4968    8.7420   21.1280    2.0520   -0.0176    4.1800   16.0000 
2298.8016    8.7270   22.1620    2.0510   -0.0171    4.2670   16.0000 
2299.1064    8.7160   21.3410    2.0600   -0.0169    4.3350   16.0000 
2299.4112    8.6730   22.1350    2.0590   -0.0166    4.2420   16.0000 
2299.7160    8.6740   22.4490    2.0680   -0.0167    4.2400   16.0000 
2300.0208    8.6710   22.4650    2.0710   -0.0170    4.2750   16.0000 
2300.3256    8.6800   22.3630    2.0710   -0.0171    4.1790   16.0000 
2300.6304    8.6930   21.7780    2.0670   -0.0181    4.2180   16.0000 
2300.9352    8.7660   21.1350    2.0640   -0.0182    4.1900   16.0000 
2301.2400    8.7110   20.0750    2.0630   -0.0182    4.1950   16.0000 
2301.5448    8.6650   22.3680    2.0600   -0.0176    4.2490   16.0000 
2301.8496    8.6660   23.6390    2.0670   -0.0173    4.3700   16.0000 
2302.1544    8.6630   24.4950    2.0920   -0.0162    4.3840   16.0000 
2302.4592    8.6400   22.4150    2.1100   -0.0162    4.1630   16.0000 
2302.7640    8.6410   22.1360    2.0710   -0.0174    4.1490   16.0000 
2303.0688    8.6060   23.0480    2.0590   -0.0182    4.2300   16.0000 
2303.3736    8.5950   24.2010    2.0630   -0.0180    4.1690   16.0000 
2303.6784    8.6320   26.8520    2.0580   -0.0180    4.0650   16.0000 
2303.9832    8.6530   23.3360    2.0500   -0.0184    4.2220   16.0000 
2304.2880    8.5750   21.4980    2.0570   -0.0183    4.1740   16.0000 
2304.5928    8.5440   21.0950    2.0510   -0.0179    4.1210   16.0000 
2304.8976    8.5050   21.8900    2.0560   -0.0172    3.9470   16.0000 
2305.2024    8.5100   23.6990    2.0680   -0.0170    3.9100   16.0000 
2305.5072    8.5190   23.3580    2.0720   -0.0171    4.1920   16.0000 
2305.8120    8.5360   23.3760    2.0610   -0.0175    4.2990   16.0000 
2306.1168    8.5290   23.9300    2.0530   -0.0179    4.2090   16.0000 
2306.4216    8.5540   23.1090    2.0500   -0.0182    4.0560   16.0000 
2306.7264    8.5910   22.1630    2.0510   -0.0183    4.2020   16.0000 
2307.0312    8.5650   22.0600    2.0410   -0.0171    4.1650   16.0000 
2307.3360    8.4180   22.0770    2.0390   -0.0155    4.1460   16.0000 
2307.6408    8.4310   23.7710    2.0410   -0.0161    4.2020   16.0000 
2307.9456    8.5240   24.0870    2.0430   -0.0174    4.2410   16.0000 
2308.2504    8.5930   22.0070    2.0410   -0.0178    4.1970   16.0000 
2308.5552    8.6020   20.8880    2.0560   -0.0176    4.0820   16.0000 
2308.8600    8.5990   23.7780    2.0640   -0.0175    4.1760   16.0000 
2309.1648    8.5920   22.2380    2.0760   -0.0173    4.2230   16.0000 
2309.4696    8.5890   19.8010    2.0710   -0.0165    4.1270   16.0000 
2309.7744    8.5780   22.3910    2.0630   -0.0165    4.1100   16.0000 
2310.0792    8.5880   24.5640    2.0610   -0.0167    4.1960   16.0000 
2310.3840    8.7480   27.3930    2.0880   -0.0171    4.1770   16.0000 
2310.6888    8.8770   25.3150    2.0820   -0.0177    4.2450   16.0000 
2310.9936    8.9740   23.8360    2.0590   -0.0176    4.4140   16.0000 
2311.2984    8.9680   26.4880    2.0370   -0.0177    4.2170   16.0000 
2311.6032    8.9130   26.7430    2.0420   -0.0178    4.1390   16.0000 
2311.9080    8.8420   26.3440    2.0500   -0.0175    4.2280   16.0000 
2312.2128    8.7470   25.1010    2.0600   -0.0173    4.2560   16.0000 
2312.5176    8.6650   24.1610    2.0730   -0.0165    4.0450   16.0000 
2312.8224    8.6580   24.8970    2.0940   -0.0165    4.1570   16.0000 
2313.1272    8.6630   24.0760    2.0740   -0.0169    4.2440   16.0000 
2313.4320    8.6720   24.6300    2.0620   -0.0173    4.0390   16.0000 
2313.7368    8.6890   24.9480    2.0680   -0.0173    4.0850   16.0000 
2314.0416    8.6900   22.9300    2.0760   -0.0175    4.1620   16.0000 
2314.3464    8.6800   21.5110    2.0580   -0.0174    4.1360   16.0000 
2314.6512    8.5930   22.4860    2.0320   -0.0173    4.0230   16.0000 
2314.9560    8.6460   27.8950    2.0410   -0.0170    3.7580   16.0000 
2315.2608    8.6750   26.5310    2.0580   -0.0164    4.0960   16.0000 
2315.5656    8.6440   23.1380    2.0910   -0.0162    4.3660   16.0000 
2315.8704    8.5970   25.1270    2.1050   -0.0164    4.2410   16.0000 
2316.1752    8.5580   25.1430    2.0850   -0.0165    4.3120   16.0000 
2316.4800    8.5640   23.6040    2.0800   -0.0173    4.2740   16.0000 
2316.7848    8.5170   23.6230    2.0710   -0.0173    3.9310   16.0000 
2317.0896    8.5540   21.5450    2.0620   -0.0178    3.9530   16.0000 
2317.3944    8.5470   20.7840    2.0560   -0.0173    4.1480   16.0000 
2317.6992    8.5760   21.8770    2.0560   -0.0163    4.0740   16.0000 
2318.0040    8.5410   22.7940    2.0620   -0.0163    3.9310   16.0000 
