~VERSION INFORMATION
 VERS.                 2.0:   CWLS LOG ASCII STANDARD - VERSION 2.0
 WRAP.                  NO:   SINGLE LINE PER DEPTH STEP
 CREA.                 05/01/2018 17:03:03
#CREATED USING DSPetro VERSION 5000.10.1.3 BY H191660 ON 05/01/2018 17:03:03
~WELL INFORMATION
#MNEM.UNIT       DATA                          DESCRIPTION MNEMONIC
#---------      ---------------------------   --------------------------
 STRT    .M         45.1104                   : START DEPTH
 STOP    .M         2469.4896                 : STOP DEPTH
 STEP    .M         0.3048                    : STEP VALUE
 NULL    .      -999.0000                     : NULL VALUE
 DATE    .      05/01/2018                    : LAS file Creation Date
 WELL .      JOHNSON_2_1                 : Well Name
 COMP .      Neftex Exploration Insights : Company
 FLD  .                                  : Field
 UWI  .      DUSWL_JO_2_1                : Unique Well Identifier (UWI)
 LOC  .                                  : Location
 RWS  .      -999                        : Def_Rw
 WST  .      -999                        : Def_Rwt
 SRVC .                                  : Contractor
~CURVE INFORMATION
#MNEM              UNIT       API CODE   Curve Type Comments
#----------  --------------- ----------  ---------- -----------
 DEPTH      .M                         : Depth       
 CAL_INCH   .inch                      :             Caliper Log - A representation of the measured diameter of a borehole along its depth
 GR_API     .API                       : GammaRay    Gamma Ray (API) - Measures the intensity of natural gamma-ray radiation emitted from formations containing radioactive elements, such as K, Th and U
 RHOZ_G_CC  .g/cc                      :             Formation Density - Measures the density of formation, including any void space or other materials contained in the subject volume
 NPHI_v_v   .dec                       : Neutron     
 PEF_B_E    .b/e-                      : PEF         Photoelectric Factor - A log of photoelectric absorption properties. Often expressed in an approximation unit barns/electron (b/e-)
 LITH       .                          :             
~A  DEPTH  CAL_INCH   GR_API  RHOZ_G_C~  NPHI_v_v  PEF_B_E     LITH   
# ...
 975.0552   12.5950  299.8630 -999.0000 -999.0000   29.2740    3.0000 
 975.3600   12.5690  328.2080 -999.0000 -999.0000   30.0340    3.0000 
 975.6648   12.5790  258.3290 -999.0000 -999.0000   27.0690    3.0000 
 975.9696   12.5780  258.0100 -999.0000 -999.0000   27.7090    3.0000 
 976.2744   12.6160  279.4100 -999.0000 -999.0000   27.0430    3.0000 
 976.5792   12.6220  289.3100 -999.0000 -999.0000   27.7800    3.0000 
 976.8840   12.5880  289.1670 -999.0000 -999.0000   30.1800    3.0000 
 977.1888   12.6150  298.6540 -999.0000 -999.0000   28.9400    3.0000 
 977.4936   12.5890  317.2050 -999.0000 -999.0000   29.9760    3.0000 
 977.7984   12.5950  300.1810 -999.0000 -999.0000   30.4840    3.0000 
 978.1032   12.5980  299.4180 -999.0000 -999.0000   28.3220    3.0000 
 978.4080   12.6120  313.8970 -999.0000 -999.0000   26.9970    3.0000 
 978.7128   12.5940  285.6070 -999.0000 -999.0000   27.7220    3.0000 
 979.0176   12.6160  288.0870 -999.0000 -999.0000   28.4820    3.0000 
 979.3224   12.5910  297.0940 -999.0000 -999.0000   30.5570    3.0000 
 979.6272   12.6010  347.1880 -999.0000 -999.0000   29.8320    3.0000 
 979.9320   12.5800  335.0140 -999.0000 -999.0000   30.1130    3.0000 
 980.2368   12.5820  256.8610 -999.0000 -999.0000   29.1600    3.0000 
 980.5416   12.6000  219.0870 -999.0000 -999.0000   20.4100    3.0000 
 980.8464   12.6260  277.7090 -999.0000 -999.0000   19.5180    3.0000 
 981.1512   12.5930  293.2990 -999.0000 -999.0000   27.9300    3.0000 
 981.4560   12.5910  289.9810 -999.0000 -999.0000   28.1860    3.0000 
 981.7608   12.6010  288.4010 -999.0000 -999.0000   28.9460    3.0000 
 982.0656   12.7150  299.3260 -999.0000 -999.0000   29.3220    3.0000 
 982.3704   12.7020  312.3690 -999.0000 -999.0000   27.9010    3.0000 
 982.6752   12.6440  314.0180 -999.0000 -999.0000   26.1940    3.0000 
 982.9800   12.5870  316.6850 -999.0000 -999.0000   27.5760    3.0000 
 983.2848   12.5850  270.9190 -999.0000 -999.0000   28.9230    3.0000 
 983.5896   12.6110  257.4900 -999.0000 -999.0000   27.1310    3.0000 
 983.8944   12.5980  279.0180 -999.0000 -999.0000   27.9040    3.0000 
 984.1992   12.6000  282.0370 -999.0000 -999.0000   26.5420    3.0000 
 984.5040   12.6020  266.6290 -999.0000 -999.0000   26.4870    3.0000 
 984.8088   12.6170  221.9020 -999.0000 -999.0000   27.0440    3.0000 
 985.1136   12.6000  203.2020 -999.0000 -999.0000   28.7740    3.0000 
 985.4184   12.6060  181.9890 -999.0000 -999.0000   28.1690    3.0000 
 985.7232   12.5600  230.2030 -999.0000 -999.0000   27.0240    3.0000 
 986.0280   12.5780  295.7760 -999.0000 -999.0000   28.8250    3.0000 
 986.3328   12.5920  326.1020 -999.0000 -999.0000   27.8370    3.0000 
 986.6376   12.5980  323.5630 -999.0000 -999.0000   26.5730    3.0000 
 986.9424   12.5800  266.4820 -999.0000 -999.0000   26.2910    3.0000 
 987.2472   12.6110  197.3900 -999.0000 -999.0000   29.1110    3.0000 
 987.5520   12.6410  153.9730 -999.0000 -999.0000   30.4940    3.0000 
 987.8568   12.6830  132.2040 -999.0000 -999.0000   26.8100    3.0000 
 988.1616   12.7490  112.1270 -999.0000 -999.0000   20.8980    3.0000 
 988.4664   12.8230   87.4500 -999.0000 -999.0000   14.4950    3.0000 
 988.7712   12.8060   94.3020 -999.0000 -999.0000   15.4350    3.0000 
 989.0760   12.8080  119.4160 -999.0000 -999.0000   21.6080    3.0000 
 989.3808   12.7950  126.8700 -999.0000 -999.0000   25.0260    3.0000 
 989.6856   12.7970  116.6170 -999.0000 -999.0000   25.6550    3.0000 
 989.9904   12.8030  111.6800 -999.0000 -999.0000   25.0130    3.0000 
 990.2952   12.8090  107.8210 -999.0000 -999.0000   22.2150    3.0000 
 990.6000   12.8390  106.5350 -999.0000 -999.0000   18.3880    3.0000 
 990.9048   12.9020  116.0890 -999.0000 -999.0000   18.9200    3.0000 
 991.2096   12.8920  120.1410 -999.0000 -999.0000   21.6070    3.0000 
 991.5144   12.9140  119.8190 -999.0000 -999.0000   26.6310    3.0000 
 991.8192   12.8490  125.4240 -999.0000 -999.0000   23.1270    3.0000 
 992.1240   12.7840  145.3780 -999.0000 -999.0000   23.2750    3.0000 
 992.4288   12.7980  165.1310 -999.0000 -999.0000   25.6520    3.0000 
 992.7336   12.8160  170.4280 -999.0000 -999.0000   25.9910    3.0000 
 993.0384   12.8140  183.0880 -999.0000 -999.0000   26.1660    3.0000 
 993.3432   12.8210  190.4820 -999.0000 -999.0000   28.1100    3.0000 
 993.6480   12.7870  170.7120 -999.0000 -999.0000   27.8390    3.0000 
 993.9528   12.8090  123.2040 -999.0000 -999.0000   24.1080    3.0000 
 994.2576   12.8110  101.6960 -999.0000 -999.0000   16.3880    3.0000 
 994.5624   12.8020  110.4690 -999.0000 -999.0000   18.8830    3.0000 
 994.8672   12.8080  123.7910 -999.0000 -999.0000   21.6920    3.0000 
 995.1720   12.8390  140.0980 -999.0000 -999.0000   21.4700    3.0000 
 995.4768   12.7930  165.8300 -999.0000 -999.0000   27.8600    3.0000 
 995.7816   12.8110  163.1130 -999.0000 -999.0000   32.0070    3.0000 
 996.0864   12.7860  152.6720 -999.0000 -999.0000   27.4860    3.0000 
 996.3912   12.8240  125.6340 -999.0000 -999.0000   21.8740    3.0000 
 996.6960   12.8020  118.4780 -999.0000 -999.0000   20.2880    3.0000 
 997.0008   12.7570  118.2170 -999.0000 -999.0000   18.8310    3.0000 
 997.3056   12.7420  128.0080 -999.0000 -999.0000   19.1960    3.0000 
 997.6104   12.6930  180.0120 -999.0000 -999.0000   20.8540    3.0000 
 997.9152   12.6550  248.8100 -999.0000 -999.0000   24.2250    3.0000 
 998.2200   12.6260  338.9390 -999.0000 -999.0000   26.3980    3.0000 
 998.5248   12.5440  401.8110 -999.0000 -999.0000   28.5820    3.0000 
 998.8296   12.5070  309.5030 -999.0000 -999.0000   27.1740    3.0000 
 999.1344   12.4970   80.3380 -999.0000 -999.0000   12.8900    3.0000 
 999.4392   12.5390  299.5560 -999.0000 -999.0000   10.5720    3.0000 
 999.7440   12.5220  446.0600 -999.0000 -999.0000   24.3150    3.0000 
1000.0488   12.4720  401.5080 -999.0000 -999.0000   33.2300    3.0000 
1000.3536   12.5780  258.8460 -999.0000 -999.0000   23.3300    3.0000 
1000.6584   12.6920  146.0450 -999.0000 -999.0000   11.6110    3.0000 
1000.9632   12.7740  373.2440 -999.0000 -999.0000   21.4240    3.0000 
1001.2680   12.8250  335.5760 -999.0000 -999.0000   25.5600    3.0000 
1001.5728   12.7470  327.5290    2.7940 -999.0000   26.4270    3.0000 
1001.8776   12.6530  366.1650    2.7030 -999.0000   30.6730    3.0000 
1002.1824   12.5320  372.8440    2.5730 -999.0000   29.8870    3.0000 
1002.4872   12.5260  316.4400    2.9390 -999.0000   24.6830    3.0000 
1002.7920   12.5370  270.9710    3.1680 -999.0000   22.5690    3.0000 
1003.0968   12.5670  266.9340    3.1710 -999.0000   24.2860    3.0000 
1003.4016   12.5290  298.2680    3.0340 -999.0000   25.0580    3.0000 
1003.7064   12.5160  304.6070    3.0120 -999.0000   27.0150    3.0000 
1004.0112   12.5700  268.2960    3.5530 -999.0000   29.5590    3.0000 
1004.3160   12.5960  263.7200    3.0040    0.0249   25.0370    3.0000 
1004.6208   12.6020  305.0120    2.7770    0.0250   22.4690    3.0000 
1004.9256   12.6040  258.0480    3.0920    0.0253   21.3120    3.0000 
1005.2304   12.6230  187.2200    3.6290    0.0259   19.4120    3.0000 
1005.5352   12.6810  150.5110    2.8620    0.0261   15.4290    3.0000 
1005.8400   12.6670  158.0170    2.6220    0.0256   16.7530    3.0000 
1006.1448   12.6940  198.1540    2.7190    0.0251   22.2430    3.0000 
1006.4496   12.7040  224.5830    3.0750    0.0247   27.1440    3.0000 
1006.7544   12.6900  218.5100    3.0540    0.0249   29.6770    3.0000 
1007.0592   12.6880  161.5090    3.1010    0.0253   24.8080    3.0000 
1007.3640   12.7110  102.4550    3.1860    0.0259   18.2400    3.0000 
1007.6688   12.7330  110.9890    2.8680    0.0261   14.9160    3.0000 
1007.9736   12.7790  124.9670    2.8770    0.0259   22.2020    3.0000 
1008.2784   12.7770  138.1690    2.9120    0.0258   24.4230    3.0000 
1008.5832   12.8030  145.2530    3.0350    0.0257   24.7870    3.0000 
1008.8880   12.8130  170.5760    3.1400    0.0255   24.7320    3.0000 
1009.1928   12.8080  182.5200    3.1010    0.0254   23.5160    3.0000 
