~VERSION INFORMATION
 VERS.                 2.0:   CWLS LOG ASCII STANDARD - VERSION 2.0
 WRAP.                  NO:   SINGLE LINE PER DEPTH STEP
 CREA.                 13/12/2017 11:17:09
#CREATED USING DSPetro VERSION 5000.10.1.3 BY H191660 ON 13/12/2017 11:17:09
~WELL INFORMATION
#MNEM.UNIT       DATA                          DESCRIPTION MNEMONIC
#---------      ---------------------------   --------------------------
 STRT    .FT        0.0000                    : START DEPTH
 STOP    .FT        11486.0000                : STOP DEPTH
 STEP    .FT        0.5000                    : STEP VALUE
 NULL    .      -999.0000                     : NULL VALUE
 DATE    .      13/12/2017                    : LAS file Creation Date
 WELL  .      NESTE_BEVERS_4221935327    : Well Name
 COMP  .      Union Texas petroleum Corp : Company
 FLD   .      WILDCAT                    : Field
 COUNT .      HOCKLEY                    : Country
 UWI   .      DUSWL_935327               : Unique Well Identifier (UWI)
 LOC   .                                 : Location
 PDAT  .      Ground Level               : Permanent Datum
 EPDAT .      3406.0                     : Reference Elevation
 LGMEA .      Kelly Bushing              : Log Measured from
 DRMEA .      Kelly Bushing              : Drill Measured From
 APDAT .      3423                       : Elevation Above Permanent Datum
 KB    .      3423                       : KB Elevation
 DF    .      3422                       : DF Elevation
 GL    .      3406                       : GL Elevation
 RWS   .      0                          : Def_Rw
 WST   .      0                          : Def_Rwt
 DATS  .      20/09/88                   : Spud Date
 MDEC  .      0                          : Magnetic Declination
 SRVC  .      SCH                        : Contractor
~CURVE INFORMATION
#MNEM              UNIT       API CODE   Curve Type Comments
#----------  --------------- ----------  ---------- -----------
 DEPTH      .FT                        : Depth       
 DEPTH_m  .                          :             
 BitSize    .in                        : BitSize     
 CAL_INCH   .inch                      :             Caliper Log - A representation of the measured diameter of a borehole along its depth
 SP_MV      .mv                        : SP          
 SP_Corr    .mv                        : SP          
 GR_API     .API                       : GammaRay    Gamma Ray (API) - Measures the intensity of natural gamma-ray radiation emitted from formations containing radioactive elements, such as K, Th and U
 RES_USL    .usl                       :             Unspecified Resistivity Log - No accroynm or method of attainment is specified - unscaled
 RHOB_G_CC  .g/cc                      :             Bulk Density - Measures the density of bulk material, including any void space or other materials contained in the subject volume
 DRHO_G_CC  .g/cc                      :             Density Correction - Investigates the correction to the Bulk Density log; used as an indication of hole condition to validate the Bulk Density measure
 NPHI_v_v   .ratio                     :             Neutron Porosity - Measured with an neutron logging device calibrated to a given matrix (limestone, sandstone and dolomite)
 PEF_B_E    .b/e-                      : PEF         Photoelectric Factor - A log of photoelectric absorption properties. Often expressed in an approximation unit barns/electron (b/e-)
 LITH       .                          : LITH        Lithology Curve
 LITH_v2    .                          : LITH        Lithology Curve
~A  DEPTH DEPTH_M  BitSize   CAL_INCH   SP_MV    SP_Corr    GR_API   RES_USL  RHOB_G_C~ DRHO_G_C~  NPHI_v_v  PEF_B_E     LITH    LITH_v2  
# ...
8065.5000 2458.3645    7.8750    9.1026  -77.5257   -7.5083   27.8829    0.8276    2.7000   -0.0133    0.0040    4.8886   18.0000   18.0000 
8066.0000 2458.5169    7.8750    9.1026  -77.6362   -7.5986   30.2394    0.8273    2.7026   -0.0139    0.0040    4.8482   18.0000   18.0000 
8066.5000 2458.6692    7.8750    9.1025  -77.8370   -7.7793   30.2395    0.8240    2.7077   -0.0139    0.0044    4.8280   18.0000   18.0000 
8067.0000 2458.8215    7.8750    9.1025  -77.9489   -7.8710   30.2395    0.8206    2.7117   -0.0139    0.0048    4.8281   18.0000   18.0000 
8067.5000 2458.9739    7.8750    9.1025  -77.9492   -7.8512   29.6241    0.8168    2.7138   -0.0139    0.0050    4.8282   18.0000   18.0000 
8068.0000 2459.1265    7.8750    9.1024  -77.9496   -7.8313   29.1878    0.8142    2.7090   -0.0139    0.0052    4.8283   18.0000   18.0000 
8068.5000 2459.2788    7.8750    9.1024  -77.9499   -7.8115   26.8694    0.8111    2.7019   -0.0139    0.0048    4.8051   18.0000   18.0000 
8069.0000 2459.4312    7.8750    9.1023  -78.1600   -8.0014   25.4056    0.8066    2.7023   -0.0103    0.0044    4.7218   18.0000   18.0000 
8069.5000 2459.5835    7.8750    9.1023  -78.3496   -8.1708   26.4323    0.8053    2.7044   -0.0095    0.0044    4.6667   18.0000   18.0000 
8070.0000 2459.7361    7.8750    9.1023  -78.3499   -8.1510   28.3136    0.8029    2.7086   -0.0075    0.0044    4.6667   18.0000   18.0000 
8070.5000 2459.8884    7.8750    9.1022  -78.3503   -8.1312   28.6778    0.8005    2.7097   -0.0058    0.0042    4.8136   18.0000   18.0000 
8071.0000 2460.0408    7.8750    9.1022  -78.3507   -8.1115   29.0419    0.7982    2.7026   -0.0058    0.0040    4.9118   18.0000   18.0000 
8071.5000 2460.1931    7.8750    9.1022  -78.3511   -8.0916   29.1088    0.7963    2.6996   -0.0063    0.0040    4.9299   18.0000   18.0000 
8072.0000 2460.3457    7.8750    9.1021  -78.3514   -8.0718   29.1758    0.7944    2.7016   -0.0068    0.0040    4.9215   18.0000   18.0000 
8072.5000 2460.4981    7.8750    9.1021  -78.3518   -8.0520   29.4212    0.7924    2.7047   -0.0078    0.0040    4.8896   18.0000   18.0000 
8073.0000 2460.6504    7.8750    9.1021  -78.3521   -8.0322   29.6667    0.7907    2.7138   -0.0078    0.0040    4.8557   18.0000   18.0000 
8073.5000 2460.8027    7.8750    9.1020  -78.3525   -8.0124   30.6303    0.7889    2.7178   -0.0078    0.0040    4.6134   18.0000   18.0000 
8074.0000 2460.9551    7.8750    9.1020  -78.1293   -7.7690   31.2695    0.7867    2.7127   -0.0068    0.0040    4.3856   18.0000   18.0000 
8074.5000 2461.1077    7.8750    9.1019  -77.9542   -7.5738   30.4900    0.7866    2.7077   -0.0068    0.0042    4.2629   18.0000   18.0000 
8075.0000 2461.2600    7.8750    9.1019  -77.9546   -7.5540   29.3861    0.7866    2.7059   -0.0068    0.0044    4.4304   18.0000   18.0000 
8075.5000 2461.4124    7.8750    9.1019  -77.9550   -7.5342   31.3735    0.7865    2.7077   -0.0068    0.0048    4.7599   18.0000   18.0000 
8076.0000 2461.5647    7.8750    9.1018  -77.9553   -7.5143   33.3610    0.7865    2.7054   -0.0068    0.0052    4.8497   18.0000   18.0000 
8076.5000 2461.7173    7.8750    9.1018  -77.9557   -7.4945   33.8960    0.7865    2.7017   -0.0068    0.0052    4.8441   18.0000   18.0000 
8077.0000 2461.8696    7.8750    9.1018  -77.9560   -7.4747   34.4310    0.7865    2.6982   -0.0059    0.0052    4.7930   18.0000   18.0000 
8077.5000 2462.0220    7.8750    9.1017  -77.9565   -7.4550   32.1604    0.7865    2.6946   -0.0076    0.0052    4.7348   18.0000   18.0000 
8078.0000 2462.1743    7.8750    9.1017  -77.9568   -7.4351   29.8896    0.7866    2.6940   -0.0100    0.0052    4.6500   18.0000   18.0000 
8078.5000 2462.3269    7.8750    9.1016  -77.9571   -7.4153   28.8669    0.7866    2.6926   -0.0118    0.0048    4.5903   18.0000   18.0000 
8079.0000 2462.4793    7.8750    9.1016  -77.9052   -7.3431   28.0324    0.7867    2.6928   -0.0118    0.0043    4.4936   18.0000   18.0000 
8079.5000 2462.6316    7.8750    9.1016  -77.6836   -7.1014   29.2146    0.7868    2.6946   -0.0118    0.0042    4.4044   18.0000   18.0000 
8080.0000 2462.7839    7.8750    9.1015  -77.4908   -6.8884   30.5848    0.7868    2.6956   -0.0118    0.0040    4.3030   18.0000   18.0000 
8080.5000 2462.9363    7.8750    9.1268  -77.2730   -6.6505   33.0993    0.7868    2.6938   -0.0111    0.0037    4.5566   18.0000   18.0000 
8081.0000 2463.0889    7.8750    9.1342  -77.1607   -6.5180   34.1316    0.7867    2.6928   -0.0102    0.0036    4.7069   18.0000   18.0000 
8081.5000 2463.2412    7.8750    9.1437  -77.1611   -6.4982   32.2447    0.7866    2.6924   -0.0072    0.0034    4.9769   18.0000   18.0000 
8082.0000 2463.3936    7.8750    9.1643  -77.1614   -6.4784   30.3576    0.7865    2.6916   -0.0077    0.0032    5.1996   18.0000   18.0000 
8082.5000 2463.5459    7.8750    9.1892  -77.1618   -6.4586   29.6998    0.7865    2.6943   -0.0077    0.0031    5.3873   18.0000   18.0000 
8083.0000 2463.6985    7.8750    9.2012  -77.1621   -6.4387   29.0420    0.7865    2.6985   -0.0077    0.0031    5.3767   18.0000   18.0000 
8083.5000 2463.8508    7.8750    9.2187  -77.1625   -6.4189   31.4371    0.7865    2.6997   -0.0077    0.0031    5.3161   18.0000   18.0000 
8084.0000 2464.0032    7.8750    9.2253  -77.1628   -6.3990   33.7859    0.7865    2.7005   -0.0087    0.0031    5.3161   18.0000   18.0000 
8084.5000 2464.1555    7.8750    9.2611  -77.1632   -6.3792   30.0898    0.7865    2.6997   -0.0097    0.0031    5.3092   18.0000   18.0000 
8085.0000 2464.3081    7.8750    9.2226  -77.1635   -6.3594   26.3475    0.7865    2.7007   -0.0097    0.0031    5.2771   18.0000   18.0000 
8085.5000 2464.4605    7.8750    9.2210  -77.1639   -6.3396   27.6693    0.7865    2.7001   -0.0081    0.0026    5.1764   18.0000   18.0000 
8086.0000 2464.6128    7.8750    9.2210  -77.1642   -6.3197   28.4430    0.7865    2.6986   -0.0064    0.0023    5.0558   18.0000   18.0000 
8086.5000 2464.7651    7.8750    9.2210  -77.1645   -6.2999   27.0958    0.7865    2.6967   -0.0046    0.0017    4.9927   18.0000   18.0000 
8087.0000 2464.9175    7.8750    9.2130  -77.1649   -6.2801   25.7486    0.7865    2.7007   -0.0038    0.0011    4.8885   18.0000   18.0000 
8087.5000 2465.0701    7.8750    9.2009  -77.1575   -6.2525   26.1701    0.7863    2.7077   -0.0036    0.0005    4.7989   18.0000   18.0000 
8088.0000 2465.2224    7.8750    9.2009  -77.0623   -6.1372   26.5917    0.7858    2.7087   -0.0036   -0.0001    4.7377   18.0000   18.0000 
8088.5000 2465.3748    7.8750    9.2008  -76.8509   -5.9055   27.4450    0.7853    2.7036   -0.0055   -0.0007    4.6012   18.0000   18.0000 
8089.0000 2465.5271    7.8750    9.2008  -76.7671   -5.8017   28.2983    0.7848    2.7017   -0.0056   -0.0013    4.5888   18.0000   18.0000 
8089.5000 2465.6797    7.8750    9.2008  -76.7674   -5.7818   29.2231    0.7840    2.7017   -0.0066   -0.0019    4.7239   18.0000   18.0000 
8090.0000 2465.8320    7.8750    9.2007  -76.7677   -5.7619   30.1479    0.7832    2.7037   -0.0076   -0.0025    4.8247   18.0000   18.0000 
8090.5000 2465.9844    7.8750    9.2007  -76.7680   -5.7420   30.6949    0.7823    2.7084   -0.0076   -0.0032    4.7836   18.0000   18.0000 
8091.0000 2466.1367    7.8750    9.2007  -76.7684   -5.7222   31.1377    0.7816    2.7120   -0.0076   -0.0037    4.6711   18.0000   18.0000 
8091.5000 2466.2893    7.8750    9.2006  -76.7687   -5.7024   31.1377    0.7809    2.7138   -0.0076   -0.0039    4.5285   18.0000   18.0000 
8092.0000 2466.4417    7.8750    9.2006  -76.7690   -5.6825   31.4590    0.7799    2.7128   -0.0076   -0.0040    4.6569   18.0000   18.0000 
8092.5000 2466.5940    7.8750    9.2006  -76.7694   -5.6627   31.9786    0.7793    2.7128   -0.0076   -0.0039    4.7611   18.0000   18.0000 
8093.0000 2466.7463    7.8750    9.2005  -77.0462   -5.9194   32.8194    0.7784    2.7138   -0.0076   -0.0037    4.9015   18.0000   18.0000 
8093.5000 2466.8987    7.8750    9.2005  -77.3197   -6.1727   31.7656    0.7774    2.7115   -0.0076   -0.0031    5.0951   18.0000   18.0000 
