~VERSION INFORMATION
 VERS.                 2.0:   CWLS LOG ASCII STANDARD - VERSION 2.0
 WRAP.                  NO:   SINGLE LINE PER DEPTH STEP
 CREA.                 13/12/2017 11:17:09
#CREATED USING DSPetro VERSION 5000.10.1.3 BY H191660 ON 13/12/2017 11:17:09
~WELL INFORMATION
#MNEM.UNIT       DATA                          DESCRIPTION MNEMONIC
#---------      ---------------------------   --------------------------
 STRT    .FT        0.0000                    : START DEPTH
 STOP    .FT        11486.0000                : STOP DEPTH
 STEP    .FT        0.5000                    : STEP VALUE
 NULL    .      -999.0000                     : NULL VALUE
 DATE    .      13/12/2017                    : LAS file Creation Date
 WELL  .      NESTE_BEVERS_4221935327    : Well Name
 COMP  .      Union Texas petroleum Corp : Company
 FLD   .      WILDCAT                    : Field
 COUNT .      HOCKLEY                    : Country
 UWI   .      DUSWL_935327               : Unique Well Identifier (UWI)
 LOC   .                                 : Location
 PDAT  .      Ground Level               : Permanent Datum
 EPDAT .      3406.0                     : Reference Elevation
 LGMEA .      Kelly Bushing              : Log Measured from
 DRMEA .      Kelly Bushing              : Drill Measured From
 APDAT .      3423                       : Elevation Above Permanent Datum
 KB    .      3423                       : KB Elevation
 DF    .      3422                       : DF Elevation
 GL    .      3406                       : GL Elevation
 RWS   .      0                          : Def_Rw
 WST   .      0                          : Def_Rwt
 DATS  .      20/09/88                   : Spud Date
 MDEC  .      0                          : Magnetic Declination
 SRVC  .      SCH                        : Contractor
~CURVE INFORMATION
#MNEM              UNIT       API CODE   Curve Type Comments
#----------  --------------- ----------  ---------- -----------
 DEPTH      .FT                        : Depth       
 DEPTH_m  .                          :             
 BitSize    .in                        : BitSize     
 CAL_INCH   .inch                      :             Caliper Log - A representation of the measured diameter of a borehole along its depth
 SP_MV      .mv                        : SP          
 SP_Corr    .mv                        : SP          
 GR_API     .API                       : GammaRay    Gamma Ray (API) - Measures the intensity of natural gamma-ray radiation emitted from formations containing radioactive elements, such as K, Th and U
 RES_USL    .usl                       :             Unspecified Resistivity Log - No accroynm or method of attainment is specified - unscaled
 RHOB_G_CC  .g/cc                      :             Bulk Density - Measures the density of bulk material, including any void space or other materials contained in the subject volume
 DRHO_G_CC  .g/cc                      :             Density Correction - Investigates the correction to the Bulk Density log; used as an indication of hole condition to validate the Bulk Density measure
 NPHI_v_v   .ratio                     :             Neutron Porosity - Measured with an neutron logging device calibrated to a given matrix (limestone, sandstone and dolomite)
 PEF_B_E    .b/e-                      : PEF         Photoelectric Factor - A log of photoelectric absorption properties. Often expressed in an approximation unit barns/electron (b/e-)
 LITH       .                          : LITH        Lithology Curve
 LITH_v2    .                          : LITH        Lithology Curve
~A  DEPTH DEPTH_M  BitSize   CAL_INCH   SP_MV    SP_Corr    GR_API   RES_USL  RHOB_G_C~ DRHO_G_C~  NPHI_v_v  PEF_B_E     LITH    LITH_v2  
# ...
8407.5000 2562.6060    7.8750   10.0837  -98.0925  -21.2143   62.4231    0.0904    2.5345   -0.0154    0.1082    2.6936   36.0000   36.0000 
8408.0000 2562.7583    7.8750   10.0837  -98.0879  -21.2069   62.4945    0.0974    2.5338   -0.0145    0.1082    2.7140   36.0000   36.0000 
8408.5000 2562.9109    7.8750   10.0722  -98.0841  -21.2002   61.2283    0.1043    2.5304   -0.0145    0.1075    2.6725   36.0000   36.0000 
8409.0000 2563.0632    7.8750   10.0492  -98.0800  -21.1932   59.9622    0.1132    2.5312   -0.0166    0.1068    2.6129   36.0000   36.0000 
8409.5000 2563.2156    7.8750   10.0239  -98.0744  -21.1847   59.0230    0.1247    2.5369   -0.0185    0.1048    2.5928   36.0000   36.0000 
8410.0000 2563.3679    7.8750   10.0239  -98.0716  -21.1789   58.0839    0.1362    2.5412   -0.0185    0.1028    2.5929   36.0000   36.0000 
8410.5000 2563.5205    7.8750   10.0039  -98.0676  -21.1721   59.9823    0.1468    2.5446   -0.0185    0.1021    2.6132   36.0000   36.0000 
8411.0000 2563.6729    7.8750    9.9841  -98.0635  -21.1651   61.8808    0.1515    2.5436   -0.0185    0.1014    2.6380   36.0000   36.0000 
8411.5000 2563.8252    7.8750    9.9821  -98.0593  -21.1580   63.2757    0.1562    2.5426   -0.0175    0.1110    2.6788   36.0000   36.0000 
8412.0000 2563.9775    7.8750    9.9442  -98.0552  -21.1509   64.3581    0.1616    2.5424   -0.0163    0.1210    2.7349   36.0000   36.0000 
8412.5000 2564.1299    7.8750    9.9442  -98.4160  -21.5089   62.5115    0.1624    2.5417   -0.0155    0.1234    2.7350   36.0000   36.0000 
8413.0000 2564.2825    7.8750    9.9243  -98.2511  -21.3411   60.3523    0.1632    2.5396   -0.0146    0.1262    2.7351   36.0000   36.0000 
8413.5000 2564.4348    7.8750    9.8728  -98.0573  -21.1444   59.0529    0.1645    2.5395   -0.0133    0.1167    2.7936   36.0000   36.0000 
8414.0000 2564.5872    7.8750    9.8473  -98.0386  -21.1228   58.5321    0.1569    2.5435   -0.0132    0.1129    2.8364   36.0000   36.0000 
8414.5000 2564.7395    7.8750    9.8247  -98.0335  -21.1147   60.0804    0.1435    2.5543   -0.0104    0.1197    2.8973   36.0000   36.0000 
8415.0000 2564.8921    7.8750    9.8048  -98.0302  -21.1086   61.6290    0.1302    2.5681   -0.0102    0.1264    2.9840   37.0000   36.0000 
8415.5000 2565.0444    7.8750    9.8048  -98.0262  -21.1016   65.0617    0.1184    2.5810   -0.0089    0.1283    3.0391   37.0000   36.0000 
8416.0000 2565.1968    7.8750    9.8048  -98.0219  -21.0945   68.4943    0.1104    2.5652   -0.0084    0.1303    2.9919   37.0000   36.0000 
8416.5000 2565.3491    7.8750    9.8048  -98.0178  -21.0875   67.6304    0.1024    2.5527   -0.0083    0.1165    2.8774   36.0000   36.0000 
8417.0000 2565.5017    7.8750    9.8211  -98.0137  -21.0805   66.7775    0.0945    2.5477   -0.0083    0.1029    2.8025   36.0000   36.0000 
8417.5000 2565.6541    7.8750    9.8613  -98.0095  -21.0734   66.1142    0.0929    2.5588   -0.0089    0.1044    2.7504   36.0000   36.0000 
8418.0000 2565.8064    7.8750    9.8897  -98.0054  -21.0664   65.4620    0.0914    2.5736   -0.0104    0.1060    2.7359   36.0000   36.0000 
8418.5000 2565.9587    7.8750    9.9098  -98.0013  -21.0594   65.1497    0.0894    2.5867   -0.0104    0.1196    2.7197   37.0000   36.0000 
8419.0000 2566.1111    7.8750    9.9243  -97.9971  -21.0523   64.9702    0.0895    2.5912   -0.0085    0.1275    2.6956   37.0000   36.0000 
8419.5000 2566.2637    7.8750    9.9243  -97.9926  -21.0449   67.7359    0.0896    2.5761   -0.0075    0.1409    2.6553   37.0000   36.0000 
8420.0000 2566.4160    7.8750    9.9243  -97.9888  -21.0382   70.5019    0.0898    2.5648   -0.0063    0.1544    2.5987   37.0000   36.0000 
8420.5000 2566.5684    7.8750    9.9243  -97.9846  -21.0311   74.9215    0.0903    2.5567   -0.0063    0.1498    2.5573   37.0000   36.0000 
8421.0000 2566.7207    7.8750    9.9243  -97.9790  -21.0227   79.3411    0.0912    2.5535   -0.0072    0.1451    2.5341   37.0000   36.0000 
8421.5000 2566.8733    7.8750    9.9243  -97.9764  -21.0171   76.4432    0.0921    2.5521   -0.0092    0.1359    2.4937   37.0000   36.0000 
8422.0000 2567.0256    7.8750    9.8927  -97.9722  -21.0100   73.5451    0.0944    2.5505   -0.0093    0.1267    2.4735   36.0000   36.0000 
8422.5000 2567.1780    7.8750    9.8845  -97.9681  -21.0030   71.5031    0.1033    2.5497   -0.0103    0.1270    2.5140   36.0000   36.0000 
8423.0000 2567.3303    7.8750    9.8523  -97.9639  -20.9959   69.4613    0.1122    2.5504   -0.0113    0.1273    2.5948   36.0000   36.0000 
8423.5000 2567.4829    7.8750    9.8252  -97.7303  -20.7594   72.4585    0.1222    2.5565   -0.0111    0.1493    2.6853   37.0000   36.0000 
8424.0000 2567.6353    7.8750    9.8247  -97.5578  -20.5840   74.8501    0.1324    2.5646   -0.0093    0.1669    2.7572   37.0000   36.0000 
8424.5000 2567.7876    7.8750    9.8247  -97.5528  -20.5761   72.2982    0.1438    2.5713   -0.0062    0.1677    2.8572   37.0000   36.0000 
8425.0000 2567.9399    7.8750    9.8325  -97.5487  -20.5691   71.2501    0.1597    2.5806   -0.0041    0.1634    3.0629   37.0000   36.0000 
8425.5000 2568.0923    7.8750    9.8445  -97.5445  -20.5620   73.5551    0.1641    2.5851   -0.0032    0.1558    3.1622   37.0000   36.0000 
8426.0000 2568.2449    7.8750    9.9044  -97.5395  -20.5541   77.3642    0.1713    2.5892   -0.0032    0.1431    3.3242   37.0000   36.0000 
8426.5000 2568.3972    7.8750    9.9641  -97.5362  -20.5480   84.4904    0.1785    2.5818   -0.0043    0.1508    3.2726   37.0000   36.0000 
8427.0000 2568.5496    7.8750    9.9835  -97.5321  -20.5409   91.6165    0.1838    2.5694   -0.0072    0.1584    3.1443   37.0000   36.0000 
8427.5000 2568.7019    7.8750   10.0438  -97.5260  -20.5319   90.4191    0.1853    2.5530   -0.0086    0.1570    3.0003   37.0000   36.0000 
8428.0000 2568.8545    7.8750   10.0451  -97.5239  -20.5269   89.2215    0.1868    2.5389   -0.0103    0.1556    2.8289   37.0000   36.0000 
8428.5000 2569.0068    7.8750   10.0438  -97.5197  -20.5198   88.0239    0.1881    2.5284   -0.0113    0.1588    2.7070   37.0000   36.0000 
8429.0000 2569.1592    7.8750   10.0837  -97.5156  -20.5128   86.8265    0.1872    2.5276   -0.0113    0.1621    2.5277   37.0000   37.0000 
8429.5000 2569.3115    7.8750   10.0837  -97.5115  -20.5058   89.4790    0.1862    2.5376   -0.0113    0.1807    2.3737   37.0000   37.0000 
8430.0000 2569.4641    7.8750   10.0837  -97.5073  -20.4988   92.6368    0.1849    2.5580   -0.0109    0.1991    2.3381   37.0000   37.0000 
8430.5000 2569.6165    7.8750   10.0837  -97.5034  -20.4920   94.2694    0.1829    2.5714   -0.0098    0.1984    2.3536   37.0000   37.0000 
8431.0000 2569.7688    7.8750   10.0638  -97.5068  -20.4925   96.4068    0.1802    2.5680   -0.0072    0.1976    2.4964   37.0000   37.0000 
8431.5000 2569.9211    7.8750   10.0887  -97.5885  -20.5712   84.9226    0.1776    2.5569   -0.0057    0.1676    2.7469   37.0000   37.0000 
8432.0000 2570.0735    7.8750   10.1131  -97.8606  -20.8405   73.4383    0.1683    2.5538   -0.0041    0.1376    2.9277   37.0000   37.0000 
8432.5000 2570.2261    7.8750   10.1506  -97.9161  -20.8931   70.2519    0.1518    2.5628   -0.0041    0.1325    3.1309   37.0000   36.0000 
8433.0000 2570.3784    7.8750   10.1962  -97.9834  -20.9575   67.0661    0.1354    2.5737   -0.0041    0.1275    3.2242   37.0000   36.0000 
8433.5000 2570.5308    7.8750   10.2415  -98.2510  -21.2222   70.0599    0.1203    2.5823   -0.0050    0.1297    3.1502   37.0000   36.0000 
8434.0000 2570.6831    7.8750   10.2815  -98.2712  -21.2395   73.0537    0.1107    2.5732   -0.0074    0.1319    3.0542   37.0000   36.0000 
8434.5000 2570.8357    7.8750   10.3250  -98.2671  -21.2325   71.2241    0.1011    2.5602   -0.0091    0.1300    2.9614   37.0000   36.0000 
8435.0000 2570.9880    7.8750   10.3749  -98.2629  -21.2254   69.3069    0.0907    2.5513   -0.0112    0.1279    2.8992   37.0000   36.0000 
8435.5000 2571.1404    7.8750   10.3626  -98.2588  -21.2184   68.2863    0.0884    2.5485   -0.0132    0.1254    2.8807   36.9998   36.0000 
