~VERSION INFORMATION
 VERS.                 2.0:   CWLS LOG ASCII STANDARD - VERSION 2.0
 WRAP.                  NO:   SINGLE LINE PER DEPTH STEP
 CREA.                 13/12/2017 11:17:09
#CREATED USING DSPetro VERSION 5000.10.1.3 BY H191660 ON 13/12/2017 11:17:09
~WELL INFORMATION
#MNEM.UNIT       DATA                          DESCRIPTION MNEMONIC
#---------      ---------------------------   --------------------------
 STRT    .FT        0.0000                    : START DEPTH
 STOP    .FT        11486.0000                : STOP DEPTH
 STEP    .FT        0.5000                    : STEP VALUE
 NULL    .      -999.0000                     : NULL VALUE
 DATE    .      13/12/2017                    : LAS file Creation Date
 WELL  .      NESTE_BEVERS_4221935327    : Well Name
 COMP  .      Union Texas petroleum Corp : Company
 FLD   .      WILDCAT                    : Field
 COUNT .      HOCKLEY                    : Country
 UWI   .      DUSWL_935327               : Unique Well Identifier (UWI)
 LOC   .                                 : Location
 PDAT  .      Ground Level               : Permanent Datum
 EPDAT .      3406.0                     : Reference Elevation
 LGMEA .      Kelly Bushing              : Log Measured from
 DRMEA .      Kelly Bushing              : Drill Measured From
 APDAT .      3423                       : Elevation Above Permanent Datum
 KB    .      3423                       : KB Elevation
 DF    .      3422                       : DF Elevation
 GL    .      3406                       : GL Elevation
 RWS   .      0                          : Def_Rw
 WST   .      0                          : Def_Rwt
 DATS  .      20/09/88                   : Spud Date
 MDEC  .      0                          : Magnetic Declination
 SRVC  .      SCH                        : Contractor
~CURVE INFORMATION
#MNEM              UNIT       API CODE   Curve Type Comments
#----------  --------------- ----------  ---------- -----------
 DEPTH      .FT                        : Depth       
 DEPTH_m  .                          :             
 BitSize    .in                        : BitSize     
 CAL_INCH   .inch                      :             Caliper Log - A representation of the measured diameter of a borehole along its depth
 SP_MV      .mv                        : SP          
 SP_Corr    .mv                        : SP          
 GR_API     .API                       : GammaRay    Gamma Ray (API) - Measures the intensity of natural gamma-ray radiation emitted from formations containing radioactive elements, such as K, Th and U
 RES_USL    .usl                       :             Unspecified Resistivity Log - No accroynm or method of attainment is specified - unscaled
 RHOB_G_CC  .g/cc                      :             Bulk Density - Measures the density of bulk material, including any void space or other materials contained in the subject volume
 DRHO_G_CC  .g/cc                      :             Density Correction - Investigates the correction to the Bulk Density log; used as an indication of hole condition to validate the Bulk Density measure
 NPHI_v_v   .ratio                     :             Neutron Porosity - Measured with an neutron logging device calibrated to a given matrix (limestone, sandstone and dolomite)
 PEF_B_E    .b/e-                      : PEF         Photoelectric Factor - A log of photoelectric absorption properties. Often expressed in an approximation unit barns/electron (b/e-)
 LITH       .                          : LITH        Lithology Curve
 LITH_v2    .                          : LITH        Lithology Curve
~A  DEPTH DEPTH_M  BitSize   CAL_INCH   SP_MV    SP_Corr    GR_API   RES_USL  RHOB_G_C~ DRHO_G_C~  NPHI_v_v  PEF_B_E     LITH    LITH_v2  
# ...
9148.5000 2788.4629    7.8750    9.7164  -81.6606   -9.9797   15.8900    0.4390    2.6670   -0.0100    0.0233    4.5502   18.0000   18.0000 
9149.0000 2788.6152    7.8750    9.7265  -81.8949  -10.2170   16.0710    0.4363    2.6645   -0.0100    0.0251    4.5043   18.0000   18.0000 
9149.5000 2788.7676    7.8750    9.7513  -82.1838  -10.5088   18.0208    0.4327    2.6681   -0.0100    0.0264    4.3972   18.0000   18.0000 
9150.0000 2788.9199    7.8750    9.7714  -82.3104  -10.6384   19.9706    0.4292    2.6645   -0.0100    0.0277    4.2938   18.0000   18.0000 
9150.5000 2789.0725    7.8750    9.7922  -82.3170  -10.6479   20.8572    0.4166    2.6594   -0.0100    0.0300    4.1904   18.0000   18.0000 
9151.0000 2789.2249    7.8750    9.7951  -82.5285  -10.8623   21.7439    0.3943    2.6573   -0.0134    0.0323    4.0665   18.0000   18.0000 
9151.5000 2789.3772    7.8750    9.8149  -82.7742  -11.1109   22.7234    0.3720    2.6523   -0.0156    0.0326    4.0786   18.0000   18.0000 
9152.0000 2789.5295    7.8750    9.8342  -83.3386  -11.6783   23.7028    0.3528    2.6523   -0.0173    0.0328    4.2023   18.0000   18.0000 
9152.5000 2789.6819    7.8750    9.8507  -83.9330  -12.2757   22.0834    0.3467    2.6537   -0.0198    0.0230    4.4196   18.0000   18.0000 
9153.0000 2789.8345    7.8750    9.8649  -84.0645  -12.4101   20.4639    0.3405    2.6564   -0.0219    0.0132    4.6426   18.0000   18.0000 
9153.5000 2789.9868    7.8750    9.8856  -84.7999  -13.1484   19.5690    0.3338    2.6558   -0.0233    0.0167    4.6786   18.0000   18.0000 
9154.0000 2790.1392    7.8750    9.9538  -85.1559  -13.5073   18.8146    0.3319    2.6520   -0.0242    0.0196    4.6045   18.0000   18.0000 
9154.5000 2790.2915    7.8750    9.9723  -85.5414  -13.8958   18.7951    0.3298    2.6468   -0.0242    0.0198    4.5436   18.0000   18.0000 
9155.0000 2790.4441    7.8750    9.9908  -85.5455  -13.9028   18.4177    0.3271    2.6510   -0.0240    0.0186    4.6076   18.0000   18.0000 
9155.5000 2790.5964    7.8750   10.0013  -85.5498  -13.9100   17.8035    0.3270    2.6536   -0.0237    0.0163    4.6480   18.0000   18.0000 
9156.0000 2790.7488    7.8750   10.0096  -85.5547  -13.9179   16.8313    0.3270    2.6580   -0.0224    0.0126    4.6041   18.0000   18.0000 
9156.5000 2790.9011    7.8750   10.0094  -85.5414  -13.9076   16.2833    0.3270    2.6620   -0.0183    0.0115    4.5622   18.0000   18.0000 
9157.0000 2791.0537    7.8750   10.0092  -85.4260  -13.7951   15.7353    0.3274    2.6650   -0.0145    0.0104    4.5346   18.0000   18.0000 
9157.5000 2791.2061    7.8750   10.0090  -85.1059  -13.4780   17.2550    0.3285    2.6681   -0.0111    0.0135    4.5666   18.0000   18.0000 
9158.0000 2791.3584    7.8750   10.0088  -84.5538  -12.9288   18.7747    0.3296    2.6670   -0.0101    0.0166    4.4822   18.0000   18.0000 
9158.5000 2791.5107    7.8750   10.0086  -84.0674  -12.4453   21.4819    0.3308    2.6589   -0.0101    0.0187    4.4267   18.0000   18.0000 
9159.0000 2791.6631    7.8750   10.0084  -83.7036  -12.0845   24.1889    0.3334    2.6592   -0.0101    0.0207    4.4565   18.0000   18.0000 
9159.5000 2791.8157    7.8750   10.0082  -83.3065  -11.6903   24.4495    0.3360    2.6701   -0.0101    0.0227    4.5167   18.0000   18.0000 
9160.0000 2791.9680    7.8750   10.0079  -82.9103  -11.2971   23.5301    0.3392    2.6783   -0.0101    0.0236    4.4516   18.0000   18.0000 
9160.5000 2792.1204    7.8750   10.0078  -82.6698  -11.0595   19.0990    0.3499    2.6841   -0.0101    0.0190    4.3979   18.0000   18.0000 
9161.0000 2792.2727    7.8750   10.0076  -82.2720  -10.6646   13.4882    0.3636    2.6939   -0.0101    0.0132    4.4944   18.0000   18.0000 
9161.5000 2792.4253    7.8750   10.0171  -82.0054  -10.4010   12.7831    0.3839    2.7028   -0.0117    0.0145    4.7173   18.0000   18.0000 
9162.0000 2792.5776    7.8750   10.0272  -81.7167  -10.1152   12.5427    0.3846    2.7018   -0.0123    0.0150    4.7099   18.0000   18.0000 
9162.5000 2792.7300    7.8750   10.0270  -81.0670   -9.4684   28.1715    0.3860    2.6746   -0.0136    0.0297    4.3389   18.0000   18.0000 
9163.0000 2792.8823    7.8750   10.0268  -80.8200   -9.2244   43.8005    0.3875    2.6487   -0.0162    0.0444    3.9713   18.0001   18.0001 
9163.5000 2793.0349    7.8750   10.0266  -80.5938   -9.0011   51.8289    0.3882    2.6206   -0.0191    0.1079    3.5908   22.0002   22.0000 
9164.0000 2793.1873    7.8750   10.0264  -80.1003   -8.5105   59.8570    0.3863    2.5837   -0.0189    0.1715    3.3516   36.9998   22.0000 
9164.5000 2793.3396    7.8750   10.0461  -79.7085   -8.1193   66.7627    0.3843    2.5732   -0.0145    0.1870    3.2893   37.0000   22.0000 
9165.0000 2793.4919    7.8750   10.0659  -79.1989   -7.5983   73.7689    0.3823    2.5698   -0.0112    0.2028    3.2661   37.0000   22.0002 
9165.5000 2793.6443    7.8750   10.0657  -78.8442   -7.2322   75.5667    0.3585    2.5639   -0.0082    0.2082    3.2647   37.0000   37.0000 
9166.0000 2793.7969    7.8750   10.0655  -78.2516   -6.6281   77.4654    0.3331    2.5573   -0.0072    0.2140    3.2458   37.0000   37.0000 
9166.5000 2793.9492    7.8750   10.0652  -77.6188   -5.9839   96.0928    0.2995    2.5306   -0.0103    0.2431    3.1347   37.0000   37.0000 
9167.0000 2794.1016    7.8750   10.0651  -77.3462   -5.6999  105.4070    0.2665    2.5168   -0.0131    0.2577    3.0396   37.0000   37.0000 
9167.5000 2794.2539    7.8750   10.0649  -77.0215   -5.3638  107.1988    0.2174    2.4986   -0.0172    0.2670    2.9098   37.0000   37.0000 
9168.0000 2794.4065    7.8750   10.0647  -76.7204   -5.0512  108.9900    0.1682    2.4837   -0.0203    0.2763    2.8252   37.0000   37.0000 
9168.5000 2794.5588    7.8750   10.0645  -76.1487   -4.4680  104.8000    0.1342    2.4664   -0.0234    0.2703    2.7091   37.0000   37.0000 
9169.0000 2794.7112    7.8750   10.0643  -75.7492   -4.0572  100.6098    0.1247    2.4532   -0.0254    0.2642    2.6783   37.0000   37.0000 
9169.5000 2794.8635    7.8750   10.0641  -75.4399   -3.7364   97.1780    0.1152    2.4596   -0.0237    0.2384    2.7187   37.0000   37.0000 
9170.0000 2795.0161    7.8750   10.0639  -75.0432   -3.3283   93.7462    0.1067    2.4855   -0.0203    0.2127    2.8894   37.0000   37.0000 
9170.5000 2795.1685    7.8750   10.0637  -74.6420   -2.9156   91.3100    0.1056    2.5074   -0.0163    0.2091    2.9927   37.0000   37.0000 
9171.0000 2795.3208    7.8750   10.0635  -74.2368   -2.4990   88.8739    0.1045    2.5342   -0.0132    0.2056    3.0828   37.0000   37.0000 
9171.5000 2795.4732    7.8750   10.0312  -73.8341   -2.0849   88.4300    0.1032    2.5386   -0.0102    0.2165    3.0702   37.0000   37.0000 
9172.0000 2795.6255    7.8750   10.0032  -73.5602   -1.7996   88.1206    0.1030    2.5284   -0.0102    0.2242    3.0128   37.0000   37.0000 
9172.5000 2795.7781    7.8750    9.9830  -73.0861   -1.3140   90.2395    0.1028    2.5070   -0.0103    0.2600    2.9610   37.0000   37.0000 
9173.0000 2795.9304    7.8750    9.9645  -72.9137   -1.1302   93.7030    0.1025    2.4720   -0.0116    0.2860    2.9173   37.0000   37.0000 
9173.5000 2796.0828    7.8750    9.9589  -72.6274   -0.8325   95.2963    0.1025    2.4584   -0.0123    0.2745    2.9001   37.0000   37.0000 
9174.0000 2796.2351    7.8750    9.9425  -72.5264   -0.7200   98.2340    0.1025    2.4466   -0.0133    0.2533    2.9076   37.0000   37.0000 
9174.5000 2796.3877    7.8750    9.9224  -72.5253   -0.7075   93.3807    0.1025    2.4622   -0.0133    0.2234    2.8797   37.0000   37.0000 
9175.0000 2796.5400    7.8750    9.9222  -72.3040   -0.4747   88.5273    0.1026    2.4875   -0.0133    0.1935    2.8652   37.0000   37.0000 
9175.5000 2796.6924    7.8750    9.9220  -72.1604   -0.3198   85.4675    0.1028    2.5099   -0.0123    0.1939    2.8390   37.0000   37.0000 
9176.0000 2796.8447    7.8750    9.9218  -72.1430   -0.2909   82.4081    0.1031    2.5269   -0.0103    0.1942    2.7376   37.0000   37.0000 
9176.5000 2796.9973    7.8750    9.9216  -72.1470   -0.2835   88.9742    0.1034    2.5098   -0.0109    0.2239    2.8047   37.0000   37.0000 
