~VERSION INFORMATION
 VERS.                 2.0:   CWLS LOG ASCII STANDARD - VERSION 2.0
 WRAP.                  NO:   SINGLE LINE PER DEPTH STEP
 CREA.                 13/12/2017 11:17:09
#CREATED USING DSPetro VERSION 5000.10.1.3 BY H191660 ON 13/12/2017 11:17:09
~WELL INFORMATION
#MNEM.UNIT       DATA                          DESCRIPTION MNEMONIC
#---------      ---------------------------   --------------------------
 STRT    .FT        0.0000                    : START DEPTH
 STOP    .FT        11486.0000                : STOP DEPTH
 STEP    .FT        0.5000                    : STEP VALUE
 NULL    .      -999.0000                     : NULL VALUE
 DATE    .      13/12/2017                    : LAS file Creation Date
 WELL  .      NESTE_BEVERS_4221935327    : Well Name
 COMP  .      Union Texas petroleum Corp : Company
 FLD   .      WILDCAT                    : Field
 COUNT .      HOCKLEY                    : Country
 UWI   .      DUSWL_935327               : Unique Well Identifier (UWI)
 LOC   .                                 : Location
 PDAT  .      Ground Level               : Permanent Datum
 EPDAT .      3406.0                     : Reference Elevation
 LGMEA .      Kelly Bushing              : Log Measured from
 DRMEA .      Kelly Bushing              : Drill Measured From
 APDAT .      3423                       : Elevation Above Permanent Datum
 KB    .      3423                       : KB Elevation
 DF    .      3422                       : DF Elevation
 GL    .      3406                       : GL Elevation
 RWS   .      0                          : Def_Rw
 WST   .      0                          : Def_Rwt
 DATS  .      20/09/88                   : Spud Date
 MDEC  .      0                          : Magnetic Declination
 SRVC  .      SCH                        : Contractor
~CURVE INFORMATION
#MNEM              UNIT       API CODE   Curve Type Comments
#----------  --------------- ----------  ---------- -----------
 DEPTH      .FT                        : Depth       
 DEPTH_m  .                          :             
 BitSize    .in                        : BitSize     
 CAL_INCH   .inch                      :             Caliper Log - A representation of the measured diameter of a borehole along its depth
 SP_MV      .mv                        : SP          
 SP_Corr    .mv                        : SP          
 GR_API     .API                       : GammaRay    Gamma Ray (API) - Measures the intensity of natural gamma-ray radiation emitted from formations containing radioactive elements, such as K, Th and U
 RES_USL    .usl                       :             Unspecified Resistivity Log - No accroynm or method of attainment is specified - unscaled
 RHOB_G_CC  .g/cc                      :             Bulk Density - Measures the density of bulk material, including any void space or other materials contained in the subject volume
 DRHO_G_CC  .g/cc                      :             Density Correction - Investigates the correction to the Bulk Density log; used as an indication of hole condition to validate the Bulk Density measure
 NPHI_v_v   .ratio                     :             Neutron Porosity - Measured with an neutron logging device calibrated to a given matrix (limestone, sandstone and dolomite)
 PEF_B_E    .b/e-                      : PEF         Photoelectric Factor - A log of photoelectric absorption properties. Often expressed in an approximation unit barns/electron (b/e-)
 LITH       .                          : LITH        Lithology Curve
 LITH_v2    .                          : LITH        Lithology Curve
~A  DEPTH DEPTH_M  BitSize   CAL_INCH   SP_MV    SP_Corr    GR_API   RES_USL  RHOB_G_C~ DRHO_G_C~  NPHI_v_v  PEF_B_E     LITH    LITH_v2  
# ...
5500.5000 1676.5524    7.8750   10.1299  -93.4636   -0.2096   23.9023 -999.0000    2.6480   -0.0070    0.1238    2.9930 -999.0000 -999.0000 
5501.0000 1676.7048    7.8750   10.1436  -93.2497    0.0043   23.6014 -999.0000    2.6578   -0.0039    0.1202    3.0336 -999.0000 -999.0000 
5501.5000 1676.8572    7.8750   10.1437  -92.6629    0.5911   23.5993 -999.0000    2.6689   -0.0015    0.1155    3.1146 -999.0000 -999.0000 
5502.0000 1677.0096    7.8750   10.1438  -92.5549    0.6991   23.5972 -999.0000    2.6732   -0.0015    0.1107    3.1791 -999.0000 -999.0000 
5502.5000 1677.1620    7.8750   10.1439  -92.2605    0.9935   23.8886 -999.0000    2.6772   -0.0051    0.1052    3.2298 -999.0000 -999.0000 
5503.0000 1677.3145    7.8750   10.1440  -92.2585    0.9955   24.1801 -999.0000    2.6879   -0.0082    0.0996    3.2503 -999.0000 -999.0000 
5503.5000 1677.4668    7.8750   10.1441  -92.2565    0.9975   24.6712 -999.0000    2.7009   -0.0115    0.0932    3.2069 -999.0000 -999.0000 
5504.0000 1677.6191    7.8750   10.1442  -92.2545    0.9995   25.1624 -999.0000    2.7108   -0.0146    0.0867    3.0723 -999.0000 -999.0000 
5504.5000 1677.7716    7.8750   10.1443  -92.2525    1.0015   26.1999 -999.0000    2.7179   -0.0156    0.0925    2.8851 -999.0000 -999.0000 
5505.0000 1677.9240    7.8750   10.1444  -92.2505    1.0035   27.2375 -999.0000    2.7174   -0.0156    0.0984    2.8671 -999.0000 -999.0000 
5505.5000 1678.0764    7.8750   10.1445  -92.2710    0.9830   30.8984 -999.0000    2.7204   -0.0166    0.1036    2.8727 -999.0000 -999.0000 
5506.0000 1678.2288    7.8750   10.1446  -92.3086    0.9453   34.5595 -999.0000    2.7289   -0.0141    0.1087    2.9286   22.0000   22.0000 
5506.5000 1678.3812    7.8750   10.1447  -92.2445    1.0095   36.3201 -999.0000    2.7392   -0.0115    0.1093    3.0093   22.0000   22.0000 
5507.0000 1678.5336    7.8750   10.1448  -92.2425    1.0115   38.0808 -999.0000    2.7433   -0.0085    0.1099    3.0192   22.0000   22.0000 
5507.5000 1678.6860    7.8750   10.1449  -92.2405    1.0135   39.7911 -999.0000    2.7456   -0.0060    0.1045    2.9982   12.0000   12.0000 
5508.0000 1678.8384    7.8750   10.1450  -92.2799    0.9740   41.5013 -999.0000    2.7483   -0.0054    0.0990    3.0148   12.0000   12.0000 
5508.5000 1678.9908    7.8750   10.1451  -92.4961    0.7579   37.3938 -999.0000    2.7517   -0.0044    0.0948    3.0122   12.0000   12.0000 
5509.0000 1679.1432    7.8750   10.1452  -92.8634    0.3906   33.2862 -999.0000    2.7547   -0.0044    0.0905    3.0352   12.0000   12.0000 
5509.5000 1679.2957    7.8750   10.1453  -93.2236    0.0304   28.8730 -999.0000    2.7574   -0.0044    0.0905    3.0370   12.0000   12.0000 
5510.0000 1679.4480    7.8750   10.1454  -93.6516   -0.3976   24.4598 -999.0000    2.7574   -0.0044    0.0904    3.0161   12.0000   12.0000 
5510.5000 1679.6003    7.8750   10.1455  -93.7162   -0.4622   25.7287 -999.0000    2.7524   -0.0044    0.0920    2.9546   12.0000   12.0000 
5511.0000 1679.7528    7.8750   10.1456  -93.5000   -0.2460   26.9978 -999.0000    2.7494   -0.0044    0.0935    2.9952   12.0000   12.0000 
5511.5000 1679.9052    7.8750   10.1457  -93.7415   -0.4875   30.1592 -999.0000    2.7478   -0.0055    0.0979    3.0357   12.0000   12.0000 
5512.0000 1680.0576    7.8750   10.1458  -93.8162   -0.5622   33.3205 -999.0000    2.7447   -0.0084    0.1022    3.0358   12.0000   12.0000 
5512.5000 1680.2100    7.8750   10.1459  -93.8142   -0.5602   34.2629 -999.0000    2.7406   -0.0106    0.1143    3.0359   12.0000   12.0000 
5513.0000 1680.3624    7.8750   10.1460  -93.8123   -0.5583   35.2052 -999.0000    2.7324   -0.0115    0.1263    3.0360   12.0000   12.0000 
5513.5000 1680.5148    7.8750   10.1439  -93.8103   -0.5563   32.9609 -999.0000    2.7242   -0.0114    0.1218    3.0159   12.0000   12.0000 
5514.0000 1680.6672    7.8750   10.1263  -93.8248   -0.5709   30.7164 -999.0000    2.7190   -0.0106    0.1173    3.0362   12.0000   12.0000 
5514.5000 1680.8196    7.8750   10.1065  -93.9580   -0.7040   26.2795 -999.0000    2.7130   -0.0097    0.1128    3.0607   12.0000   12.0000 
5515.0000 1680.9720    7.8750   10.1066  -94.2027   -0.9487   21.8425 -999.0000    2.7108   -0.0079    0.1084    3.0926   12.0000   12.0000 
5515.5000 1681.1244    7.8750   10.0868  -94.2007   -0.9467   18.4860 -999.0000    2.7160   -0.0066    0.0925    3.1376   12.0000   12.0000 
5516.0000 1681.2769    7.8750   10.0869  -94.1987   -0.9447   15.1295 -999.0000    2.7277   -0.0041    0.0767    3.0711   12.0000   12.0000 
5516.5000 1681.4292    7.8750   10.0870  -94.1967   -0.9427   12.7560 -999.0000    2.7333   -0.0033    0.0767    2.9963   12.0000   12.0000 
5517.0000 1681.5815    7.8750   10.0871  -94.1947   -0.9407   10.3826 -999.0000    2.7355   -0.0023    0.0768    3.0517   12.0000   12.0000 
5517.5000 1681.7340    7.8750   10.0919  -94.1927   -0.9387   15.3424 -999.0000    2.7346   -0.0023    0.0866    3.2509   12.0000   12.0000 
5518.0000 1681.8864    7.8750   10.1104  -94.1907   -0.9367   20.3022 -999.0000    2.7293   -0.0023    0.0963    3.3201   12.0000   12.0000 
5518.5000 1682.0388    7.8750   10.1272  -94.1887   -0.9347   22.9451 -999.0000    2.7257   -0.0033    0.1012    3.3202   12.0000   12.0000 
5519.0000 1682.1912    7.8750   10.1671  -94.1868   -0.9328   25.5879 -999.0000    2.7268   -0.0046    0.1061    3.2928   12.0000   12.0000 
5519.5000 1682.3436    7.8750   10.1872  -94.1848   -0.9308   27.4093 -999.0000    2.7285   -0.0053    0.1030    3.1492   12.0000   12.0000 
5520.0000 1682.4960    7.8750   10.2072  -94.1828   -0.9288   29.2308 -999.0000    2.7274   -0.0044    0.0999    3.0669   12.0000   12.0000 
5520.5000 1682.6484    7.8750   10.2272  -94.1808   -0.9269   29.2128 -999.0000    2.7218   -0.0033    0.0952    2.9846   12.0000   12.0000 
5521.0000 1682.8008    7.8750   10.2273  -94.1789   -0.9249   29.1949 -999.0000    2.7128   -0.0033    0.0904    2.9163   12.0000   12.0000 
5521.5000 1682.9533    7.8750   10.2872  -94.1769   -0.9230   27.2501 -999.0000    2.7109   -0.0037    0.0877    2.9017   12.0000   12.0000 
5522.0000 1683.1056    7.8750   10.2873  -94.1093   -0.8553   25.3055 -999.0000    2.7075   -0.0066    0.0851    2.8760   12.0000   12.0000 
5522.5000 1683.2581    7.8750   10.2874  -93.7746   -0.5207   28.9999 -999.0000    2.7057   -0.0086    0.0838    2.8559   12.0000   12.0000 
5523.0000 1683.4104    7.8750   10.2476  -93.7727   -0.5187   32.6944 -999.0000    2.7079   -0.0093    0.0824    2.8929   12.0000   12.0000 
5523.5000 1683.5627    7.8750   10.1972  -93.7707   -0.5167   37.0162 -999.0000    2.7100   -0.0093    0.0857    3.1035   12.0000   12.0000 
5524.0000 1683.7152    7.8750   10.1618  -93.7688   -0.5148   41.3379 -999.0000    2.7112   -0.0093    0.0889    3.3416   12.0000   12.0000 
5524.5000 1683.8676    7.8750   10.1085  -93.7668   -0.5128   43.0289 -999.0000    2.7118   -0.0097    0.1022    3.3417   12.0000   12.0000 
5525.0000 1684.0200    7.8750   10.0687  -93.7649   -0.5109   44.7197 -999.0000    2.7083   -0.0113    0.1155    3.3069   12.0000   12.0000 
5525.5000 1684.1724    7.8750   10.0688  -93.7630   -0.5203   40.9602 -999.0000    2.6949   -0.0113    0.1200    3.2610   12.0000   12.0000 
5526.0000 1684.3248    7.8750   10.0639  -93.4868   -0.2573   37.2007 -999.0000    2.6777   -0.0123    0.1245    3.2409   12.0000   12.0000 
5526.5000 1684.4772    7.8750   10.0690  -92.9872    0.2291   32.6859 -999.0000    2.6692   -0.0134    0.1253    3.2031   12.0000   12.0000 
5527.0000 1684.6296    7.8750   10.0691  -92.9603    0.2427   28.1713 -999.0000    2.6629   -0.0143    0.1261    3.0390   12.0000   12.0000 
5527.5000 1684.7820    7.8750   10.0755  -92.9584    0.2315   26.5761 -999.0000    2.6555   -0.0143    0.1251    2.8974   12.0000   12.0000 
5528.0000 1684.9345    7.8750   10.1092  -92.9564    0.2203   24.9811 -999.0000    2.6494   -0.0153    0.1242    2.8352   12.0000   12.0000 
5528.5000 1685.0868    7.8750   10.1093  -92.9545    0.2090   25.1284 -999.0000    2.6514   -0.0160    0.1207    2.7965   12.0000   12.0000 
