~VERSION INFORMATION
 VERS.                 2.0:   CWLS LOG ASCII STANDARD - VERSION 2.0
 WRAP.                  NO:   SINGLE LINE PER DEPTH STEP
 CREA.                 13/12/2017 11:17:09
#CREATED USING DSPetro VERSION 5000.10.1.3 BY H191660 ON 13/12/2017 11:17:09
~WELL INFORMATION
#MNEM.UNIT       DATA                          DESCRIPTION MNEMONIC
#---------      ---------------------------   --------------------------
 STRT    .FT        0.0000                    : START DEPTH
 STOP    .FT        11486.0000                : STOP DEPTH
 STEP    .FT        0.5000                    : STEP VALUE
 NULL    .      -999.0000                     : NULL VALUE
 DATE    .      13/12/2017                    : LAS file Creation Date
 WELL  .      NESTE_BEVERS_4221935327    : Well Name
 COMP  .      Union Texas petroleum Corp : Company
 FLD   .      WILDCAT                    : Field
 COUNT .      HOCKLEY                    : Country
 UWI   .      DUSWL_935327               : Unique Well Identifier (UWI)
 LOC   .                                 : Location
 PDAT  .      Ground Level               : Permanent Datum
 EPDAT .      3406.0                     : Reference Elevation
 LGMEA .      Kelly Bushing              : Log Measured from
 DRMEA .      Kelly Bushing              : Drill Measured From
 APDAT .      3423                       : Elevation Above Permanent Datum
 KB    .      3423                       : KB Elevation
 DF    .      3422                       : DF Elevation
 GL    .      3406                       : GL Elevation
 RWS   .      0                          : Def_Rw
 WST   .      0                          : Def_Rwt
 DATS  .      20/09/88                   : Spud Date
 MDEC  .      0                          : Magnetic Declination
 SRVC  .      SCH                        : Contractor
~CURVE INFORMATION
#MNEM              UNIT       API CODE   Curve Type Comments
#----------  --------------- ----------  ---------- -----------
 DEPTH      .FT                        : Depth       
 DEPTH_m  .                          :             
 BitSize    .in                        : BitSize     
 CAL_INCH   .inch                      :             Caliper Log - A representation of the measured diameter of a borehole along its depth
 SP_MV      .mv                        : SP          
 SP_Corr    .mv                        : SP          
 GR_API     .API                       : GammaRay    Gamma Ray (API) - Measures the intensity of natural gamma-ray radiation emitted from formations containing radioactive elements, such as K, Th and U
 RES_USL    .usl                       :             Unspecified Resistivity Log - No accroynm or method of attainment is specified - unscaled
 RHOB_G_CC  .g/cc                      :             Bulk Density - Measures the density of bulk material, including any void space or other materials contained in the subject volume
 DRHO_G_CC  .g/cc                      :             Density Correction - Investigates the correction to the Bulk Density log; used as an indication of hole condition to validate the Bulk Density measure
 NPHI_v_v   .ratio                     :             Neutron Porosity - Measured with an neutron logging device calibrated to a given matrix (limestone, sandstone and dolomite)
 PEF_B_E    .b/e-                      : PEF         Photoelectric Factor - A log of photoelectric absorption properties. Often expressed in an approximation unit barns/electron (b/e-)
 LITH       .                          : LITH        Lithology Curve
 LITH_v2    .                          : LITH        Lithology Curve
~A  DEPTH DEPTH_M  BitSize   CAL_INCH   SP_MV    SP_Corr    GR_API   RES_USL  RHOB_G_C~ DRHO_G_C~  NPHI_v_v  PEF_B_E     LITH    LITH_v2  
# ...
5871.0000 1789.4808    7.8750   10.7145  -95.9864   -5.7198   22.1029    0.2513    2.7887   -0.0014    0.0523    3.1421   12.0000   12.0000 
5871.5000 1789.6332    7.8750   10.7146  -95.7838   -5.5100   21.7343    0.2352    2.7905   -0.0008    0.0536    3.2611   12.0000   12.0000 
5872.0000 1789.7856    7.8750   10.7147  -95.5821   -5.3010   21.3130    0.2166    2.7935   -0.0008    0.0550    3.3124   12.0000   12.0000 
5872.5000 1789.9380    7.8750   10.7149  -95.3846   -5.0963   19.7993    0.1907    2.7857   -0.0008    0.0567    3.2254   12.0000   12.0000 
5873.0000 1790.0905    7.8750   10.7149  -95.2912   -4.9957   19.1628    0.1901    2.7788   -0.0008    0.0574    3.1888   12.0000   12.0000 
5873.5000 1790.2428    7.8750   10.6987  -95.2899   -4.9873   17.6281    0.1891    2.7753   -0.0008    0.0658    3.1835   12.0000   12.0000 
5874.0000 1790.3951    7.8750   10.6751  -95.2885   -4.9786   16.0933    0.1882    2.7661   -0.0008    0.0742    3.2264   12.0000   12.0000 
5874.5000 1790.5476    7.8750   10.6446  -95.2872   -4.9701   14.8992    0.1875    2.7547   -0.0008    0.0908    3.2264   12.0000   12.0000 
5875.0000 1790.7000    7.8750   10.5954  -95.2861   -4.9618   13.7052    0.1875    2.7274   -0.0007    0.1074    3.1869   12.0000   12.0000 
5875.5000 1790.8524    7.8750   10.5885  -95.2849   -4.9533   13.4770    0.1875    2.6980    0.0002    0.1073    3.0649   12.0000   12.0000 
5876.0000 1791.0048    7.8750   10.6083  -95.2836   -4.9448   13.2489    0.1879    2.6842    0.0013    0.1071    3.0044   12.0000   12.0000 
5876.5000 1791.1572    7.8750   10.6157  -95.2823   -4.9363   13.5463    0.1983    2.6771    0.0023    0.0979    3.0045   12.0000   12.0000 
5877.0000 1791.3096    7.8750   10.6322  -95.2811   -4.9278   13.8436    0.2088    2.6818    0.0033    0.0886    3.0651   12.0000   12.0000 
5877.5000 1791.4620    7.8750   10.7029  -95.2798   -4.9193   14.8386    0.2218    2.6894    0.0033    0.0888    3.1163   12.0000   12.0000 
5878.0000 1791.6144    7.8750   10.7243  -95.2785   -4.9109   15.4359    0.2325    2.6916    0.0033    0.0890    3.1487   12.0000   12.0000 
5878.5000 1791.7668    7.8750   10.7959  -95.2773   -4.9025   16.4183    0.2468    2.6948    0.0029    0.0896    3.1959   12.0000   12.0000 
5879.0000 1791.9192    7.8750   10.8321  -95.2760   -4.8939   17.4007    0.2611    2.7036    0.0013    0.0903    3.2471   12.0000   12.0000 
5879.5000 1792.0717    7.8750   10.8360  -95.2747   -4.8853   19.1764    0.2730    2.7126    0.0013    0.0899    3.2902   12.0000   12.0000 
5880.0000 1792.2240    7.8750   10.8361  -95.2735   -4.8770   20.9521    0.2823    2.7206    0.0003    0.0895    3.2876   12.0000   12.0000 
5880.5000 1792.3763    7.8750   10.8362  -95.3439   -4.9401   24.1370    0.2915    2.7277   -0.0007    0.0830    3.3078   12.0000   12.0000 
5881.0000 1792.5288    7.8750   10.8363  -95.6701   -5.2591   27.3220    0.2996    2.7298   -0.0017    0.0766    3.3079   12.0000   12.0000 
5881.5000 1792.6812    7.8750   10.8364  -95.6693   -5.2511   28.5869    0.3026    2.7317   -0.0024    0.0668    3.2877   12.0000   12.0000 
5882.0000 1792.8336    7.8750   10.8365  -95.6681   -5.2426   29.8519    0.3056    2.7419   -0.0035    0.0570    3.2878   12.0000   12.0000 
5882.5000 1792.9860    7.8750   10.8366  -95.6668   -5.2342   30.8813    0.3089    2.7445   -0.0037    0.0563    3.2101   12.0000   12.0000 
5883.0000 1793.1384    7.8750   10.8367  -95.6655   -5.2257   31.7364    0.3088    2.7552   -0.0037    0.0558    3.1061   12.0000   12.0000 
5883.5000 1793.2908    7.8750   10.8368  -95.6643   -5.2172   30.1303    0.3087    2.7702   -0.0037    0.0626    3.0860   12.0000   12.0000 
5884.0000 1793.4432    7.8750   10.8369  -95.6630   -5.2087   28.2300    0.3085    2.7638   -0.0046    0.0696    3.1598   12.0000   12.0000 
5884.5000 1793.5956    7.8750   10.8370  -95.6617   -5.2002   27.7351    0.3057    2.7552   -0.0052    0.0698    3.2160   12.0000   12.0000 
5885.0000 1793.7481    7.8750   10.8371  -95.6605   -5.1918   26.9461    0.3012    2.7409   -0.0082    0.0702    3.2881   12.0000   12.0000 
5885.5000 1793.9004    7.8750   10.8372  -95.6593   -5.1833   26.2179    0.2966    2.7296   -0.0118    0.0552    3.3404   12.0000   12.0000 
5886.0000 1794.0529    7.8750   10.8373  -95.6577   -5.1746   25.4897    0.2940    2.7399   -0.0118    0.0401    3.3084   12.0000   12.0000 
5886.5000 1794.2052    7.8750   10.8374  -95.6567   -5.1663   25.6089    0.2949    2.7516   -0.0089    0.0405    3.2882   12.0000   12.0000 
5887.0000 1794.3575    7.8750   10.8058  -95.6555   -5.1578   25.7280    0.2958    2.7719   -0.0037    0.0409    3.2777   12.0000   12.0000 
5887.5000 1794.5100    7.8750   10.7581  -95.6542   -5.1494   26.4868    0.2975    2.7889   -0.0017    0.0447    3.3085   12.0000   12.0000 
5888.0000 1794.6624    7.8750   10.7577  -95.6529   -5.1409   27.2455    0.3112    2.7903   -0.0017    0.0486    3.4097   12.0000   12.0000 
5888.5000 1794.8148    7.8750   10.7378  -95.6517   -5.1324   27.1342    0.3250    2.7876   -0.0036    0.0476    3.5292   12.0000   12.0000 
5889.0000 1794.9672    7.8750   10.7374  -95.6505   -5.1240   26.9501    0.3417    2.7797   -0.0061    0.0447    3.7463   12.0000   12.0000 
5889.5000 1795.1196    7.8750   10.7370  -95.6492   -5.1155   26.6851    0.3535    2.7817   -0.0077    0.0374    3.8740   12.0000   12.0000 
5890.0000 1795.2720    7.8750   10.6981  -95.6479   -5.1070   26.3474    0.3684    2.7885   -0.0067    0.0281    3.8135   12.0000   12.0000 
5890.5000 1795.4244    7.8750   10.6867  -95.4709   -4.9227   28.6720    0.3908    2.7953   -0.0057    0.0638    3.5970   12.0000   12.0000 
5891.0000 1795.5768    7.8750   10.6750  -95.1504   -4.5950   29.4534    0.3938    2.7871   -0.0057    0.0758    3.4984   12.0000   12.0000 
5891.5000 1795.7293    7.8750   10.6544  -94.9096   -4.3470   27.6458    0.3995    2.7638   -0.0057    0.0605    3.4163   12.0000   12.0000 
5892.0000 1795.8816    7.8750   10.6385  -94.7202   -4.1504   25.8380    0.4053    2.7500   -0.0057    0.0452    3.4099   12.0000   12.0000 
5892.5000 1796.0339    7.8750   10.6386  -94.3689   -3.7918   23.6612    0.4084    2.7347   -0.0057    0.0368    3.4100   12.0000   12.0000 
5893.0000 1796.1864    7.8750   10.6445  -94.0806   -3.4963   21.4843    0.4021    2.7473   -0.0051    0.0284    3.4100   12.0000   12.0000 
5893.5000 1796.3387    7.8750   10.6452  -93.7984   -3.2069   20.3760    0.3957    2.7644   -0.0031    0.0223    3.4101   12.0000   12.0000 
5894.0000 1796.4912    7.8750   10.6311  -93.5282   -2.9295   19.3502    0.3890    2.7890   -0.0016    0.0165    3.4077   12.0000   12.0000 
5894.5000 1796.6436    7.8750   10.6190  -93.4265   -2.8206   20.6633    0.3653    2.8038   -0.0014    0.0228    3.3698   12.0000   12.0000 
5895.0000 1796.7960    7.8750   10.6191  -93.3296   -2.7165   22.0589    0.3402    2.8159   -0.0006    0.0294    3.3093   12.0000   12.0000 
5895.5000 1796.9484    7.8750   10.6192  -93.0480   -2.4276   26.0145    0.3066    2.8206   -0.0006    0.0343    3.2909   12.0000   12.0000 
5896.0000 1797.1008    7.8750   10.6193  -92.8343   -2.2067   27.9629    0.3034    2.8181   -0.0006    0.0368    3.2183   12.0000   12.0000 
5896.5000 1797.2532    7.8750   10.5994  -92.8330   -2.1982   30.4951    0.2985    2.8072   -0.0016    0.0509    3.1870   12.0000   12.0000 
5897.0000 1797.4056    7.8750   10.5795  -92.8316   -2.1896   33.0273    0.2936    2.7873   -0.0029    0.0650    3.1756   12.0000   12.0000 
5897.5000 1797.5580    7.8750   10.5795  -92.8302   -2.1810   34.2432    0.2927    2.7599   -0.0036    0.0609    3.2326   12.0000   12.0000 
5898.0000 1797.7105    7.8750   10.5675  -92.8288   -2.1724   35.4591    0.2982    2.7579   -0.0046    0.0567    3.3500   12.0000   12.0000 
5898.5000 1797.8628    7.8750   10.5723  -92.8278   -2.1642   33.5295    0.3038    2.7578   -0.0046    0.0544    3.2463   12.0000   12.0000 
5899.0000 1798.0151    7.8750   10.5998  -92.8265   -2.1557   31.5999    0.3103    2.7624   -0.0046    0.0521    3.1055   12.0000   12.0000 
