~VERSION INFORMATION
 VERS.                 2.0:   CWLS LOG ASCII STANDARD - VERSION 2.0
 WRAP.                  NO:   SINGLE LINE PER DEPTH STEP
 CREA.                 13/12/2017 11:17:09
#CREATED USING DSPetro VERSION 5000.10.1.3 BY H191660 ON 13/12/2017 11:17:09
~WELL INFORMATION
#MNEM.UNIT       DATA                          DESCRIPTION MNEMONIC
#---------      ---------------------------   --------------------------
 STRT    .FT        0.0000                    : START DEPTH
 STOP    .FT        11486.0000                : STOP DEPTH
 STEP    .FT        0.5000                    : STEP VALUE
 NULL    .      -999.0000                     : NULL VALUE
 DATE    .      13/12/2017                    : LAS file Creation Date
 WELL  .      NESTE_BEVERS_4221935327    : Well Name
 COMP  .      Union Texas petroleum Corp : Company
 FLD   .      WILDCAT                    : Field
 COUNT .      HOCKLEY                    : Country
 UWI   .      DUSWL_935327               : Unique Well Identifier (UWI)
 LOC   .                                 : Location
 PDAT  .      Ground Level               : Permanent Datum
 EPDAT .      3406.0                     : Reference Elevation
 LGMEA .      Kelly Bushing              : Log Measured from
 DRMEA .      Kelly Bushing              : Drill Measured From
 APDAT .      3423                       : Elevation Above Permanent Datum
 KB    .      3423                       : KB Elevation
 DF    .      3422                       : DF Elevation
 GL    .      3406                       : GL Elevation
 RWS   .      0                          : Def_Rw
 WST   .      0                          : Def_Rwt
 DATS  .      20/09/88                   : Spud Date
 MDEC  .      0                          : Magnetic Declination
 SRVC  .      SCH                        : Contractor
~CURVE INFORMATION
#MNEM              UNIT       API CODE   Curve Type Comments
#----------  --------------- ----------  ---------- -----------
 DEPTH      .FT                        : Depth       
 DEPTH_m  .                          :             
 BitSize    .in                        : BitSize     
 CAL_INCH   .inch                      :             Caliper Log - A representation of the measured diameter of a borehole along its depth
 SP_MV      .mv                        : SP          
 SP_Corr    .mv                        : SP          
 GR_API     .API                       : GammaRay    Gamma Ray (API) - Measures the intensity of natural gamma-ray radiation emitted from formations containing radioactive elements, such as K, Th and U
 RES_USL    .usl                       :             Unspecified Resistivity Log - No accroynm or method of attainment is specified - unscaled
 RHOB_G_CC  .g/cc                      :             Bulk Density - Measures the density of bulk material, including any void space or other materials contained in the subject volume
 DRHO_G_CC  .g/cc                      :             Density Correction - Investigates the correction to the Bulk Density log; used as an indication of hole condition to validate the Bulk Density measure
 NPHI_v_v   .ratio                     :             Neutron Porosity - Measured with an neutron logging device calibrated to a given matrix (limestone, sandstone and dolomite)
 PEF_B_E    .b/e-                      : PEF         Photoelectric Factor - A log of photoelectric absorption properties. Often expressed in an approximation unit barns/electron (b/e-)
 LITH       .                          : LITH        Lithology Curve
 LITH_v2    .                          : LITH        Lithology Curve
~A  DEPTH DEPTH_M  BitSize   CAL_INCH   SP_MV    SP_Corr    GR_API   RES_USL  RHOB_G_C~ DRHO_G_C~  NPHI_v_v  PEF_B_E     LITH    LITH_v2  
# ...
10602.0000 3231.4895    7.8750    8.4502  -27.3848    1.0180   82.2113 -999.0000    2.6530   -0.0136    0.0217    3.4904   18.0000   22.0000 
10602.5000 3231.6421    7.8750    8.4698  -27.3842    1.0072   85.6751 -999.0000    2.6489   -0.0113    0.0244    3.5837   18.0000   22.0000 
10603.0000 3231.7944    7.8750    8.5100  -27.3969    0.9830   89.1385 -999.0000    2.6503   -0.0092    0.0271    3.6372   18.0000   22.0000 
10603.5000 3231.9468    7.8750    8.5290  -27.5631    0.8055   84.0217 -999.0000    2.6573   -0.0075    0.0280    3.5767   18.0000   22.0000 
10604.0000 3232.0991    7.8750    8.5100  -27.7808    0.5763   78.9045 -999.0000    2.6617   -0.0068    0.0288    3.4961   18.0000   22.0000 
10604.5000 3232.2517    7.8750    8.5100  -27.9674    0.3783   74.6850 -999.0000    2.6617   -0.0065    0.0292    3.4356   18.0000   22.0000 
10605.0000 3232.4041    7.8750    8.5100  -27.7737    0.5606   70.4654 -999.0000    2.6580   -0.0055    0.0296    3.4274   18.0000   22.0000 
10605.5000 3232.5564    7.8750    8.5100  -27.3800    0.9428   66.3467 -999.0000    2.6549   -0.0055    0.0299    3.4358   18.0000   22.0000 
10606.0000 3232.7087    7.8750    8.5100  -27.3793    0.9321   62.2281 -999.0000    2.6555   -0.0055    0.0302    3.4025   18.0000   22.0000 
10606.5000 3232.8611    7.8750    8.5100  -27.3786    0.9214   63.2320 -999.0000    2.6595   -0.0065    0.0305    3.3203   18.0000   22.0000 
10607.0000 3233.0137    7.8750    8.5100  -27.6396    0.6489   64.2361 -999.0000    2.6646   -0.0065    0.0309    3.3150   18.0000   22.0000 
10607.5000 3233.1660    7.8750    8.5100  -27.7759    0.5012   66.0757 -999.0000    2.6696   -0.0055    0.0321    3.3152   18.0000   22.0000 
10608.0000 3233.3184    7.8750    8.5050  -28.0667    0.1990   67.9152 -999.0000    2.6691   -0.0055    0.0332    3.3236   18.0000   22.0000 
10608.5000 3233.4707    7.8750    8.5351  -27.8667    0.3875   67.1261 -999.0000    2.6641   -0.0045    0.0344    3.3558   18.0000   22.0000 
10609.0000 3233.6233    7.8750    8.5697  -28.0950    0.2091   66.3370 -999.0000    2.6568   -0.0045    0.0356    3.3560   18.0000   22.0000 
10609.5000 3233.7756    7.8750    8.5697  -27.8356    0.5200   64.7352 -999.0000    2.6548   -0.0044    0.0357    3.3561   18.0000   22.0000 
10610.0000 3233.9280    7.8750    8.5790  -27.7724    0.6347   63.1337 -999.0000    2.6598   -0.0044    0.0358    3.3158   18.0000   22.0000 
10610.5000 3234.0803    7.8750    8.5896  -27.4057    1.0527   65.8267 -999.0000    2.6629   -0.0044    0.0357    3.3160   18.0000   22.0000 
10611.0000 3234.2329    7.8750    8.6035  -26.9914    1.5185   68.5198 -999.0000    2.6669   -0.0044    0.0357    3.3563   18.0000   22.0000 
10611.5000 3234.3853    7.8750    8.6256  -26.5772    1.9842   68.3550 -999.0000    2.6680   -0.0064    0.0352    3.4369   18.0000   22.0000 
10612.0000 3234.5376    7.8750    8.6295  -26.1630    2.4498   68.1900 -999.0000    2.6670   -0.0066    0.0346    3.5977   18.0000   22.0000 
10612.5000 3234.6899    7.8750    8.6295  -25.8027    2.8615   67.5902 -999.0000    2.6648   -0.0088    0.0337    3.6600   18.0000   22.0000 
10613.0000 3234.8423    7.8750    8.6295  -26.2358    2.4799   66.9903 -999.0000    2.6623   -0.0112    0.0327    3.6204   18.0000   22.0000 
10613.5000 3234.9949    7.8750    8.6295  -26.7876    1.9795   66.7119 -999.0000    2.6548   -0.0129    0.0323    3.5580   18.0000   22.0000 
10614.0000 3235.1472    7.8750    8.6295  -27.1003    1.7182   66.4335 -999.0000    2.6508   -0.0145    0.0318    3.4125   18.0000   22.0000 
10614.5000 3235.2996    7.8750    8.6354  -27.4007    1.4693   69.2269 -999.0000    2.6492   -0.0155    0.0333    3.3372   18.0000   22.0000 
10615.0000 3235.4519    7.8750    8.6535  -27.5826    1.3388   72.0206 -999.0000    2.6543   -0.0155    0.0348    3.3820   18.0000   22.0000 
10615.5000 3235.6045    7.8750    8.6824  -27.7647    1.2082   77.1194 -999.0000    2.6636   -0.0155    0.0368    3.5459   18.0000   22.0000 
10616.0000 3235.7568    7.8750    8.6958  -27.7640    1.2604   82.2181 -999.0000    2.6693   -0.0155    0.0387    3.7850   18.0000   22.0000 
10616.5000 3235.9092    7.8750    8.7092  -27.8883    1.1875   82.8523 -999.0000    2.6754   -0.0138    0.0370    4.0653   18.0000   22.0000 
10617.0000 3236.0615    7.8750    8.7092  -28.2660    0.8612   83.4858 -999.0000    2.6731   -0.0131    0.0353    4.0520   18.0000   22.0000 
10617.5000 3236.2141    7.8750    8.7092  -28.6244    0.5543   69.8174 -999.0000    2.6687   -0.0104    0.0281    3.9632   18.0000   22.0000 
10618.0000 3236.3665    7.8750    8.7092  -28.9284    0.3017   56.1490 -999.0000    2.6621   -0.0104    0.0208    3.4863   18.0002   22.0001 
10618.5000 3236.5188    7.8750    8.7092  -29.2289    0.0527   53.2226 -999.0000    2.6565   -0.0104    0.0162    3.3293   26.9998   27.0000 
10619.0000 3236.6711    7.8750    8.7092  -29.5745   -0.2415   50.2963 -999.0000    2.6497   -0.0110    0.0115    3.3279   26.9998   26.9998 
10619.5000 3236.8235    7.8750    8.7092  -30.1059   -0.7214   40.8832 -999.0000    2.6469   -0.0134    0.0102    3.6231   18.0002   18.0000 
10620.0000 3236.9761    7.8750    8.7092  -30.4749   -1.0390   31.4700 -999.0000    2.6504   -0.0134    0.0088    3.8696   18.0000   18.0000 
10620.5000 3237.1284    7.8750    8.7092  -31.0778   -1.5905   26.8217 -999.0000    2.6625   -0.0144    0.0078    4.0922   18.0000   18.0000 
10621.0000 3237.2808    7.8750    8.7092  -31.6241   -2.0853   22.1735 -999.0000    2.6815   -0.0134    0.0069    4.3001   18.0000   18.0000 
10621.5000 3237.4331    7.8750    8.7092  -31.9354   -2.3452   18.4461 -999.0000    2.7026   -0.0114    0.0067    4.4305   18.0000   18.0000 
10622.0000 3237.5857    7.8750    8.7092  -32.7286   -3.0870   14.7188 -999.0000    2.7139   -0.0104    0.0065    4.4784   18.0000   18.0000 
10622.5000 3237.7380    7.8750    8.6976  -33.1769   -3.4838   15.0039 -999.0000    2.7198   -0.0104    0.0065    4.5126   18.0000   18.0000 
10623.0000 3237.8904    7.8750    8.6892  -33.9261   -4.1815   15.2894 -999.0000    2.7175   -0.0109    0.0065    4.5596   18.0000   18.0000 
10623.5000 3238.0427    7.8750    8.6786  -34.4753   -4.6793   17.0927 -999.0000    2.7152   -0.0124    0.0069    4.5939   18.0000   18.0000 
10624.0000 3238.1953    7.8750    8.6535  -34.8973   -5.0499   18.8961 -999.0000    2.7073   -0.0145    0.0073    4.6447   18.0000   18.0000 
10624.5000 3238.3477    7.8750    8.6326  -35.6941   -5.7953   20.5518 -999.0000    2.6981   -0.0165    0.0077    4.7166   18.0000   18.0000 
10625.0000 3238.5000    7.8750    8.6270  -36.3983   -6.4480   22.2077 -999.0000    2.6915   -0.0174    0.0082    4.7625   18.0000   18.0000 
10625.5000 3238.6524    7.8750    8.6096  -37.3471   -7.3453   28.3782 -999.0000    2.6915   -0.0174    0.0082    4.7955   18.0000   18.0000 
10626.0000 3238.8047    7.8750    8.5980  -38.1933   -8.1401   34.5490 -999.0000    2.6942   -0.0162    0.0082    4.6188   18.0000   18.0000 
10626.5000 3238.9573    7.8750    8.5896  -38.9531   -8.8485   43.0307 -999.0000    2.6982   -0.0121    0.0061    4.3252   18.0000   18.0000 
10627.0000 3239.1096    7.8750    8.5896  -39.3657   -9.2097   51.5121 -999.0000    2.7039   -0.0083    0.0040    4.0563   18.0000   18.0000 
10627.5000 3239.2620    7.8750    8.5896  -39.8532   -9.6457   48.2495 -999.0000    2.7163   -0.0073    0.0034    4.1008   18.0000   18.0000 
10628.0000 3239.4143    7.8750    8.5724  -40.5893  -10.3304   44.9865 -999.0000    2.7310   -0.0063    0.0028    4.2527   18.0000   18.0000 
10628.5000 3239.5669    7.8750    8.5498  -41.0020  -10.6916   41.0756 -999.0000    2.7235   -0.0063    0.0026    4.3927   18.0000   18.0000 
10629.0000 3239.7192    7.8750    8.5144  -41.5340  -11.1722   37.1650 -999.0000    2.7130   -0.0103    0.0025    4.4327   18.0000   18.0000 
10629.5000 3239.8716    7.8750    8.4821  -42.0400  -11.6268   39.4218 -999.0000    2.6983   -0.0113    0.0028    4.1765   18.0000   18.0000 
10630.0000 3240.0239    7.8750    8.4349  -42.2515  -11.7868   41.6789 -999.0000    2.6888   -0.0123    0.0031    3.9550   18.0000   18.0000 
