~VERSION INFORMATION
 VERS.                 2.0:   CWLS LOG ASCII STANDARD - VERSION 2.0
 WRAP.                  NO:   SINGLE LINE PER DEPTH STEP
 CREA.                 13/12/2017 11:17:09
#CREATED USING DSPetro VERSION 5000.10.1.3 BY H191660 ON 13/12/2017 11:17:09
~WELL INFORMATION
#MNEM.UNIT       DATA                          DESCRIPTION MNEMONIC
#---------      ---------------------------   --------------------------
 STRT    .FT        0.0000                    : START DEPTH
 STOP    .FT        11486.0000                : STOP DEPTH
 STEP    .FT        0.5000                    : STEP VALUE
 NULL    .      -999.0000                     : NULL VALUE
 DATE    .      13/12/2017                    : LAS file Creation Date
 WELL  .      NESTE_BEVERS_4221935327    : Well Name
 COMP  .      Union Texas petroleum Corp : Company
 FLD   .      WILDCAT                    : Field
 COUNT .      HOCKLEY                    : Country
 UWI   .      DUSWL_935327               : Unique Well Identifier (UWI)
 LOC   .                                 : Location
 PDAT  .      Ground Level               : Permanent Datum
 EPDAT .      3406.0                     : Reference Elevation
 LGMEA .      Kelly Bushing              : Log Measured from
 DRMEA .      Kelly Bushing              : Drill Measured From
 APDAT .      3423                       : Elevation Above Permanent Datum
 KB    .      3423                       : KB Elevation
 DF    .      3422                       : DF Elevation
 GL    .      3406                       : GL Elevation
 RWS   .      0                          : Def_Rw
 WST   .      0                          : Def_Rwt
 DATS  .      20/09/88                   : Spud Date
 MDEC  .      0                          : Magnetic Declination
 SRVC  .      SCH                        : Contractor
~CURVE INFORMATION
#MNEM              UNIT       API CODE   Curve Type Comments
#----------  --------------- ----------  ---------- -----------
 DEPTH      .FT                        : Depth       
 DEPTH_m  .                          :             
 BitSize    .in                        : BitSize     
 CAL_INCH   .inch                      :             Caliper Log - A representation of the measured diameter of a borehole along its depth
 SP_MV      .mv                        : SP          
 SP_Corr    .mv                        : SP          
 GR_API     .API                       : GammaRay    Gamma Ray (API) - Measures the intensity of natural gamma-ray radiation emitted from formations containing radioactive elements, such as K, Th and U
 RES_USL    .usl                       :             Unspecified Resistivity Log - No accroynm or method of attainment is specified - unscaled
 RHOB_G_CC  .g/cc                      :             Bulk Density - Measures the density of bulk material, including any void space or other materials contained in the subject volume
 DRHO_G_CC  .g/cc                      :             Density Correction - Investigates the correction to the Bulk Density log; used as an indication of hole condition to validate the Bulk Density measure
 NPHI_v_v   .ratio                     :             Neutron Porosity - Measured with an neutron logging device calibrated to a given matrix (limestone, sandstone and dolomite)
 PEF_B_E    .b/e-                      : PEF         Photoelectric Factor - A log of photoelectric absorption properties. Often expressed in an approximation unit barns/electron (b/e-)
 LITH       .                          : LITH        Lithology Curve
 LITH_v2    .                          : LITH        Lithology Curve
~A  DEPTH DEPTH_M  BitSize   CAL_INCH   SP_MV    SP_Corr    GR_API   RES_USL  RHOB_G_C~ DRHO_G_C~  NPHI_v_v  PEF_B_E     LITH    LITH_v2  
# ...
6583.5000 2006.6508    7.8750   10.0154  -98.6173   -2.8660   39.5045    0.0779    2.5662   -0.0075    0.1459    2.6712   12.0000   12.0000 
6584.0000 2006.8032    7.8750    9.9934  -98.6147   -2.8387   38.5399    0.0775    2.5590   -0.0094    0.1457    2.6914   12.0000   12.0000 
6584.5000 2006.9556    7.8750    9.9557  -98.6122   -2.8114   38.8968    0.0770    2.5511   -0.0095    0.1420    2.6856   12.0000   12.0000 
6585.0000 2007.1080    7.8750    9.9558  -98.6095   -2.7840   39.0936    0.0761    2.5452   -0.0095    0.1400    2.6713   12.0000   12.0000 
6585.5000 2007.2604    7.8750    9.9345  -98.6070   -2.7569   40.3401    0.0749    2.5365   -0.0095    0.1445    2.6116   12.0001   12.0001 
6586.0000 2007.4128    7.8750    9.9097  -98.6045   -2.7297   41.5866    0.0737    2.5221   -0.0095    0.1490    2.5701   35.9998   35.9999 
6586.5000 2007.5652    7.8750    9.8963  -98.6013   -2.7018   42.5389    0.0718    2.5281   -0.0075    0.1516    2.5297   12.0001   12.0000 
6587.0000 2007.7177    7.8750    9.8964  -98.5992   -2.6750   43.4912    0.0693    2.5332   -0.0075    0.1543    2.4874   12.0000   12.0000 
6587.5000 2007.8700    7.8750    9.8965  -98.5969   -2.6480   44.6680    0.0667    2.5393   -0.0070    0.1537    2.4488   12.0000   12.0000 
6588.0000 2008.0223    7.8750    9.8967  -98.5943   -2.6207   45.8446    0.0640    2.5414   -0.0065    0.1532    2.4893   12.0000   12.0000 
6588.5000 2008.1748    7.8750    9.8968  -98.5918   -2.5935   44.2698    0.0605    2.5414   -0.0065    0.1516    2.4926   12.0000   12.0000 
6589.0000 2008.3272    7.8750    9.8969  -98.5892   -2.5663   42.6950    0.0570    2.5414   -0.0065    0.1500    2.5533   12.0000   12.0000 
6589.5000 2008.4796    7.8750    9.8971  -98.5867   -2.5390   41.1700    0.0530    2.5397   -0.0065    0.1567    2.5826   12.0000   12.0000 
6590.0000 2008.6320    7.8750    9.8972  -98.7861   -2.7137   40.0001    0.0511    2.5352   -0.0065    0.1619    2.5299   12.0000   12.0000 
6590.5000 2008.7844    7.8750    9.8974  -98.9622   -2.8652   41.1967    0.0489    2.5241   -0.0065    0.1638    2.4576   12.0000   12.0000 
6591.0000 2008.9368    7.8750    9.8976  -99.1665   -3.0447   42.6097    0.0458    2.5137   -0.0073    0.1656    2.4050   12.0000   12.0000 
6591.5000 2009.0892    7.8750    9.8976  -99.5542   -3.4078   42.9153    0.0448    2.5165   -0.0085    0.1655    2.4287   12.0000   12.0000 
6592.0000 2009.2416    7.8750    9.8978  -99.7729   -3.6017   43.4371    0.0433    2.5212   -0.0085    0.1654    2.5164   12.0000   12.0000 
6592.5000 2009.3940    7.8750    9.8979  -99.7706   -3.5748   42.8368    0.0418    2.5232   -0.0071    0.1600    2.6372   12.0000   12.0000 
6593.0000 2009.5464    7.8750    9.8981  -99.7676   -3.5471   42.2366    0.0402    2.5177   -0.0054    0.1546    2.7324   12.0001   12.0001 
6593.5000 2009.6989    7.8750    9.8982  -99.7648   -3.5196   43.5855    0.0388    2.5042   -0.0045    0.1521    2.7263   35.9999   36.0000 
6594.0000 2009.8512    7.8750    9.8983  -99.7630   -3.4931   44.9344    0.0374    2.4905   -0.0036    0.1496    2.6031   36.0000   36.0000 
6594.5000 2010.0035    7.8750    9.8985  -99.7605   -3.4659   46.2475    0.0360    2.4701   -0.0035    0.1525    2.4832   36.0000   36.0000 
6595.0000 2010.1560    7.8750    9.8986  -99.7579   -3.4386   47.6316    0.0345    2.4646   -0.0035    0.1556    2.4694   36.0000   36.0000 
6595.5000 2010.3084    7.8750    9.8988  -99.7553   -3.4114   47.7667    0.0331    2.4738   -0.0034    0.1518    2.5002   36.0000   36.0000 
6596.0000 2010.4608    7.8750    9.8989  -99.7528   -3.3841   47.3001    0.0313    2.4951   -0.0034    0.1475    2.5452   36.0000   36.0000 
6596.5000 2010.6132    7.8750    9.8990  -99.7502   -3.3569   45.5532    0.0310    2.5055   -0.0034    0.1461    2.5302   36.0000   36.0000 
6597.0000 2010.7656    7.8750    9.8992  -99.7476   -3.3296   43.2047    0.0307    2.5152   -0.0034    0.1442    2.4695   36.0000   36.0000 
6597.5000 2010.9180    7.8750    9.8993  -99.7452   -3.3024   44.0166    0.0304    2.5172   -0.0065    0.1442    2.4088   36.0000   36.0000 
6598.0000 2011.0704    7.8750    9.8994  -99.7425   -3.2751   44.8286    0.0302    2.5144   -0.0082    0.1441    2.3886   36.0000   36.0000 
6598.5000 2011.2228    7.8750    9.8996  -99.7394   -3.2473   45.6196    0.0301    2.5068   -0.0105    0.1490    2.4233   36.0000   36.0000 
6599.0000 2011.3752    7.8750    9.8997  -99.7375   -3.2207   46.4107    0.0301    2.5021   -0.0118    0.1538    2.4494   36.0000   36.0000 
6599.5000 2011.5276    7.8750    9.8999  -99.7354   -3.1939   45.8568    0.0301    2.4960   -0.0126    0.1561    2.4291   36.0000   36.0000 
6600.0000 2011.6801    7.8750    9.9001  -99.7714   -3.2053   45.3030    0.0303    2.4949   -0.0126    0.1585    2.4494   36.0000   36.0000 
6600.5000 2011.8324    7.8750    9.9004 -100.1297   -3.5388   44.9554    0.0306    2.4960   -0.0120    0.1553    2.4698   36.0000   36.0000 
6601.0000 2011.9847    7.8750    9.9008 -100.1272   -3.5116   44.7015    0.0308    2.4924   -0.0087    0.1518    2.5142   36.0000   36.0000 
6601.5000 2012.1372    7.8750    9.9011 -100.1247   -3.4844   45.5567    0.0314    2.4877   -0.0075    0.1491    2.5472   36.0000   36.0000 
6602.0000 2012.2896    7.8750    9.9014 -100.1221   -3.4572   46.5057    0.0321    2.4828   -0.0048    0.1462    2.5717   36.0000   36.0000 
6602.5000 2012.4420    7.8750    9.9019 -100.1196   -3.4299   49.0958    0.0330    2.4858   -0.0044    0.1448    2.5629   36.0000   36.0000 
6603.0000 2012.5944    7.8750    9.9022 -100.1170   -3.4027   50.2553    0.0338    2.4869   -0.0044    0.1442    2.5156   36.0000   36.0000 
6603.5000 2012.7468    7.8750    9.9025 -100.1141   -3.3751   53.0633    0.0350    2.4857   -0.0034    0.1489    2.3904   36.0000   36.0000 
6604.0000 2012.8992    7.8750    9.9029 -100.1119   -3.3482   55.8713    0.0363    2.4804   -0.0034    0.1536    2.3498   36.0000   36.0000 
6604.5000 2013.0516    7.8750    9.9146 -100.1095   -3.3211   54.8340    0.0379    2.4680   -0.0024    0.1570    2.2893   36.0000   36.0000 
6605.0000 2013.2040    7.8750    9.9436 -100.1060   -3.2929   53.7966    0.0400    2.4579   -0.0003    0.1605    2.2895   36.0000   36.0000 
6605.5000 2013.3564    7.8750    9.9455 -100.1042   -3.2664   52.4612    0.0422    2.4556    0.0007    0.1571    2.3125   36.0000   36.0000 
6606.0000 2013.5088    7.8750    9.9643 -100.1018   -3.2393   51.1258    0.0445    2.4571    0.0005    0.1537    2.3533   36.0000   36.0000 
6606.5000 2013.6613    7.8750    9.9847 -100.0993   -3.2121   50.4941    0.0491    2.4628    0.0016    0.1518    2.4115   36.0000   36.0000 
6607.0000 2013.8136    7.8750   10.0007 -100.2206   -3.3088   49.8624    0.0538    2.4692    0.0018    0.1498    2.4320   36.0000   36.0000 
6607.5000 2013.9659    7.8750   10.0100 -100.4313   -3.4948   50.1877    0.0596    2.4873    0.0003    0.1474    2.4322   36.0000   36.0000 
6608.0000 2014.1184    7.8750   10.0258 -100.4916   -3.5303   50.3939    0.0616    2.4933   -0.0002    0.1458    2.4324   36.0000   36.0000 
6608.5000 2014.2708    7.8750   10.0397 -100.4890   -3.5031   50.6627    0.0643    2.4996   -0.0011    0.1445    2.4528   36.0000   36.0000 
6609.0000 2014.4232    7.8750   10.0465 -100.4865   -3.4758   50.9314    0.0669    2.4961   -0.0023    0.1432    2.4935   36.0000   36.0000 
6609.5000 2014.5756    7.8750   10.0468 -100.4839   -3.4486   48.3824    0.0687    2.4973   -0.0033    0.1433    2.5342   36.0000   36.0000 
6610.0000 2014.7280    7.8750   10.0472 -100.4810   -3.4210   45.8334    0.0697    2.4982   -0.0012    0.1434    2.5498   36.0000   36.0000 
6610.5000 2014.8804    7.8750   10.0347 -100.4786   -3.3939   45.3750    0.0707    2.4992    0.0018    0.1441    2.5346   36.0000   36.0000 
6611.0000 2015.0328    7.8750   10.0279 -100.8634   -3.7540   44.9167    0.0716    2.4992    0.0018    0.1448    2.5551   36.0000   36.0000 
6611.5000 2015.1852    7.8750   10.0283 -101.2193   -4.0852   45.9140    0.0719    2.4983    0.0029    0.1476    2.6016   36.0000   36.0000 
