~VERSION INFORMATION
 VERS.                 2.0:   CWLS LOG ASCII STANDARD - VERSION 2.0
 WRAP.                  NO:   SINGLE LINE PER DEPTH STEP
 CREA.                 13/12/2017 11:17:09
#CREATED USING DSPetro VERSION 5000.10.1.3 BY H191660 ON 13/12/2017 11:17:09
~WELL INFORMATION
#MNEM.UNIT       DATA                          DESCRIPTION MNEMONIC
#---------      ---------------------------   --------------------------
 STRT    .FT        0.0000                    : START DEPTH
 STOP    .FT        11486.0000                : STOP DEPTH
 STEP    .FT        0.5000                    : STEP VALUE
 NULL    .      -999.0000                     : NULL VALUE
 DATE    .      13/12/2017                    : LAS file Creation Date
 WELL  .      NESTE_BEVERS_4221935327    : Well Name
 COMP  .      Union Texas petroleum Corp : Company
 FLD   .      WILDCAT                    : Field
 COUNT .      HOCKLEY                    : Country
 UWI   .      DUSWL_935327               : Unique Well Identifier (UWI)
 LOC   .                                 : Location
 PDAT  .      Ground Level               : Permanent Datum
 EPDAT .      3406.0                     : Reference Elevation
 LGMEA .      Kelly Bushing              : Log Measured from
 DRMEA .      Kelly Bushing              : Drill Measured From
 APDAT .      3423                       : Elevation Above Permanent Datum
 KB    .      3423                       : KB Elevation
 DF    .      3422                       : DF Elevation
 GL    .      3406                       : GL Elevation
 RWS   .      0                          : Def_Rw
 WST   .      0                          : Def_Rwt
 DATS  .      20/09/88                   : Spud Date
 MDEC  .      0                          : Magnetic Declination
 SRVC  .      SCH                        : Contractor
~CURVE INFORMATION
#MNEM              UNIT       API CODE   Curve Type Comments
#----------  --------------- ----------  ---------- -----------
 DEPTH      .FT                        : Depth       
 DEPTH_m  .                          :             
 BitSize    .in                        : BitSize     
 CAL_INCH   .inch                      :             Caliper Log - A representation of the measured diameter of a borehole along its depth
 SP_MV      .mv                        : SP          
 SP_Corr    .mv                        : SP          
 GR_API     .API                       : GammaRay    Gamma Ray (API) - Measures the intensity of natural gamma-ray radiation emitted from formations containing radioactive elements, such as K, Th and U
 RES_USL    .usl                       :             Unspecified Resistivity Log - No accroynm or method of attainment is specified - unscaled
 RHOB_G_CC  .g/cc                      :             Bulk Density - Measures the density of bulk material, including any void space or other materials contained in the subject volume
 DRHO_G_CC  .g/cc                      :             Density Correction - Investigates the correction to the Bulk Density log; used as an indication of hole condition to validate the Bulk Density measure
 NPHI_v_v   .ratio                     :             Neutron Porosity - Measured with an neutron logging device calibrated to a given matrix (limestone, sandstone and dolomite)
 PEF_B_E    .b/e-                      : PEF         Photoelectric Factor - A log of photoelectric absorption properties. Often expressed in an approximation unit barns/electron (b/e-)
 LITH       .                          : LITH        Lithology Curve
 LITH_v2    .                          : LITH        Lithology Curve
~A  DEPTH DEPTH_M  BitSize   CAL_INCH   SP_MV    SP_Corr    GR_API   RES_USL  RHOB_G_C~ DRHO_G_C~  NPHI_v_v  PEF_B_E     LITH    LITH_v2  
# ...
10972.5000 3344.4180    7.8750    8.7345  -48.6228  -17.0057   11.0939 -999.0000    2.7374   -0.0071   -0.0083    4.5348   18.0000   18.0000 
10973.0000 3344.5703    7.8750    8.7228  -48.6385  -17.0508   11.0941 -999.0000    2.7321   -0.0071   -0.0098    4.3825   18.0000   18.0000 
10973.5000 3344.7229    7.8750    8.6946  -48.9232  -17.3649   12.8691 -999.0000    2.7161   -0.0071   -0.0040    4.1714   18.0000   18.0000 
10974.0000 3344.8753    7.8750    8.7146  -49.2954  -17.7664   14.6442 -999.0000    2.7023   -0.0078    0.0019    3.9844   18.0001   18.0000 
10974.5000 3345.0276    7.8750    8.7458  -49.6003  -18.1008   15.5484 -999.0000    2.6884   -0.0081    0.0097    3.8686   21.9998   18.0000 
10975.0000 3345.1799    7.8750    8.6946  -50.0266  -18.5564   16.4526 -999.0000    2.6803   -0.0081    0.0175    3.9980   18.0001   18.0000 
10975.5000 3345.3323    7.8750    8.6946  -50.4361  -18.9953   17.2220 -999.0000    2.6793   -0.0081    0.0179    4.1314   18.0000   18.0000 
10976.0000 3345.4849    7.8750    8.6619  -51.0072  -19.5958   17.9913 -999.0000    2.6793   -0.0076    0.0183    4.2372   18.0000   18.0000 
10976.5000 3345.6372    7.8750    8.6547  -51.5237  -20.1417   17.0919 -999.0000    2.6809   -0.0070    0.0139    4.2933   18.0000   18.0000 
10977.0000 3345.7896    7.8750    8.6194  -51.8676  -20.5150   16.1925 -999.0000    2.6884   -0.0070    0.0096    4.3944   18.0000   18.0000 
10977.5000 3345.9419    7.8750    8.5948  -52.2248  -20.9016   15.5984 -999.0000    2.6949   -0.0078    0.0070    4.4966   18.0000   18.0000 
10978.0000 3346.0945    7.8750    8.5749  -52.5154  -21.2216   15.0043 -999.0000    2.7015   -0.0090    0.0044    4.6957   18.0000   18.0000 
10978.5000 3346.2468    7.8750    8.5749  -52.6148  -21.3504   14.3992 -999.0000    2.6928   -0.0100    0.0039    4.7879   18.0000   18.0000 
10979.0000 3346.3992    7.8750    8.5749  -52.6148  -21.3798   13.7942 -999.0000    2.6783   -0.0114    0.0034    4.7988   18.0000   18.0000 
10979.5000 3346.5515    7.8750    8.5749  -52.6148  -21.4092   13.4945 -999.0000    2.6611   -0.0140    0.0036    4.7579   18.0002   18.0000 
10980.0000 3346.7041    7.8750    8.5749  -52.6148  -21.4386   13.1947 -999.0000    2.6480   -0.0161    0.0038    4.5728   26.9998   18.0000 
10980.5000 3346.8565    7.8750    8.5749  -52.6148  -21.4680   13.0266 -999.0000    2.6409   -0.0171    0.0083    4.2648   26.9998   18.0000 
10981.0000 3347.0088    7.8750    8.5749  -52.6148  -21.4974   12.8585 -999.0000    2.6429   -0.0171    0.0128    4.0923   18.0002   18.0000 
10981.5000 3347.1611    7.8750    8.5749  -52.6148  -21.5268   12.1272 -999.0000    2.6408   -0.0171    0.0151    4.1653   18.0000   18.0000 
10982.0000 3347.3135    7.8750    8.5749  -52.6148  -21.5562   11.3959 -999.0000    2.6362   -0.0160    0.0173    4.3752   18.0000   18.0000 
10982.5000 3347.4661    7.8750    8.5749  -52.6148  -21.5856    9.9976 -999.0000    2.6290   -0.0160    0.0212    4.5455   18.0000   18.0000 
10983.0000 3347.6184    7.8750    8.5749  -52.6148  -21.6150    8.5994 -999.0000    2.6249   -0.0154    0.0251    4.6459   18.0000   18.0000 
10983.5000 3347.7708    7.8750    8.5948  -52.6148  -21.6444    8.3484 -999.0000    2.6287   -0.0147    0.0249    4.6382   18.0000   18.0000 
10984.0000 3347.9231    7.8750    8.6148  -52.6148  -21.6738    8.0974 -999.0000    2.6308   -0.0139    0.0247    4.5672   18.0000   18.0000 
10984.5000 3348.0757    7.8750    8.5948  -52.6148  -21.7032    8.1544 -999.0000    2.6308   -0.0127    0.0235    4.4640   18.0000   18.0000 
10985.0000 3348.2280    7.8750    8.6148  -52.4587  -21.5765    8.2115 -999.0000    2.6287   -0.0108    0.0223    4.4972   18.0000   18.0000 
10985.5000 3348.3804    7.8750    8.6015  -52.2698  -21.4170    8.6045 -999.0000    2.6328   -0.0091    0.0203    4.5781   18.0000   18.0000 
10986.0000 3348.5327    7.8750    8.5948  -52.2156  -21.3922    8.9975 -999.0000    2.6471   -0.0069    0.0183    4.6628   18.0000   18.0000 
10986.5000 3348.6853    7.8750    8.5948  -52.2156  -21.4215    9.6973 -999.0000    2.6523   -0.0056    0.0165    4.5227   18.0000   18.0000 
10987.0000 3348.8377    7.8750    8.5579  -52.2156  -21.4509   10.3972 -999.0000    2.6590   -0.0038    0.0147    4.3765   18.0000   18.0000 
10987.5000 3348.9900    7.8750    8.5349  -52.2156  -21.4803   11.5751 -999.0000    2.6628   -0.0038    0.0122    4.2531   18.0000   18.0000 
10988.0000 3349.1423    7.8750    8.5154  -51.9865  -21.2806   12.7530 -999.0000    2.6661   -0.0038    0.0096    4.0940   18.0000   18.0000 
10988.5000 3349.2947    7.8750    8.4950  -52.0455  -21.3691   13.8749 -999.0000    2.6705   -0.0058    0.0062    4.0538   18.0000   18.0000 
10989.0000 3349.4473    7.8750    8.4728  -51.8660  -21.2189   14.9966 -999.0000    2.6775   -0.0068    0.0029    4.0741   18.0000   18.0000 
10989.5000 3349.5996    7.8750    8.4351  -51.2775  -20.6599   13.7971 -999.0000    2.6856   -0.0068    0.0016    4.2630   18.0000   18.0000 
10990.0000 3349.7520    7.8750    8.4152  -50.7347  -20.1464   12.5976 -999.0000    2.6852   -0.0058    0.0004    4.5185   18.0000   18.0000 
10990.5000 3349.9043    7.8750    8.4026  -49.8955  -19.3366   14.4854 -999.0000    2.6863   -0.0050   -0.0001    4.3700   18.0000   18.0000 
10991.0000 3350.0569    7.8750    8.4079  -48.9021  -18.3726   16.3732 -999.0000    2.6856   -0.0048   -0.0006    4.0897   18.0000   18.0000 
10991.5000 3350.2092    7.8750    8.3753  -48.3434  -17.8433   15.7252 -999.0000    2.6832   -0.0048   -0.0006    3.8398   18.0000   18.0000 
10992.0000 3350.3616    7.8750    8.3653  -48.2236  -17.7529   15.0771 -999.0000    2.6812   -0.0047   -0.0006    3.7572   18.0000   18.0000 
10992.5000 3350.5139    7.8750    8.3353  -48.2236  -17.7823   13.9345 -999.0000    2.6822   -0.0047   -0.0006    3.7115   18.0000   18.0000 
10993.0000 3350.6665    7.8750    8.3353  -48.2236  -17.8117   12.7919 -999.0000    2.6823   -0.0086   -0.0006    3.8678   18.0000   18.0000 
10993.5000 3350.8189    7.8750    8.3353  -47.9945  -17.6119   11.7953 -999.0000    2.6802   -0.0108   -0.0002    3.9881   18.0000   18.0000 
10994.0000 3350.9712    7.8750    8.3353  -47.8244  -17.4713   10.7987 -999.0000    2.6771   -0.0138    0.0002    4.1407   18.0000   18.0000 
10994.5000 3351.1235    7.8750    8.3353  -47.8244  -17.5007   10.4236 -999.0000    2.6782   -0.0138    0.0031    4.3084   18.0000   18.0000 
10995.0000 3351.2759    7.8750    8.3353  -47.8244  -17.5301   10.0486 -999.0000    2.6832   -0.0138    0.0060    4.3581   18.0000   18.0000 
10995.5000 3351.4285    7.8750    8.3353  -47.8244  -17.5595    9.8239 -999.0000    2.6862   -0.0138    0.0075    4.3666   18.0000   18.0000 
10996.0000 3351.5808    7.8750    8.3353  -48.0536  -17.8180    9.5992 -999.0000    2.6800   -0.0138    0.0090    4.3381   18.0000   18.0000 
10996.5000 3351.7332    7.8750    8.3353  -48.6163  -18.4102    9.4493 -999.0000    2.6728   -0.0137    0.0089    4.3181   18.0000   18.0000 
10997.0000 3351.8855    7.8750    8.3353  -49.6033  -19.4266    9.2994 -999.0000    2.6666   -0.0125    0.0088    4.3727   18.0000   18.0000 
10997.5000 3352.0381    7.8750    8.3154  -50.5251  -20.3777    9.2995 -999.0000    2.6665   -0.0107    0.0077    4.6754   18.0000   18.0000 
10998.0000 3352.1904    7.8750    8.3154  -51.1654  -21.0474    9.2996 -999.0000    2.6768   -0.0107    0.0067    4.8322   18.0000   18.0000 
10998.5000 3352.3428    7.8750    8.3154  -51.5443  -21.4557    9.3300 -999.0000    2.6902   -0.0095    0.0054    5.0451   18.0000   18.0000 
10999.0000 3352.4951    7.8750    8.3135  -51.7952  -21.7360    9.3604 -999.0000    2.6902   -0.0087    0.0041    5.0452   18.0000   18.0000 
10999.5000 3352.6477    7.8750    8.3774  -52.0860  -22.0562    9.7498 -999.0000    2.6879   -0.0076    0.0030    4.9751   18.0000   18.0000 
11000.0000 3352.8001    7.8750    8.3453  -52.4447  -22.4443 -999.0000 -999.0000    2.6766   -0.0064 -999.0000    4.2991   18.0001 -999.0000 
11000.5000 3352.9524    7.8750    8.3053  -52.6148  -22.6438 -999.0000 -999.0000    2.6794   -0.0056 -999.0000    4.1959   21.9999 -999.0000 
