~VERSION INFORMATION
 VERS.                 2.0:   CWLS LOG ASCII STANDARD - VERSION 2.0
 WRAP.                  NO:   SINGLE LINE PER DEPTH STEP
 CREA.                 13/12/2017 11:17:09
#CREATED USING DSPetro VERSION 5000.10.1.3 BY H191660 ON 13/12/2017 11:17:09
~WELL INFORMATION
#MNEM.UNIT       DATA                          DESCRIPTION MNEMONIC
#---------      ---------------------------   --------------------------
 STRT    .FT        0.0000                    : START DEPTH
 STOP    .FT        11486.0000                : STOP DEPTH
 STEP    .FT        0.5000                    : STEP VALUE
 NULL    .      -999.0000                     : NULL VALUE
 DATE    .      13/12/2017                    : LAS file Creation Date
 WELL  .      NESTE_BEVERS_4221935327    : Well Name
 COMP  .      Union Texas petroleum Corp : Company
 FLD   .      WILDCAT                    : Field
 COUNT .      HOCKLEY                    : Country
 UWI   .      DUSWL_935327               : Unique Well Identifier (UWI)
 LOC   .                                 : Location
 PDAT  .      Ground Level               : Permanent Datum
 EPDAT .      3406.0                     : Reference Elevation
 LGMEA .      Kelly Bushing              : Log Measured from
 DRMEA .      Kelly Bushing              : Drill Measured From
 APDAT .      3423                       : Elevation Above Permanent Datum
 KB    .      3423                       : KB Elevation
 DF    .      3422                       : DF Elevation
 GL    .      3406                       : GL Elevation
 RWS   .      0                          : Def_Rw
 WST   .      0                          : Def_Rwt
 DATS  .      20/09/88                   : Spud Date
 MDEC  .      0                          : Magnetic Declination
 SRVC  .      SCH                        : Contractor
~CURVE INFORMATION
#MNEM              UNIT       API CODE   Curve Type Comments
#----------  --------------- ----------  ---------- -----------
 DEPTH      .FT                        : Depth       
 DEPTH_m  .                          :             
 BitSize    .in                        : BitSize     
 CAL_INCH   .inch                      :             Caliper Log - A representation of the measured diameter of a borehole along its depth
 SP_MV      .mv                        : SP          
 SP_Corr    .mv                        : SP          
 GR_API     .API                       : GammaRay    Gamma Ray (API) - Measures the intensity of natural gamma-ray radiation emitted from formations containing radioactive elements, such as K, Th and U
 RES_USL    .usl                       :             Unspecified Resistivity Log - No accroynm or method of attainment is specified - unscaled
 RHOB_G_CC  .g/cc                      :             Bulk Density - Measures the density of bulk material, including any void space or other materials contained in the subject volume
 DRHO_G_CC  .g/cc                      :             Density Correction - Investigates the correction to the Bulk Density log; used as an indication of hole condition to validate the Bulk Density measure
 NPHI_v_v   .ratio                     :             Neutron Porosity - Measured with an neutron logging device calibrated to a given matrix (limestone, sandstone and dolomite)
 PEF_B_E    .b/e-                      : PEF         Photoelectric Factor - A log of photoelectric absorption properties. Often expressed in an approximation unit barns/electron (b/e-)
 LITH       .                          : LITH        Lithology Curve
 LITH_v2    .                          : LITH        Lithology Curve
~A  DEPTH DEPTH_M  BitSize   CAL_INCH   SP_MV    SP_Corr    GR_API   RES_USL  RHOB_G_C~ DRHO_G_C~  NPHI_v_v  PEF_B_E     LITH    LITH_v2  
# ...
6954.0000 2119.5791    7.8750   10.6332 -101.6596   -1.2790   47.8288    0.0723    2.5669   -0.0136    0.1214    2.6736   36.0000   12.0001 
6954.5000 2119.7317    7.8750   10.7014 -101.6582   -1.2760   50.1696    0.0705    2.5649   -0.0136    0.1195    2.6073   36.0000   36.0000 
6955.0000 2119.8840    7.8750   10.7713 -101.6568   -1.2731   52.5103    0.0687    2.5607   -0.0136    0.1176    2.5147   36.0000   36.0000 
6955.5000 2120.0364    7.8750   10.8460 -101.6555   -1.2701   53.3823    0.0667    2.5578   -0.0103    0.1149    2.4527   36.0000   36.0000 
6956.0000 2120.1887    7.8750   10.9233 -101.6540   -1.2671   54.2543    0.0640    2.5631   -0.0096    0.1121    2.4253   36.0000   36.0000 
6956.5000 2120.3413    7.8750   11.0103 -101.6525   -1.2640   56.1489    0.0613    2.5710   -0.0096    0.1103    2.5399   36.0000   36.0000 
6957.0000 2120.4937    7.8750   11.0165 -101.6513   -1.2612   58.1253    0.0585    2.5688   -0.0100    0.1083    2.6417   36.0000   36.0000 
6957.5000 2120.6460    7.8750   11.0356 -101.6498   -1.2582   60.0825    0.0566    2.5622   -0.0106    0.1064    2.6678   36.0000   36.0000 
6958.0000 2120.7983    7.8750   11.0556 -101.6480   -1.2548   62.1215    0.0546    2.5546   -0.0106    0.1043    2.6126   36.0000   36.0000 
6958.5000 2120.9507    7.8750   11.1003 -101.6472   -1.2523   60.3386    0.0520    2.5467   -0.0100    0.1056    2.5344   36.0000   36.0000 
6959.0000 2121.1033    7.8750   11.1522 -101.6458   -1.2494   59.4255    0.0517    2.5414   -0.0087    0.1062    2.5091   36.0000   36.0000 
6959.5000 2121.2556    7.8750   11.2153 -101.6444   -1.2464   59.9888    0.0513    2.5328   -0.0066    0.1084    2.5061   36.0000   36.0000 
6960.0000 2121.4080    7.8750   11.2736 -101.6430   -1.2435   60.5521    0.0508    2.5285   -0.0066    0.1107    2.5245   36.0000   36.0000 
6960.5000 2121.5603    7.8750   11.3137 -101.6416   -1.2404   61.4446    0.0504    2.5366   -0.0066    0.1129    2.5819   36.0000   36.0000 
6961.0000 2121.7129    7.8750   11.3525 -101.6402   -1.2375   62.3370    0.0500    2.5366   -0.0066    0.1152    2.6459   36.0000   36.0000 
6961.5000 2121.8652    7.8750   11.3568 -101.6389   -1.2346   63.6701    0.0495    2.5318   -0.0079    0.1175    2.6485   36.0000   36.0000 
6962.0000 2122.0176    7.8750   11.3750 -101.6375   -1.2316   65.0031    0.0491    2.5265   -0.0104    0.1198    2.6475   36.0000   36.0000 
6962.5000 2122.1699    7.8750   11.4149 -101.6361   -1.2287   65.4105    0.0487    2.5221   -0.0146    0.1240    2.6063   36.0000   36.0000 
6963.0000 2122.3225    7.8750   11.4349 -101.6344   -1.2253   65.8179    0.0482    2.5178   -0.0156    0.1283    2.6070   36.0000   36.0000 
6963.5000 2122.4749    7.8750   11.4515 -101.6333   -1.2227   64.1200    0.0477    2.5099   -0.0156    0.1305    2.6201   36.0000   36.0000 
6964.0000 2122.6272    7.8750   11.4339 -101.6320   -1.2198   62.9004    0.0474    2.5039   -0.0156    0.1322    2.5837   36.0000   36.0000 
6964.5000 2122.7795    7.8750   11.4749 -101.6306   -1.2168   61.5832    0.0469    2.4911   -0.0146    0.1325    2.5626   36.0000   36.0000 
6965.0000 2122.9319    7.8750   11.4839 -101.6292   -1.2138   60.5313    0.0463    2.4843   -0.0136    0.1312    2.4758   36.0000   36.0000 
6965.5000 2123.0845    7.8750   11.4949 -101.6278   -1.2109   60.8584    0.0462    2.4846   -0.0135    0.1293    2.4387   36.0000   36.0000 
6966.0000 2123.2368    7.8750   11.4915 -101.6264   -1.2079   61.4509    0.0460    2.4886   -0.0126    0.1257    2.4049   36.0000   36.0000 
6966.5000 2123.3892    7.8750   11.5548 -101.6251   -1.2050   63.0152    0.0458    2.4921   -0.0126    0.1193    2.4049   36.0000   36.0000 
6967.0000 2123.5415    7.8750   11.5549 -101.6237   -1.2020   64.5794    0.0457    2.4951   -0.0133    0.1130    2.4138   36.0000   36.0000 
6967.5000 2123.6941    7.8750   11.5795 -101.6224   -1.1991   66.6858    0.0457    2.4977   -0.0148    0.1081    2.4344   36.0000   36.0000 
6968.0000 2123.8464    7.8750   11.5749 -101.6209   -1.1960   68.7922    0.0457    2.5042   -0.0164    0.1032    2.4951   36.0000   36.0000 
6968.5000 2123.9988    7.8750   11.5949 -101.6195   -1.1930   69.7987    0.0457    2.5078   -0.0184    0.1026    2.5261   36.0000   36.0000 
6969.0000 2124.1511    7.8750   11.6336 -101.6181   -1.1901   70.8052    0.0456    2.5089   -0.0187    0.1019    2.5463   36.0000   36.0000 
6969.5000 2124.3037    7.8750   11.6747 -101.6165   -1.1869   70.2846    0.0455    2.5064   -0.0187    0.1101    2.5665   36.0000   36.0000 
6970.0000 2124.4561    7.8750   11.6757 -101.6152   -1.1840   69.5432    0.0454    2.5015   -0.0181    0.1188    2.5994   36.0000   36.0000 
6970.5000 2124.6084    7.8750   11.7271 -101.6141   -1.1813   69.0011    0.0448    2.4971   -0.0167    0.1203    2.6036   36.0000   36.0000 
6971.0000 2124.7607    7.8750   11.7346 -101.6127   -1.1783   68.2382    0.0439    2.4953   -0.0129    0.1224    2.5739   36.0000   36.0000 
6971.5000 2124.9131    7.8750   11.7346 -101.6113   -1.1754   68.1730    0.0431    2.4902   -0.0090    0.1236    2.5324   36.0000   36.0000 
6972.0000 2125.0657    7.8750   11.7745 -101.6099   -1.1724   68.1077    0.0403    2.4840   -0.0060    0.1248    2.5112   36.0000   36.0000 
6972.5000 2125.2180    7.8750   11.7746 -101.6085   -1.1694   69.1186    0.0349    2.4840   -0.0039    0.1242    2.4653   36.0000   36.0000 
6973.0000 2125.3704    7.8750   11.7746 -101.6071   -1.1664   70.1294    0.0296    2.4880   -0.0025    0.1236    2.5057   36.0000   36.0000 
6973.5000 2125.5227    7.8750   11.7747 -101.6058   -1.1635   71.3659    0.0247    2.4921   -0.0014    0.1220    2.5259   36.0000   36.0000 
6974.0000 2125.6753    7.8750   11.7747 -101.6044   -1.1605   72.6025    0.0226    2.4941    0.0010    0.1204    2.5259   36.0000   36.0000 
6974.5000 2125.8276    7.8750   11.7748 -101.6029   -1.1575   72.6025    0.0205    2.4951    0.0025    0.1196    2.5259   36.0000   36.0000 
6975.0000 2125.9800    7.8750   11.8126 -101.6014   -1.1544   72.6419    0.0181    2.4972    0.0036    0.1186    2.5259   36.0000   36.0000 
6975.5000 2126.1323    7.8750   11.7948 -101.6003   -1.1517   72.9021    0.0181    2.4981    0.0036    0.1180    2.5259   36.0000   36.0000 
6976.0000 2126.2849    7.8750   11.8347 -101.5989   -1.1487   73.2017    0.0181    2.4981    0.0036    0.1173    2.5259   36.0000   36.0000 
6976.5000 2126.4373    7.8750   11.8629 -101.5975   -1.1458   73.2017    0.0181    2.4968    0.0011    0.1172    2.5425   36.0000   36.0000 
6977.0000 2126.5896    7.8750   11.8746 -101.5962   -1.1428   73.2017    0.0181    2.4949   -0.0004    0.1172    2.5663   36.0000   36.0000 
6977.5000 2126.7419    7.8750   11.9103 -101.5947   -1.1398   72.3418    0.0181    2.4898   -0.0065    0.1189    2.5662   36.0000   36.0000 
6978.0000 2126.8943    7.8750   11.9544 -101.5933   -1.1368   71.4819    0.0181    2.4822   -0.0096    0.1206    2.5258   36.0000   36.0000 
6978.5000 2127.0469    7.8750   11.9744 -101.5920   -1.1339   71.2614    0.0181    2.4803   -0.0127    0.1243    2.5021   36.0000   36.0000 
6979.0000 2127.1992    7.8750   11.9943 -101.5906   -1.1309   71.0410    0.0181    2.4852   -0.0146    0.1280    2.4401   36.0000   36.0000 
6979.5000 2127.3516    7.8750   11.9944 -101.5892   -1.1280   73.3731    0.0181    2.4890   -0.0146    0.1253    2.4304   36.0000   36.0000 
6980.0000 2127.5039    7.8750   12.0527 -101.5878   -1.1249   75.6453    0.0181    2.4923   -0.0146    0.1226    2.4643   36.0000   36.0000 
6980.5000 2127.6565    7.8750   12.0343 -101.5865   -1.1221   75.9976    0.0181    2.4971   -0.0141    0.1219    2.4917   36.0000   36.0000 
6981.0000 2127.8088    7.8750   12.0344 -101.5851   -1.1191   76.2897    0.0181    2.4971   -0.0104    0.1213    2.5257   36.0000   36.0000 
6981.5000 2127.9612    7.8750   12.0741 -101.5832   -1.1156   70.5812    0.0181    2.4934   -0.0066    0.1250    2.4982   36.0000   36.0000 
6982.0000 2128.1135    7.8750   12.0743 -101.5823   -1.1131   67.1937    0.0181    2.4915   -0.0057    0.1272    2.4768   36.0000   36.0000 
