~VERSION INFORMATION
 VERS.                 2.0:   CWLS LOG ASCII STANDARD - VERSION 2.0
 WRAP.                  NO:   SINGLE LINE PER DEPTH STEP
 CREA.                 13/12/2017 11:17:09
#CREATED USING DSPetro VERSION 5000.10.1.3 BY H191660 ON 13/12/2017 11:17:09
~WELL INFORMATION
#MNEM.UNIT       DATA                          DESCRIPTION MNEMONIC
#---------      ---------------------------   --------------------------
 STRT    .FT        0.0000                    : START DEPTH
 STOP    .FT        11486.0000                : STOP DEPTH
 STEP    .FT        0.5000                    : STEP VALUE
 NULL    .      -999.0000                     : NULL VALUE
 DATE    .      13/12/2017                    : LAS file Creation Date
 WELL  .      NESTE_BEVERS_4221935327    : Well Name
 COMP  .      Union Texas petroleum Corp : Company
 FLD   .      WILDCAT                    : Field
 COUNT .      HOCKLEY                    : Country
 UWI   .      DUSWL_935327               : Unique Well Identifier (UWI)
 LOC   .                                 : Location
 PDAT  .      Ground Level               : Permanent Datum
 EPDAT .      3406.0                     : Reference Elevation
 LGMEA .      Kelly Bushing              : Log Measured from
 DRMEA .      Kelly Bushing              : Drill Measured From
 APDAT .      3423                       : Elevation Above Permanent Datum
 KB    .      3423                       : KB Elevation
 DF    .      3422                       : DF Elevation
 GL    .      3406                       : GL Elevation
 RWS   .      0                          : Def_Rw
 WST   .      0                          : Def_Rwt
 DATS  .      20/09/88                   : Spud Date
 MDEC  .      0                          : Magnetic Declination
 SRVC  .      SCH                        : Contractor
~CURVE INFORMATION
#MNEM              UNIT       API CODE   Curve Type Comments
#----------  --------------- ----------  ---------- -----------
 DEPTH      .FT                        : Depth       
 DEPTH_m  .                          :             
 BitSize    .in                        : BitSize     
 CAL_INCH   .inch                      :             Caliper Log - A representation of the measured diameter of a borehole along its depth
 SP_MV      .mv                        : SP          
 SP_Corr    .mv                        : SP          
 GR_API     .API                       : GammaRay    Gamma Ray (API) - Measures the intensity of natural gamma-ray radiation emitted from formations containing radioactive elements, such as K, Th and U
 RES_USL    .usl                       :             Unspecified Resistivity Log - No accroynm or method of attainment is specified - unscaled
 RHOB_G_CC  .g/cc                      :             Bulk Density - Measures the density of bulk material, including any void space or other materials contained in the subject volume
 DRHO_G_CC  .g/cc                      :             Density Correction - Investigates the correction to the Bulk Density log; used as an indication of hole condition to validate the Bulk Density measure
 NPHI_v_v   .ratio                     :             Neutron Porosity - Measured with an neutron logging device calibrated to a given matrix (limestone, sandstone and dolomite)
 PEF_B_E    .b/e-                      : PEF         Photoelectric Factor - A log of photoelectric absorption properties. Often expressed in an approximation unit barns/electron (b/e-)
 LITH       .                          : LITH        Lithology Curve
 LITH_v2    .                          : LITH        Lithology Curve
~A  DEPTH DEPTH_M  BitSize   CAL_INCH   SP_MV    SP_Corr    GR_API   RES_USL  RHOB_G_C~ DRHO_G_C~  NPHI_v_v  PEF_B_E     LITH    LITH_v2  
# ...
10231.5000 3118.5613    7.8750    9.7787  -45.2138   -2.3208   23.4233    0.2086    2.6832   -0.0144    0.0345    4.1308   18.0000   18.0000 
10232.0000 3118.7136    7.8750    9.8188  -44.9951   -2.2049   22.0920    0.2289    2.6698   -0.0176    0.0363    4.2561   18.0000   18.0000 
10232.5000 3118.8660    7.8750    9.8189  -44.8798   -2.1926   20.1050    0.2490    2.6602   -0.0203    0.0382    4.2196   18.0000   18.0000 
10233.0000 3119.0183    7.8750    9.8190  -44.6155   -2.0311   18.1180    0.2693    2.6627   -0.0196    0.0402    4.1146   18.0000   18.0000 
10233.5000 3119.1709    7.8750    9.8191  -44.2586   -1.7771   17.3441    0.2902    2.6743   -0.0151    0.0401    4.0135   18.0004   18.0000 
10234.0000 3119.3232    7.8750    9.8192  -43.8415   -1.4629   16.5703    0.3111    2.6894   -0.0116    0.0401    3.9105   36.9996   18.0000 
10234.5000 3119.4756    7.8750    9.8219  -43.7338   -1.4581   18.8901    0.3354    2.7035   -0.0088    0.0364    3.8689   37.0000   18.0000 
10235.0000 3119.6279    7.8750    9.8360  -43.7296   -1.5567   20.5787    0.3318    2.7122   -0.0072    0.0338    3.8685   37.0000   18.0000 
10235.5000 3119.7803    7.8750    9.8777  -43.7320   -1.6621   24.0324    0.3275    2.7211   -0.0072    0.0269    3.8520   37.0000   18.0000 
10236.0000 3119.9329    7.8750    9.9018  -43.7343   -1.7672   28.9705    0.3215    2.7379   -0.0107    0.0173    3.9227   37.0000   18.0000 
10236.5000 3120.0852    7.8750    9.9195  -43.7373   -1.8731   30.8562    0.3066    2.7430   -0.0136    0.0139    3.9810   36.9996   18.0000 
10237.0000 3120.2376    7.8750    9.9255  -43.7405   -1.9792   34.2259    0.2797    2.7378   -0.0170    0.0079    4.5732   18.0004   18.0000 
10237.5000 3120.3899    7.8750    9.9396  -43.7419   -2.0768   29.8296    0.2531    2.7194   -0.0208    0.0085    4.8746   18.0000   18.0000 
10238.0000 3120.5425    7.8750    9.9397  -43.7445   -2.0984   25.4331    0.2333    2.6971   -0.0241    0.0091    5.0973   18.0000   18.0000 
10238.5000 3120.6948    7.8750    9.9398  -43.7470   -2.1200   21.4480    0.2318    2.6576   -0.0262    0.0229    5.2689   18.0000   18.0000 
10239.0000 3120.8472    7.8750    9.9399  -43.7495   -2.1416   17.4630    0.2304    2.6370   -0.0263    0.0366    4.8811   18.0000   18.0000 
10239.5000 3120.9995    7.8750    9.9400  -43.7521   -2.1632   16.5496    0.2289    2.6301   -0.0263    0.0374    4.6248   18.0000   18.0000 
10240.0000 3121.1521    7.8750    9.9401  -43.7547   -2.1848   15.6364    0.2326    2.6327   -0.0260    0.0382    4.3341   18.0000   18.0000 
10240.5000 3121.3044    7.8750    9.9402  -43.7572   -2.2063   14.2997    0.2364    2.6439   -0.0238    0.0332    4.0754   18.0000   18.0000 
10241.0000 3121.4568    7.8750    9.9335  -43.7597   -2.2279   13.6810    0.2412    2.6585   -0.0194    0.0280    3.7822   18.0000   18.0000 
10241.5000 3121.6091    7.8750    9.9182  -43.7623   -2.2496   15.5001    0.2451    2.6667   -0.0166    0.0272    3.5779   18.0004   18.0000 
10242.0000 3121.7615    7.8750    9.8806  -43.6905   -2.1968   18.0371    0.2505    2.6788   -0.0127    0.0262    3.2460   36.9996   18.0000 
10242.5000 3121.9141    7.8750    9.8608  -43.2397   -1.7650   21.0045    0.2559    2.6944   -0.0095    0.0271    3.2056   37.0000   18.0000 
10243.0000 3122.0664    7.8750    9.8498  -42.9895   -1.5339   23.9718    0.2668    2.7115   -0.0081    0.0281    3.5906   36.9996   18.0000 
10243.5000 3122.2188    7.8750    9.8211  -42.9741   -1.5376   26.2113    0.2848    2.6921   -0.0081    0.0280    3.9181   18.0004   18.0000 
10244.0000 3122.3711    7.8750    9.8212  -42.9767   -1.5593   28.4509    0.3027    2.6745   -0.0081    0.0278    4.0712   18.0000   18.0001 
10244.5000 3122.5237    7.8750    9.8213  -43.0049   -1.6065   29.8893    0.3259    2.6427   -0.0081    0.0261    4.0962   18.0000   22.0000 
10245.0000 3122.6760    7.8750    9.8214  -43.2855   -1.9062   31.3278    0.3766    2.6216   -0.0081    0.0244    4.0642   18.0002   22.0000 
10245.5000 3122.8284    7.8750    9.8215  -43.7395   -2.3792   34.1174    0.4271    2.6253   -0.0081    0.0201    3.9817   26.9997   22.0000 
10246.0000 3122.9807    7.8750    9.8033  -44.0820   -2.7407   36.9273    0.4845    2.6541   -0.0081    0.0153    4.0391   18.0002   22.0000 
10246.5000 3123.1333    7.8750    9.7730  -44.2412   -2.9190   37.0684    0.4867    2.6780   -0.0081    0.0122    4.0628   18.0000   22.0000 
10247.0000 3123.2857    7.8750    9.7419  -44.4625   -3.1594   37.2296    0.4893    2.6982   -0.0076    0.0087    4.0966   18.0000   22.0000 
10247.5000 3123.4380    7.8750    9.7280  -44.5910   -3.3069   37.5519    0.4930    2.7151   -0.0080    0.0048    4.2144   18.0000   22.0000 
10248.0000 3123.5903    7.8750    9.7222  -44.5939   -3.3288   37.6877    0.4932    2.7198   -0.0080    0.0032    4.2384   18.0000   22.0000 
10248.5000 3123.7427    7.8750    9.7223  -44.5962   -3.3502   43.6958    0.4937    2.7176   -0.0080    0.0048    4.2454   18.0000   22.0000 
10249.0000 3123.8953    7.8750    9.7118  -44.5986   -3.3717   49.7039    0.4942    2.7061   -0.0095    0.0064    4.1317   18.0000   22.0000 
10249.5000 3124.0476    7.8750    9.6880  -44.3813   -3.1734   51.8356    0.4939    2.6910   -0.0101    0.0100    4.0306   18.0000   22.0000 
10250.0000 3124.2000    7.8750    9.6704  -44.1796   -2.9907   53.9670    0.4920    2.6860   -0.0111    0.0136    3.9898   18.0000   22.0000 
10250.5000 3124.3523    7.8750    9.6493  -43.9718   -2.8020   53.0681    0.4901    2.6932   -0.0111    0.0109    4.0146   18.0000   22.0000 
10251.0000 3124.5049    7.8750    9.6230  -43.6504   -2.4996   52.1693    0.4879    2.6965   -0.0121    0.0081    4.0973   18.0000   22.0000 
10251.5000 3124.6572    7.8750    9.6139  -43.4128   -2.2811   52.7852    0.4764    2.6947   -0.0121    0.0077    4.0264   18.0000   22.0000 
10252.0000 3124.8096    7.8750    9.5912  -43.1100   -1.9974   53.4013    0.4648    2.6905   -0.0120    0.0073    3.7429   18.0000   22.0000 
10252.5000 3124.9619    7.8750    9.5798  -42.7857   -1.6921   58.0501    0.4504    2.6946   -0.0123    0.0164    3.4208   18.0004   22.0000 
10253.0000 3125.1145    7.8750    9.5691  -42.4207   -1.3461   60.8469    0.4345    2.6972   -0.0131    0.0219    3.3186   36.9996   22.0000 
10253.5000 3125.2669    7.8750    9.5436  -42.0349   -0.9794   66.8963    0.4134    2.6985   -0.0130    0.0358    3.3241   37.0000   22.0003 
10254.0000 3125.4192    7.8750    9.5143  -41.8650   -0.8286   72.9458    0.3924    2.6922   -0.0130    0.0496    3.5752   37.0000   37.0000 
10254.5000 3125.5715    7.8750    9.4907  -41.8322   -0.8149   80.5186    0.3812    2.6773   -0.0130    0.0528    3.7799   37.0000   37.0000 
10255.0000 3125.7239    7.8750    9.4720  -41.8429   -0.8445   88.0916    0.3812    2.6681   -0.0109    0.0560    3.9158   36.9996   37.0000 
10255.5000 3125.8765    7.8750    9.4490  -41.8764   -0.8971  101.0821    0.3812    2.6510   -0.0070    0.0409    3.9159   18.0004   37.0000 
10256.0000 3126.0288    7.8750    9.4244  -41.9882   -1.0280  114.0716    0.3818    2.6450   -0.0059    0.0258    3.9362   18.0002   37.0000 
10256.5000 3126.1812    7.8750    9.4189  -42.1828   -1.2416   99.2146    0.3850    2.6358   -0.0059    0.0146    4.0420   26.9998   37.0000 
10257.0000 3126.3335    7.8750    9.3986  -42.4131   -1.4910   84.3560    0.3883    2.6365   -0.0062    0.0033    4.1725   27.0000   37.0000 
10257.5000 3126.4861    7.8750    9.3212  -42.7841   -1.8811   57.7797    0.3918    2.6503   -0.0110    0.0018    4.4915   26.9998   36.9996 
10258.0000 3126.6384    7.8750    9.2850  -43.3064   -2.4224   35.6654    0.4262    2.6625   -0.0145    0.0005    4.5831   18.0002   18.0000 
10258.5000 3126.7908    7.8750    9.2723  -43.8079   -2.9429   32.4186    0.4644    2.6702   -0.0183    0.0005    4.6650   18.0000   18.0000 
10259.0000 3126.9431    7.8750    9.2341  -44.3626   -3.5167   28.7289    0.5165    2.6705   -0.0199    0.0005    4.7766   18.0000   18.0000 
10259.5000 3127.0957    7.8750    9.2105  -45.0870   -4.2602   27.9802    0.5326    2.6709   -0.0201    0.0005    4.7865   18.0000   18.0000 
