~VERSION INFORMATION
 VERS.                 2.0:   CWLS LOG ASCII STANDARD - VERSION 2.0
 WRAP.                  NO:   SINGLE LINE PER DEPTH STEP
 CREA.                 13/12/2017 11:17:09
#CREATED USING DSPetro VERSION 5000.10.1.3 BY H191660 ON 13/12/2017 11:17:09
~WELL INFORMATION
#MNEM.UNIT       DATA                          DESCRIPTION MNEMONIC
#---------      ---------------------------   --------------------------
 STRT    .FT        0.0000                    : START DEPTH
 STOP    .FT        11486.0000                : STOP DEPTH
 STEP    .FT        0.5000                    : STEP VALUE
 NULL    .      -999.0000                     : NULL VALUE
 DATE    .      13/12/2017                    : LAS file Creation Date
 WELL  .      NESTE_BEVERS_4221935327    : Well Name
 COMP  .      Union Texas petroleum Corp : Company
 FLD   .      WILDCAT                    : Field
 COUNT .      HOCKLEY                    : Country
 UWI   .      DUSWL_935327               : Unique Well Identifier (UWI)
 LOC   .                                 : Location
 PDAT  .      Ground Level               : Permanent Datum
 EPDAT .      3406.0                     : Reference Elevation
 LGMEA .      Kelly Bushing              : Log Measured from
 DRMEA .      Kelly Bushing              : Drill Measured From
 APDAT .      3423                       : Elevation Above Permanent Datum
 KB    .      3423                       : KB Elevation
 DF    .      3422                       : DF Elevation
 GL    .      3406                       : GL Elevation
 RWS   .      0                          : Def_Rw
 WST   .      0                          : Def_Rwt
 DATS  .      20/09/88                   : Spud Date
 MDEC  .      0                          : Magnetic Declination
 SRVC  .      SCH                        : Contractor
~CURVE INFORMATION
#MNEM              UNIT       API CODE   Curve Type Comments
#----------  --------------- ----------  ---------- -----------
 DEPTH      .FT                        : Depth       
 DEPTH_m  .                          :             
 BitSize    .in                        : BitSize     
 CAL_INCH   .inch                      :             Caliper Log - A representation of the measured diameter of a borehole along its depth
 SP_MV      .mv                        : SP          
 SP_Corr    .mv                        : SP          
 GR_API     .API                       : GammaRay    Gamma Ray (API) - Measures the intensity of natural gamma-ray radiation emitted from formations containing radioactive elements, such as K, Th and U
 RES_USL    .usl                       :             Unspecified Resistivity Log - No accroynm or method of attainment is specified - unscaled
 RHOB_G_CC  .g/cc                      :             Bulk Density - Measures the density of bulk material, including any void space or other materials contained in the subject volume
 DRHO_G_CC  .g/cc                      :             Density Correction - Investigates the correction to the Bulk Density log; used as an indication of hole condition to validate the Bulk Density measure
 NPHI_v_v   .ratio                     :             Neutron Porosity - Measured with an neutron logging device calibrated to a given matrix (limestone, sandstone and dolomite)
 PEF_B_E    .b/e-                      : PEF         Photoelectric Factor - A log of photoelectric absorption properties. Often expressed in an approximation unit barns/electron (b/e-)
 LITH       .                          : LITH        Lithology Curve
 LITH_v2    .                          : LITH        Lithology Curve
~A  DEPTH DEPTH_M  BitSize   CAL_INCH   SP_MV    SP_Corr    GR_API   RES_USL  RHOB_G_C~ DRHO_G_C~  NPHI_v_v  PEF_B_E     LITH    LITH_v2  
# ...
6241.5000 1902.4092    7.8750   10.7521  -91.0821   -0.1328    6.5135    0.7080    2.8486   -0.0025    0.0058    3.4956   12.0000   12.0000 
6242.0000 1902.5616    7.8750   10.7520  -91.2688   -0.3221    6.2821    0.7292    2.8536   -0.0035    0.0054    3.4474   12.0000   12.0000 
6242.5000 1902.7140    7.8750   10.7519  -91.2701   -0.3262    6.6492    0.7517    2.8603   -0.0035    0.0072    3.3743   12.0000   12.0000 
6243.0000 1902.8665    7.8750   10.7518  -91.2715   -0.3302    7.0163    0.7742    2.8684   -0.0025    0.0090    3.3839   12.0000   12.0000 
6243.5000 1903.0188    7.8750   10.7517  -91.2728   -0.3342    7.3969    0.7964    2.8756   -0.0012    0.0082    3.5241   12.0000   12.0000 
6244.0000 1903.1711    7.8750   10.7516  -91.2742   -0.3384    7.7776    0.8143    2.8772   -0.0005    0.0074    3.7042   12.0000   12.0000 
6244.5000 1903.3236    7.8750   10.7515  -91.2755   -0.3424    7.9271    0.8324    2.8732   -0.0005    0.0049    3.8590   12.0000   12.0000 
6245.0000 1903.4760    7.8750   10.7540  -91.1601   -0.2296    8.0423    0.8533    2.8630   -0.0011    0.0022    3.5974   12.0000   12.0000 
6245.5000 1903.6284    7.8750   10.7676  -91.2640   -0.3362    7.8600    0.8606    2.8536   -0.0037    0.0019    3.4840   12.0000   12.0000 
6246.0000 1903.7808    7.8750   10.7907  -91.2796   -0.3546    7.6433    0.8693    2.8597   -0.0070    0.0014    3.4952   12.0000   12.0000 
6246.5000 1903.9332    7.8750   10.8397  -91.2809   -0.3586    7.0944    0.8818    2.8639   -0.0096    0.0006    3.5497   12.0000   12.0000 
6247.0000 1904.0856    7.8750   10.8601  -91.2822   -0.3626    6.8798    0.8773    2.8667   -0.0096    0.0003    3.5678   12.0000   12.0000 
6247.5000 1904.2380    7.8750   10.8836  -91.2835   -0.3666    7.0293    0.8694    2.8766   -0.0096    0.0003    3.5633   12.0000   12.0000 
6248.0000 1904.3904    7.8750   10.9064  -91.5915   -0.6773    7.1787    0.8615    2.8867   -0.0078    0.0003    3.5217   12.0000   12.0000 
6248.5000 1904.5429    7.8750   10.9105  -91.3886   -0.4771    6.8796    0.8457    2.8947   -0.0064    0.0001    3.4749   12.0000   12.0000 
6249.0000 1904.6952    7.8750   10.9104  -91.2875   -0.3788    6.5804    0.8097    2.9017   -0.0056    0.0000    3.5500   12.0000   12.0000 
6249.5000 1904.8477    7.8750   10.9103  -91.4255   -0.5194    6.2812    0.7735    2.9030   -0.0056    0.0006    3.7745   12.0000   12.0000 
6250.0000 1905.0000    7.8750   10.9102  -91.6217   -0.7183    5.9820    0.7375    2.9030   -0.0056    0.0012    3.8903   12.0000   12.0000 
6250.5000 1905.1523    7.8750   10.9042  -91.6904   -0.7898    5.7497    0.7298    2.9030   -0.0057    0.0014    3.9706   12.0000   12.0000 
6251.0000 1905.3048    7.8750   10.8898  -91.6925   -0.7945    5.5174    0.7220    2.9030   -0.0083    0.0017    3.9271   12.0000   12.0000 
6251.5000 1905.4572    7.8750   10.8731  -91.6937   -0.7985    5.8148    0.7121    2.8991   -0.0100    0.0028    3.8680   12.0000   12.0000 
6252.0000 1905.6096    7.8750   10.8627  -91.6954   -0.8029    5.9818    0.7093    2.8941   -0.0112    0.0035    3.8924   12.0000   12.0000 
6252.5000 1905.7620    7.8750   10.8438  -91.6967   -0.8069    6.2808    0.7054    2.8857   -0.0122    0.0061    3.9858   12.0000   12.0000 
6253.0000 1905.9144    7.8750   10.8148  -91.6977   -0.8106    6.5799    0.7014    2.8755   -0.0099    0.0088    4.0731   12.0000   12.0000 
6253.5000 1906.0668    7.8750   10.7249  -91.6990   -0.8146    7.1021    0.6980    2.8659   -0.0086    0.0090    3.9649   12.0000   12.0000 
6254.0000 1906.2192    7.8750   10.6500  -91.7004   -0.8187    7.6243    0.6953    2.8539   -0.0086    0.0092    3.8035   12.0000   12.0000 
6254.5000 1906.3716    7.8750   10.5813  -91.7017   -0.8227    8.2167    0.6926    2.8488   -0.0086    0.0098    3.6158   12.0000   12.0000 
6255.0000 1906.5241    7.8750   10.5500  -91.7030   -0.8267    8.8092    0.6894    2.8491   -0.0086    0.0105    3.5129   12.0000   12.0000 
6255.5000 1906.6764    7.8750   10.5299  -91.7044   -0.8308    9.5496    0.6834    2.8545   -0.0096    0.0111    3.5350   12.0000   12.0000 
6256.0000 1906.8287    7.8750   10.4899  -91.7057   -0.8348   10.2899    0.6773    2.8555   -0.0115    0.0118    3.6375   12.0000   12.0000 
6256.5000 1906.9812    7.8750   10.4499  -91.7070   -0.8388   10.6234    0.6706    2.8483   -0.0129    0.0139    3.7114   12.0000   12.0000 
6257.0000 1907.1335    7.8750   10.4499  -91.7085   -0.8431   10.8831    0.6582    2.8313   -0.0152    0.0156    3.6740   12.0000   12.0000 
6257.5000 1907.2860    7.8750   10.4498  -91.7100   -0.8472   10.8246    0.6441    2.8081   -0.0174    0.0140    3.6358   12.0000   12.0000 
6258.0000 1907.4384    7.8750   10.4777  -91.7110   -0.8510   10.8503    0.6243    2.7974   -0.0185    0.0125    3.6459   12.0000   12.0000 
6258.5000 1907.5908    7.8750   10.4895  -91.6045   -0.7472   10.9740    0.6093    2.8012   -0.0181    0.0127    3.6312   12.0000   12.0000 
6259.0000 1907.7432    7.8750   10.4894  -91.3144   -0.4597   11.1820    0.5841    2.8187   -0.0163    0.0130    3.5487   12.0000   12.0000 
6259.5000 1907.8956    7.8750   10.4893  -91.2725   -0.4205   11.8183    0.5588    2.8383   -0.0145    0.0176    3.4663   12.0000   12.0000 
6260.0000 1908.0480    7.8750   10.4693  -91.0539   -0.2046   12.4547    0.5391    2.8423   -0.0119    0.0223    3.3020   12.0000   12.0000 
6260.5000 1908.2004    7.8750   10.4692  -90.6896    0.1569   12.1514    0.5312    2.8381   -0.0096    0.0227    3.1377   12.0000   12.0000 
6261.0000 1908.3528    7.8750   10.4554  -90.2546    0.5892   11.8481    0.5232    2.8266   -0.0096    0.0232    3.0348   12.0000   12.0000 
6261.5000 1908.5053    7.8750   10.4491  -90.0981    0.7430   11.3937    0.5155    2.8220   -0.0089    0.0194    2.9892   12.0000   12.0000 
6262.0000 1908.6576    7.8750   10.4201  -89.8644    0.9740   10.9393    0.5126    2.8271   -0.0069    0.0156    2.9892   12.0000   12.0000 
6262.5000 1908.8099    7.8750   10.4090  -89.3093    1.5263   11.4502    0.5098    2.8311   -0.0023    0.0137    3.0093   12.0000   12.0000 
6263.0000 1908.9624    7.8750   10.3889  -89.2071    1.6259   11.8337    0.5063    2.8410   -0.0015    0.0120    3.0960   12.0000   12.0000 
6263.5000 1909.1147    7.8750   10.3889  -88.5242    2.3061   11.4482    0.5055    2.8465   -0.0015    0.0125    3.1752   12.0000   12.0000 
6264.0000 1909.2672    7.8750   10.3494  -88.3083    2.5192   10.9354    0.5045    2.8583   -0.0015    0.0132    3.2516   12.0000   12.0000 
6264.5000 1909.4196    7.8750   10.3887  -88.0833    2.7416   10.2519    0.5035    2.8681   -0.0015    0.0139    3.2878   12.0000   12.0000 
6265.0000 1909.5720    7.8750   10.3886  -87.8600    2.9621    9.5684    0.5034    2.8795   -0.0032    0.0147    3.3681   12.0000   12.0000 
6265.5000 1909.7244    7.8750   10.3885  -88.1203    2.6991    9.0411    0.5043    2.8805   -0.0058    0.0151    3.4683   12.0000   12.0000 
6266.0000 1909.8768    7.8750   10.3884  -88.1393    2.6774    8.5137    0.5053    2.8664   -0.0105    0.0155    3.5342   12.0000   12.0000 
6266.5000 1910.0292    7.8750   10.3883  -88.1406    2.6734    7.9083    0.5071    2.8529   -0.0160    0.0165    3.5544   12.0000   12.0000 
6267.0000 1910.1816    7.8750   10.3882  -88.1421    2.6692    7.3030    0.5128    2.8410   -0.0177    0.0174    3.5341   12.0000   12.0000 
6267.5000 1910.3340    7.8750   10.3882  -88.1435    2.6651    7.1781    0.5185    2.8280   -0.0197    0.0183    3.5341   12.0000   12.0000 
6268.0000 1910.4865    7.8750   10.3653  -88.1449    2.6610    7.1284    0.5247    2.8288   -0.0182    0.0192    3.4444   12.0000   12.0000 
6268.5000 1910.6388    7.8750   10.3481  -88.1463    2.6569    7.8731    0.5271    2.8366   -0.0163    0.0194    3.3117   12.0000   12.0000 
6269.0000 1910.7911    7.8750   10.3429  -88.1480    2.6525    8.6930    0.5297    2.8493   -0.0138    0.0196    3.2109   12.0000   12.0000 
6269.5000 1910.9436    7.8750   10.3197  -88.1492    2.6485    9.5975    0.5333    2.8562   -0.0083    0.0185    3.2232   12.0000   12.0000 
