~VERSION INFORMATION
 VERS.                 2.0:   CWLS LOG ASCII STANDARD - VERSION 2.0
 WRAP.                  NO:   SINGLE LINE PER DEPTH STEP
 CREA.                 13/12/2017 11:17:09
#CREATED USING DSPetro VERSION 5000.10.1.3 BY H191660 ON 13/12/2017 11:17:09
~WELL INFORMATION
#MNEM.UNIT       DATA                          DESCRIPTION MNEMONIC
#---------      ---------------------------   --------------------------
 STRT    .FT        0.0000                    : START DEPTH
 STOP    .FT        11486.0000                : STOP DEPTH
 STEP    .FT        0.5000                    : STEP VALUE
 NULL    .      -999.0000                     : NULL VALUE
 DATE    .      13/12/2017                    : LAS file Creation Date
 WELL  .      NESTE_BEVERS_4221935327    : Well Name
 COMP  .      Union Texas petroleum Corp : Company
 FLD   .      WILDCAT                    : Field
 COUNT .      HOCKLEY                    : Country
 UWI   .      DUSWL_935327               : Unique Well Identifier (UWI)
 LOC   .                                 : Location
 PDAT  .      Ground Level               : Permanent Datum
 EPDAT .      3406.0                     : Reference Elevation
 LGMEA .      Kelly Bushing              : Log Measured from
 DRMEA .      Kelly Bushing              : Drill Measured From
 APDAT .      3423                       : Elevation Above Permanent Datum
 KB    .      3423                       : KB Elevation
 DF    .      3422                       : DF Elevation
 GL    .      3406                       : GL Elevation
 RWS   .      0                          : Def_Rw
 WST   .      0                          : Def_Rwt
 DATS  .      20/09/88                   : Spud Date
 MDEC  .      0                          : Magnetic Declination
 SRVC  .      SCH                        : Contractor
~CURVE INFORMATION
#MNEM              UNIT       API CODE   Curve Type Comments
#----------  --------------- ----------  ---------- -----------
 DEPTH      .FT                        : Depth       
 DEPTH_m  .                          :             
 BitSize    .in                        : BitSize     
 CAL_INCH   .inch                      :             Caliper Log - A representation of the measured diameter of a borehole along its depth
 SP_MV      .mv                        : SP          
 SP_Corr    .mv                        : SP          
 GR_API     .API                       : GammaRay    Gamma Ray (API) - Measures the intensity of natural gamma-ray radiation emitted from formations containing radioactive elements, such as K, Th and U
 RES_USL    .usl                       :             Unspecified Resistivity Log - No accroynm or method of attainment is specified - unscaled
 RHOB_G_CC  .g/cc                      :             Bulk Density - Measures the density of bulk material, including any void space or other materials contained in the subject volume
 DRHO_G_CC  .g/cc                      :             Density Correction - Investigates the correction to the Bulk Density log; used as an indication of hole condition to validate the Bulk Density measure
 NPHI_v_v   .ratio                     :             Neutron Porosity - Measured with an neutron logging device calibrated to a given matrix (limestone, sandstone and dolomite)
 PEF_B_E    .b/e-                      : PEF         Photoelectric Factor - A log of photoelectric absorption properties. Often expressed in an approximation unit barns/electron (b/e-)
 LITH       .                          : LITH        Lithology Curve
 LITH_v2    .                          : LITH        Lithology Curve
~A  DEPTH DEPTH_M  BitSize   CAL_INCH   SP_MV    SP_Corr    GR_API   RES_USL  RHOB_G_C~ DRHO_G_C~  NPHI_v_v  PEF_B_E     LITH    LITH_v2  
# ...
8778.0000 2675.5344    7.8750    9.1523  -73.1604   -2.6381   22.5661    0.3880    2.6538   -0.0078    0.0177    4.5627   18.0000   18.0000 
8778.5000 2675.6868    7.8750    9.1523  -73.4734   -2.9513   23.9922    0.4291    2.6381   -0.0085    0.0198    4.4596   18.0000   18.0000 
8779.0000 2675.8391    7.8750    9.1524  -73.6583   -3.2304   25.4181    0.4699    2.6292   -0.0098    0.0218    4.4835   18.0000   18.0000 
8779.5000 2675.9917    7.8750    9.1524  -73.9389   -3.6053   19.9081    0.5131    2.6309   -0.0112    0.0141    4.5850   18.0000   18.0000 
8780.0000 2676.1440    7.8750    9.1524  -74.2840   -4.0448   14.9524    0.5376    2.6606   -0.0133    0.0072    4.6030   18.0000   18.0000 
8780.5000 2676.2964    7.8750    9.1525  -74.9932   -4.8483   14.8027    0.5636    2.6715   -0.0156    0.0067    4.5752   18.0000   18.0000 
8781.0000 2676.4487    7.8750    9.1525  -75.7259   -5.6753   15.9576    0.5984    2.6713   -0.0173    0.0091    4.5303   18.0000   18.0000 
8781.5000 2676.6011    7.8750    9.1525  -76.3529   -6.3966   18.5410    0.6094    2.6686   -0.0179    0.0148    4.4897   18.0000   18.0000 
8782.0000 2676.7537    7.8750    9.1526  -77.0086   -7.1467   22.4285    0.6260    2.6257   -0.0179    0.0235    4.4618   18.0000   18.0000 
8782.5000 2676.9060    7.8750    9.1526  -77.3927   -7.6251   19.8745    0.6425    2.6008   -0.0179    0.0216    4.4417   18.0000   18.0000 
8783.0000 2677.0584    7.8750    9.1526  -77.5342   -7.8608   17.3203    0.6572    2.5959   -0.0178    0.0197    4.3937   18.0000   18.0000 
8783.5000 2677.2107    7.8750    9.1527  -77.9031   -8.3241   16.1365    0.6689    2.6017   -0.0168    0.0150    4.3408   18.0000   18.0000 
8784.0000 2677.3633    7.8750    9.1527  -78.2202   -8.7355   14.9529    0.6805    2.6260   -0.0132    0.0102    4.4823   18.0000   18.0000 
8784.5000 2677.5156    7.8750    9.1527  -78.4478   -9.0574   15.4268    0.6914    2.6363   -0.0112    0.0118    4.6764   18.0000   18.0000 
8785.0000 2677.6680    7.8750    9.1528  -78.7784   -9.4823   15.9009    0.6962    2.6292   -0.0111    0.0134    4.8707   18.0000   18.0000 
8785.5000 2677.8203    7.8750    9.1528  -78.9767   -9.7749   16.1746    0.7009    2.6216   -0.0120    0.0148    4.8867   18.0000   18.0000 
8786.0000 2677.9729    7.8750    9.1528  -79.0425   -9.9350   16.5381    0.7065    2.6133   -0.0124    0.0161    4.7577   18.0000   18.0000 
8786.5000 2678.1252    7.8750    9.1528  -79.0417  -10.0285   16.9520    0.7085    2.6141   -0.0109    0.0152    4.7529   18.0000   18.0000 
8787.0000 2678.2776    7.8750    9.1529  -79.0407  -10.1218   17.4556    0.7109    2.6307   -0.0077    0.0114    4.8334   18.0000   18.0000 
8787.5000 2678.4299    7.8750    9.1529  -79.0399  -10.2153   16.7217    0.7144    2.6498   -0.0067    0.0114    4.7750   18.0000   18.0000 
8788.0000 2678.5823    7.8750    9.1529  -79.0392  -10.3089   16.4487    0.7146    2.6560   -0.0067    0.0114    4.6902   18.0000   18.0000 
8788.5000 2678.7349    7.8750    9.1530  -79.0384  -10.4024   16.4488    0.7150    2.6573   -0.0076    0.0114    4.5925   18.0000   18.0000 
8789.0000 2678.8872    7.8750    9.1530  -79.0376  -10.4959   16.4488    0.7154    2.6539   -0.0106    0.0114    4.5557   18.0000   18.0000 
8789.5000 2679.0396    7.8750    9.1530  -79.0368  -10.5894   16.4489    0.7157    2.6525   -0.0127    0.0105    4.5438   18.0000   18.0000 
8790.0000 2679.1919    7.8750    9.1531  -79.0360  -10.6829   16.4490    0.7157    2.6561   -0.0137    0.0098    4.5439   18.0000   18.0000 
8790.5000 2679.3445    7.8750    9.1531  -79.0352  -10.7764   16.3413    0.7157    2.6611   -0.0132    0.0078    4.5642   18.0000   18.0000 
8791.0000 2679.4968    7.8750    9.1531  -79.0344  -10.8699   16.2335    0.7157    2.6692   -0.0087    0.0074    4.6190   18.0000   18.0000 
8791.5000 2679.6492    7.8750    9.1532  -79.0336  -10.9634   16.0423    0.7160    2.6752   -0.0077    0.0070    4.6249   18.0000   18.0000 
8792.0000 2679.8015    7.8750    9.1532  -79.0327  -11.0569   15.8512    0.7163    2.6757   -0.0077    0.0070    4.5868   18.0000   18.0000 
8792.5000 2679.9541    7.8750    9.1532  -79.0319  -11.1504   15.9828    0.7167    2.6707   -0.0076    0.0070    4.4626   18.0000   18.0000 
8793.0000 2680.1065    7.8750    9.1533  -79.0312  -11.2440   16.0533    0.7188    2.6615   -0.0076    0.0070    4.3630   18.0000   18.0000 
8793.5000 2680.2588    7.8750    9.1533  -79.0301  -11.3372   15.9524    0.7219    2.6517   -0.0107    0.0070    4.1784   18.0000   18.0000 
8794.0000 2680.4111    7.8750    9.1533  -79.0294  -11.4308   15.8515    0.7250    2.6555   -0.0147    0.0070    4.1203   18.0000   18.0000 
8794.5000 2680.5635    7.8750    9.1534  -79.0287  -11.5244   16.0011    0.7326    2.6621   -0.0157    0.0070    4.1445   18.0000   18.0000 
8795.0000 2680.7161    7.8750    9.1534  -79.0278  -11.6179   16.1507    0.7464    2.6664   -0.0157    0.0070    4.2849   18.0000   18.0000 
8795.5000 2680.8684    7.8750    9.1534  -79.0270  -11.7114   16.0013    0.7602    2.6667   -0.0157    0.0070    4.5256   18.0000   18.0000 
8796.0000 2681.0208    7.8750    9.1534  -79.0262  -11.8049   15.8518    0.7728    2.6638   -0.0157    0.0070    4.8052   18.0000   18.0000 
8796.5000 2681.1731    7.8750    9.1511  -79.0254  -11.8984   15.8519    0.7774    2.6607   -0.0177    0.0076    5.0211   18.0000   18.0000 
8797.0000 2681.3257    7.8750    9.1259  -79.0246  -11.9919   15.8520    0.7820    2.6556   -0.0177    0.0078    5.0501   18.0000   18.0000 
8797.5000 2681.4780    7.8750    9.1107  -79.0238  -12.0854   16.4337    0.7872    2.6513   -0.0175    0.0084    5.0153   18.0000   18.0000 
8798.0000 2681.6304    7.8750    9.0937  -79.0230  -12.1789   16.8684    0.7882    2.6555   -0.0165    0.0089    4.8896   18.0000   18.0000 
8798.5000 2681.7827    7.8750    9.0855  -79.0221  -12.2723   17.6516    0.7894    2.6616   -0.0140    0.0103    4.6846   18.0000   18.0000 
8799.0000 2681.9353    7.8750    9.0658  -79.0213  -12.3658   18.1769    0.7911    2.6567   -0.0104    0.0118    4.3831   18.0000   18.0000 
8799.5000 2682.0877    7.8750    9.0549  -78.9377  -12.3765   17.8277    0.7841    2.6515   -0.0093    0.0117    4.2745   18.0000   18.0000 
8800.0000 2682.2400    7.8750    9.0539  -78.6382  -12.1714   17.2205    0.7721    2.6495   -0.0076    0.0116    4.2127   18.0000   18.0000 
8800.5000 2682.3923    7.8750    9.0538  -78.3215  -11.9489   16.6917    0.7601    2.6482   -0.0066    0.0097    4.1940   18.0000   18.0000 
8801.0000 2682.5447    7.8750    9.0537  -78.2203  -11.9420   16.1629    0.7469    2.6558   -0.0066    0.0078    4.3815   18.0000   18.0000 
8801.5000 2682.6973    7.8750    9.0536  -77.9717  -11.7878   15.7087    0.7308    2.6678   -0.0075    0.0074    4.5013   18.0000   18.0000 
8802.0000 2682.8496    7.8750    9.0535  -77.6411  -11.5515   15.2545    0.7145    2.6727   -0.0086    0.0070    4.5935   18.0000   18.0000 
8802.5000 2683.0020    7.8750    9.0534  -77.2181  -11.2228   15.5499    0.6986    2.6737   -0.0095    0.0070    4.6373   18.0000   18.0000 
8803.0000 2683.1543    7.8750    9.0533  -77.0241  -11.1231   15.8529    0.7003    2.6737   -0.0096    0.0070    4.4844   18.0000   18.0000 
8803.5000 2683.3069    7.8750    9.0532  -76.7129  -10.9061   15.7697    0.7020    2.6727   -0.0096    0.0072    4.3908   18.0000   18.0000 
8804.0000 2683.4592    7.8750    9.0531  -76.3346  -10.6222   15.5886    0.7042    2.6723   -0.0096    0.0075    4.4546   18.0000   18.0000 
8804.5000 2683.6116    7.8750    9.0530  -75.8090  -10.1909   15.3212    0.7174    2.6739   -0.0096    0.0079    4.4842   18.0000   18.0000 
8805.0000 2683.7639    7.8750    9.0529  -75.3796   -9.8558   14.9559    0.7355    2.6768   -0.0096    0.0083    4.5447   18.0000   18.0000 
8805.5000 2683.9165    7.8750    9.0528  -75.1083   -9.6788   14.5073    0.7536    2.6739   -0.0097    0.0091    4.5042   18.0000   18.0000 
8806.0000 2684.0689    7.8750    9.0527  -74.8588   -9.5236   14.0587    0.7665    2.6673   -0.0097    0.0100    4.4435   18.0000   18.0000 
