~VERSION INFORMATION
 VERS.                 2.0:   CWLS LOG ASCII STANDARD - VERSION 2.0
 WRAP.                  NO:   SINGLE LINE PER DEPTH STEP
 CREA.                 13/12/2017 11:17:09
#CREATED USING DSPetro VERSION 5000.10.1.3 BY H191660 ON 13/12/2017 11:17:09
~WELL INFORMATION
#MNEM.UNIT       DATA                          DESCRIPTION MNEMONIC
#---------      ---------------------------   --------------------------
 STRT    .FT        0.0000                    : START DEPTH
 STOP    .FT        11486.0000                : STOP DEPTH
 STEP    .FT        0.5000                    : STEP VALUE
 NULL    .      -999.0000                     : NULL VALUE
 DATE    .      13/12/2017                    : LAS file Creation Date
 WELL  .      NESTE_BEVERS_4221935327    : Well Name
 COMP  .      Union Texas petroleum Corp : Company
 FLD   .      WILDCAT                    : Field
 COUNT .      HOCKLEY                    : Country
 UWI   .      DUSWL_935327               : Unique Well Identifier (UWI)
 LOC   .                                 : Location
 PDAT  .      Ground Level               : Permanent Datum
 EPDAT .      3406.0                     : Reference Elevation
 LGMEA .      Kelly Bushing              : Log Measured from
 DRMEA .      Kelly Bushing              : Drill Measured From
 APDAT .      3423                       : Elevation Above Permanent Datum
 KB    .      3423                       : KB Elevation
 DF    .      3422                       : DF Elevation
 GL    .      3406                       : GL Elevation
 RWS   .      0                          : Def_Rw
 WST   .      0                          : Def_Rwt
 DATS  .      20/09/88                   : Spud Date
 MDEC  .      0                          : Magnetic Declination
 SRVC  .      SCH                        : Contractor
~CURVE INFORMATION
#MNEM              UNIT       API CODE   Curve Type Comments
#----------  --------------- ----------  ---------- -----------
 DEPTH      .FT                        : Depth       
 DEPTH_m  .                          :             
 BitSize    .in                        : BitSize     
 CAL_INCH   .inch                      :             Caliper Log - A representation of the measured diameter of a borehole along its depth
 SP_MV      .mv                        : SP          
 SP_Corr    .mv                        : SP          
 GR_API     .API                       : GammaRay    Gamma Ray (API) - Measures the intensity of natural gamma-ray radiation emitted from formations containing radioactive elements, such as K, Th and U
 RES_USL    .usl                       :             Unspecified Resistivity Log - No accroynm or method of attainment is specified - unscaled
 RHOB_G_CC  .g/cc                      :             Bulk Density - Measures the density of bulk material, including any void space or other materials contained in the subject volume
 DRHO_G_CC  .g/cc                      :             Density Correction - Investigates the correction to the Bulk Density log; used as an indication of hole condition to validate the Bulk Density measure
 NPHI_v_v   .ratio                     :             Neutron Porosity - Measured with an neutron logging device calibrated to a given matrix (limestone, sandstone and dolomite)
 PEF_B_E    .b/e-                      : PEF         Photoelectric Factor - A log of photoelectric absorption properties. Often expressed in an approximation unit barns/electron (b/e-)
 LITH       .                          : LITH        Lithology Curve
 LITH_v2    .                          : LITH        Lithology Curve
~A  DEPTH DEPTH_M  BitSize   CAL_INCH   SP_MV    SP_Corr    GR_API   RES_USL  RHOB_G_C~ DRHO_G_C~  NPHI_v_v  PEF_B_E     LITH    LITH_v2  
# ...
7324.5000 2232.5076    7.8750    8.8223  -87.1585  -11.3135   49.9301    0.7676    2.6529   -0.0098    0.0154    4.3126   18.0000   18.0000 
7325.0000 2232.6599    7.8750    8.7209  -87.1598  -11.3262   49.1141    0.7652    2.6550   -0.0098    0.0148    4.3730   18.0000   18.0000 
7325.5000 2232.8125    7.8750    8.7200  -87.1611  -11.3390   48.8568    0.7628    2.6560   -0.0098    0.0142    4.4640   18.0000   18.0000 
7326.0000 2232.9648    7.8750    8.7000  -87.1625  -11.3518   48.7276    0.7599    2.6443   -0.0099    0.0135    4.5126   18.0001   18.0000 
7326.5000 2233.1172    7.8750    8.7000  -87.1636  -11.3643   49.1567    0.7599    2.6359   -0.0104    0.0131    4.5245   26.9999   18.0000 
7327.0000 2233.2695    7.8750    8.7000  -87.3606  -11.5728   49.7140    0.7599    2.6235   -0.0139    0.0125    4.4886   27.0000   18.0000 
7327.5000 2233.4219    7.8750    8.7000  -87.8107  -12.0343   48.4996    0.7599    2.6163   -0.0153    0.0119    4.4636   27.0000   18.0000 
7328.0000 2233.5745    7.8750    8.7000  -88.2000  -12.4350   47.2852    0.7599    2.6197   -0.0159    0.0113    4.5039   27.0000   18.0000 
7328.5000 2233.7268    7.8750    8.7000  -88.8088  -13.0553   46.1676    0.7599    2.6249   -0.0158    0.0109    4.4501   27.0000   18.0000 
7329.0000 2233.8792    7.8750    8.7000  -89.6302  -13.8881   45.0500    0.7599    2.6367   -0.0129    0.0105    4.2123   26.9999   18.0000 
7329.5000 2234.0315    7.8750    8.7000  -90.5317  -14.8010   43.3664    0.7599    2.6492   -0.0116    0.0096    4.1194   18.0001   18.0000 
7330.0000 2234.1841    7.8750    8.7000  -91.1858  -15.4665   41.6828    0.7599    2.6550   -0.0089    0.0088    4.2018   18.0000   18.0000 
7330.5000 2234.3364    7.8750    8.6916  -91.9343  -16.2265   38.4815    0.7599    2.6737   -0.0089    0.0086    4.5641   18.0000   18.0000 
7331.0000 2234.4888    7.8750    8.6792  -93.1231  -17.4267   35.2153    0.7599    2.6739   -0.0089    0.0084    4.4280   18.0000   18.0000 
7331.5000 2234.6411    7.8750    8.6684  -94.1880  -18.5030   34.3814    0.7625    2.6706   -0.0089    0.0088    3.9289   18.0000   18.0000 
7332.0000 2234.7937    7.8750    8.6600  -94.6725  -18.9990   33.4827    0.7654    2.6539   -0.0067    0.0092    3.7106   18.0000   18.0000 
7332.5000 2234.9460    7.8750    8.6600  -95.0185  -19.3564   36.4219    0.7692    2.6536   -0.0055    0.0100    4.1665   18.0000   18.0000 
7333.0000 2235.0984    7.8750    8.6600  -95.1789  -19.5283   37.8201    0.7728    2.6588   -0.0048    0.0104    4.4360   18.0000   18.0000 
7333.5000 2235.2507    7.8750    8.6600  -95.3398  -19.7006   39.2004    0.7783    2.6719   -0.0056    0.0118    4.8871   18.0000   18.0000 
7334.0000 2235.4031    7.8750    8.6600  -95.7407  -20.1129   40.5808    0.7839    2.6712   -0.0091    0.0132    4.7085   18.0000   18.0000 
7334.5000 2235.5557    7.8750    8.6600  -95.9829  -20.3665   40.8065    0.7874    2.6444   -0.0119    0.0132    4.4607   18.0001   18.0000 
7335.0000 2235.7080    7.8750    8.6600  -96.0974  -20.4924   41.0323    0.7874    2.6178   -0.0150    0.0132    4.1895   26.9999   18.0000 
7335.5000 2235.8604    7.8750    8.6200  -96.4269  -20.8334   40.2642    0.7874    2.6114   -0.0150    0.0130    4.0217   27.0000   18.0000 
7336.0000 2236.0127    7.8750    8.6000  -96.7200  -21.1379   39.4961    0.7874    2.6179   -0.0123    0.0128    3.9765   27.0000   18.0000 
7336.5000 2236.1653    7.8750    8.6000  -97.0159  -21.4453   38.0183    0.7874    2.6278   -0.0086    0.0134    4.0347   27.0000   18.0000 
7337.0000 2236.3176    7.8750    8.6000  -97.4284  -21.8692   36.5406    0.7874    2.6382   -0.0039    0.0140    4.0775   26.9999   18.0000 
7337.5000 2236.4700    7.8750    8.6128  -97.5911  -22.0433   37.3819    0.7874    2.6421   -0.0036    0.0147    3.8969   18.0001   18.0000 
7338.0000 2236.6223    7.8750    8.6468  -97.6202  -22.0839   37.9459    0.7874    2.6416   -0.0025    0.0152    3.6657   18.0001   18.0000 
7338.5000 2236.7749    7.8750    8.6600  -97.8137  -22.2887   40.6794    0.7874    2.6390   -0.0019    0.0140    3.1699   26.9999   18.0000 
7339.0000 2236.9273    7.8750    8.6600  -98.0639  -22.5504   43.5599    0.7874    2.6274   -0.0025    0.0124    3.2218   27.0000   18.0000 
7339.5000 2237.0796    7.8750    8.6600  -98.2213  -22.7193   43.7213    0.7883    2.6245   -0.0029    0.0120    3.3560   27.0000   18.0000 
7340.0000 2237.2319    7.8750    8.6481  -98.4249  -22.9343   44.0295    0.7900    2.6275   -0.0057    0.0112    3.6465   27.0000   18.0000 
7340.5000 2237.3843    7.8750    8.6400  -98.6284  -23.1493   39.7337    0.7917    2.6295   -0.0079    0.0114    4.0565   27.0000   18.0000 
7341.0000 2237.5369    7.8750    8.6200  -98.9517  -23.4839   35.4378    0.7937    2.6394   -0.0080    0.0116    4.0564   26.9999   18.0000 
7341.5000 2237.6892    7.8750    8.6112  -99.4583  -24.0020   32.3289    0.7967    2.6457   -0.0080    0.0114    3.8157   18.0001   18.0000 
7342.0000 2237.8416    7.8750    8.6000 -100.1125  -24.6676   29.2202    0.7997    2.6439   -0.0080    0.0112    3.7327   26.9999   18.0000 
7342.5000 2237.9939    7.8750    8.6000 -100.6513  -25.2179   28.5108    0.8027    2.6409   -0.0080    0.0110    3.8375   26.9999   18.0000 
7343.0000 2238.1465    7.8750    8.6000 -100.9253  -25.5033   27.8563    0.8054    2.6465   -0.0080    0.0108    3.9528   18.0001   18.0000 
7343.5000 2238.2988    7.8750    8.6298 -101.1289  -25.7183   28.7550    0.8082    2.6568   -0.0080    0.0114    4.0559   18.0000   18.0000 
7344.0000 2238.4512    7.8750    8.6664 -101.2000  -25.8008   29.7018    0.8119    2.6560   -0.0080    0.0120    4.0695   18.0000   18.0000 
7344.5000 2238.6035    7.8750    8.6800 -101.2000  -25.8123   29.8037    0.8152    2.6480   -0.0080    0.0120    4.0557   18.0001   18.0000 
7345.0000 2238.7561    7.8750    8.6800 -101.0161  -25.6397   29.9536    0.8200    2.6385   -0.0100    0.0120    4.0152   26.9999   18.0000 
7345.5000 2238.9085    7.8750    8.6800 -100.6151  -25.2502   29.1643    0.8248    2.6305   -0.0093    0.0112    4.0545   27.0000   18.0000 
7346.0000 2239.0608    7.8750    8.6800 -100.1623  -24.8089   28.3749    0.8298    2.6387   -0.0069    0.0104    4.2894   26.9999   18.0000 
7346.5000 2239.2131    7.8750    8.6608  -99.7606  -24.4186   27.6450    0.8349    2.6457   -0.0060    0.0110    4.4552   18.0001   18.0000 
7347.0000 2239.3655    7.8750    8.6885  -99.8013  -24.4707   26.9151    0.8399    2.6517   -0.0060    0.0116    4.5406   18.0000   18.0000 
7347.5000 2239.5181    7.8750    8.7285 -100.0000  -24.6808   26.3380    0.8452    2.6506   -0.0060    0.0116    4.4835   18.0000   18.0000 
7348.0000 2239.6704    7.8750    8.7477 -100.2003  -24.8926   25.7609    0.8510    2.6466   -0.0060    0.0116    4.2572   18.0001   18.0000 
7348.5000 2239.8228    7.8750    8.7600 -100.4248  -25.1285   26.3434    0.8570    2.6446   -0.0060    0.0108    4.0719   26.9999   18.0000 
7349.0000 2239.9751    7.8750    8.7600 -100.6335  -25.3487   27.2446    0.8638    2.6432   -0.0084    0.0100    3.9134   27.0000   18.0000 
7349.5000 2240.1277    7.8750    8.7600 -100.8000  -25.5266   28.8815    0.8678    2.6426   -0.0099    0.0102    3.8399   27.0000   18.0000 
7350.0000 2240.2800    7.8750    8.7600 -100.8000  -25.5380   30.8370    0.8724    2.6459   -0.0121    0.0104    3.8803   26.9999   18.0000 
7350.5000 2240.4324    7.8750    8.7600 -100.8000  -25.5494   34.3809    0.8792    2.6564   -0.0123    0.0104    3.9198   18.0001   18.0000 
7351.0000 2240.5847    7.8750    8.7600 -100.8000  -25.5609   35.7423    0.8805    2.6608   -0.0126    0.0104    3.9128   18.0000   18.0000 
7351.5000 2240.7373    7.8750    8.7600 -100.8000  -25.5723   36.8930    0.8830    2.6628   -0.0140    0.0104    3.9018   18.0000   18.0000 
7352.0000 2240.8897    7.8750    8.7600 -100.8000  -25.5837   38.0437    0.8854    2.6595   -0.0151    0.0104    3.9422   18.0000   18.0000 
7352.5000 2241.0420    7.8750    8.7600 -100.8000  -25.5952   38.1937    0.8878    2.6565   -0.0157    0.0100    4.0026   18.0000   18.0000 
