~VERSION INFORMATION
 VERS.                 2.0:   CWLS LOG ASCII STANDARD - VERSION 2.0
 WRAP.                  NO:   SINGLE LINE PER DEPTH STEP
 CREA.                 13/12/2017 11:17:09
#CREATED USING DSPetro VERSION 5000.10.1.3 BY H191660 ON 13/12/2017 11:17:09
~WELL INFORMATION
#MNEM.UNIT       DATA                          DESCRIPTION MNEMONIC
#---------      ---------------------------   --------------------------
 STRT    .FT        0.0000                    : START DEPTH
 STOP    .FT        11486.0000                : STOP DEPTH
 STEP    .FT        0.5000                    : STEP VALUE
 NULL    .      -999.0000                     : NULL VALUE
 DATE    .      13/12/2017                    : LAS file Creation Date
 WELL  .      NESTE_BEVERS_4221935327    : Well Name
 COMP  .      Union Texas petroleum Corp : Company
 FLD   .      WILDCAT                    : Field
 COUNT .      HOCKLEY                    : Country
 UWI   .      DUSWL_935327               : Unique Well Identifier (UWI)
 LOC   .                                 : Location
 PDAT  .      Ground Level               : Permanent Datum
 EPDAT .      3406.0                     : Reference Elevation
 LGMEA .      Kelly Bushing              : Log Measured from
 DRMEA .      Kelly Bushing              : Drill Measured From
 APDAT .      3423                       : Elevation Above Permanent Datum
 KB    .      3423                       : KB Elevation
 DF    .      3422                       : DF Elevation
 GL    .      3406                       : GL Elevation
 RWS   .      0                          : Def_Rw
 WST   .      0                          : Def_Rwt
 DATS  .      20/09/88                   : Spud Date
 MDEC  .      0                          : Magnetic Declination
 SRVC  .      SCH                        : Contractor
~CURVE INFORMATION
#MNEM              UNIT       API CODE   Curve Type Comments
#----------  --------------- ----------  ---------- -----------
 DEPTH      .FT                        : Depth       
 DEPTH_m  .                          :             
 BitSize    .in                        : BitSize     
 CAL_INCH   .inch                      :             Caliper Log - A representation of the measured diameter of a borehole along its depth
 SP_MV      .mv                        : SP          
 SP_Corr    .mv                        : SP          
 GR_API     .API                       : GammaRay    Gamma Ray (API) - Measures the intensity of natural gamma-ray radiation emitted from formations containing radioactive elements, such as K, Th and U
 RES_USL    .usl                       :             Unspecified Resistivity Log - No accroynm or method of attainment is specified - unscaled
 RHOB_G_CC  .g/cc                      :             Bulk Density - Measures the density of bulk material, including any void space or other materials contained in the subject volume
 DRHO_G_CC  .g/cc                      :             Density Correction - Investigates the correction to the Bulk Density log; used as an indication of hole condition to validate the Bulk Density measure
 NPHI_v_v   .ratio                     :             Neutron Porosity - Measured with an neutron logging device calibrated to a given matrix (limestone, sandstone and dolomite)
 PEF_B_E    .b/e-                      : PEF         Photoelectric Factor - A log of photoelectric absorption properties. Often expressed in an approximation unit barns/electron (b/e-)
 LITH       .                          : LITH        Lithology Curve
 LITH_v2    .                          : LITH        Lithology Curve
~A  DEPTH DEPTH_M  BitSize   CAL_INCH   SP_MV    SP_Corr    GR_API   RES_USL  RHOB_G_C~ DRHO_G_C~  NPHI_v_v  PEF_B_E     LITH    LITH_v2  
# ...
9519.0000 2901.3911    7.8750   10.4150  -67.7844   -0.0677   85.0986    0.1490    2.5923   -0.0055    0.1652    3.2538   37.0000   37.0000 
9519.5000 2901.5437    7.8750   10.4151  -67.7844   -0.0632   84.3369    0.1554    2.5962   -0.0063    0.1655    3.2375   37.0000   37.0000 
9520.0000 2901.6961    7.8750   10.3952  -67.9779   -0.2522   83.5757    0.1607    2.5962   -0.0068    0.1658    3.3160   37.0000   37.0000 
9520.5000 2901.8484    7.8750   10.3898  -68.1591   -0.4289   87.6420    0.1660    2.5900   -0.0086    0.1996    3.3565   37.0000   37.0000 
9521.0000 2902.0007    7.8750   10.3755  -68.1836   -0.4490   91.6826    0.1713    2.5728   -0.0106    0.2332    3.3550   37.0000   37.0000 
9521.5000 2902.1531    7.8750   10.3756  -68.1836   -0.4445   94.6948    0.1690    2.5559   -0.0106    0.2280    3.3256   37.0000   37.0000 
9522.0000 2902.3057    7.8750   10.3757  -68.1836   -0.4401   97.6811    0.1667    2.5472   -0.0106    0.2227    3.2290   37.0000   37.0000 
9522.5000 2902.4580    7.8750   10.3758  -68.1391   -0.3911  102.0682    0.1639    2.5455   -0.0106    0.2226    3.1462   37.0000   37.0000 
9523.0000 2902.6104    7.8750   10.3759  -67.8960   -0.1435  104.5574    0.1564    2.5450   -0.0106    0.2225    3.0849   37.0000   37.0000 
9523.5000 2902.7627    7.8750   10.3760  -67.7216    0.0354  115.8450    0.1460    2.5335   -0.0106    0.2773    2.9617   37.0000   37.0000 
9524.0000 2902.9153    7.8750   10.3761  -67.4882    0.2732  127.1324    0.1356    2.5045   -0.0106    0.3321    2.8903   37.0000   37.0000 
9524.5000 2903.0676    7.8750   10.3762  -67.3889    0.3770  124.3237    0.1272    2.3562   -0.0136    0.3321    2.8616   37.0000   37.0000 
9525.0000 2903.2200    7.8750   10.3763  -67.3837    0.3866  121.5143    0.1213    2.3674   -0.0142    0.3321    3.0130   37.0000   37.0000 
9525.5000 2903.3723    7.8750   10.3764  -67.3817    0.3931  114.0701    0.1155    2.4061   -0.0115    0.2797    3.1127   37.0000   37.0000 
9526.0000 2903.5249    7.8750   10.4037  -67.3797    0.3996  106.6261    0.1105    2.5020   -0.0067    0.2273    3.1330   37.0000   37.0000 
9526.5000 2903.6773    7.8750   10.4764  -67.6112    0.1726  110.5187    0.1102    2.5156   -0.0002    0.2359    3.1017   37.0000   37.0000 
9527.0000 2903.8296    7.8750   10.5844  -67.5875    0.2007  114.4113    0.1099    2.4963    0.0100    0.2444    3.1128   37.0000   37.0000 
9527.5000 2903.9819    7.8750   10.7396  -67.8791   -0.0864  107.9040    0.1096    2.4561    0.0275    0.2655    3.1728   37.0000   37.0000 
9528.0000 2904.1343    7.8750   10.9124  -68.3666   -0.5694  102.7705    0.1096    2.4477    0.0432    0.2821    3.1002   37.0000   37.0000 
9528.5000 2904.2869    7.8750   11.1103  -68.6791   -0.8774  102.1554    0.1097    2.4581    0.0885    0.2784    2.9827   37.0000   37.0000 
9529.0000 2904.4392    7.8750   11.3696  -68.5884   -0.7823  102.6550    0.1097    2.4766    0.1032    0.2799    2.8154   37.0000   37.0000 
9529.5000 2904.5916    7.8750   11.4698  -68.5631   -0.7525  104.3358    0.1106    2.4729    0.1046    0.2878    2.7602   37.0000   37.0000 
9530.0000 2904.7439    7.8750   11.6724  -68.5611   -0.7460  107.1309    0.1119    2.4488    0.1029    0.3010    2.7491   37.0000   37.0000 
9530.5000 2904.8965    7.8750   11.4431  -68.5583   -0.7387  105.4698    0.1133    2.4089    0.0865    0.3176    2.8091   37.0000   37.0000 
9531.0000 2905.0488    7.8750   11.2121  -68.5570   -0.7329  103.8086    0.1168    2.3815    0.0668    0.3341    2.8688   37.0000   37.0000 
9531.5000 2905.2012    7.8750   10.7080  -68.5550   -0.7265  104.6545    0.1247    2.3803    0.0517    0.2978    3.0093   37.0000   37.0000 
9532.0000 2905.3535    7.8750   10.2379  -68.5530   -0.7200  105.5006    0.1326    2.4049    0.0281    0.2614    3.1098   37.0000   37.0000 
9532.5000 2905.5061    7.8750   10.1981  -68.5510   -0.7136  110.0437    0.1410    2.4953    0.0117    0.2397    3.2302   37.0000   37.0000 
9533.0000 2905.6585    7.8750   10.1955  -69.7154   -1.8735  114.5870    0.1604    2.5276    0.0086    0.2181    3.2749   37.0000   37.0000 
9533.5000 2905.8108    7.8750   10.1783  -69.7445   -1.8981  122.5882    0.1800    2.5428    0.0081    0.2420    3.2582   37.0000   37.0000 
9534.0000 2905.9631    7.8750   10.2259  -69.7425   -1.8916  129.0705    0.2042    2.5212    0.0068    0.2702    2.9924   37.0000   37.0000 
9534.5000 2906.1155    7.8750   10.2742  -69.7405   -1.8851  124.3640    0.2080    2.4728    0.0066    0.2836    2.8665   37.0000   37.0000 
9535.0000 2906.2681    7.8750   10.2984  -69.7384   -1.8786  118.1386    0.2130    2.4280    0.0056    0.3014    2.7328   37.0000   37.0000 
9535.5000 2906.4204    7.8750   10.2657  -69.7358   -1.8715  116.8598    0.2180    2.3710    0.0046    0.3218    2.5473   37.0000   37.0000 
9536.0000 2906.5728    7.8750   10.1832  -69.7344   -1.8656  115.5811    0.2208    2.3710    0.0035    0.3421    2.6345   37.0000   37.0000 
9536.5000 2906.7251    7.8750   10.0879  -69.7323   -1.8591  114.4615    0.2211    2.4973    0.0014    0.3041    2.8550   37.0000   37.0000 
9537.0000 2906.8777    7.8750    9.9794  -69.7551   -1.8774  113.3418    0.2214    2.5291   -0.0015    0.2661    2.9395   37.0000   37.0000 
9537.5000 2907.0300    7.8750    9.9451  -69.9961   -2.1139  110.4797    0.2198    2.5541   -0.0026    0.2520    3.1370   37.0000   37.0000 
9538.0000 2907.1824    7.8750    9.9003  -70.1255   -2.2389  107.6175    0.2106    2.5672   -0.0090    0.2380    3.2457   37.0000   37.0000 
9538.5000 2907.3347    7.8750    9.8667  -70.1235   -2.2324  106.3981    0.2013    2.5791   -0.0136    0.2318    3.2753   37.0000   37.0000 
9539.0000 2907.4873    7.8750    9.8241  -70.1215   -2.2259  103.2541    0.1913    2.5927   -0.0136    0.2219    3.3008   37.0000   37.0000 
9539.5000 2907.6397    7.8750    9.8003  -70.1194   -2.2194   82.4505    0.1788    2.6035   -0.0136    0.1826    3.3581   37.0000   36.9998 
9540.0000 2907.7920    7.8750    9.8004  -70.1174   -2.2128   59.7231    0.1652    2.6643   -0.0110    0.1398    3.5786   37.0000   22.0000 
9540.5000 2907.9443    7.8750    9.8161  -70.1152   -2.2061   60.3917    0.1466    2.7572   -0.0049    0.1394    3.6111   37.0000   22.0000 
9541.0000 2908.0967    7.8750    9.8431  -70.1133   -2.1998   60.7030    0.1401    2.7592    0.0000    0.1392    3.4919   37.0000   22.0000 
9541.5000 2908.2493    7.8750    9.9005  -70.1111   -2.1931   75.4099    0.1300    2.7414    0.0006    0.1727    3.3114   37.0000   22.0002 
9542.0000 2908.4016    7.8750    9.9206  -70.1086   -2.1862   90.1166    0.1197    2.6460   -0.0020    0.2063    3.2086   37.0000   37.0000 
9542.5000 2908.5540    7.8750    9.9284  -70.1073   -2.1803   89.7379    0.1132    2.6313   -0.0062    0.2006    3.1467   37.0000   37.0000 
9543.0000 2908.7063    7.8750    9.9407  -70.1052   -2.1738   89.3587    0.1132    2.6195   -0.0099    0.1950    3.0734   37.0000   37.0000 
9543.5000 2908.8589    7.8750    9.9209  -70.1032   -2.1673   87.8260    0.1132    2.6147   -0.0125    0.1939    3.1027   37.0000   37.0000 
9544.0000 2909.0112    7.8750    9.9210  -70.1012   -2.1608   86.2936    0.1133    2.6088   -0.0156    0.1929    3.1632   37.0000   37.0000 
9544.5000 2909.1636    7.8750    9.9211  -70.0991   -2.1543   88.7848    0.1156    2.5963   -0.0166    0.2027    3.2060   37.0000   37.0000 
9545.0000 2909.3159    7.8750    9.9212  -70.0971   -2.1478   91.2762    0.1178    2.5867   -0.0177    0.2125    3.1223   37.0000   37.0000 
9545.5000 2909.4685    7.8750    9.9213  -70.0951   -2.1413   95.2182    0.1205    2.5736   -0.0189    0.2192    3.0315   37.0000   37.0000 
9546.0000 2909.6209    7.8750    9.9214  -70.0930   -2.1348   97.8253    0.1218    2.5703   -0.0197    0.2236    2.9927   37.0000   37.0000 
9546.5000 2909.7732    7.8750    9.9215  -70.0908   -2.1281  101.0661    0.1236    2.5702   -0.0187    0.2282    3.0129   37.0000   37.0000 
9547.0000 2909.9255    7.8750    9.9313  -70.0887   -2.1215  105.3172    0.1261    2.5632   -0.0151    0.2373    3.0332   37.0000   37.0000 
