~VERSION INFORMATION
 VERS.                 2.0:   CWLS LOG ASCII STANDARD - VERSION 2.0
 WRAP.                  NO:   SINGLE LINE PER DEPTH STEP
 CREA.                 13/12/2017 11:17:09
#CREATED USING DSPetro VERSION 5000.10.1.3 BY H191660 ON 13/12/2017 11:17:09
~WELL INFORMATION
#MNEM.UNIT       DATA                          DESCRIPTION MNEMONIC
#---------      ---------------------------   --------------------------
 STRT    .FT        0.0000                    : START DEPTH
 STOP    .FT        11486.0000                : STOP DEPTH
 STEP    .FT        0.5000                    : STEP VALUE
 NULL    .      -999.0000                     : NULL VALUE
 DATE    .      13/12/2017                    : LAS file Creation Date
 WELL  .      NESTE_BEVERS_4221935327    : Well Name
 COMP  .      Union Texas petroleum Corp : Company
 FLD   .      WILDCAT                    : Field
 COUNT .      HOCKLEY                    : Country
 UWI   .      DUSWL_935327               : Unique Well Identifier (UWI)
 LOC   .                                 : Location
 PDAT  .      Ground Level               : Permanent Datum
 EPDAT .      3406.0                     : Reference Elevation
 LGMEA .      Kelly Bushing              : Log Measured from
 DRMEA .      Kelly Bushing              : Drill Measured From
 APDAT .      3423                       : Elevation Above Permanent Datum
 KB    .      3423                       : KB Elevation
 DF    .      3422                       : DF Elevation
 GL    .      3406                       : GL Elevation
 RWS   .      0                          : Def_Rw
 WST   .      0                          : Def_Rwt
 DATS  .      20/09/88                   : Spud Date
 MDEC  .      0                          : Magnetic Declination
 SRVC  .      SCH                        : Contractor
~CURVE INFORMATION
#MNEM              UNIT       API CODE   Curve Type Comments
#----------  --------------- ----------  ---------- -----------
 DEPTH      .FT                        : Depth       
 DEPTH_m  .                          :             
 BitSize    .in                        : BitSize     
 CAL_INCH   .inch                      :             Caliper Log - A representation of the measured diameter of a borehole along its depth
 SP_MV      .mv                        : SP          
 SP_Corr    .mv                        : SP          
 GR_API     .API                       : GammaRay    Gamma Ray (API) - Measures the intensity of natural gamma-ray radiation emitted from formations containing radioactive elements, such as K, Th and U
 RES_USL    .usl                       :             Unspecified Resistivity Log - No accroynm or method of attainment is specified - unscaled
 RHOB_G_CC  .g/cc                      :             Bulk Density - Measures the density of bulk material, including any void space or other materials contained in the subject volume
 DRHO_G_CC  .g/cc                      :             Density Correction - Investigates the correction to the Bulk Density log; used as an indication of hole condition to validate the Bulk Density measure
 NPHI_v_v   .ratio                     :             Neutron Porosity - Measured with an neutron logging device calibrated to a given matrix (limestone, sandstone and dolomite)
 PEF_B_E    .b/e-                      : PEF         Photoelectric Factor - A log of photoelectric absorption properties. Often expressed in an approximation unit barns/electron (b/e-)
 LITH       .                          : LITH        Lithology Curve
 LITH_v2    .                          : LITH        Lithology Curve
~A  DEPTH DEPTH_M  BitSize   CAL_INCH   SP_MV    SP_Corr    GR_API   RES_USL  RHOB_G_C~ DRHO_G_C~  NPHI_v_v  PEF_B_E     LITH    LITH_v2  
# ...
9889.5000 3014.3196    7.8750    8.5902  -42.6986   -0.4563  108.6043    0.4922    2.4084   -0.0164    0.2551    3.0536   37.0000   37.0000 
9890.0000 3014.4719    7.8750    8.5938  -43.4735   -1.2724  106.4023    0.4809    2.3954   -0.0187    0.2537    3.0229   37.0000   37.0000 
9890.5000 3014.6245    7.8750    8.6101  -43.5946   -1.4347  109.9538    0.4589    2.3957   -0.0187    0.2494    2.9761   37.0000   37.0000 
9891.0000 3014.7769    7.8750    8.6100  -43.5061   -1.3873  114.3029    0.4321    2.4007   -0.0186    0.2440    2.9929   37.0000   37.0000 
9891.5000 3014.9292    7.8750    8.6715  -43.1076   -1.0299  111.6761    0.3928    2.4094   -0.0162    0.2434    3.0521   37.0000   37.0000 
9892.0000 3015.0815    7.8750    8.6897  -42.6836   -0.6472  110.7144    0.3878    2.4158   -0.0156    0.2431    3.0738   37.0000   37.0000 
9892.5000 3015.2339    7.8750    8.6897  -42.0635   -0.0682  110.4135    0.3786    2.4329   -0.0166    0.2440    2.9936   37.0000   37.0000 
9893.0000 3015.3865    7.8750    8.7172  -41.9641   -0.0100  110.1126    0.3695    2.4460   -0.0166    0.2449    2.9323   37.0000   37.0000 
9893.5000 3015.5388    7.8750    8.7663  -41.6975    0.2155  111.8161    0.3620    2.4617   -0.0187    0.2481    2.9323   37.0000   37.0000 
9894.0000 3015.6912    7.8750    8.7987  -41.3646    0.5073  113.5196    0.3598    2.4690   -0.0210    0.2514    2.9525   37.0000   37.0000 
9894.5000 3015.8435    7.8750    8.8519  -41.2172    0.6135  110.4701    0.3576    2.4731   -0.0241    0.2575    3.0738   37.0000   37.0000 
9895.0000 3015.9961    7.8750    8.8834  -41.2184    0.5712  107.4206    0.3554    2.4733   -0.0257    0.2635    3.1143   37.0000   37.0000 
9895.5000 3016.1484    7.8750    8.9235  -41.2196    0.5288  106.5111    0.3552    2.4722   -0.0230    0.2629    3.0914   37.0000   37.0000 
9896.0000 3016.3008    7.8750    8.9635  -41.2209    0.4864  105.6018    0.3551    2.4712   -0.0193    0.2622    3.0702   37.0000   37.0000 
9896.5000 3016.4531    7.8750    9.0143  -41.2221    0.4488  106.5206    0.3549    2.4731   -0.0166    0.2492    2.9867   37.0000   37.0000 
9897.0000 3016.6057    7.8750    9.0281  -41.2234    0.7561  107.0069    0.3536    2.4773   -0.0166    0.2423    2.9727   37.0000   37.0000 
9897.5000 3016.7581    7.8750    9.0280  -41.2246    1.0635  107.9894    0.3518    2.4823   -0.0169    0.2285    2.9727   37.0000   37.0000 
9898.0000 3016.9104    7.8750    9.0280  -41.1708    1.4259  108.9719    0.3500    2.4919   -0.0185    0.2148    2.9727   37.0000   37.0000 
9898.5000 3017.0628    7.8750    9.0280  -40.9822    1.9232  109.5528    0.3453    2.4993   -0.0197    0.2349    2.9929   37.0000   37.0000 
9899.0000 3017.2151    7.8750    9.0280  -40.8298    2.3842  110.1337    0.3367    2.5045   -0.0217    0.2549    3.0216   37.0000   37.0000 
9899.5000 3017.3677    7.8750    9.0279  -40.8307    2.6920  111.8015    0.3280    2.5076   -0.0217    0.2578    3.0738   37.0000   37.0000 
9900.0000 3017.5200    7.8750    9.0530  -40.9682    2.8631  113.4693    0.3186    2.5076   -0.0217    0.2607    3.1547   37.0000   37.0000 
9900.5000 3017.6724    7.8750    9.1035  -41.3345    2.8055  116.0654    0.3038    2.5046   -0.0217    0.2543    3.2356   37.0000   37.0000 
9901.0000 3017.8247    7.8750    9.2030  -41.9588    2.4899  118.6613    0.2890    2.5015   -0.0217    0.2479    3.3246   37.0000   37.0000 
9901.5000 3017.9773    7.8750    9.3316  -42.6433    2.1139  119.6040    0.2720    2.4901   -0.0213    0.2465    3.4236   37.0000   37.0000 
9902.0000 3018.1296    7.8750    9.4959  -43.2805    1.7855  120.3003    0.2573    2.4609   -0.0188    0.2455    3.4580   37.0000   37.0000 
9902.5000 3018.2820    7.8750   10.0486  -44.0904    1.2841  114.6481    0.2400    2.3154   -0.0147    0.2517    3.4984   36.9996   37.0000 
9903.0000 3018.4343    7.8750   10.5465  -44.7985    0.8847  110.0434    0.2153    2.2265   -0.0024    0.2574    3.5273   11.0004   36.9996 
9903.5000 3018.5869    7.8750   10.6096  -45.5027    0.4891  111.4244    0.2075    2.1553    0.0037    0.2567    3.5388   11.0000   11.0000 
9904.0000 3018.7393    7.8750   10.6478  -46.1003    0.2002  113.8529    0.1939    2.0969    0.0390    0.2554    3.5590   11.0000   11.0000 
9904.5000 3018.8916    7.8750   10.7225  -46.2949    0.3143  108.6977    0.1802    2.1153    0.0490    0.2176    3.6094   11.0000   11.0000 
9905.0000 3019.0440    7.8750   10.8093  -46.7411    0.1767  103.5423    0.1678    2.1261    0.0666    0.1798    3.6090   11.0000   11.0000 
9905.5000 3019.1963    7.8750   10.8891  -47.5568   -0.3304   99.1426    0.1585    2.1315    0.0836    0.1796    3.4530   11.0000   11.0000 
9906.0000 3019.3489    7.8750   10.9969  -48.0082   -0.4731   94.7430    0.1492    2.1345    0.0945    0.1794    2.8721   11.0000   11.0000 
9906.5000 3019.5012    7.8750   11.2319  -48.3276   -0.4838   90.6005    0.1400    2.1160    0.1127    0.2407    2.6252   11.0000   11.0000 
9907.0000 3019.6536    7.8750   11.7391  -48.7232   -0.5708   86.4046    0.1321    2.0960    0.1321    0.3029    2.3804   11.0000   11.0000 
9907.5000 3019.8059    7.8750   13.0276  -49.2075   -0.7465   86.8547    0.1243    2.0790    0.1448    0.3159    2.3052   11.0000   11.0000 
9908.0000 3019.9585    7.8750   13.6413  -49.6116   -0.8420   86.8937    0.1144    2.1083    0.1613    0.3355    2.3231   11.0000   11.0000 
9908.5000 3020.1108    7.8750   13.8088  -49.8595   -0.7812   85.8055    0.1138    2.1219    0.1698    0.3529    2.3254   11.0000   11.0000 
9909.0000 3020.2632    7.8750   13.6476  -50.0873   -0.7003   84.3060    0.1131    2.1900    0.1758    0.3770    2.3254   11.0000   11.0000 
9909.5000 3020.4155    7.8750   13.3152  -50.3978   -0.7021   84.5697    0.1123    2.2177    0.1775    0.3768    2.3156   11.0000   11.0000 
9910.0000 3020.5681    7.8750   13.2112  -50.6596   -0.6553   84.8336    0.1118    2.2346    0.1809    0.3766    2.2795   11.0000   11.0000 
9910.5000 3020.7205    7.8750   13.2112  -51.1639   -0.8510   87.1201    0.1117    2.2335    0.1856    0.3391    2.2120   11.0000   11.0000 
9911.0000 3020.8728    7.8750   13.5182  -51.6642   -1.0427   89.4066    0.1117    2.2275    0.1923    0.3016    2.1704   11.0000   11.0000 
9911.5000 3021.0252    7.8750   13.5299  -51.9047   -0.9745   90.3161    0.1116    2.2290    0.1992    0.3051    2.1636   11.0000   11.0000 
9912.0000 3021.1775    7.8750   13.3939  -52.5162   -1.2773   91.2256    0.1116    2.3163    0.2060    0.3086    2.1838   11.0000   11.0000 
9912.5000 3021.3301    7.8750   13.4971  -53.0918   -1.5443   92.2665    0.1116    2.3781    0.2110    0.3217    2.2189   11.0000   11.0000 
9913.0000 3021.4824    7.8750   13.7038  -53.3947   -1.5386   93.2271    0.1116    2.4243    0.2113    0.3357    2.2308   11.0000   11.0000 
9913.5000 3021.6348    7.8750   13.8818  -53.6804   -1.5156   92.6279    0.1116    2.3917    0.2069    0.3415    2.2803   11.0000   11.0000 
9914.0000 3021.7871    7.8750   13.9880  -54.0798   -1.6063   91.9485    0.1116    2.2912    0.1629    0.3481    2.3050   11.0000   11.0000 
9914.5000 3021.9397    7.8750   12.6943  -54.6649   -1.8828   90.7567    0.1116    2.3009    0.1655    0.3380    2.3767   11.0000   11.0000 
9915.0000 3022.0920    7.8750   12.5737  -54.8042   -1.7135   90.2397    0.1116    2.3175    0.1723    0.3336    2.3691   11.0000   11.0000 
9915.5000 3022.2444    7.8750   12.9182  -55.1528   -1.7534   90.3120    0.1116    2.3465    0.1882    0.3288    2.3071   11.0000   11.0000 
9916.0000 3022.3967    7.8750   13.3939  -55.2105   -1.5025   90.3843    0.1116    2.3954    0.2030    0.3241    2.3050   11.0000   11.0000 
9916.5000 3022.5491    7.8750   13.4701  -55.2116   -1.1950   91.5470    0.1117    2.4357    0.2167    0.3271    2.3243   11.0000   11.0000 
9917.0000 3022.7017    7.8750   13.4276  -55.2125   -0.8872   92.7096    0.1117    2.5014    0.2243    0.3301    2.4072   11.0000   11.0000 
9917.5000 3022.8540    7.8750   13.1054  -55.2133   -0.5794   91.0008    0.1117    2.4893    0.2113    0.3288    2.4869   11.0000   11.0000 
