~VERSION INFORMATION
 VERS.                 2.0:   CWLS LOG ASCII STANDARD - VERSION 2.0
 WRAP.                  NO:   SINGLE LINE PER DEPTH STEP
 CREA.                 13/12/2017 11:17:09
#CREATED USING DSPetro VERSION 5000.10.1.3 BY H191660 ON 13/12/2017 11:17:09
~WELL INFORMATION
#MNEM.UNIT       DATA                          DESCRIPTION MNEMONIC
#---------      ---------------------------   --------------------------
 STRT    .FT        0.0000                    : START DEPTH
 STOP    .FT        11486.0000                : STOP DEPTH
 STEP    .FT        0.5000                    : STEP VALUE
 NULL    .      -999.0000                     : NULL VALUE
 DATE    .      13/12/2017                    : LAS file Creation Date
 WELL  .      NESTE_BEVERS_4221935327    : Well Name
 COMP  .      Union Texas petroleum Corp : Company
 FLD   .      WILDCAT                    : Field
 COUNT .      HOCKLEY                    : Country
 UWI   .      DUSWL_935327               : Unique Well Identifier (UWI)
 LOC   .                                 : Location
 PDAT  .      Ground Level               : Permanent Datum
 EPDAT .      3406.0                     : Reference Elevation
 LGMEA .      Kelly Bushing              : Log Measured from
 DRMEA .      Kelly Bushing              : Drill Measured From
 APDAT .      3423                       : Elevation Above Permanent Datum
 KB    .      3423                       : KB Elevation
 DF    .      3422                       : DF Elevation
 GL    .      3406                       : GL Elevation
 RWS   .      0                          : Def_Rw
 WST   .      0                          : Def_Rwt
 DATS  .      20/09/88                   : Spud Date
 MDEC  .      0                          : Magnetic Declination
 SRVC  .      SCH                        : Contractor
~CURVE INFORMATION
#MNEM              UNIT       API CODE   Curve Type Comments
#----------  --------------- ----------  ---------- -----------
 DEPTH      .FT                        : Depth       
 DEPTH_m  .                          :             
 BitSize    .in                        : BitSize     
 CAL_INCH   .inch                      :             Caliper Log - A representation of the measured diameter of a borehole along its depth
 SP_MV      .mv                        : SP          
 SP_Corr    .mv                        : SP          
 GR_API     .API                       : GammaRay    Gamma Ray (API) - Measures the intensity of natural gamma-ray radiation emitted from formations containing radioactive elements, such as K, Th and U
 RES_USL    .usl                       :             Unspecified Resistivity Log - No accroynm or method of attainment is specified - unscaled
 RHOB_G_CC  .g/cc                      :             Bulk Density - Measures the density of bulk material, including any void space or other materials contained in the subject volume
 DRHO_G_CC  .g/cc                      :             Density Correction - Investigates the correction to the Bulk Density log; used as an indication of hole condition to validate the Bulk Density measure
 NPHI_v_v   .ratio                     :             Neutron Porosity - Measured with an neutron logging device calibrated to a given matrix (limestone, sandstone and dolomite)
 PEF_B_E    .b/e-                      : PEF         Photoelectric Factor - A log of photoelectric absorption properties. Often expressed in an approximation unit barns/electron (b/e-)
 LITH       .                          : LITH        Lithology Curve
 LITH_v2    .                          : LITH        Lithology Curve
~A  DEPTH DEPTH_M  BitSize   CAL_INCH   SP_MV    SP_Corr    GR_API   RES_USL  RHOB_G_C~ DRHO_G_C~  NPHI_v_v  PEF_B_E     LITH    LITH_v2  
# ...
7695.0000 2345.4360    7.8750    8.7629  -82.1131  -14.7387   26.6731    0.9226    2.6076   -0.0095    0.0486    4.0353   18.0000   18.0000 
7695.5000 2345.5884    7.8750    8.7616  -82.1163  -14.7533   26.4109    0.9226    2.6057   -0.0095    0.0483    4.1269   18.0000   18.0000 
7696.0000 2345.7407    7.8750    8.7614  -82.1196  -14.7681   25.9579    0.9226    2.6007   -0.0105    0.0479    4.3284   18.0000   18.0000 
7696.5000 2345.8933    7.8750    8.7612  -82.1228  -14.7827   25.8953    0.9226    2.5976   -0.0105    0.0477    4.2778   18.0000   18.0000 
7697.0000 2346.0457    7.8750    8.7935  -82.1260  -14.7974   25.8327    0.9226    2.5967   -0.0105    0.0475    4.1462   18.0000   18.0000 
7697.5000 2346.1980    7.8750    8.8009  -82.1292  -14.8120   26.2385    0.9226    2.6037   -0.0105    0.0475    4.0854   18.0000   18.0000 
7698.0000 2346.3503    7.8750    8.8044  -81.9474  -14.6416   26.6443    0.9226    2.6067   -0.0106    0.0475    4.1673   18.0000   18.0000 
7698.5000 2346.5027    7.8750    8.8294  -81.7473  -14.4530   26.7509    0.9226    2.6067   -0.0115    0.0479    4.1860   18.0000   18.0000 
7699.0000 2346.6553    7.8750    8.8732  -81.7393  -14.4564   26.8618    0.9226    2.6036   -0.0124    0.0483    4.1863   18.0000   18.0000 
7699.5000 2346.8076    7.8750    8.8802  -81.7425  -14.4710   27.3914    0.9226    2.5994   -0.0136    0.0497    4.1166   18.0000   18.0000 
7700.0000 2346.9600    7.8750    8.8800  -81.7457  -14.4856   28.0968    0.9226    2.5962   -0.0149    0.0516    3.9537   18.0000   18.0000 
7700.5000 2347.1123    7.8750    8.8800  -81.7489  -14.5003   28.5889    0.9226    2.5955   -0.0156    0.0528    3.8928   18.0000   18.0000 
7701.0000 2347.2649    7.8750    8.8677  -81.7522  -14.5150   29.2569    0.9226    2.5968   -0.0156    0.0545    3.8623   18.0000   18.0000 
7701.5000 2347.4172    7.8750    8.8598  -81.6826  -14.4568   30.0169    0.9226    2.6052   -0.0156    0.0538    3.8824   18.0000   18.0000 
7702.0000 2347.5696    7.8750    8.8598  -81.3583  -14.1440   30.7769    0.9227    2.6087   -0.0156    0.0531    4.0238   18.0000   18.0000 
7702.5000 2347.7219    7.8750    8.8597  -81.0262  -13.8233   29.8695    0.9227    2.6076   -0.0157    0.0529    4.0641   18.0000   18.0000 
7703.0000 2347.8745    7.8750    8.8597  -80.9668  -13.7753   28.9621    0.9227    2.6056   -0.0157    0.0527    4.0742   18.0000   18.0000 
7703.5000 2348.0269    7.8750    8.8596  -80.9691  -13.7891   28.0475    0.9226    2.6056   -0.0157    0.0520    4.0639   18.0000   18.0000 
7704.0000 2348.1792    7.8750    8.8596  -80.9721  -13.8035   27.1330    0.9220    2.6089   -0.0153    0.0513    4.0548   18.0000   18.0000 
7704.5000 2348.3315    7.8750    8.8595  -80.9753  -13.8181   26.6530    0.9214    2.6127   -0.0147    0.0516    4.0636   18.0000   18.0000 
7705.0000 2348.4839    7.8750    8.9093  -80.9797  -13.8339   26.2836    0.9208    2.6147   -0.0157    0.0520    4.0220   18.0000   18.0000 
7705.5000 2348.6365    7.8750    8.9209  -80.9817  -13.8474   27.2160    0.9204    2.6147   -0.0173    0.0523    3.9482   18.0000   18.0000 
7706.0000 2348.7888    7.8750    8.9393  -80.9849  -13.8620   28.2590    0.9199    2.6137   -0.0187    0.0527    3.9066   18.0000   18.0000 
7706.5000 2348.9412    7.8750    8.9392  -80.9882  -13.8768   29.0869    0.9192    2.6135   -0.0201    0.0526    3.8531   18.0000   18.0000 
7707.0000 2349.0935    7.8750    8.9392  -80.9914  -13.8914   29.4538    0.9193    2.6133   -0.0208    0.0526    3.8406   18.0000   18.0000 
7707.5000 2349.2461    7.8750    8.9670  -80.9925  -13.9039   28.8370    0.9195    2.6126   -0.0218    0.0504    3.7798   18.0000   18.0000 
7708.0000 2349.3984    7.8750    8.9479  -80.7942  -13.7171   28.2203    0.9196    2.6146   -0.0208    0.0483    3.7890   18.0000   18.0000 
7708.5000 2349.5508    7.8750    8.9590  -80.1980  -13.1323   27.2209    0.9200    2.6170   -0.0208    0.0457    3.8200   18.0000   18.0000 
7709.0000 2349.7031    7.8750    8.9589  -80.0036  -12.9493   26.2216    0.9207    2.6187   -0.0208    0.0431    3.8603   18.0000   18.0000 
7709.5000 2349.8557    7.8750    8.9589  -79.8082  -12.7653   26.2146    0.9214    2.6207   -0.0208    0.0401    3.9566   18.0000   18.0000 
7710.0000 2350.0081    7.8750    8.9588  -79.8121  -12.7806   26.2076    0.9221    2.6227   -0.0208    0.0371    3.9992   18.0000   18.0000 
7710.5000 2350.1604    7.8750    8.9588  -79.8146  -12.7946   26.5851    0.9223    2.6240   -0.0208    0.0371    4.0035   18.0000   18.0000 
7711.0000 2350.3127    7.8750    8.9664  -79.8179  -12.8093   26.9626    0.9224    2.6284   -0.0198    0.0370    4.0598   18.0000   18.0000 
7711.5000 2350.4651    7.8750    8.9586  -79.8226  -12.8254   26.5957    0.9226    2.6324   -0.0182    0.0383    4.1229   18.0000   18.0000 
7712.0000 2350.6177    7.8750    8.9586  -79.8242  -12.8385   26.3653    0.9211    2.6338   -0.0166    0.0391    4.2002   18.0000   18.0000 
7712.5000 2350.7700    7.8750    8.9585  -79.8274  -12.8532   27.1877    0.9191    2.6321   -0.0147    0.0391    4.2469   18.0000   18.0000 
7713.0000 2350.9224    7.8750    8.9585  -79.8307  -12.8678   28.0101    0.9172    2.6273   -0.0148    0.0391    4.2031   18.0000   18.0000 
7713.5000 2351.0747    7.8750    8.9584  -79.8339  -12.8825   28.5364    0.9140    2.6236   -0.0148    0.0371    4.2811   18.0000   18.0000 
7714.0000 2351.2273    7.8750    8.9584  -79.8371  -12.8971   29.0626    0.9094    2.6251   -0.0148    0.0351    4.4012   18.0000   18.0000 
7714.5000 2351.3796    7.8750    8.9583  -79.8403  -12.9118   27.5833    0.9049    2.6287   -0.0158    0.0335    4.5060   18.0000   18.0000 
7715.0000 2351.5320    7.8750    8.9582  -79.8436  -12.9265   26.1039    0.9002    2.6251   -0.0158    0.0318    4.3901   18.0000   18.0000 
7715.5000 2351.6843    7.8750    8.9582  -79.8467  -12.9410   25.4342    0.8950    2.6220   -0.0168    0.0322    4.3047   18.0000   18.0000 
7716.0000 2351.8369    7.8750    8.9581  -79.8500  -12.9557   24.7644    0.8897    2.6246   -0.0168    0.0326    4.2630   18.0000   18.0000 
7716.5000 2351.9893    7.8750    8.9580  -79.8541  -12.9712   25.4046    0.8841    2.6299   -0.0146    0.0315    4.2647   18.0000   18.0000 
7717.0000 2352.1416    7.8750    8.9580  -79.8563  -12.9850   25.9590    0.8813    2.6388   -0.0121    0.0305    4.2830   18.0000   18.0000 
7717.5000 2352.2939    7.8750    8.9579  -79.8596  -12.9996   26.4079    0.8783    2.6418   -0.0097    0.0289    4.2408   18.0000   18.0000 
7718.0000 2352.4463    7.8750    8.9578  -79.8628  -13.0142   26.5781    0.8742    2.6418   -0.0068    0.0269    4.1820   18.0000   18.0000 
7718.5000 2352.5989    7.8750    8.9578  -79.8660  -13.0289   26.0663    0.8734    2.6418   -0.0057    0.0263    4.1882   18.0000   18.0000 
7719.0000 2352.7512    7.8750    8.9578  -79.8328  -13.0072   25.2758    0.8722    2.6452   -0.0057    0.0254    4.3449   18.0000   18.0000 
7719.5000 2352.9036    7.8750    8.9577  -79.4725  -12.6583   25.0780    0.8710    2.6498   -0.0086    0.0268    4.5048   18.0000   18.0000 
7720.0000 2353.0559    7.8750    8.9722  -79.4757  -12.6729   24.8802    0.8700    2.6514   -0.0092    0.0281    4.6249   18.0000   18.0000 
7720.5000 2353.2085    7.8750    8.9576  -79.4789  -12.6876   24.8810    0.8694    2.6504   -0.0134    0.0288    4.6865   18.0000   18.0000 
7721.0000 2353.3608    7.8750    8.9775  -79.4793  -12.6994   24.8817    0.8688    2.6478   -0.0167    0.0294    4.7066   18.0000   18.0000 
7721.5000 2353.5132    7.8750    8.9774  -79.4442  -12.6757   24.7708    0.8683    2.6498   -0.0179    0.0293    4.6148   18.0000   18.0000 
7722.0000 2353.6655    7.8750    8.9774  -79.3021  -12.5450   24.6599    0.8681    2.6508   -0.0179    0.0293    4.5144   18.0000   18.0000 
7722.5000 2353.8181    7.8750    8.9773  -79.0459  -12.3003   24.8483    0.8679    2.6462   -0.0179    0.0286    4.3941   18.0000   18.0000 
7723.0000 2353.9705    7.8750    8.9772  -78.6965  -11.9623   25.1610    0.8677    2.6418   -0.0179    0.0277    4.2454   18.0000   18.0000 
