~VERSION INFORMATION
 VERS.                 2.0:   CWLS LOG ASCII STANDARD - VERSION 2.0
 WRAP.                  NO:   SINGLE LINE PER DEPTH STEP
 CREA.                 08/02/2018 08:46:35
#CREATED USING DSPetro VERSION 5000.10.1.3 BY H191660 ON 08/02/2018 08:46:35
~WELL INFORMATION
#MNEM.UNIT       DATA                          DESCRIPTION MNEMONIC
#---------      ---------------------------   --------------------------
 STRT    .FT        12311.0000                : START DEPTH
 STOP    .FT        17628.0000                : STOP DEPTH
 STEP    .FT        0.5000                    : STEP VALUE
 NULL    .      -999.0000                     : NULL VALUE
 DATE    .      08/02/2018                    : LAS file Creation Date
 WELL  .      UNIVERSITY_20_5                  : Well Name
 COMP  .      Neftex Exploration Insights      : Company
 FLD   .      HALEY (LWR. WOLFCAMP-PENN CONS.) : Field
 STATE .      TEXAS                            : State
 COUNT .      LOVING                           : Country
 API   .      42-301-31423                     : API Number
 UWI   .      212                              : Unique Well Identifier (UWI)
 LOC   .      1320' FNL & 1320' FWL            : Location
 PDAT  .      G.L.                             : Permanent Datum
 EPDAT .      2805                             : Reference Elevation
 LGMEA .      K.B.                             : Log Measured from
 DRMEA .      KELLY BUSHING                    : Drill Measured From
 APDAT .      30                               : Elevation Above Permanent Datum
 KB    .      2835                             : KB Elevation
 DF    .      2834                             : DF Elevation
 GL    .      2805                             : GL Elevation
 RWS   .      -999                             : Def_Rw
 WST   .      -999                             : Def_Rwt
 CNTY  .      LOVING                           : County
 SRVC  .      Baker Atlas                      : Contractor
~CURVE INFORMATION
#MNEM              UNIT       API CODE   Curve Type Comments
#----------  --------------- ----------  ---------- -----------
 DEPTH      .FT                        : Depth       
 DEPTH      .FT                        : Depth       
 BS         .inch                      : BitSize     
 CAL        .inch                      :             
 GR         .API                       : GammaRay    
 K          .%                         : Spectral    Potassium
 TH         .PPM                       : Spectral    Thorium
 U          .PPM                       : Spectral    Uranium
 Th/k       .PPM                       : Spectral    
 Th/U       .PPM                       : Spectral    
 RESD       .ohmm                      :             
 RESM       .ohmm                      :             
 RESS       .ohmm                      :             
 DT         .us/ft                     :             
 DRHO       .G/C3                      : Drho        
 NPHI       .dec                       : Neutron     
 RHOB       .G/C3                      : Density     
 PEF        .b/e-                      : PEF         
 LITH       .                          : LITH        Lithology Curve
~A  DEPTH   DEPTH       BS       CAL        GR        K         TH        U        Th/k      Th/U      RESD      RESM      RESS       DT       DRHO      NPHI      RHOB      PEF       LITH   
# ...
12668.0000 12668.0000    8.5000    9.2480   59.2323 -999.0000 -999.0000 -999.0000 -999.0000 -999.0000    8.5870    7.7920    7.7610   86.4470   -0.0110    0.2115    2.5090    3.9480   37.0000 
12668.5000 12668.5000    8.5000    9.2400   58.7742 -999.0000 -999.0000 -999.0000 -999.0000 -999.0000    9.4720    8.4850    8.2350   86.5050   -0.0120    0.2135    2.5110    4.0040   37.0000 
12669.0000 12669.0000    8.5000    9.2400   57.3722 -999.0000 -999.0000 -999.0000 -999.0000 -999.0000   10.6170    9.3620    8.8190   86.7920   -0.0110    0.2175    2.5210    4.0850   37.0000 
12669.5000 12669.5000    8.5000    9.2440   56.5910 -999.0000 -999.0000 -999.0000 -999.0000 -999.0000   11.4100    9.8850    9.0200   87.3790   -0.0130    0.2209    2.5180    4.1280   37.0000 
12670.0000 12670.0000    8.5000    9.2490   57.0631 -999.0000 -999.0000 -999.0000 -999.0000 -999.0000   11.7240    9.9760    8.8450   87.6480   -0.0180    0.2211    2.4980    4.1040   37.0000 
12670.5000 12670.5000    8.5000    9.2520   58.4387 -999.0000 -999.0000 -999.0000 -999.0000 -999.0000   11.8770    9.9470    8.6700   86.7640   -0.0200    0.2224    2.4800    4.0590   37.0000 
12671.0000 12671.0000    8.5000    9.2470   57.8837 -999.0000 -999.0000 -999.0000 -999.0000 -999.0000   12.0160    9.9410    8.6850   84.2270   -0.0190    0.2219    2.4750    3.9570   37.0000 
12671.5000 12671.5000    8.5000    9.2380   53.6509 -999.0000 -999.0000 -999.0000 -999.0000 -999.0000   12.4910   10.2560    9.1820   80.5530   -0.0170    0.2132    2.4850    3.8240   37.0000 
12672.0000 12672.0000    8.5000    9.2380   47.5803 -999.0000 -999.0000 -999.0000 -999.0000 -999.0000   13.7440   11.2470   10.4600   77.4180   -0.0150    0.1999    2.5120    3.8820   37.0000 
12672.5000 12672.5000    8.5000    9.2500   42.9468 -999.0000 -999.0000 -999.0000 -999.0000 -999.0000   14.7720   12.0890   11.6490   76.5260   -0.0110    0.1880    2.5540    4.2580   22.0000 
12673.0000 12673.0000    8.5000    9.2670   41.3506 -999.0000 -999.0000 -999.0000 -999.0000 -999.0000   13.6650   11.1830   10.9170   78.1360   -0.0070    0.1803    2.5860    4.6490   22.0000 
12673.5000 12673.5000    8.5000    9.2780   42.2277 -999.0000 -999.0000 -999.0000 -999.0000 -999.0000   11.3440    9.2730    8.9700   80.9640   -0.0080    0.1826    2.5850    4.7000   22.0000 
12674.0000 12674.0000    8.5000    9.2830   44.2138 -999.0000 -999.0000 -999.0000 -999.0000 -999.0000    9.8690    8.0430    7.6160   83.3410   -0.0120    0.1950    2.5590    4.5600   22.0000 
12674.5000 12674.5000    8.5000    9.2770   46.1176 -999.0000 -999.0000 -999.0000 -999.0000 -999.0000    9.4880    7.6900    7.1240   84.6150   -0.0130    0.2084    2.5410    4.4040   37.0000 
12675.0000 12675.0000    8.5000    9.2580   47.2269 -999.0000 -999.0000 -999.0000 -999.0000 -999.0000    9.6770    7.7820    7.1160   85.3240   -0.0090    0.2112    2.5440    4.1860   37.0000 
12675.5000 12675.5000    8.5000    9.2400   48.1834 -999.0000 -999.0000 -999.0000 -999.0000 -999.0000    9.8450    7.8390    7.1490   86.2420   -0.0050    0.2037    2.5540    3.9420   37.0000 
12676.0000 12676.0000    8.5000    9.2400   49.8622 -999.0000 -999.0000 -999.0000 -999.0000 -999.0000    9.7720    7.6930    7.0300   87.5490   -0.0030    0.1945    2.5500    3.8190   37.0000 
12676.5000 12676.5000    8.5000    9.2540   51.5090 -999.0000 -999.0000 -999.0000 -999.0000 -999.0000    9.7500    7.5850    6.9070   88.7500   -0.0050    0.1943    2.5360    3.8050   37.0000 
12677.0000 12677.0000    8.5000    9.2660   52.6485 -999.0000 -999.0000 -999.0000 -999.0000 -999.0000    9.9650    7.6610    6.8810   89.4000   -0.0060    0.2037    2.5240    3.7560   37.0000 
12677.5000 12677.5000    8.5000    9.2640   53.7702 -999.0000 -999.0000 -999.0000 -999.0000 -999.0000   10.1490    7.7150    6.7730   89.4310   -0.0070    0.2172    2.5190    3.6610   37.0000 
12678.0000 12678.0000    8.5000    9.2580   54.1871 -999.0000 -999.0000 -999.0000 -999.0000 -999.0000   10.1940    7.6680    6.5430   88.8730   -0.0080    0.2300    2.5150    3.6490   37.0000 
12678.5000 12678.5000    8.5000    9.2540   53.8055 -999.0000 -999.0000 -999.0000 -999.0000 -999.0000   10.3800    7.7390    6.4020   87.8280   -0.0090    0.2373    2.5150    3.7570   37.0000 
12679.0000 12679.0000    8.5000    9.2460   53.9186 -999.0000 -999.0000 -999.0000 -999.0000 -999.0000   10.7500    7.9620    6.4010   86.5980   -0.0080    0.2394    2.5180    3.8870   37.0000 
12679.5000 12679.5000    8.5000    9.2350   53.3481 -999.0000 -999.0000 -999.0000 -999.0000 -999.0000   11.0560    8.1540    6.4310   85.6370   -0.0080    0.2340    2.5170    3.9650   37.0000 
12680.0000 12680.0000    8.5000    9.2300   50.4865 -999.0000 -999.0000 -999.0000 -999.0000 -999.0000   11.1070    8.1800    6.4270   85.3330   -0.0100    0.2209    2.5100    3.9780   37.0000 
12680.5000 12680.5000    8.5000    9.2240   47.6658 -999.0000 -999.0000 -999.0000 -999.0000 -999.0000   10.8890    8.0290    6.3870   85.7890   -0.0100    0.2053    2.5050    3.8850   37.0000 
12681.0000 12681.0000    8.5000    9.2130   47.4034 -999.0000 -999.0000 -999.0000 -999.0000 -999.0000   10.5010    7.7660    6.3290   86.6710   -0.0100    0.1976    2.5060    3.7500   37.0000 
12681.5000 12681.5000    8.5000    9.2110   48.4196 -999.0000 -999.0000 -999.0000 -999.0000 -999.0000    9.9950    7.4200    6.2260   87.4010   -0.0090    0.2013    2.5040    3.7250   37.0000 
12682.0000 12682.0000    8.5000    9.2240   48.9568 -999.0000 -999.0000 -999.0000 -999.0000 -999.0000    9.4800    7.0630    6.0920   87.6340   -0.0090    0.2155    2.4990    3.8510   37.0000 
12682.5000 12682.5000    8.5000    9.2340   49.4206 -999.0000 -999.0000 -999.0000 -999.0000 -999.0000    9.2930    6.9440    6.1170   87.4110   -0.0080    0.2325    2.5000    4.0740   37.0000 
12683.0000 12683.0000    8.5000    9.2310   50.3323 -999.0000 -999.0000 -999.0000 -999.0000 -999.0000    9.5670    7.1610    6.3890   87.1260   -0.0080    0.2392    2.5060    4.3140   37.0000 
12683.5000 12683.5000    8.5000    9.2230   50.9830 -999.0000 -999.0000 -999.0000 -999.0000 -999.0000    9.7400    7.2910    6.5540   87.3610   -0.0100    0.2286    2.5110    4.4520   37.0000 
12684.0000 12684.0000    8.5000    9.2290   51.0978 -999.0000 -999.0000 -999.0000 -999.0000 -999.0000    9.2300    6.9010    6.2550   88.2940   -0.0130    0.2106    2.5070    4.3550   37.0000 
12684.5000 12684.5000    8.5000    9.2450   51.8773 -999.0000 -999.0000 -999.0000 -999.0000 -999.0000    8.5020    6.3360    5.8160   89.1140   -0.0150    0.2045    2.5020    4.0430   37.0000 
12685.0000 12685.0000    8.5000    9.2550   53.5548 -999.0000 -999.0000 -999.0000 -999.0000 -999.0000    8.3080    6.1590    5.7540   88.2490   -0.0140    0.2162    2.5000    3.7210   37.0000 
12685.5000 12685.5000    8.5000    9.2610   54.2553 -999.0000 -999.0000 -999.0000 -999.0000 -999.0000    9.0910    6.6900    6.3930   84.2820   -0.0110    0.2298    2.5060    3.5860   37.0000 
12686.0000 12686.0000    8.5000    9.2740   51.7757 -999.0000 -999.0000 -999.0000 -999.0000 -999.0000   11.6750    8.5070    8.3290   77.1280   -0.0110    0.2195    2.5280    3.7050   22.0000 
12686.5000 12686.5000    8.5000    9.2820   45.0059 -999.0000 -999.0000 -999.0000 -999.0000 -999.0000   18.5290   13.3510   13.2450   68.4640   -0.0120    0.1774    2.5770    4.1010   22.0000 
12687.0000 12687.0000    8.5000    9.2760   35.1733 -999.0000 -999.0000 -999.0000 -999.0000 -999.0000   34.9240   24.9960   24.6830   60.7490   -0.0130    0.1235    2.6540    4.8100   18.0000 
12687.5000 12687.5000    8.5000    9.2670   25.9855 -999.0000 -999.0000 -999.0000 -999.0000 -999.0000   64.3990   46.2170   43.8010   56.0640   -0.0140    0.0833    2.7270    5.6890   18.0000 
12688.0000 12688.0000    8.5000    9.2600   20.5111 -999.0000 -999.0000 -999.0000 -999.0000 -999.0000   80.2990   57.7570   49.2790   55.4190   -0.0180    0.0648    2.7610    6.4190   18.0000 
12688.5000 12688.5000    8.5000    9.2620   19.1012 -999.0000 -999.0000 -999.0000 -999.0000 -999.0000   57.3880   40.8960   31.5730   58.7800   -0.0220    0.0657    2.7530    6.7390   18.0000 
