~VERSION INFORMATION
 VERS.                 2.0:   CWLS LOG ASCII STANDARD - VERSION 2.0
 WRAP.                  NO:   SINGLE LINE PER DEPTH STEP
 CREA.                 08/02/2018 08:46:35
#CREATED USING DSPetro VERSION 5000.10.1.3 BY H191660 ON 08/02/2018 08:46:35
~WELL INFORMATION
#MNEM.UNIT       DATA                          DESCRIPTION MNEMONIC
#---------      ---------------------------   --------------------------
 STRT    .FT        12311.0000                : START DEPTH
 STOP    .FT        17628.0000                : STOP DEPTH
 STEP    .FT        0.5000                    : STEP VALUE
 NULL    .      -999.0000                     : NULL VALUE
 DATE    .      08/02/2018                    : LAS file Creation Date
 WELL  .      UNIVERSITY_20_5                  : Well Name
 COMP  .      Neftex Exploration Insights      : Company
 FLD   .      HALEY (LWR. WOLFCAMP-PENN CONS.) : Field
 STATE .      TEXAS                            : State
 COUNT .      LOVING                           : Country
 API   .      42-301-31423                     : API Number
 UWI   .      212                              : Unique Well Identifier (UWI)
 LOC   .      1320' FNL & 1320' FWL            : Location
 PDAT  .      G.L.                             : Permanent Datum
 EPDAT .      2805                             : Reference Elevation
 LGMEA .      K.B.                             : Log Measured from
 DRMEA .      KELLY BUSHING                    : Drill Measured From
 APDAT .      30                               : Elevation Above Permanent Datum
 KB    .      2835                             : KB Elevation
 DF    .      2834                             : DF Elevation
 GL    .      2805                             : GL Elevation
 RWS   .      -999                             : Def_Rw
 WST   .      -999                             : Def_Rwt
 CNTY  .      LOVING                           : County
 SRVC  .      Baker Atlas                      : Contractor
~CURVE INFORMATION
#MNEM              UNIT       API CODE   Curve Type Comments
#----------  --------------- ----------  ---------- -----------
 DEPTH      .FT                        : Depth       
 DEPTH      .FT                        : Depth       
 BS         .inch                      : BitSize     
 CAL        .inch                      :             
 GR         .API                       : GammaRay    
 K          .%                         : Spectral    Potassium
 TH         .PPM                       : Spectral    Thorium
 U          .PPM                       : Spectral    Uranium
 Th/k       .PPM                       : Spectral    
 Th/U       .PPM                       : Spectral    
 RESD       .ohmm                      :             
 RESM       .ohmm                      :             
 RESS       .ohmm                      :             
 DT         .us/ft                     :             
 DRHO       .G/C3                      : Drho        
 NPHI       .dec                       : Neutron     
 RHOB       .G/C3                      : Density     
 PEF        .b/e-                      : PEF         
 LITH       .                          : LITH        Lithology Curve
~A  DEPTH   DEPTH       BS       CAL        GR        K         TH        U        Th/k      Th/U      RESD      RESM      RESS       DT       DRHO      NPHI      RHOB      PEF       LITH   
# ...
17603.0000 17603.0000    6.5000    6.6550   95.3876    1.6110    9.4650    7.0440    5.8752    1.3437    3.0890    2.8770    2.3190  105.3010   -0.0060    0.2623    2.4470    4.9410   37.0000 
17603.5000 17603.5000    6.5000    6.6570   97.3303    1.5270   10.3080    6.9260    6.7505    1.4883    3.0370    2.8340    2.4290  101.5600   -0.0050    0.2685    2.4560    5.3320   37.0000 
17604.0000 17604.0000    6.5000    6.6660   97.0750    1.4070   11.2180    6.7900    7.9730    1.6521    3.3500    3.1190    2.8730   96.7430   -0.0070    0.2448    2.4500    5.4380   37.0000 
17604.5000 17604.5000    6.5000    6.6690   93.9782    1.2630   12.2260    6.4200    9.6801    1.9044    4.2430    3.9130    3.8600   91.9040   -0.0070    0.1814    2.4330    4.9380   37.0000 
17605.0000 17605.0000    6.5000    6.6570   89.7448    1.1310   12.8160    5.9750   11.3316    2.1449    6.2380    5.6050    5.8870   88.4060   -0.0050    0.1263    2.4170    4.2710   37.0000 
17605.5000 17605.5000    6.5000    6.6430   85.4376    0.9850   12.0290    6.0040   12.2122    2.0035    9.6720    8.2570    9.2630   87.4640   -0.0020    0.1016    2.4030    3.8060   27.0000 
17606.0000 17606.0000    6.5000    6.6470   78.0213    0.8340   10.7240    6.3080   12.8585    1.7001   14.6720   11.9800   13.6600   89.0530   -0.0010    0.0957    2.3980    3.5870   27.0000 
17606.5000 17606.5000    6.5000    6.6650   66.4211    0.6970    8.7760    6.2240   12.5911    1.4100   21.8770   17.9120   18.6810   91.6220   -0.0010    0.0949    2.4170    3.6050   27.0000 
17607.0000 17607.0000    6.5000    6.6730   58.2313    0.5980    6.2840    6.0610   10.5084    1.0368   29.2760   23.9880   21.5860   93.3150    0.0000    0.0925    2.4650    3.8330   27.0000 
17607.5000 17607.5000    6.5000    6.6650   61.5016    0.5780    5.2820    6.0930    9.1384    0.8669   28.4060   23.3780   18.1780   93.6290    0.0020    0.0941    2.5200    4.1630   27.0000 
17608.0000 17608.0000    6.5000    6.6610   71.2430    0.6410    5.8150    6.0100    9.0718    0.9676   19.8700   16.7420   12.2260   93.8290    0.0000    0.1071    2.5490    4.5640   37.0000 
17608.5000 17608.5000    6.5000    6.6660   76.2447    0.8010    7.5390    5.9890    9.4120    1.2588   12.3830   10.9370    8.3380   95.4370   -0.0040    0.1349    2.5460    5.0330   37.0000 
17609.0000 17609.0000    6.5000    6.6660   74.7215    0.9080    9.0360    6.0810    9.9515    1.4859    8.4330    7.9040    6.5600   98.5120   -0.0040    0.1718    2.5360    5.3800   37.0000 
17609.5000 17609.5000    6.5000    6.6660   73.3176    0.9010    9.5000    6.0700   10.5438    1.5651    6.4030    6.3640    5.7280  101.6460   -0.0010    0.2006    2.5350    5.5160   37.0000 
17610.0000 17610.0000    6.5000    6.6720   76.3207    0.8920    9.8280    5.9400   11.0179    1.6545    4.7710    5.0290    4.8220  103.5500    0.0030    0.2180    2.5420    5.6010   37.0000 
17610.5000 17610.5000    6.5000    6.6780   82.0362    0.8830   10.2220    6.0930   11.5764    1.6777    3.3860    3.6940    3.7120  104.3200    0.0050    0.2374    2.5470    5.6440   37.0000 
17611.0000 17611.0000    6.5000    6.6760   87.1182    0.8550   11.6530    7.2300   13.6292    1.6118    2.5520    2.8110    2.9180  104.9690    0.0060    0.2579    2.5510    5.5290   37.0000 
17611.5000 17611.5000    6.5000    6.6700   90.9619    0.8740   13.4090    8.3950   15.3421    1.5973    2.1690    2.4040    2.5430  105.8710    0.0070    0.2612    2.5540    5.3630   37.0000 
17612.0000 17612.0000    6.5000    6.6690   94.3516    0.9360   14.1440    8.5750   15.1111    1.6494    1.9860    2.2110    2.3470  106.1460    0.0070    0.2579    2.5530    5.2820   37.0000 
17612.5000 17612.5000    6.5000    6.6720   96.1231    1.0010   14.2160    8.4090   14.2018    1.6906    1.8340    2.0360    2.1230  104.7470    0.0060    0.2755    2.5500    5.2200   37.0000 
17613.0000 17613.0000    6.5000    6.6740   95.2044    1.0890   13.8810    8.2700   12.7466    1.6785    1.7120    1.8870    1.9020  101.7810    0.0050    0.3078    2.5460    5.1920   37.0000 
17613.5000 17613.5000    6.5000    6.6720   93.2459    1.1650   13.2780    8.3450   11.3974    1.5911    1.6870    1.8530    1.7890   98.7210    0.0010    0.3348    2.5360    5.3460   37.0000 
17614.0000 17614.0000    6.5000    6.6670   92.2472    1.1890   12.5820    8.7700   10.5820    1.4347    1.7620    1.9390    1.7870   97.2090   -0.0030    0.3562    2.5200    5.4790   37.0000 
17614.5000 17614.5000    6.5000    6.6650   91.9284    1.1600   11.7500    9.5280   10.1293    1.2332    1.9170    2.1130    1.8650   97.6400   -0.0060    0.3692    2.5010    5.2260   37.0000 
17615.0000 17615.0000    6.5000    6.6690   91.1241    1.1100   10.8230   10.3870    9.7505    1.0420    2.1600    2.3850    2.0330   99.0800   -0.0060    0.3624    2.4890    4.7450   37.0000 
17615.5000 17615.5000    6.5000    6.6710   90.1241    1.0260    9.9670   11.1850    9.7144    0.8911    2.5230    2.7990    2.3240  100.3730   -0.0040    0.3435    2.4820    4.4460   37.0000 
17616.0000 17616.0000    6.5000    6.6680   88.4415    0.8770    9.1050   11.9070   10.3820    0.7647    2.9390    3.2800    2.6740  101.0750   -0.0030    0.3266    2.4750    4.4230   37.0000 
17616.5000 17616.5000    6.5000    6.6700   84.5565    0.7510    8.3870   12.2390   11.1678    0.6853    3.1490    3.5400    2.8540  101.5050   -0.0050    0.3106    2.4620    4.6040   37.0000 
17617.0000 17617.0000    6.5000    6.6800   79.8778    0.7150    7.9820   12.0730   11.1636    0.6611    3.0800    3.4860    2.8090  102.1770   -0.0080    0.2926    2.4490    4.9900   37.0000 
17617.5000 17617.5000    6.5000    6.6790   77.6551    0.7580    7.9150   11.7300   10.4420    0.6748    2.9740    3.3780    2.7670  103.0470   -0.0090    0.2759    2.4440    5.4570   37.0000 
17618.0000 17618.0000    6.5000    6.6600   78.7620    0.8360    8.0670   11.4540    9.6495    0.7043    2.9000    3.2910    2.7920  103.4250   -0.0090    0.2691    2.4470    5.6860   37.0000 
17618.5000 17618.5000    6.5000    6.6450   81.2574    0.9210    8.4600   11.1080    9.1857    0.7616    2.7740    3.1250    2.7950  102.6250   -0.0080    0.2774    2.4510    5.5310   37.0000 
17619.0000 17619.0000    6.5000    6.6490   83.6211    0.9680    9.0040   10.6110    9.3017    0.8486    2.6010    2.8920    2.7530  100.5880   -0.0070    0.2973    2.4560    5.1340   37.0000 
17619.5000 17619.5000    6.5000    6.6540   85.3737    0.9510    9.3320   10.2460    9.8128    0.9108    2.4400    2.6620    2.6960   98.0410   -0.0040    0.3137    2.4640    4.7350   37.0000 
17620.0000 17620.0000    6.5000    6.6570   86.8502    0.9020    9.4020   10.0840   10.4235    0.9324    2.3730    2.5370    2.7060   96.0630   -0.0010    0.3151    2.4740    4.5630   37.0000 
17620.5000 17620.5000    6.5000    6.6670   88.1862    0.7490    8.9250    9.8620   11.9159    0.9050    2.5510    2.6770    2.9910   95.3180    0.0020    0.2982    2.4800    4.6100   37.0000 
17621.0000 17621.0000    6.5000    6.6800   88.6883    0.5320    7.5800    9.4210   14.2481    0.8046    3.2350    3.3270    3.9280   95.5990    0.0020    0.2659    2.4780    4.6050   37.0000 
17621.5000 17621.5000    6.5000    6.6850   87.9634    0.4280    6.4790    9.0920   15.1379    0.7126    4.6270    4.5780    5.7550   96.1630    0.0020    0.2352    2.4730    4.3930   37.0000 
17622.0000 17622.0000    6.5000    6.6850   87.2559    0.4410    6.7450    8.8310   15.2948    0.7638    5.8690    5.4790    6.9590   96.4090    0.0010    0.2153    2.4650    4.1060   37.0000 
17622.5000 17622.5000    6.5000    6.6870   87.1655    0.4830    7.9620    8.3880   16.4845    0.9492    5.9820    5.3590    6.3940   96.1130   -0.0010    0.2077    2.4480    3.9060   37.0000 
17623.0000 17623.0000    6.5000    6.6870   87.2979    0.5150    8.9620    8.1740   17.4019    1.0964    5.9330    5.1380    5.8430   95.4030   -0.0070    0.2122    2.4220    3.8170   37.0000 
17623.5000 17623.5000    6.5000    6.6800   87.8723    0.5530    9.5230    8.2030   17.2206    1.1609    6.3380    5.2600    5.8020   94.6640   -0.0110    0.2179    2.4040    3.7860   37.0000 
