~VERSION INFORMATION
 VERS.                 2.0:   CWLS LOG ASCII STANDARD - VERSION 2.0
 WRAP.                  NO:   SINGLE LINE PER DEPTH STEP
 CREA.                 08/02/2018 08:46:11
#CREATED USING DSPetro VERSION 5000.10.1.3 BY H191660 ON 08/02/2018 08:46:11
~WELL INFORMATION
#MNEM.UNIT       DATA                          DESCRIPTION MNEMONIC
#---------      ---------------------------   --------------------------
 STRT    .FT        12354.5289                : START DEPTH
 STOP    .FT        17894.2270                : STOP DEPTH
 STEP    .FT        1.6404                    : STEP VALUE
 NULL    .      -999.0000                     : NULL VALUE
 DATE    .      08/02/2018                    : LAS file Creation Date
 WELL .      UNIVERSITY_19-5             : Well Name
 COMP .      Neftex Exploration Insights : Company
 FLD  .      PHANTOM (WOLFCAMP)          : Field
 UWI  .      208                         : Unique Well Identifier (UWI)
 LOC  .                                  : Location
 RWS  .      -999                        : Def_Rw
 WST  .      -999                        : Def_Rwt
 SRVC .                                  : Contractor
~CURVE INFORMATION
#MNEM              UNIT       API CODE   Curve Type Comments
#----------  --------------- ----------  ---------- -----------
 DEPTH      .FT                        : Depth       
 DEPTH      .FT                        : Depth       
 BS         .inch                      : BitSize     
 CAL_INCH   .inch                      :             Caliper Log - A representation of the measured diameter of a borehole along its depth
 GR_API     .API                       : GammaRay    Gamma Ray (API) - Measures the intensity of natural gamma-ray radiation emitted from formations containing radioactive elements, such as K, Th and U
 SGR_API    .API                       : GammaRay    Spectral Gamma Ray - Total gamma calibrated to API, measured using a spectoral gamma array tool
 CGR_API    .API                       : GammaRay    Corrected / Computed Gamma Ray - Radiation with the Uranium component removed. Also known as a 'carbonate gamma ray'
 TH_PPM     .ppm                       : Spectral    Thorium Abundance (SGR) - The quantitative elemental abundace of Thorium derived from the Spectral Gamma Ray Log
 K_per        .PC                        :             Potassium Abundance (SGR) - The quantitative elemental abundace of Potassium derived from the Spectral Gamma Ray Log. Also wt_%
 U_PPM      .ppm                       :             Uranium Abundance (SGR) - The quantitative elemental abundace of Uranium derived from the Spectral Gamma Ray Log
 ThK        .PPM                       : Spectral    
 ThU        .PPM                       : Spectral    
 SRES       .ohmm                      :             10" array induction, two foot resistivity
 MRES       .ohm.m                     :             30" array induction, two foot resistivity
 DRES       .ohmm                      :             90" array induction, two foot resistivity log - units of ohmm
 DT_US_FT   .us/ft                     :             Interval Transit Time: Compressional Wave - Evaluates the time it takes for a compressional wave to traverse a fixed distance
 NPHI_RATIO .ratio                     :             Neutron Porosity - Measured with an neutron logging device calibrated to a given matrix (limestone, sandstone and dolomite)
 RHOB_G_CC  .g/cc                      :             Bulk Density - Measures the density of bulk material, including any void space or other materials contained in the subject volume
 DRHO_G_CC  .g/cc                      :             Density Correction - Investigates the correction to the Bulk Density log; used as an indication of hole condition to validate the Bulk Density measure
 PEF_B_E    .b/e-                      : PEF         Photoelectric Factor - A log of photoelectric absorption properties. Often expressed in an approximation unit barns/electron (b/e-)
 LITH       .                          : LITH        Lithology Curve
~A  DEPTH   DEPTH       BS     CAL_INCH   GR_API   SGR_API   CGR_API    TH_PPM     K_per      U_PPM      ThK       ThU       SRES      MRES      DRES    DT_US_FT NPHI_RAT~ RHOB_G_C~ DRHO_G_C~  PEF_B_E     LITH   
# ...
12728.5446 12728.5446   12.2500    9.0215   76.5363   99.5690   76.5363   11.8343    2.1700    3.7007    5.4536    3.1979    4.0269    3.6732    4.1610   92.2295    0.2652    2.5207    0.0058    8.2213   37.0000 
12730.1850 12730.1850   12.2500    9.0199   85.1623  109.7758   85.1623   13.4147    2.3700    3.8293    5.6602    3.5032    3.5060    3.9436    4.2440   83.3711    0.2563    2.4781    0.0024    9.8590   37.0000 
12731.8255 12731.8255   12.2500    8.9752   58.1740   73.1053   58.1740    9.4168    1.5800    2.3832    5.9600    3.9513    5.0061    5.1831    4.8360   89.2393    0.1644    2.5672   -0.0049    7.7420   22.0000 
12733.4659 12733.4659   12.2500    8.9798   56.2385   65.9408   56.2385    9.6973    1.4200    1.7554    6.8291    5.5243    7.8216    7.4305    6.5735  100.8204    0.1585    2.5674   -0.0091    8.5284   22.0000 
12735.1063 12735.1063   12.2500    8.9886   71.7733   87.5140   71.7733   11.9235    1.8900    2.6326    6.3087    4.5292    4.0894    3.6714    3.9306   94.7834    0.2169    2.5323    0.0066    9.2172   22.0000 
12736.7467 12736.7467   12.2500    8.9897   87.4030  108.8874   87.4030   13.9465    2.4000    3.5526    5.8110    3.9257    3.1112    2.8458    2.8829   91.9657    0.2610    2.5001    0.0006    9.9284   37.0000 
12738.3871 12738.3871   12.2500    8.9361   72.3747   91.8539   72.3747   11.5159    2.0000    3.0665    5.7579    3.7554    3.8999    3.7746    3.8308   89.0480    0.2302    2.5088   -0.0054    8.7681   37.0000 
12740.0276 12740.0276   12.2500    8.8867   70.0534   83.2526   70.0534   11.3907    1.8900    2.2273    6.0268    5.1141    4.3713    4.4156    4.4509   81.3323    0.1550    2.5498   -0.0012    8.1358   37.0000 
12741.6680 12741.6680   12.2500    8.8627   68.2169   78.7148   68.2169   11.8665    1.7100    1.8486    6.9395    6.4192    3.9968    3.9552    4.2980   94.3629    0.2302    2.5410   -0.0042    7.8899   37.0000 
12743.3084 12743.3084   12.2500    8.8595   82.7864   98.9235   82.7864   14.3992    2.0700    3.0007    6.9561    4.7986    8.3747    8.7411    9.0438  104.3867    0.1463    2.5901   -0.0053   10.1619   37.0000 
12744.9488 12744.9488   12.2500    8.8754  103.8034  129.4572  103.8034   17.9536    2.6200    4.7331    6.8525    3.7932    3.9885    3.9744    4.1312   93.1483    0.2292    2.5473   -0.0087    8.3552   37.0000 
12746.5892 12746.5892   12.2500    8.9921   95.8727  122.9792   95.8727   16.0448    2.5100    4.8757    6.3924    3.2908    3.6424    3.4251    3.4054   83.6528    0.2481    2.4780   -0.0061    7.8969   37.0000 
12748.2297 12748.2297   12.2500    8.9954   69.4941   89.8560   69.4941   11.5493    1.8300    3.4593    6.3111    3.3386    4.4130    4.4727    4.9706   76.9763    0.2296    2.5114   -0.0037    9.7653   22.0000 
12749.8701 12749.8701   12.2500    8.9731   53.1767   70.7847   53.1767    8.9893    1.3800    2.8296    6.5140    3.1769    7.6158   10.9025   15.4990   93.1219    0.1630    2.5569   -0.0028    8.3555   22.0000 
12751.5105 12751.5105   12.2500    8.9506   35.3029   50.9278   35.3029    5.6101    0.9700    2.2790    5.7836    2.4616   21.4123   18.7136   15.1920   99.0488    0.1304    2.6082   -0.0037    7.8316   22.0000 
12753.1509 12753.1509   12.2500    8.9695   62.2469   84.1737   62.2469   10.2363    1.6600    3.1546    6.1664    3.2449    7.9558    6.6913    5.6387  100.1554    0.2385    2.5529   -0.0051    8.4328   37.0000 
12754.7913 12754.7913   12.2500    9.0429   92.5579  120.4547   92.5579   15.0347    2.5000    4.2448    6.0139    3.5419    3.0601    2.8822    2.8891   98.8606    0.2694    2.4938   -0.0088    8.2567   37.0000 
12756.4318 12756.4318   12.2500    9.0772   81.0583  102.4914   81.0583   13.1553    2.1900    3.3287    6.0070    3.9521    3.4474    3.3121    3.4554  104.7907    0.2346    2.5246   -0.0067    7.7628   37.0000 
12758.0722 12758.0722   12.2500    9.1224   74.1282   97.6872   74.1282   11.8920    2.0300    3.5856    5.8581    3.3166    3.5024    3.4617    3.5223  106.4034    0.2345    2.5159   -0.0029    8.2590   37.0000 
12759.7126 12759.7126   12.2500    9.1501   87.1233  117.8157   87.1233   13.0235    2.5500    4.6495    5.1073    2.8011    4.0488    3.8775    3.9474   91.8003    0.2915    2.4716    0.0000    7.1186   37.0000 
12761.3530 12761.3530   12.2500    9.1309   85.5107  112.4114   85.5107   13.3600    2.4000    4.2278    5.5667    3.1600    3.8210    3.7476    3.8933   99.7008    0.2340    2.5077   -0.0018    7.7675   37.0000 
12762.9934 12762.9934   12.2500    9.1055   66.2506   83.2436   66.2506   10.5236    1.8300    2.7772    5.7506    3.7893    4.5760    4.2206    3.9353  105.4036    0.2443    2.5578   -0.0037    9.6317   37.0000 
12764.6339 12764.6339   12.2500    9.1252   83.2158  104.4153   83.2158   13.1708    2.3100    3.3925    5.7016    3.8823    3.2961    3.2082    3.1849   99.7201    0.2471    2.5018   -0.0122    8.3811   37.0000 
12766.2743 12766.2743   12.2500    9.1318   94.0346  118.0765   94.0346   15.0817    2.5700    3.8899    5.8684    3.8771    2.4192    2.6042    3.1028   91.1736    0.2799    2.5118   -0.0033    9.4802   37.0000 
12767.9147 12767.9147   12.2500    9.1337   68.0548   86.5372   68.0548   11.4800    1.7700    2.9952    6.4859    3.8328    3.4926    4.2027    3.7545  105.1436    0.2205    2.5259   -0.0073    7.9735   22.0000 
12769.5551 12769.5551   12.2500    9.0217   65.1205   80.0780   65.1205   11.2775    1.6400    2.7659    6.8765    4.0773    3.7694    5.0598    5.4547   99.5810    0.2408    2.5693   -0.0069    8.4772   37.0000 
12771.1955 12771.1955   12.2500    9.1271   87.7067  106.0496   87.7067   15.2947    2.1900    3.4570    6.9839    4.4243    2.8579    3.0970    3.5923   91.5178    0.2756    2.4859   -0.0045    8.4821   37.0000 
12772.8360 12772.8360   12.2500    9.1233   56.7822   69.5945   56.7822    9.7754    1.4400    2.2237    6.7885    4.3960    3.6486    4.1015    3.9437   95.7137    0.2649    2.5033    0.0023    7.4215   37.0000 
12774.4764 12774.4764   12.2500    9.0659   53.4662   69.6807   53.4662    8.9627    1.4000    2.5014    6.4019    3.5831    6.9089    7.7673    6.9048   98.9810    0.1915    2.6020    0.0065    9.2040   22.0000 
12776.1168 12776.1168   12.2500    9.0673   80.7469  102.4522   80.7469   13.7468    2.0700    3.3113    6.6410    4.1515    3.9739    3.7348    3.7837  106.9089    0.2425    2.5173    0.0026    7.9669   37.0000 
12777.7572 12777.7572   12.2500    9.1431   88.0775  112.3144   88.0775   14.1125    2.4100    3.8589    5.8558    3.6571    3.2678    3.1945    3.3055  106.0382    0.2586    2.5191   -0.0045    7.5955   37.0000 
12779.3976 12779.3976   12.2500    9.1522   88.5269  111.1715   88.5269   14.0856    2.4400    3.7866    5.7728    3.7199    3.1308    3.0996    3.0536  101.7405    0.2739    2.4880   -0.0088    7.5471   37.0000 
12781.0381 12781.0381   12.2500    9.1516   85.6429  112.5017   85.6429   13.1090    2.4500    4.1420    5.3506    3.1649    2.8806    2.8548    2.9243   86.7860    0.2665    2.4938   -0.0133   10.9515   37.0000 
12782.6785 12782.6785   12.2500    9.0921   83.6381  110.7993   83.6381   12.9953    2.3600    4.1343    5.5065    3.1433    2.7354    2.8906    3.1379   86.3523    0.2744    2.4898   -0.0097    8.0270   37.0000 
12784.3189 12784.3189   12.2500    9.0405   57.3478   75.7018   57.3478    9.2503    1.5600    2.7009    5.9297    3.4249    4.6444    4.6326    4.9186   89.2404    0.1623    2.5445   -0.0042   11.4067   22.0000 
12785.9593 12785.9593   12.2500    8.9657   58.3357   78.2295   58.3357    9.1638    1.6300    2.9415    5.6220    3.1153    6.0433    5.9703    7.5557   99.3288    0.2207    2.5797   -0.0052    9.2121   22.0000 
12787.5997 12787.5997   12.2500    9.0217   56.8808   75.5012   56.8808    9.0138    1.5800    2.7820    5.7049    3.2400    8.0676    7.1557    6.9200  103.2761    0.1789    2.5095   -0.0049    9.3901   22.0000 
12789.2402 12789.2402   12.2500    9.0217   92.2362  118.8786   92.2362   14.5926    2.5600    4.1232    5.7002    3.5391    3.3323    3.2197    3.2743  101.7699    0.2784    2.5115    0.0007    8.7223   37.0000 
