~VERSION INFORMATION
 VERS.                 2.0:   CWLS LOG ASCII STANDARD - VERSION 2.0
 WRAP.                  NO:   SINGLE LINE PER DEPTH STEP
 CREA.                 08/02/2018 08:52:47
#CREATED USING DSPetro VERSION 5000.10.1.3 BY H191660 ON 08/02/2018 08:52:47
~WELL INFORMATION
#MNEM.UNIT       DATA                          DESCRIPTION MNEMONIC
#---------      ---------------------------   --------------------------
 STRT    .FT        12349.0092                : START DEPTH
 STOP    .FT        16985.0092                : STOP DEPTH
 STEP    .FT        0.5000                    : STEP VALUE
 NULL    .      -999.0000                     : NULL VALUE
 DATE    .      08/02/2018                    : LAS file Creation Date
 WELL  .      UNIVERSITY_19-6           : Well Name
 COMP  .      Anadarko Petroleum Corpor : Company
 FLD   .      LOVING                    : Field
 STATE .      TEXAS                     : State
 COUNT .      Texas                     : Country
 API   .      42301311860000            : API Number
 UWI   .      507                       : Unique Well Identifier (UWI)
 LOC   .      Onshore                   : Location
 TOWN  .      19                        : Township
 SCT   .      6                         : Section
 RANG  .      University Land           : Range
 LATI  .      3509001.74                : Latitude/Northing
 LONG  .      644715.32                 : Longitude/Easting
 PDAT  .      Ground Level              : Permanent Datum
 EPDAT .      2810                      : Reference Elevation
 LGMEA .      Kelly Bushing             : Log Measured from
 DRMEA .      Kelly Bushing             : Drill Measured From
 APDAT .      31                        : Elevation Above Permanent Datum
 KB    .      2841                      : KB Elevation
 DF    .      2840                      : DF Elevation
 GL    .      2810                      : GL Elevation
 RWS   .      0                         : Def_Rw
 WST   .      0                         : Def_Rwt
 UTMZ  .      13                        : UTM Zone
 BHS   .      OPEN                      : Completion Status
 CNTY  .      LOVING                    : County
 MDEC  .      0                         : Magnetic Declination
 SRVC  .      SCH                       : Contractor
~CURVE INFORMATION
#MNEM              UNIT       API CODE   Curve Type Comments
#----------  --------------- ----------  ---------- -----------
 DEPTH      .FT                        : Depth       
 DEPTH      .FT                        : Depth       
 BS         .IN                        : BitSize     Bit Size {F13.4}
 CAL        .IN                        :             
 HSGR       .GAPI                      :             
 HCGR       .GAPI                      :             
 TH         .PPM                       :             HNGS Formation Thorium Concentration {F13.4}
 U          .PPM                       :             HNGS Formation Uranium Concentration {F13.4}
 K          .CFCF                      :             HNGS Formation Potassium Concentration {F13.4}
 ThK        .PPM                       : Spectral    
 ThU        .PPM                       : Spectral    
 RSHALLOW   .OHMM                      :             12  RSHALLOW
 RMEDIUM    .OHMM                      :             13  Medium Resistivity
 RDEEP      .OHMM                      : DeepRes     14  Deep Resistivity
 DT         .US/F                      : Sonic       DT
 NPHI       .dec                       : Neutron     NPHI
 RHOB       .G/C3                      : Density     
 DRHO       .G/CC                      : Drho        
 PEF        .                          :             
 LITH       .                          : LITH        Lithology Curve
~A  DEPTH   DEPTH       BS       CAL       HSGR      HCGR       TH        U         K        ThK       ThU     RSHALLOW  RMEDIUM    RDEEP       DT       NPHI      RHOB      DRHO      PEF       LITH   
# ...
12649.0092 12649.0092    8.7500    9.1990   90.8208   64.9420   11.1377    4.0751    1.6500    6.7502    2.7331    3.3600    3.3190    3.3120  100.3760    0.1240    2.5968   -0.0061   12.7919   22.0000 
12649.5092 12649.5092    8.7500    9.2120   94.8474   68.5583   11.8017    4.1282    1.7400    6.7826    2.8588    2.8630    2.7820    2.8360   96.4360    0.1360    2.5290   -0.0150    8.0838   37.0000 
12650.0092 12650.0092    8.7500    9.2150   80.7264   59.0340    9.9435    3.4265    1.5300    6.4990    2.9019    4.1070    4.2920    4.4770   98.1540    0.1200    2.5152   -0.0065    6.7020   37.0000 
12650.5092 12650.5092    8.7500    9.2150   61.8004   45.2614    7.4765    2.6234    1.2000    6.2304    2.8499    8.4390    8.6660    8.2200   96.4740    0.1330    2.5408    0.0019    5.7009   37.0000 
12651.0092 12651.0092    8.7500    9.2130   53.8333   40.7333    6.7235    2.0871    1.0800    6.2255    3.2214   16.7000   15.2800   14.1500   98.4560    0.1500    2.5686   -0.0043    3.7152   37.0000 
12651.5092 12651.5092    8.7500    9.2140   64.8384   50.2832    8.2961    2.3218    1.3300    6.2377    3.5732   19.6410   17.4020   14.2440  100.2060    0.1520    2.5679    0.0001    4.4622   37.0000 
12652.0092 12652.0092    8.7500    9.2140   85.8903   66.2897   11.1749    3.0832    1.7200    6.4971    3.6245   11.6780   12.6240    8.5090   99.1470    0.1660    2.5420   -0.0004    6.1942   37.0000 
12652.5092 12652.5092    8.7500    9.2200  102.3950   80.0409   13.5396    3.5315    2.0700    6.5409    3.8340    6.4800    6.7190    5.6330   99.1250    0.1970    2.5138   -0.0011   11.0335   37.0000 
12653.0092 12653.0092    8.7500    9.2620  105.2411   83.0311   13.8393    3.4917    2.1800    6.3483    3.9635    4.4160    4.4840    4.6650   79.1480    0.2350    2.4971   -0.0096    8.5750   37.0000 
12653.5092 12653.5092    8.7500    9.2840   98.5109   76.9054   12.7093    3.2973    2.0400    6.2300    3.8544    3.7200    3.7740    4.6430   80.9630    0.2230    2.4967   -0.0133    7.6189   37.0000 
12654.0092 12654.0092    8.7500    9.2850   93.3637   72.7371   11.7976    3.1084    1.9700    5.9886    3.7954    3.6730    3.8870    3.8160   84.1230    0.1890    2.5052   -0.0122    5.2564   37.0000 
12654.5092 12654.5092    8.7500    9.2840   94.4098   73.9849   11.7742    3.0573    2.0400    5.7717    3.8512    3.5020    3.8500    3.5870   85.9070    0.1770    2.5081   -0.0017    5.5964   37.0000 
12655.0092 12655.0092    8.7500    9.2870  100.0886   78.6440   12.3571    3.1802    2.1900    5.6425    3.8856    3.1460    3.3710    3.3970   86.4510    0.1940    2.5039    0.0013    7.6866   37.0000 
12655.5092 12655.5092    8.7500    9.2810  105.5273   82.7925   12.8927    3.3426    2.3300    5.5334    3.8571    3.0080    3.2510    3.5040  102.1700    0.2110    2.4963   -0.0028    6.2798   37.0000 
12656.0092 12656.0092    8.7500    9.2850  109.3516   86.1201   13.3987    3.3658    2.4200    5.5367    3.9808    3.0660    3.4010    3.6180   94.6670    0.2200    2.4911   -0.0091    7.3495   37.0000 
12656.5092 12656.5092    8.7500    9.2850  112.1035   86.9918   13.4257    3.6053    2.4700    5.4355    3.7239    2.8420    3.0990    3.3380   97.3820    0.2340    2.4853   -0.0141    6.5005   37.0000 
12657.0092 12657.0092    8.7500    9.2840  113.2589   85.6441   13.1697    3.9766    2.4400    5.3974    3.3118    2.6120    2.8510    3.0970   96.3780    0.2420    2.4793   -0.0089    5.4444   37.0000 
12657.5092 12657.5092    8.7500    9.2880  112.6344   85.3241   13.1035    3.9793    2.4300    5.3924    3.2929    2.5920    2.8450    3.1400  100.6590    0.2420    2.4784   -0.0079    6.3947   37.0000 
12658.0092 12658.0092    8.7500    9.2830  111.2748   84.2937   12.8018    3.9478    2.4300    5.2682    3.2428    2.6490    2.9210    3.1430  101.5810    0.2390    2.4796   -0.0092    7.3987   37.0000 
12658.5092 12658.5092    8.7500    9.2830  108.5910   81.1252   12.3763    4.0369    2.3300    5.3117    3.0658    3.0240    3.3380    3.5370  102.7870    0.2350    2.4858    0.0038    6.5159   37.0000 
12659.0092 12659.0092    8.7500    9.2850  103.4445   76.9346   11.8043    3.9634    2.1900    5.3901    2.9783    3.5110    3.8540    4.1150  102.7900    0.2230    2.4942    0.0006    6.6379   37.0000 
12659.5092 12659.5092    8.7500    9.2860   97.9400   71.7120   11.0611    3.9339    2.0400    5.4221    2.8117    3.7660    4.2150    4.4940  100.2990    0.2130    2.4999   -0.0071    6.3979   37.0000 
12660.0092 12660.0092    8.7500    9.2850   95.1749   68.2966   10.7306    4.0346    1.9000    5.6477    2.6597    3.7280    4.1820    4.4900   96.5570    0.2110    2.5019   -0.0070    5.7291   37.0000 
12660.5092 12660.5092    8.7500    9.2820   94.7854   67.5834   10.7869    4.1235    1.8600    5.7994    2.6160    3.8030    4.2260    4.4930   95.5500    0.2090    2.5061   -0.0023    5.5796   37.0000 
12661.0092 12661.0092    8.7500    9.2810   94.6319   66.5795   10.7865    4.2259    1.8000    5.9925    2.5525    4.0040    4.4550    4.7050   95.1800    0.2050    2.5116   -0.0037    5.7416   37.0000 
12661.5092 12661.5092    8.7500    9.2830   93.1502   63.9063   10.3180    4.3827    1.7300    5.9642    2.3543    4.1600    4.6070    4.8090   93.4570    0.1990    2.5154    0.0036    7.0627   37.0000 
12662.0092 12662.0092    8.7500    9.2870   90.3499   61.0495    9.8976    4.4134    1.6500    5.9985    2.2426    4.2550    4.7390    4.8830   94.6260    0.1950    2.5198    0.0026    6.3788   37.0000 
12662.5092 12662.5092    8.7500    9.2850   88.7110   60.5632    9.9675    4.2577    1.6100    6.1910    2.3410    4.2530    4.7070    4.8410   95.8550    0.1890    2.5226    0.0002    7.9349   37.0000 
12663.0092 12663.0092    8.7500    9.2900   87.5614   59.6511    9.7861    4.2199    1.5900    6.1548    2.3190    4.1770    4.5800    4.8240   95.2620    0.1890    2.5193   -0.0157    6.3559   37.0000 
12663.5092 12663.5092    8.7500    9.2970   87.4108   59.6251    9.8816    4.2146    1.5800    6.2542    2.3446    4.1590    4.5510    4.7390   95.3380    0.1930    2.5165    0.0020    6.6058   37.0000 
12664.0092 12664.0092    8.7500    9.3010   85.0678   59.0980    9.7659    3.9816    1.5700    6.2203    2.4528    4.1560    4.5190    4.6850   96.5020    0.1970    2.5276    0.0019    7.0609   37.0000 
12664.5092 12664.5092    8.7500    9.2940   82.3235   57.5542    9.2588    3.8151    1.5700    5.8973    2.4269    4.1220    4.5040    4.6760   99.1070    0.1890    2.5410   -0.0015    6.8285   37.0000 
12665.0092 12665.0092    8.7500    9.2960   83.6607   59.1620    9.3927    3.7641    1.6300    5.7624    2.4953    4.3220    4.8940    4.3740  100.6440    0.1780    2.5397   -0.0110    8.2236   37.0000 
12665.5092 12665.5092    8.7500    9.2970   89.1313   64.4414   10.1539    3.8251    1.7900    5.6726    2.6545    4.2340    4.7400    4.2080  100.8830    0.1810    2.5221   -0.0090   11.4372   37.0000 
12666.0092 12666.0092    8.7500    9.2780   94.8842   69.3588   11.0461    3.9512    1.9100    5.7833    2.7956    3.5620    3.8940    4.3630  101.2380    0.1980    2.5046   -0.0071    8.1546   37.0000 
12666.5092 12666.5092    8.7500    9.2240   95.3865   70.7557   11.4063    3.8280    1.9200    5.9408    2.9797    3.2420    3.6130    4.0570  101.5670    0.2170    2.4997   -0.0076    7.6529   37.0000 
12667.0092 12667.0092    8.7500    9.2020   94.7749   72.4810   11.7046    3.5649    1.9700    5.9414    3.2833    3.1870    3.5330    3.8240  102.6160    0.2170    2.4983   -0.0125    9.3894   37.0000 
12667.5092 12667.5092    8.7500    9.2020   97.6526   76.5250   12.3415    3.4278    2.0800    5.9334    3.6004    3.1340    3.4790    3.6040  103.1390    0.2190    2.4953   -0.0184    9.3342   37.0000 
12668.0092 12668.0092    8.7500    9.2020  103.0285   81.3431   13.0623    3.5055    2.2200    5.8839    3.7262    3.0340    3.3260    3.3530  103.4650    0.2250    2.4927   -0.0083    4.1977   37.0000 
12668.5092 12668.5092    8.7500    9.1860  109.1198   86.9932   13.8907    3.5592    2.3900    5.8120    3.9028    2.8420    3.0050    3.0060  103.8320    0.2310    2.4937    0.0041    6.5821   37.0000 
