~VERSION INFORMATION
 VERS.                 2.0:   CWLS LOG ASCII STANDARD - VERSION 2.0
 WRAP.                  NO:   SINGLE LINE PER DEPTH STEP
 CREA.                 08/02/2018 08:46:11
#CREATED USING DSPetro VERSION 5000.10.1.3 BY H191660 ON 08/02/2018 08:46:11
~WELL INFORMATION
#MNEM.UNIT       DATA                          DESCRIPTION MNEMONIC
#---------      ---------------------------   --------------------------
 STRT    .FT        12354.5289                : START DEPTH
 STOP    .FT        17894.2270                : STOP DEPTH
 STEP    .FT        1.6404                    : STEP VALUE
 NULL    .      -999.0000                     : NULL VALUE
 DATE    .      08/02/2018                    : LAS file Creation Date
 WELL .      UNIVERSITY_19-5             : Well Name
 COMP .      Neftex Exploration Insights : Company
 FLD  .      PHANTOM (WOLFCAMP)          : Field
 UWI  .      208                         : Unique Well Identifier (UWI)
 LOC  .                                  : Location
 RWS  .      -999                        : Def_Rw
 WST  .      -999                        : Def_Rwt
 SRVC .                                  : Contractor
~CURVE INFORMATION
#MNEM              UNIT       API CODE   Curve Type Comments
#----------  --------------- ----------  ---------- -----------
 DEPTH      .FT                        : Depth       
 DEPTH      .FT                        : Depth       
 BS         .inch                      : BitSize     
 CAL_INCH   .inch                      :             Caliper Log - A representation of the measured diameter of a borehole along its depth
 GR_API     .API                       : GammaRay    Gamma Ray (API) - Measures the intensity of natural gamma-ray radiation emitted from formations containing radioactive elements, such as K, Th and U
 SGR_API    .API                       : GammaRay    Spectral Gamma Ray - Total gamma calibrated to API, measured using a spectoral gamma array tool
 CGR_API    .API                       : GammaRay    Corrected / Computed Gamma Ray - Radiation with the Uranium component removed. Also known as a 'carbonate gamma ray'
 TH_PPM     .ppm                       : Spectral    Thorium Abundance (SGR) - The quantitative elemental abundace of Thorium derived from the Spectral Gamma Ray Log
 K_per        .PC                        :             Potassium Abundance (SGR) - The quantitative elemental abundace of Potassium derived from the Spectral Gamma Ray Log. Also wt_%
 U_PPM      .ppm                       :             Uranium Abundance (SGR) - The quantitative elemental abundace of Uranium derived from the Spectral Gamma Ray Log
 ThK        .PPM                       : Spectral    
 ThU        .PPM                       : Spectral    
 SRES       .ohmm                      :             10" array induction, two foot resistivity
 MRES       .ohm.m                     :             30" array induction, two foot resistivity
 DRES       .ohmm                      :             90" array induction, two foot resistivity log - units of ohmm
 DT_US_FT   .us/ft                     :             Interval Transit Time: Compressional Wave - Evaluates the time it takes for a compressional wave to traverse a fixed distance
 NPHI_RATIO .ratio                     :             Neutron Porosity - Measured with an neutron logging device calibrated to a given matrix (limestone, sandstone and dolomite)
 RHOB_G_CC  .g/cc                      :             Bulk Density - Measures the density of bulk material, including any void space or other materials contained in the subject volume
 DRHO_G_CC  .g/cc                      :             Density Correction - Investigates the correction to the Bulk Density log; used as an indication of hole condition to validate the Bulk Density measure
 PEF_B_E    .b/e-                      : PEF         Photoelectric Factor - A log of photoelectric absorption properties. Often expressed in an approximation unit barns/electron (b/e-)
 LITH       .                          : LITH        Lithology Curve
~A  DEPTH   DEPTH       BS     CAL_INCH   GR_API   SGR_API   CGR_API    TH_PPM     K_per      U_PPM      ThK       ThU       SRES      MRES      DRES    DT_US_FT NPHI_RAT~ RHOB_G_C~ DRHO_G_C~  PEF_B_E     LITH   
12354.5289 12354.5289   12.2500    9.5381   39.3524   57.2170   39.3524    6.6986    1.0100    2.8589    6.6323    2.3431    0.2275    0.2765    0.1217   82.2515    0.4197    2.1717   -0.0865   25.3494 -999.0000 
12356.1693 12356.1693   12.2500    9.3787   37.9170   56.4872   37.9170    6.2711    1.0100    3.1312    6.2090    2.0028    1.2713    0.5205    0.1775   89.4772    0.2959    2.2010   -0.0391   25.9296 -999.0000 
12357.8097 12357.8097   12.2500   11.4515   38.7215   56.9634   38.7215    6.6593    0.9800    3.0572    6.7952    2.1782   11.4230    6.4292    1.7131   95.7464    0.3024    2.6240   -0.0920  625.7735   37.0000 
12359.4501 12359.4501   12.2500   11.5322   43.7361   61.3013   43.7361    7.6612    1.0900    3.1356    7.0286    2.4433    9.3861    8.2200    4.1280   92.8572    0.2836    2.6375   -0.0730   38.4918   11.0000 
12361.0906 12361.0906   12.2500   12.1857   49.7482   64.1346   49.7482    8.7211    1.2400    2.5051    7.0331    3.4813    7.4250    9.5165    6.4482   86.9559    0.3222    2.5590   -0.0956   43.9433   11.0000 
12362.7310 12362.7310   12.2500   22.3705   68.8601   85.9974   68.8601   12.2176    1.6900    3.2979    7.2293    3.7047    5.3819    6.0772    5.9665   77.5280    0.2906    2.4202   -0.2361   56.9291   11.0000 
12364.3714 12364.3714   12.2500   22.4857   59.8790   72.3216   59.8790   10.7027    1.4600    2.3644    7.3306    4.5266    2.4652    2.2741    2.2606  111.1404    0.3387    2.4195   -0.2498   49.5727   11.0000 
12366.0118 12366.0118   12.2500   22.5350   30.6676   39.8814   30.6676    5.1095    0.8100    1.6043    6.3080    3.1849    3.4242    2.3408    1.9324   92.6459    0.5488    2.3831   -0.2644   59.4023   11.0000 
12367.6522 12367.6522   12.2500   22.7138   22.3287   29.9603   22.3287    4.1815    0.5100    1.2626    8.1990    3.3118    3.7810    2.1220    1.6576   57.8372    0.6565    2.3954   -0.2550  144.7277   11.0000 
12369.2927 12369.2927   12.2500   20.6095   40.4299   51.9349   40.4299    7.1816    0.9900    1.6805    7.2541    4.2735    2.7871    1.7992    1.9807   89.1176    0.6238    2.5667   -0.1794   38.1197   11.0000 
12370.9331 12370.9331   12.2500    9.1389   36.7019   48.7279   36.7019    6.3415    0.9300    1.8287    6.8188    3.4678    8.5755    4.3664    4.3562   87.8484    0.2359    2.6318   -0.0766   10.4395   11.0000 
12372.5735 12372.5735   12.2500    9.1765   62.0517   83.4665   62.0517   10.4555    1.6100    3.1168    6.4941    3.3546    5.9996    4.9984    5.0142   90.6102    0.1441    2.5946   -0.0016    9.3481   11.0000 
12374.2139 12374.2139   12.2500    9.1898   43.3382   62.7299   43.3382    6.9103    1.1900    2.9298    5.8070    2.3586   10.0848    9.6970    9.6676   95.5060    0.1561    2.5690   -0.0205   11.8061   22.0000 
12375.8543 12375.8543   12.2500    9.2840   69.4984   95.0362   69.4984   11.2361    1.8900    3.8974    5.9450    2.8830    8.1716    8.7481    8.6956  118.6868    0.1572    2.4671   -0.0126    8.2928   18.0000 
12377.4948 12377.4948   12.2500    9.3269   76.0541  102.9294   76.0541   12.1302    2.0900    4.1016    5.8039    2.9574   10.3614   12.5611   12.1141  101.9512    0.1495    2.4501   -0.0074    9.1662   18.0000 
12379.1352 12379.1352   12.2500    9.2658   78.1700  103.0091   78.1700   12.2606    2.1900    3.6943    5.5984    3.3188   15.8926   17.9794   16.7252   93.1464    0.1481    2.4604   -0.0073    9.4918   18.0000 
12380.7756 12380.7756   12.2500    9.1679   45.5558   66.1645   45.5558    6.9593    1.3100    2.9585    5.3124    2.3523   10.9976   10.5286   10.1272   81.2395    0.1475    2.5904   -0.0031   14.4651   22.0000 
12382.4160 12382.4160   12.2500    9.1661   43.9268   69.3345   43.9268    6.8014    1.2400    3.7259    5.4850    1.8254   11.2574   11.3892   12.8668   71.0510    0.2369    2.4911   -0.0006    8.5998   37.0000 
12384.0564 12384.0564   12.2500    9.0922   48.9565   80.7674   48.9565    7.5255    1.4000    4.7074    5.3754    1.5987   17.7295   16.0456   17.4943   91.5473    0.1637    2.5965    0.0060    9.5209   22.0000 
12385.6969 12385.6969   12.2500    9.0702   62.5342  109.3070   62.5342    9.6003    1.7800    6.7332    5.3934    1.4258   26.5429   18.9436   14.0067   95.4498    0.1094    2.6582   -0.0020   10.6167   12.0000 
12387.3373 12387.3373   12.2500    9.1186   60.8640  110.2119   60.8640    9.6968    1.6800    7.0222    5.7719    1.3809   17.5341   14.3124   12.3007   96.7924    0.2326    2.5052   -0.0098    7.8608   37.0000 
12388.9777 12388.9777   12.2500    9.1229   57.9183  100.2952   57.9183    9.4124    1.5600    6.1970    6.0336    1.5189   10.4048   12.9958   16.1892   99.2684    0.1811    2.5540    0.0104    8.7693   22.0000 
12390.6181 12390.6181   12.2500    9.1497   64.3221  103.7051   64.3221   10.5711    1.7200    5.8315    6.1460    1.8128    9.6512   10.9044   13.0513   92.3466    0.2433    2.5008    0.0105    7.2484   37.0000 
12392.2585 12392.2585   12.2500    9.1493   66.1616   97.0105   66.1616   10.8536    1.7700    4.8567    6.1320    2.2348   10.1058    9.8975   13.6416   95.0372    0.2579    2.4552   -0.0056    7.1486   37.0000 
12393.8990 12393.8990   12.2500    9.1516   48.4565   70.4371   48.4565    7.6812    1.3400    3.4329    5.7322    2.2375    9.7669    9.8580   10.6038   87.2944    0.1664    2.4493   -0.0122    7.0422   18.0000 
12395.5394 12395.5394   12.2500    9.0490   64.6563   91.7960   64.6563   10.3196    1.7800    4.0557    5.7975    2.5445    8.8922    9.7809    8.8200   78.9019    0.2518    2.5102   -0.0046   11.4218   37.0000 
12397.1798 12397.1798   12.2500    9.0104   47.1318   72.8886   47.1318    7.5961    1.2800    3.7802    5.9345    2.0094   10.0663   11.9941   10.8921   92.0712    0.1842    2.4804   -0.0043    9.1018   37.0000 
12398.8202 12398.8202   12.2500    9.0090   45.7204   69.8071   45.7204    7.6485    1.2000    3.7285    6.3737    2.0514   10.1706   14.0141   18.4441  100.4541    0.1694    2.4820    0.0049    9.4431   18.0000 
12400.4606 12400.4606   12.2500    9.0123   53.4933   81.7804   53.4933    9.1164    1.3700    4.4927    6.6543    2.0292    7.6611    9.5752   10.0822  103.3188    0.1966    2.4892    0.0090    9.1632   22.0000 
12402.1010 12402.1010   12.2500    9.0068   69.3154   99.5775   69.3154   11.6444    1.8100    4.8696    6.4334    2.3912    5.6675    7.3465    7.2064  101.3051    0.2521    2.4885    0.0087    9.3718   37.0000 
12403.7415 12403.7415   12.2500    9.0090   73.7850  105.2856   73.7850   12.1684    1.9600    4.9233    6.2084    2.4716    7.3930    9.7283    9.7357  100.6393    0.2481    2.4625   -0.0030   10.1031   37.0000 
12405.3819 12405.3819   12.2500    9.0086   65.7435   92.4384   65.7435   10.8731    1.7400    4.1363    6.2489    2.6287    6.0482    7.4890    7.8152  101.5385    0.2646    2.4772   -0.0026    9.9435   37.0000 
12407.0223 12407.0223   12.2500    9.0373   67.0555   95.5946   67.0555   10.8633    1.8200    4.3666    5.9688    2.4878    8.5122   11.9277   12.8261  102.6672    0.2695    2.4668    0.0002    8.5540   37.0000 
12408.6627 12408.6627   12.2500    9.0440   63.8011   91.7664   63.8011   10.3847    1.7200    4.3100    6.0376    2.4094    6.3723    8.1273    9.2021  102.4714    0.2540    2.4705   -0.0030    7.2777   37.0000 
12410.3031 12410.3031   12.2500    9.0443   72.4246  103.8269   72.4246   11.5604    1.9900    4.7838    5.8092    2.4166    7.1198    9.8696   13.3593  101.9233    0.2643    2.4535   -0.0073    7.7176   37.0000 
12411.9436 12411.9436   12.2500    9.0425   72.6331  103.1362   72.6331   11.2258    2.0600    4.6329    5.4494    2.4231    6.4669    7.8653    9.0160   88.6596    0.2723    2.4681   -0.0011    8.3269   37.0000 
12413.5840 12413.5840   12.2500    9.0411   65.0169   87.3052   65.0169   10.2844    1.8000    3.3861    5.7136    3.0372    5.2199    5.9304    6.0875   86.2594    0.2434    2.5203    0.0011    8.4548   37.0000 
12415.2244 12415.2244   12.2500    8.9783   41.5087   56.4737   41.5087    6.5907    1.1500    2.2743    5.7310    2.8979    9.4371    8.5480    5.6812   90.2779    0.1718    2.5582   -0.0018   10.3708   22.0000 
