~VERSION INFORMATION
 VERS.                 2.0:   CWLS LOG ASCII STANDARD - VERSION 2.0
 WRAP.                  NO:   SINGLE LINE PER DEPTH STEP
 CREA.                 08/02/2018 08:46:11
#CREATED USING DSPetro VERSION 5000.10.1.3 BY H191660 ON 08/02/2018 08:46:11
~WELL INFORMATION
#MNEM.UNIT       DATA                          DESCRIPTION MNEMONIC
#---------      ---------------------------   --------------------------
 STRT    .FT        12354.5289                : START DEPTH
 STOP    .FT        17894.2270                : STOP DEPTH
 STEP    .FT        1.6404                    : STEP VALUE
 NULL    .      -999.0000                     : NULL VALUE
 DATE    .      08/02/2018                    : LAS file Creation Date
 WELL .      UNIVERSITY_19-5             : Well Name
 COMP .      Neftex Exploration Insights : Company
 FLD  .      PHANTOM (WOLFCAMP)          : Field
 UWI  .      208                         : Unique Well Identifier (UWI)
 LOC  .                                  : Location
 RWS  .      -999                        : Def_Rw
 WST  .      -999                        : Def_Rwt
 SRVC .                                  : Contractor
~CURVE INFORMATION
#MNEM              UNIT       API CODE   Curve Type Comments
#----------  --------------- ----------  ---------- -----------
 DEPTH      .FT                        : Depth       
 DEPTH      .FT                        : Depth       
 BS         .inch                      : BitSize     
 CAL_INCH   .inch                      :             Caliper Log - A representation of the measured diameter of a borehole along its depth
 GR_API     .API                       : GammaRay    Gamma Ray (API) - Measures the intensity of natural gamma-ray radiation emitted from formations containing radioactive elements, such as K, Th and U
 SGR_API    .API                       : GammaRay    Spectral Gamma Ray - Total gamma calibrated to API, measured using a spectoral gamma array tool
 CGR_API    .API                       : GammaRay    Corrected / Computed Gamma Ray - Radiation with the Uranium component removed. Also known as a 'carbonate gamma ray'
 TH_PPM     .ppm                       : Spectral    Thorium Abundance (SGR) - The quantitative elemental abundace of Thorium derived from the Spectral Gamma Ray Log
 K_per        .PC                        :             Potassium Abundance (SGR) - The quantitative elemental abundace of Potassium derived from the Spectral Gamma Ray Log. Also wt_%
 U_PPM      .ppm                       :             Uranium Abundance (SGR) - The quantitative elemental abundace of Uranium derived from the Spectral Gamma Ray Log
 ThK        .PPM                       : Spectral    
 ThU        .PPM                       : Spectral    
 SRES       .ohmm                      :             10" array induction, two foot resistivity
 MRES       .ohm.m                     :             30" array induction, two foot resistivity
 DRES       .ohmm                      :             90" array induction, two foot resistivity log - units of ohmm
 DT_US_FT   .us/ft                     :             Interval Transit Time: Compressional Wave - Evaluates the time it takes for a compressional wave to traverse a fixed distance
 NPHI_RATIO .ratio                     :             Neutron Porosity - Measured with an neutron logging device calibrated to a given matrix (limestone, sandstone and dolomite)
 RHOB_G_CC  .g/cc                      :             Bulk Density - Measures the density of bulk material, including any void space or other materials contained in the subject volume
 DRHO_G_CC  .g/cc                      :             Density Correction - Investigates the correction to the Bulk Density log; used as an indication of hole condition to validate the Bulk Density measure
 PEF_B_E    .b/e-                      : PEF         Photoelectric Factor - A log of photoelectric absorption properties. Often expressed in an approximation unit barns/electron (b/e-)
 LITH       .                          : LITH        Lithology Curve
~A  DEPTH   DEPTH       BS     CAL_INCH   GR_API   SGR_API   CGR_API    TH_PPM     K_per      U_PPM      ThK       ThU       SRES      MRES      DRES    DT_US_FT NPHI_RAT~ RHOB_G_C~ DRHO_G_C~  PEF_B_E     LITH   
# ...
13102.5604 13102.5604   12.2500    8.7758   89.1399  106.6090   89.1399   13.2973    2.6100    2.8830    5.0948    4.6123    3.2778    3.4287    4.0218   95.5273    0.2484    2.5613    0.0013    9.1232   37.0000 
13104.2008 13104.2008   12.2500    8.7618   83.6036  103.2807   83.6036   12.7532    2.4000    3.2648    5.3138    3.9063    3.7848    3.9097    4.3694   94.5772    0.2463    2.5393   -0.0104    9.3413   37.0000 
13105.8412 13105.8412   12.2500    8.7578   79.4584   99.3783   79.4584   12.2400    2.2600    3.4240    5.4159    3.5748    4.4746    3.9748    4.1938   92.8819    0.2443    2.5467   -0.0122   10.8956   37.0000 
13107.4816 13107.4816   12.2500    8.7971   82.5456   99.4500   82.5456   13.3724    2.2300    2.9716    5.9966    4.5001    4.8207    4.0081    4.0250   94.3602    0.2308    2.5255   -0.0061    8.5318   37.0000 
13109.1220 13109.1220   12.2500    8.8081   75.1163   92.2722   75.1163   12.0128    2.0600    2.9945    5.8315    4.0116    4.6276    4.0253    4.6742   95.9598    0.2386    2.5398   -0.0044    8.0525   37.0000 
13110.7625 13110.7625   12.2500    8.8563   81.5900  104.8541   81.5900   12.5067    2.3300    3.7966    5.3677    3.2942    3.8212    3.5764    3.8011   97.7841    0.2425    2.5680    0.0008    9.6290   37.0000 
13112.4029 13112.4029   12.2500    8.7332   84.3045  105.5236   84.3045   13.4100    2.3200    3.6671    5.7802    3.6568    3.6959    3.3946    3.3591   99.3767    0.2249    2.5423   -0.0074    8.6345   37.0000 
13114.0433 13114.0433   12.2500    8.7298   88.0808  107.0167   88.0808   14.7578    2.3000    3.4324    6.4164    4.2996    3.6197    3.2499    3.2858   97.1759    0.2451    2.5268   -0.0143    9.0782   37.0000 
13115.6837 13115.6837   12.2500    8.7313   92.1953  108.0386   92.1953   16.1241    2.2900    2.9487    7.0411    5.4682    3.5689    3.1824    3.1341   94.5859    0.2433    2.5574    0.0002    8.8659   37.0000 
13117.3241 13117.3241   12.2500    8.7300   92.4168  106.0624   92.4168   15.8014    2.3600    2.4854    6.6955    6.3577    3.7051    3.1275    3.1170   93.9429    0.2479    2.5520    0.0034   10.1797   37.0000 
13118.9646 13118.9646   12.2500    8.7300   85.5059   97.5462   85.5059   14.6995    2.1700    2.0601    6.7740    7.1353    4.0792    3.6341    3.6177   94.7354    0.2368    2.5606    0.0013    9.0813   37.0000 
13120.6050 13120.6050   12.2500    8.7313   84.2545   94.5590   84.2545   14.1401    2.2000    1.8536    6.4273    7.6285    3.9768    3.6022    3.5648   93.6065    0.2263    2.5511   -0.0029    9.4859   37.0000 
13122.2454 13122.2454   12.2500    8.7298   87.9448   99.7150   87.9448   14.7897    2.2900    1.9405    6.4584    7.6216    3.6236    3.4492    3.4703   92.9858    0.2195    2.5485   -0.0075   10.7114   37.0000 
13123.8858 13123.8858   12.2500    8.7298   83.6811   97.3554   83.6811   13.2638    2.3200    2.2473    5.7172    5.9021    3.7032    3.5748    3.5906   91.7695    0.2295    2.5584   -0.0042    9.5899   37.0000 
13125.5262 13125.5262   12.2500    8.7298   84.9361  101.3438   84.9361   12.8085    2.4600    2.7346    5.2067    4.6839    3.7279    3.5429    3.6883   87.4600    0.2471    2.5801    0.0043    7.7990   37.0000 
13127.1667 13127.1667   12.2500    8.7313   81.9669   98.4595   81.9669   12.3389    2.3800    2.7213    5.1844    4.5342    4.7720    4.1016    4.1844   86.8407    0.2332    2.5691   -0.0012    7.0907   37.0000 
13128.8071 13128.8071   12.2500    8.7328   76.3794   94.3810   76.3794   11.8117    2.1600    2.8966    5.4684    4.0778    5.4514    4.2987    4.0373   90.1966    0.1511    2.5298   -0.0106    8.9461   37.0000 
13130.4475 13130.4475   12.2500    8.7346   79.4878   94.6581   79.4878   13.1308    2.1100    2.4573    6.2231    5.3436    4.1728    3.7711    3.7955   89.5721    0.2013    2.5601   -0.0053    7.7788   37.0000 
13132.0879 13132.0879   12.2500    8.7298   83.9101  100.3210   83.9101   14.1471    2.1800    2.6768    6.4895    5.2851    3.8658    3.7361    3.9739   89.6850    0.2241    2.5507   -0.0117    8.5293   37.0000 
13133.7283 13133.7283   12.2500    8.7122   79.9655   96.4444   79.9655   13.1909    2.1200    2.8111    6.2221    4.6924    3.8285    3.8501    3.9128   94.7903    0.2180    2.6019   -0.0083    8.6767   22.0000 
13135.3688 13135.3688   12.2500    8.7126   64.4145   78.7226   64.4145   10.2886    1.7700    2.4950    5.8128    4.1237    4.3748    3.8987    3.8451   96.4053    0.1750    2.6048   -0.0097    8.2856   22.0000 
13137.0092 13137.0092   12.2500    8.7313   87.0581  106.1394   87.0581   13.6448    2.4400    3.1426    5.5921    4.3419    4.6843    3.7936    4.0389   97.5163    0.2595    2.5520   -0.0067    8.4537   37.0000 
13138.6496 13138.6496   12.2500    8.7328   81.3107  101.2863   81.3107   12.6773    2.2900    3.2218    5.5359    3.9349    4.3749    3.8480    4.1492   96.0640    0.2430    2.5519   -0.0059    8.5424   37.0000 
13140.2900 13140.2900   12.2500    8.7313   81.9999  104.3359   81.9999   13.3335    2.2100    3.7773    6.0333    3.5299    4.4789    3.8766    3.7752   87.4249    0.2324    2.5636    0.0061    8.2723   37.0000 
13141.9304 13141.9304   12.2500    8.7314   64.3835   82.4676   64.3835   10.1542    1.7900    3.0460    5.6727    3.3336    4.1974    4.7452    4.6165   93.1157    0.1873    2.5577    0.0062    9.1743   22.0000 
13143.5709 13143.5709   12.2500    8.7298   72.9250   86.0119   72.9250   11.7491    1.9900    2.3811    5.9041    4.9343    3.9043    4.6329    4.3128   87.7115    0.1459    2.5781    0.0052    8.8433   37.0000 
13145.2113 13145.2113   12.2500    8.7313   84.5234   99.7294   84.5234   12.5348    2.4900    2.5311    5.0341    4.9523    3.9120    4.5408    4.2098   82.1473    0.2492    2.5885   -0.0041    6.6438   37.0000 
13146.8517 13146.8517   12.2500    8.7313   76.1558   89.3559   76.1558   11.5860    2.1900    2.1753    5.2904    5.3262    3.9685    4.5590    4.5668   92.3740    0.1976    2.6029    0.0013    7.7914   22.0000 
13148.4921 13148.4921   12.2500    8.7335   60.4613   74.2322   60.4613    9.1834    1.7400    2.3052    5.2778    3.9838    4.1543    4.5235    4.8303   86.9657    0.1410    2.5953    0.0052    8.1568   22.0000 
13150.1325 13150.1325   12.2500    8.7093   56.2877   74.8782   56.2877    8.7943    1.5800    2.9956    5.5660    2.9357    4.2197    4.2441    4.5532   87.8923    0.2366    2.5407   -0.0043    9.0674   22.0000 
13151.7730 13151.7730   12.2500    8.6942   56.0988   71.7868   56.0988    9.0707    1.5200    2.6331    5.9676    3.4449    5.4685    4.1552    3.8356   97.1230    0.1747    2.5746   -0.0114   10.6858   22.0000 
13153.4134 13153.4134   12.2500    8.7872   73.7428   89.8101   73.7428   12.5171    1.9000    2.8845    6.5879    4.3394    4.7092    3.8665    3.4614   98.0407    0.2514    2.5190   -0.0149    8.4262   37.0000 
13155.0538 13155.0538   12.2500    8.7861   91.2810  109.3863   91.2810   14.8419    2.4600    3.1519    6.0333    4.7089    3.6177    3.1836    3.0951   97.2394    0.2472    2.5448   -0.0044    9.0176   37.0000 
13156.6942 13156.6942   12.2500    8.7536   88.9796  110.8556   88.9796   13.3221    2.6000    3.7484    5.1239    3.5541    3.3735    3.0896    3.0241   96.1690    0.2477    2.5511    0.0049    8.2423   37.0000 
13158.3346 13158.3346   12.2500    8.7313   88.2328  108.5591   88.2328   12.5397    2.6900    3.4703    4.6616    3.6134    3.4624    3.2076    3.2305   94.5186    0.2505    2.5397    0.0025    8.6447   37.0000 
13159.9751 13159.9751   12.2500    8.7313   89.0422  108.1185   89.0422   13.0365    2.6500    3.5290    4.9194    3.6941    3.6874    3.2205    2.9623   93.8665    0.2368    2.5488    0.0024    8.4462   37.0000 
13161.6155 13161.6155   12.2500    8.7313   86.6925  103.2481   86.6925   13.4553    2.4500    3.0330    5.4920    4.4363    3.9906    3.2849    3.0801   94.3204    0.2313    2.5571   -0.0002    7.3460   37.0000 
13163.2559 13163.2559   12.2500    8.7313   66.3751   81.8508   66.3751   10.4520    1.8500    2.7386    5.6497    3.8165    4.7644    5.8869    7.7586   96.4339    0.2336    2.5909    0.0038    7.2571   37.0000 
