~VERSION INFORMATION
 VERS.                 2.0:   CWLS LOG ASCII STANDARD - VERSION 2.0
 WRAP.                  NO:   SINGLE LINE PER DEPTH STEP
 CREA.                 08/02/2018 08:46:35
#CREATED USING DSPetro VERSION 5000.10.1.3 BY H191660 ON 08/02/2018 08:46:35
~WELL INFORMATION
#MNEM.UNIT       DATA                          DESCRIPTION MNEMONIC
#---------      ---------------------------   --------------------------
 STRT    .FT        12311.0000                : START DEPTH
 STOP    .FT        17628.0000                : STOP DEPTH
 STEP    .FT        0.5000                    : STEP VALUE
 NULL    .      -999.0000                     : NULL VALUE
 DATE    .      08/02/2018                    : LAS file Creation Date
 WELL  .      UNIVERSITY_20_5                  : Well Name
 COMP  .      Neftex Exploration Insights      : Company
 FLD   .      HALEY (LWR. WOLFCAMP-PENN CONS.) : Field
 STATE .      TEXAS                            : State
 COUNT .      LOVING                           : Country
 API   .      42-301-31423                     : API Number
 UWI   .      212                              : Unique Well Identifier (UWI)
 LOC   .      1320' FNL & 1320' FWL            : Location
 PDAT  .      G.L.                             : Permanent Datum
 EPDAT .      2805                             : Reference Elevation
 LGMEA .      K.B.                             : Log Measured from
 DRMEA .      KELLY BUSHING                    : Drill Measured From
 APDAT .      30                               : Elevation Above Permanent Datum
 KB    .      2835                             : KB Elevation
 DF    .      2834                             : DF Elevation
 GL    .      2805                             : GL Elevation
 RWS   .      -999                             : Def_Rw
 WST   .      -999                             : Def_Rwt
 CNTY  .      LOVING                           : County
 SRVC  .      Baker Atlas                      : Contractor
~CURVE INFORMATION
#MNEM              UNIT       API CODE   Curve Type Comments
#----------  --------------- ----------  ---------- -----------
 DEPTH      .FT                        : Depth       
 DEPTH      .FT                        : Depth       
 BS         .inch                      : BitSize     
 CAL        .inch                      :             
 GR         .API                       : GammaRay    
 K          .%                         : Spectral    Potassium
 TH         .PPM                       : Spectral    Thorium
 U          .PPM                       : Spectral    Uranium
 Th/k       .PPM                       : Spectral    
 Th/U       .PPM                       : Spectral    
 RESD       .ohmm                      :             
 RESM       .ohmm                      :             
 RESS       .ohmm                      :             
 DT         .us/ft                     :             
 DRHO       .G/C3                      : Drho        
 NPHI       .dec                       : Neutron     
 RHOB       .G/C3                      : Density     
 PEF        .b/e-                      : PEF         
 LITH       .                          : LITH        Lithology Curve
~A  DEPTH   DEPTH       BS       CAL        GR        K         TH        U        Th/k      Th/U      RESD      RESM      RESS       DT       DRHO      NPHI      RHOB      PEF       LITH   
# ...
13361.0000 13361.0000    8.5000    8.7000   57.7749 -999.0000 -999.0000 -999.0000 -999.0000 -999.0000    8.1000    6.4400    5.9620   75.4020   -0.0180    0.1745    2.5820    5.2950   22.0000 
13361.5000 13361.5000    8.5000    8.6970   48.1689 -999.0000 -999.0000 -999.0000 -999.0000 -999.0000   14.4750   11.5420   10.2660   66.7890   -0.0180    0.1314    2.6290    5.8870   18.0000 
13362.0000 13362.0000    8.5000    8.7000   35.0341 -999.0000 -999.0000 -999.0000 -999.0000 -999.0000   23.5340   18.9690   16.3760   62.7370   -0.0160    0.1024    2.6880    6.4300   18.0000 
13362.5000 13362.5000    8.5000    8.7150   26.9167 -999.0000 -999.0000 -999.0000 -999.0000 -999.0000   21.8600   17.7610   14.4810   65.6060   -0.0180    0.0981    2.7100    6.3200   18.0000 
13363.0000 13363.0000    8.5000    8.7360   29.5037 -999.0000 -999.0000 -999.0000 -999.0000 -999.0000   13.0660   10.7070    8.4900   74.0030   -0.0230    0.1175    2.6730    5.8720   18.0000 
13363.5000 13363.5000    8.5000    8.7510   41.4869 -999.0000 -999.0000 -999.0000 -999.0000 -999.0000    8.2290    6.8520    5.5820   83.8370   -0.0240    0.1581    2.6120    5.5810   22.0000 
13364.0000 13364.0000    8.5000    8.7520   55.2289 -999.0000 -999.0000 -999.0000 -999.0000 -999.0000    6.2740    5.3110    4.4750   91.2400   -0.0200    0.2112    2.5660    5.3270   37.0000 
13364.5000 13364.5000    8.5000    8.7400   63.4148 -999.0000 -999.0000 -999.0000 -999.0000 -999.0000    5.4160    4.6520    4.0630   94.8060   -0.0130    0.2544    2.5440    4.8670   37.0000 
13365.0000 13365.0000    8.5000    8.7180   65.3136 -999.0000 -999.0000 -999.0000 -999.0000 -999.0000    4.9740    4.3250    3.9150   95.5240   -0.0090    0.2633    2.5350    4.2950   37.0000 
13365.5000 13365.5000    8.5000    8.6970   64.1711 -999.0000 -999.0000 -999.0000 -999.0000 -999.0000    4.6720    4.1030    3.8360   95.0750   -0.0060    0.2539    2.5320    3.8180   37.0000 
13366.0000 13366.0000    8.5000    8.6950   62.3075 -999.0000 -999.0000 -999.0000 -999.0000 -999.0000    4.4370    3.9250    3.7680   94.5510   -0.0050    0.2452    2.5350    3.5980   37.0000 
13366.5000 13366.5000    8.5000    8.7070   61.0868 -999.0000 -999.0000 -999.0000 -999.0000 -999.0000    4.2810    3.8110    3.7240   94.1460   -0.0040    0.2439    2.5410    3.7780   37.0000 
13367.0000 13367.0000    8.5000    8.7110   61.0474 -999.0000 -999.0000 -999.0000 -999.0000 -999.0000    4.2240    3.7830    3.7370   93.7370   -0.0050    0.2496    2.5420    4.3130   37.0000 
13367.5000 13367.5000    8.5000    8.7050   61.5379 -999.0000 -999.0000 -999.0000 -999.0000 -999.0000    4.2560    3.8340    3.8160   93.2780   -0.0090    0.2564    2.5350    4.7760   37.0000 
13368.0000 13368.0000    8.5000    8.7010   61.4701 -999.0000 -999.0000 -999.0000 -999.0000 -999.0000    4.3250    3.9220    3.9380   92.2340   -0.0120    0.2517    2.5270    4.8010   37.0000 
13368.5000 13368.5000    8.5000    8.6910   60.0189 -999.0000 -999.0000 -999.0000 -999.0000 -999.0000    4.4480    4.0660    4.1350   89.3760   -0.0140    0.2362    2.5250    4.5780   37.0000 
13369.0000 13369.0000    8.5000    8.6800   57.5015 -999.0000 -999.0000 -999.0000 -999.0000 -999.0000    4.8390    4.4660    4.6290   83.4200   -0.0160    0.2157    2.5390    4.5270   37.0000 
13369.5000 13369.5000    8.5000    8.6810   53.4819 -999.0000 -999.0000 -999.0000 -999.0000 -999.0000    6.0080    5.5810    5.9350   74.5040   -0.0160    0.1850    2.5790    4.9240   22.0000 
13370.0000 13370.0000    8.5000    8.6950   45.7345 -999.0000 -999.0000 -999.0000 -999.0000 -999.0000    9.1710    8.4410    9.3530   65.3150   -0.0140    0.1410    2.6470    5.8300   18.0000 
13370.5000 13370.5000    8.5000    8.7040   35.0294 -999.0000 -999.0000 -999.0000 -999.0000 -999.0000   14.7220   13.3030   15.8330   59.9540   -0.0120    0.1049    2.6990    6.9000   18.0000 
13371.0000 13371.0000    8.5000    8.7120   27.4427 -999.0000 -999.0000 -999.0000 -999.0000 -999.0000   16.3810   14.8970   17.1580   61.2000   -0.0180    0.0909    2.6780    7.3670   18.0000 
13371.5000 13371.5000    8.5000    8.7190   28.3258 -999.0000 -999.0000 -999.0000 -999.0000 -999.0000   11.0090   10.4610   10.6310   68.4500   -0.0240    0.1003    2.6080    6.8900   22.0000 
13372.0000 13372.0000    8.5000    8.7210   37.0684 -999.0000 -999.0000 -999.0000 -999.0000 -999.0000    6.5060    6.2250    6.1140   78.0160   -0.0210    0.1338    2.5540    5.8300   37.0000 
13372.5000 13372.5000    8.5000    8.7180   47.9705 -999.0000 -999.0000 -999.0000 -999.0000 -999.0000    4.7430    4.5460    4.4300   85.6120   -0.0140    0.1860    2.5310    4.8050   22.0000 
13373.0000 13373.0000    8.5000    8.7140   55.1569 -999.0000 -999.0000 -999.0000 -999.0000 -999.0000    4.2770    4.0960    4.0000   88.9350   -0.0100    0.2288    2.5280    4.1920   37.0000 
13373.5000 13373.5000    8.5000    8.7230   57.3524 -999.0000 -999.0000 -999.0000 -999.0000 -999.0000    4.5230    4.3180    4.2570   88.2910   -0.0100    0.2325    2.5320    4.0860   37.0000 
13374.0000 13374.0000    8.5000    8.7380   57.0232 -999.0000 -999.0000 -999.0000 -999.0000 -999.0000    5.1980    4.9340    4.9100   85.4280   -0.0120    0.2184    2.5360    4.4380   37.0000 
13374.5000 13374.5000    8.5000    8.7440   56.1251 -999.0000 -999.0000 -999.0000 -999.0000 -999.0000    5.8630    5.5160    5.5340   82.0930   -0.0160    0.2088    2.5390    5.0870   37.0000 
13375.0000 13375.0000    8.5000    8.7340   54.2282 -999.0000 -999.0000 -999.0000 -999.0000 -999.0000    6.3800    5.9440    5.9920   78.9330   -0.0180    0.2007    2.5480    5.8230   37.0000 
13375.5000 13375.5000    8.5000    8.7210   51.2860 -999.0000 -999.0000 -999.0000 -999.0000 -999.0000    7.2170    6.6570    6.6930   75.5000   -0.0180    0.1863    2.5700    6.4400   22.0000 
13376.0000 13376.0000    8.5000    8.7100   48.9088 -999.0000 -999.0000 -999.0000 -999.0000 -999.0000    8.9600    8.1920    8.1540   71.1630   -0.0160    0.1689    2.6090    6.8390   22.0000 
13376.5000 13376.5000    8.5000    8.7060   47.0386 -999.0000 -999.0000 -999.0000 -999.0000 -999.0000   12.4710   11.3460   11.0930   65.7610   -0.0140    0.1533    2.6630    7.0890   12.0000 
13377.0000 13377.0000    8.5000    8.7040   42.5370 -999.0000 -999.0000 -999.0000 -999.0000 -999.0000   19.3180   17.6300   17.0260   60.1220   -0.0120    0.1357    2.7260    7.1470   12.0000 
13377.5000 13377.5000    8.5000    8.7100   34.6644 -999.0000 -999.0000 -999.0000 -999.0000 -999.0000   28.6200   26.4210   25.8530   56.1420   -0.0120    0.1138    2.7840    6.8620   12.0000 
13378.0000 13378.0000    8.5000    8.7230   27.5183 -999.0000 -999.0000 -999.0000 -999.0000 -999.0000   27.3220   25.4880   25.2040   55.7350   -0.0140    0.0965    2.8180    6.4860   12.0000 
13378.5000 13378.5000    8.5000    8.7220   25.2190 -999.0000 -999.0000 -999.0000 -999.0000 -999.0000   16.2980   15.2910   14.8860   59.7470   -0.0180    0.0928    2.8140    6.3400   12.0000 
13379.0000 13379.0000    8.5000    8.7040   28.6286 -999.0000 -999.0000 -999.0000 -999.0000 -999.0000    8.7280    8.2470    8.0690   67.4170   -0.0240    0.1057    2.7600    6.0850   12.0000 
13379.5000 13379.5000    8.5000    8.6990   36.5625 -999.0000 -999.0000 -999.0000 -999.0000 -999.0000    5.6010    5.3360    5.3150   76.4640   -0.0300    0.1353    2.6690    5.4430   12.0000 
13380.0000 13380.0000    8.5000    8.7030   46.8153 -999.0000 -999.0000 -999.0000 -999.0000 -999.0000    4.5330    4.3430    4.3850   84.3500   -0.0310    0.1750    2.5850    4.7730   22.0000 
13380.5000 13380.5000    8.5000    8.6940   56.1985 -999.0000 -999.0000 -999.0000 -999.0000 -999.0000    4.2920    4.1220    4.2170   89.7230   -0.0260    0.2086    2.5370    4.4660   37.0000 
13381.0000 13381.0000    8.5000    8.6780   62.4155 -999.0000 -999.0000 -999.0000 -999.0000 -999.0000    4.3380    4.1540    4.3020   92.7510   -0.0200    0.2289    2.5180    4.5240   37.0000 
13381.5000 13381.5000    8.5000    8.6790   66.1565 -999.0000 -999.0000 -999.0000 -999.0000 -999.0000    4.2870    4.0870    4.2700   94.3330   -0.0170    0.2431    2.5130    4.6210   37.0000 
