~VERSION INFORMATION
 VERS.                 2.0:   CWLS LOG ASCII STANDARD - VERSION 2.0
 WRAP.                  NO:   SINGLE LINE PER DEPTH STEP
 CREA.                 08/02/2018 08:46:11
#CREATED USING DSPetro VERSION 5000.10.1.3 BY H191660 ON 08/02/2018 08:46:11
~WELL INFORMATION
#MNEM.UNIT       DATA                          DESCRIPTION MNEMONIC
#---------      ---------------------------   --------------------------
 STRT    .FT        12354.5289                : START DEPTH
 STOP    .FT        17894.2270                : STOP DEPTH
 STEP    .FT        1.6404                    : STEP VALUE
 NULL    .      -999.0000                     : NULL VALUE
 DATE    .      08/02/2018                    : LAS file Creation Date
 WELL .      UNIVERSITY_19-5             : Well Name
 COMP .      Neftex Exploration Insights : Company
 FLD  .      PHANTOM (WOLFCAMP)          : Field
 UWI  .      208                         : Unique Well Identifier (UWI)
 LOC  .                                  : Location
 RWS  .      -999                        : Def_Rw
 WST  .      -999                        : Def_Rwt
 SRVC .                                  : Contractor
~CURVE INFORMATION
#MNEM              UNIT       API CODE   Curve Type Comments
#----------  --------------- ----------  ---------- -----------
 DEPTH      .FT                        : Depth       
 DEPTH      .FT                        : Depth       
 BS         .inch                      : BitSize     
 CAL_INCH   .inch                      :             Caliper Log - A representation of the measured diameter of a borehole along its depth
 GR_API     .API                       : GammaRay    Gamma Ray (API) - Measures the intensity of natural gamma-ray radiation emitted from formations containing radioactive elements, such as K, Th and U
 SGR_API    .API                       : GammaRay    Spectral Gamma Ray - Total gamma calibrated to API, measured using a spectoral gamma array tool
 CGR_API    .API                       : GammaRay    Corrected / Computed Gamma Ray - Radiation with the Uranium component removed. Also known as a 'carbonate gamma ray'
 TH_PPM     .ppm                       : Spectral    Thorium Abundance (SGR) - The quantitative elemental abundace of Thorium derived from the Spectral Gamma Ray Log
 K_per        .PC                        :             Potassium Abundance (SGR) - The quantitative elemental abundace of Potassium derived from the Spectral Gamma Ray Log. Also wt_%
 U_PPM      .ppm                       :             Uranium Abundance (SGR) - The quantitative elemental abundace of Uranium derived from the Spectral Gamma Ray Log
 ThK        .PPM                       : Spectral    
 ThU        .PPM                       : Spectral    
 SRES       .ohmm                      :             10" array induction, two foot resistivity
 MRES       .ohm.m                     :             30" array induction, two foot resistivity
 DRES       .ohmm                      :             90" array induction, two foot resistivity log - units of ohmm
 DT_US_FT   .us/ft                     :             Interval Transit Time: Compressional Wave - Evaluates the time it takes for a compressional wave to traverse a fixed distance
 NPHI_RATIO .ratio                     :             Neutron Porosity - Measured with an neutron logging device calibrated to a given matrix (limestone, sandstone and dolomite)
 RHOB_G_CC  .g/cc                      :             Bulk Density - Measures the density of bulk material, including any void space or other materials contained in the subject volume
 DRHO_G_CC  .g/cc                      :             Density Correction - Investigates the correction to the Bulk Density log; used as an indication of hole condition to validate the Bulk Density measure
 PEF_B_E    .b/e-                      : PEF         Photoelectric Factor - A log of photoelectric absorption properties. Often expressed in an approximation unit barns/electron (b/e-)
 LITH       .                          : LITH        Lithology Curve
~A  DEPTH   DEPTH       BS     CAL_INCH   GR_API   SGR_API   CGR_API    TH_PPM     K_per      U_PPM      ThK       ThU       SRES      MRES      DRES    DT_US_FT NPHI_RAT~ RHOB_G_C~ DRHO_G_C~  PEF_B_E     LITH   
# ...
14910.3031 14910.3031    8.7500    8.9670   61.0676   76.8195   61.0676    9.1617    1.7800    2.5205    5.1470    3.6349    3.9436    3.9345    4.8671   81.7044    0.1347    2.5883    0.0012    7.9916   18.0000 
14911.9436 14911.9436    8.7500    8.9671   22.5354   31.3639   22.5354    3.3512    0.6600    1.3146    5.0776    2.5492    9.5173    6.6451    5.1588   81.5445    0.1102    2.5998    0.0040    8.5961   18.0000 
14913.5840 14913.5840    8.7500    8.9764   30.5795   41.5248   30.5795    4.8894    0.8400    1.6437    5.8207    2.9746   14.8186   10.6693    4.3028   83.3531    0.0883    2.6495    0.0043   10.0577   18.0000 
14915.2244 14915.2244    8.7500    9.0673   56.4122   71.0859   56.4122    8.9952    1.5500    2.3984    5.8034    3.7505    5.3537    4.6143    4.6209   87.9644    0.2349    2.5824    0.0010    8.7015   37.0000 
14916.8648 14916.8648    8.7500    9.0711   72.1905   87.8489   72.1905   11.9872    1.9100    2.6835    6.2760    4.4670    5.3829    4.9033    4.6022   87.2179    0.2229    2.5734    0.0004    8.4718   37.0000 
14918.5052 14918.5052    8.7500    9.0673   82.3651   95.6217   82.3651   14.1404    2.0900    2.4041    6.7657    5.8818    5.2219    4.8134    4.7531   85.6741    0.2353    2.5779   -0.0063    8.9654   37.0000 
14920.1457 14920.1457    8.7500    9.0673   79.8310   93.4326   79.8310   12.9337    2.1600    2.4129    5.9878    5.3602    5.4607    5.0054    5.3169   82.2081    0.2319    2.6067   -0.0037   10.4119   37.0000 
14921.7861 14921.7861    8.7500    9.0670   79.7960   98.1409   79.7960   13.0271    2.1400    2.8226    6.0874    4.6153    5.6527    4.6572    4.8737   76.0379    0.2092    2.6175   -0.0081    9.1945   22.0000 
14923.4265 14923.4265    8.7500    9.0659   56.2108   69.9890   56.2108    8.6601    1.6000    2.0242    5.4126    4.2783    6.2778    4.3135    3.8981   76.1897    0.2540    2.6702   -0.0135    8.9943   37.0000 
14925.0669 14925.0669    8.7500    9.1866   70.3727   88.6698   70.3727   10.9685    1.9800    2.6318    5.5396    4.1677    4.5167    3.4432    3.4710   76.9703    0.2436    2.5762   -0.0286   10.5336   37.0000 
14926.7073 14926.7073    8.7500    9.1774   72.7629   91.0151   72.7629   11.6890    1.9900    2.7169    5.8739    4.3023    3.8286    3.6602    3.8209   72.7348    0.2173    2.5825   -0.0122   11.1884   22.0000 
14928.3478 14928.3478    8.7500    9.1742   64.8127   84.6519   64.8127   10.8703    1.6900    3.0818    6.4321    3.5273    6.4236    4.8012    4.2175   66.6229    0.2173    2.6020    0.0003   10.9683   22.0000 
14929.9882 14929.9882    8.7500    9.1464   38.2655   53.6717   38.2655    6.7300    0.9500    2.4263    7.0842    2.7738    6.8979    6.7828    7.8513   64.8899    0.1222    2.6393    0.0069   10.3417   18.0000 
14931.6286 14931.6286    8.7500    9.0165   32.4259   50.6976   32.4259    5.5625    0.8300    2.8747    6.7018    1.9350   10.1986   10.9827   18.3808   68.7304    0.1159    2.6830    0.0051    9.8941   18.0000 
14933.2690 14933.2690    8.7500    9.1655   36.5570   46.7603   36.5570    6.3851    0.9100    1.8581    7.0166    3.4364   19.5669   14.7898    7.6160   68.6040    0.0946    2.6852    0.0029   11.4867   18.0000 
14934.9094 14934.9094    8.7500    9.3010   65.1030   74.2591   65.1030   11.2146    1.6500    2.0319    6.7967    5.5193    7.3497    4.9509    6.0160   75.7774    0.1993    2.5910   -0.0071    9.8979   22.0000 
14936.5499 14936.5499    8.7500    9.3271   73.5264   82.3789   73.5264   12.5682    1.8800    1.9557    6.6852    6.4264   12.0308    5.1886    5.2242   76.1120    0.2154    2.6008   -0.0058    8.8971   22.0000 
14938.1903 14938.1903    8.7500    9.3295   56.6526   73.0166   56.6526    9.2413    1.5200    2.7005    6.0798    3.4221   34.4900    7.0509    7.4136   76.6857    0.0886    2.6764    0.0042   10.9660   18.0000 
14939.8307 14939.8307    8.7500    9.1055   36.5543   49.6002   36.5543    5.6084    1.0400    1.9993    5.3927    2.8052   26.3735    7.3910    5.9837   77.2706    0.0908    2.6145   -0.0019    9.2108   18.0000 
14941.4711 14941.4711    8.7500    9.1023   49.9571   66.8045   49.9571    7.4527    1.4600    2.5708    5.1046    2.8990    7.5994    5.5940    5.3852   79.4466    0.1914    2.6133    0.0014    9.2997   18.0000 
14943.1115 14943.1115    8.7500    9.0937   67.7022   83.4266   67.7022   11.0433    1.8200    2.7671    6.0677    3.9909    5.6453    4.8693    4.6367   87.8108    0.2094    2.6265    0.0085    8.1798   22.0000 
14944.7520 14944.7520    8.7500    9.0659   82.5981   93.3241   82.5981   13.9508    2.1400    2.1286    6.5191    6.5540    5.8587    4.5671    4.3845   87.1191    0.2262    2.6070    0.0078    9.1843   37.0000 
14946.3924 14946.3924    8.7500    9.0654   86.8915   96.1509   86.8915   14.7792    2.2300    1.9756    6.6274    7.4809    5.4371    4.5710    4.4162   85.0419    0.2302    2.5912    0.0009    8.6749   37.0000 
14948.0328 14948.0328    8.7500    9.0697   80.5328   93.6368   80.5328   13.7713    2.0600    2.4694    6.6851    5.5768    5.2825    4.5707    4.5389   86.9610    0.2159    2.5992   -0.0001    7.9102   37.0000 
14949.6732 14949.6732    8.7500    9.0659   72.6471   86.2706   72.6471   12.3659    1.8700    2.5722    6.6128    4.8075    5.1355    4.5239    4.9465   90.4611    0.2177    2.6160    0.0078    8.2675   37.0000 
14951.3136 14951.3136    8.7500    9.0744   76.9773   94.7791   76.9773   13.0196    1.9900    3.0876    6.5425    4.2167    5.8046    4.4906    4.5935   85.6252    0.2144    2.6097   -0.0014    7.8462   37.0000 
14952.9541 14952.9541    8.7500    9.0753   78.3777   98.2609   78.3777   13.3656    2.0100    3.2203    6.6496    4.1504    8.2104    5.0782    4.2472   81.1789    0.1861    2.5924   -0.0045    9.1318   37.0000 
14954.5945 14954.5945    8.7500    9.0301   56.6916   72.0700   56.6916    9.4276    1.4900    2.3204    6.3272    4.0629    9.7873    6.5211    4.9761   77.6481    0.1584    2.6411   -0.0012    9.0930   37.0000 
14956.2349 14956.2349    8.7500    8.9996   54.8664   71.0373   54.8664    9.0955    1.4500    2.4753    6.2728    3.6745    8.2697    8.0087    7.0269   69.2501    0.1738    2.6471    0.0007    9.2693   22.0000 
14957.8753 14957.8753    8.7500    8.9654   47.1474   63.5774   47.1474    7.8430    1.2400    2.5947    6.3250    3.0227    8.3599    7.4887    7.4283   71.8506    0.1636    2.6309   -0.0015    9.4315   22.0000 
14959.5157 14959.5157    8.7500    8.9827   47.8711   64.8425   47.8711    8.0678    1.2400    2.7155    6.5063    2.9710    9.9644    8.5978    8.1098   77.4892    0.1677    2.6344    0.0009   10.6253   22.0000 
14961.1562 14961.1562    8.7500    9.0970   45.3152   58.9104   45.3152    7.3167    1.2300    2.3193    5.9485    3.1547    9.5282    8.4570    8.8345   78.5773    0.1533    2.6705   -0.0003   13.3091   22.0000 
14962.7966 14962.7966    8.7500    9.0685   58.4829   71.2983   58.4829    9.3531    1.6000    2.3134    5.8457    4.0430    8.6395    8.3065    8.7540   70.6791    0.1500    2.6692    0.0101    8.8079   22.0000 
14964.4370 14964.4370    8.7500    9.0711   56.0953   67.5191   56.0953    8.8837    1.5500    2.2151    5.7314    4.0105    9.5739   10.9333   11.6119   69.1164    0.1537    2.6615    0.0092   10.1462   22.0000 
14966.0774 14966.0774    8.7500    8.9016   58.2879   71.6279   58.2879    9.5962    1.5500    2.5226    6.1911    3.8041   13.0447   13.5952   10.3520   65.7490    0.1545    2.6260   -0.0001   10.7169   22.0000 
14967.7178 14967.7178    8.7500    9.0140   56.2310   68.8952   56.2310    9.6715    1.4300    2.4328    6.7633    3.9755   22.0272   20.8495   14.7038   51.6749    0.1905    2.5753   -0.0273   13.7460   22.0000 
14969.3583 14969.3583    8.7500    9.2212   37.0641   49.0485   37.0641    6.5792    0.9100    2.1036    7.2299    3.1276   26.8817   28.4816   23.6610   49.3025    0.1301    2.6545    0.0033   18.8288   18.0000 
14970.9987 14970.9987    8.7500    9.2292   28.2558   40.4686   28.2558    5.3547    0.6300    2.0341    8.4995    2.6325   31.9569   27.6114   22.3066   49.8261    0.1477    2.6935    0.0106   15.7645   18.0000 
