~VERSION INFORMATION
 VERS.                 2.0:   CWLS LOG ASCII STANDARD - VERSION 2.0
 WRAP.                  NO:   SINGLE LINE PER DEPTH STEP
 CREA.                 08/02/2018 08:46:11
#CREATED USING DSPetro VERSION 5000.10.1.3 BY H191660 ON 08/02/2018 08:46:11
~WELL INFORMATION
#MNEM.UNIT       DATA                          DESCRIPTION MNEMONIC
#---------      ---------------------------   --------------------------
 STRT    .FT        12354.5289                : START DEPTH
 STOP    .FT        17894.2270                : STOP DEPTH
 STEP    .FT        1.6404                    : STEP VALUE
 NULL    .      -999.0000                     : NULL VALUE
 DATE    .      08/02/2018                    : LAS file Creation Date
 WELL .      UNIVERSITY_19-5             : Well Name
 COMP .      Neftex Exploration Insights : Company
 FLD  .      PHANTOM (WOLFCAMP)          : Field
 UWI  .      208                         : Unique Well Identifier (UWI)
 LOC  .                                  : Location
 RWS  .      -999                        : Def_Rw
 WST  .      -999                        : Def_Rwt
 SRVC .                                  : Contractor
~CURVE INFORMATION
#MNEM              UNIT       API CODE   Curve Type Comments
#----------  --------------- ----------  ---------- -----------
 DEPTH      .FT                        : Depth       
 DEPTH      .FT                        : Depth       
 BS         .inch                      : BitSize     
 CAL_INCH   .inch                      :             Caliper Log - A representation of the measured diameter of a borehole along its depth
 GR_API     .API                       : GammaRay    Gamma Ray (API) - Measures the intensity of natural gamma-ray radiation emitted from formations containing radioactive elements, such as K, Th and U
 SGR_API    .API                       : GammaRay    Spectral Gamma Ray - Total gamma calibrated to API, measured using a spectoral gamma array tool
 CGR_API    .API                       : GammaRay    Corrected / Computed Gamma Ray - Radiation with the Uranium component removed. Also known as a 'carbonate gamma ray'
 TH_PPM     .ppm                       : Spectral    Thorium Abundance (SGR) - The quantitative elemental abundace of Thorium derived from the Spectral Gamma Ray Log
 K_per        .PC                        :             Potassium Abundance (SGR) - The quantitative elemental abundace of Potassium derived from the Spectral Gamma Ray Log. Also wt_%
 U_PPM      .ppm                       :             Uranium Abundance (SGR) - The quantitative elemental abundace of Uranium derived from the Spectral Gamma Ray Log
 ThK        .PPM                       : Spectral    
 ThU        .PPM                       : Spectral    
 SRES       .ohmm                      :             10" array induction, two foot resistivity
 MRES       .ohm.m                     :             30" array induction, two foot resistivity
 DRES       .ohmm                      :             90" array induction, two foot resistivity log - units of ohmm
 DT_US_FT   .us/ft                     :             Interval Transit Time: Compressional Wave - Evaluates the time it takes for a compressional wave to traverse a fixed distance
 NPHI_RATIO .ratio                     :             Neutron Porosity - Measured with an neutron logging device calibrated to a given matrix (limestone, sandstone and dolomite)
 RHOB_G_CC  .g/cc                      :             Bulk Density - Measures the density of bulk material, including any void space or other materials contained in the subject volume
 DRHO_G_CC  .g/cc                      :             Density Correction - Investigates the correction to the Bulk Density log; used as an indication of hole condition to validate the Bulk Density measure
 PEF_B_E    .b/e-                      : PEF         Photoelectric Factor - A log of photoelectric absorption properties. Often expressed in an approximation unit barns/electron (b/e-)
 LITH       .                          : LITH        Lithology Curve
~A  DEPTH   DEPTH       BS     CAL_INCH   GR_API   SGR_API   CGR_API    TH_PPM     K_per      U_PPM      ThK       ThU       SRES      MRES      DRES    DT_US_FT NPHI_RAT~ RHOB_G_C~ DRHO_G_C~  PEF_B_E     LITH   
# ...
15658.3346 15658.3346    8.7500    8.7289   36.1605   51.5459   36.1605    5.8126    0.9900    2.0763    5.8713    2.7995    8.4968    7.9062    7.5876   85.0968    0.1923    2.5627   -0.0112   14.3003   22.0000 
15659.9751 15659.9751    8.7500    8.7734   39.5868   52.5035   39.5868    6.5600    1.0500    1.9956    6.2476    3.2872    8.4918    7.8880    7.5693   84.9756    0.2030    2.5367   -0.0128    6.6769   22.0000 
15661.6155 15661.6155    8.7500    8.7811   36.7231   50.5073   36.7231    6.0190    0.9800    2.0367    6.1418    2.9553    8.4858    7.8844    7.5826   77.9820    0.2318    2.5315   -0.0023    6.4685   18.0000 
15663.2559 15663.2559    8.7500    8.7830   35.0067   50.9080   35.0067    5.7507    0.9300    2.3252    6.1835    2.4732    8.5236    7.8965    7.5672   79.5836    0.1556    2.5384    0.0012    6.0843   18.0000 
15664.8963 15664.8963    8.7500    8.7821   33.9818   51.3918   33.9818    5.4413    0.9300    2.4405    5.8509    2.2296    8.5266    7.9143    7.5683   76.6344    0.1732    2.5512    0.0051    5.9881   18.0000 
15666.5367 15666.5367    8.7500    8.7811   35.9082   51.6233   35.9082    6.0979    0.9200    2.3355    6.6282    2.6110    8.5213    7.9228    7.5584   75.0129    0.1524    2.5238   -0.0004    6.1760   18.0000 
15668.1772 15668.1772    8.7500    8.7826   35.0340   50.2877   35.0340    6.1472    0.8700    2.2504    7.0657    2.7316    8.5308    7.9377    7.5532   80.4401    0.1532    2.5301    0.0000    6.9401   18.0000 
15669.8176 15669.8176    8.7500    8.7811   38.2532   54.0978   38.2532    7.2184    0.8600    2.2050    8.3935    3.2737    8.5554    7.9428    7.5396   80.9395    0.1576    2.5311   -0.0031    6.6838   18.0000 
15671.4580 15671.4580    8.7500    8.7835   34.3951   53.1021   34.3951    6.5278    0.7700    2.5988    8.4777    2.5119    8.5693    7.9602    7.5601   76.1083    0.1655    2.5277   -0.0029    6.1585   18.0000 
15673.0984 15673.0984    8.7500    8.7826   33.9363   52.5741   33.9363    6.0033    0.8300    2.6113    7.2329    2.2990    8.5889    7.9822    7.5815   74.7054    0.1698    2.5264   -0.0075    6.1541   18.0000 
15674.7388 15674.7388    8.7500    8.7826   32.5445   52.2719   32.5445    5.1112    0.9100    2.7706    5.6167    1.8448    8.6183    7.9990    7.5893   75.1097    0.1681    2.5309   -0.0003    5.9875   18.0000 
15676.3793 15676.3793    8.7500    8.7845   34.8350   53.5025   34.8350    4.8995    1.0700    2.6677    4.5790    1.8366    8.6631    8.0201    7.5287   80.9747    0.1752    2.5336    0.0009    8.4797   18.0000 
15678.0197 15678.0197    8.7500    8.8260   44.2363   68.6091   44.2363    6.3419    1.3400    3.5712    4.7328    1.7758    8.6402    7.9992    7.2946   89.2588    0.1731    2.5362    0.0039    6.2062   18.0000 
15679.6601 15679.6601    8.7500    8.8517   49.6161   74.7656   49.6161    6.9503    1.5300    3.7589    4.5427    1.8490    8.6260    8.0140    7.0001   89.6361    0.1767    2.5411   -0.0032   10.7089   18.0000 
15681.3005 15681.3005    8.7500    8.8460   61.8536   85.9454   61.8536    9.2575    1.8100    3.7338    5.1146    2.4794    8.4032    8.1036    6.6130   88.6310    0.1734    2.5574   -0.0023    9.0447   22.0000 
15682.9409 15682.9409    8.7500    8.8701   59.2590   82.8272   59.2590    9.2442    1.6700    3.6530    5.5354    2.5306    8.4246    8.1336    6.8360   81.9395    0.1692    2.5633    0.0063   10.5392   22.0000 
15684.5814 15684.5814    8.7500    8.8045   46.9528   63.9848   46.9528    7.7729    1.2400    2.7370    6.2685    2.8399   10.1114    8.9222    8.1921   81.8202    0.1704    2.5782    0.0040    6.7197   22.0000 
15686.2218 15686.2218    8.7500    8.8532   45.2235   68.2790   45.2235    7.7259    1.1600    3.4438    6.6603    2.2434   12.2075    9.8728    8.9447   81.2953    0.1630    2.5428   -0.0007    8.6916   22.0000 
15687.8622 15687.8622    8.7500    8.8333   48.7833   75.1647   48.7833    8.8457    1.1600    3.9984    7.6256    2.2123   13.4091    8.7637    7.3470   80.4157    0.1718    2.5448    0.0016    7.8742   22.0000 
15689.5026 15689.5026    8.7500    8.8379   43.4018   68.4472   43.4018    7.6862    1.0600    3.7025    7.2511    2.0759   14.4678   10.6735    8.1055   77.0048    0.1732    2.5324    0.0054    8.0367   18.0000 
15691.1430 15691.1430    8.7500    8.8638   36.7441   59.2899   36.7441    6.9176    0.8300    3.1884    8.3345    2.1696   14.5296   12.9039    8.9070   75.6499    0.1726    2.5318    0.0035    6.5641   18.0000 
15692.7835 15692.7835    8.7500    8.7835   40.0021   62.6114   40.0021    7.1861    0.9600    3.2214    7.4855    2.2307   11.9838   11.5589    7.6186   81.1663    0.1776    2.5388   -0.0102    7.5691   18.0000 
15694.4239 15694.4239    8.7500    8.8159   48.1401   69.6959   48.1401    8.8949    1.1200    3.1234    7.9419    2.8478   12.0183   11.3999    7.4518   81.6983    0.1697    2.5409   -0.0023    6.7967   22.0000 
15696.0643 15696.0643    8.7500    8.8178   48.4938   69.4377   48.4938    8.6224    1.1800    3.1436    7.3071    2.7428   12.1293   11.3933    7.3832   80.6569    0.1642    2.5413   -0.0044    7.1988   22.0000 
15697.7047 15697.7047    8.7500    8.8271   51.1078   71.3127   51.1078    8.9907    1.2600    3.1628    7.1355    2.8426   12.1244   11.2713    7.1255   87.9883    0.2129    2.5101   -0.0002    7.9445   22.0000 
15699.3451 15699.3451    8.7500    8.8615   55.9569   78.4629   55.9569    9.4334    1.4500    3.4608    6.5058    2.7258   11.8352   11.0717    6.5547   88.3294    0.2092    2.5421    0.0091    6.9914   22.0000 
15700.9856 15700.9856    8.7500    8.8648   54.0368   72.8784   54.0368    9.2740    1.3700    2.9167    6.7693    3.1796   11.2433   11.2115    6.4096   82.2377    0.1812    2.5566    0.0076    7.3147   22.0000 
15702.6260 15702.6260    8.7500    8.8630   55.1364   74.8254   55.1364    9.7485    1.3500    3.0274    7.2211    3.2201   10.6076   11.8015    7.3188   80.0968    0.1765    2.5385    0.0034    7.5527   22.0000 
15704.2664 15704.2664    8.7500    8.8630   50.3436   70.9656   50.3436    9.0825    1.2100    3.1215    7.5062    2.9097   12.5264   13.9574   10.5089   72.5815    0.1575    2.5461    0.0089    7.4459   18.0000 
15705.9068 15705.9068    8.7500    8.8663   34.5899   51.3501   34.5899    6.4937    0.7800    2.4239    8.3253    2.6790   16.9237   18.4217   17.1662   70.5455    0.1195    2.5528    0.0095    7.6015   18.0000 
15707.5472 15707.5472    8.7500    8.8644   32.3082   49.0958   32.3082    6.2032    0.7100    2.3523    8.7369    2.6371   26.3591   28.5148   30.4132   75.7545    0.1359    2.5494    0.0133    7.2880   18.0000 
15709.1877 15709.1877    8.7500    8.8626   35.7057   60.8986   35.7057    5.9706    0.9400    3.6425    6.3517    1.6391   15.2999   16.8789   19.7747   83.8261    0.1830    2.5530    0.0099    7.2918   22.0000 
15710.8281 15710.8281    8.7500    8.8605   42.4491   70.1330   42.4491    6.9231    1.1400    4.0452    6.0729    1.7114   11.6765   12.1723   13.7556   85.4036    0.1826    2.5355    0.0014    7.3993   18.0000 
15712.4685 15712.4685    8.7500    8.8630   43.2688   70.4889   43.2688    7.0966    1.1600    4.1094    6.1178    1.7269   12.5231   13.2616   13.5660   82.5576    0.1705    2.5370   -0.0049    7.0536   18.0000 
15714.1089 15714.1089    8.7500    8.8634   34.7255   54.3317   34.7255    6.2287    0.8400    2.9506    7.4151    2.1110   13.4915   15.5608   17.3151   76.1128    0.1614    2.5289   -0.0026    7.8244   18.0000 
15715.7493 15715.7493    8.7500    8.8630   33.5198   49.9308   33.5198    6.6794    0.6900    2.5152    9.6803    2.6556   19.1473   32.1159   30.1070   74.3729    0.1582    2.5379    0.0047    8.0592   18.0000 
15717.3898 15717.3898    8.7500    8.8644   29.3578   47.5351   29.3578    5.9380    0.5900    2.6491   10.0644    2.2415   20.2080   28.8507   30.0278   75.8066    0.1668    2.5429    0.0094    7.7292   18.0000 
15719.0302 15719.0302    8.7500    8.8630   35.2695   55.5676   35.2695    6.4427    0.8300    3.0241    7.7623    2.1305   16.9411   19.1553   28.3625   81.5958    0.1836    2.5396    0.0062    7.8773   18.0000 
