~VERSION INFORMATION
 VERS.                 2.0:   CWLS LOG ASCII STANDARD - VERSION 2.0
 WRAP.                  NO:   SINGLE LINE PER DEPTH STEP
 CREA.                 08/02/2018 08:46:11
#CREATED USING DSPetro VERSION 5000.10.1.3 BY H191660 ON 08/02/2018 08:46:11
~WELL INFORMATION
#MNEM.UNIT       DATA                          DESCRIPTION MNEMONIC
#---------      ---------------------------   --------------------------
 STRT    .FT        12354.5289                : START DEPTH
 STOP    .FT        17894.2270                : STOP DEPTH
 STEP    .FT        1.6404                    : STEP VALUE
 NULL    .      -999.0000                     : NULL VALUE
 DATE    .      08/02/2018                    : LAS file Creation Date
 WELL .      UNIVERSITY_19-5             : Well Name
 COMP .      Neftex Exploration Insights : Company
 FLD  .      PHANTOM (WOLFCAMP)          : Field
 UWI  .      208                         : Unique Well Identifier (UWI)
 LOC  .                                  : Location
 RWS  .      -999                        : Def_Rw
 WST  .      -999                        : Def_Rwt
 SRVC .                                  : Contractor
~CURVE INFORMATION
#MNEM              UNIT       API CODE   Curve Type Comments
#----------  --------------- ----------  ---------- -----------
 DEPTH      .FT                        : Depth       
 DEPTH      .FT                        : Depth       
 BS         .inch                      : BitSize     
 CAL_INCH   .inch                      :             Caliper Log - A representation of the measured diameter of a borehole along its depth
 GR_API     .API                       : GammaRay    Gamma Ray (API) - Measures the intensity of natural gamma-ray radiation emitted from formations containing radioactive elements, such as K, Th and U
 SGR_API    .API                       : GammaRay    Spectral Gamma Ray - Total gamma calibrated to API, measured using a spectoral gamma array tool
 CGR_API    .API                       : GammaRay    Corrected / Computed Gamma Ray - Radiation with the Uranium component removed. Also known as a 'carbonate gamma ray'
 TH_PPM     .ppm                       : Spectral    Thorium Abundance (SGR) - The quantitative elemental abundace of Thorium derived from the Spectral Gamma Ray Log
 K_per        .PC                        :             Potassium Abundance (SGR) - The quantitative elemental abundace of Potassium derived from the Spectral Gamma Ray Log. Also wt_%
 U_PPM      .ppm                       :             Uranium Abundance (SGR) - The quantitative elemental abundace of Uranium derived from the Spectral Gamma Ray Log
 ThK        .PPM                       : Spectral    
 ThU        .PPM                       : Spectral    
 SRES       .ohmm                      :             10" array induction, two foot resistivity
 MRES       .ohm.m                     :             30" array induction, two foot resistivity
 DRES       .ohmm                      :             90" array induction, two foot resistivity log - units of ohmm
 DT_US_FT   .us/ft                     :             Interval Transit Time: Compressional Wave - Evaluates the time it takes for a compressional wave to traverse a fixed distance
 NPHI_RATIO .ratio                     :             Neutron Porosity - Measured with an neutron logging device calibrated to a given matrix (limestone, sandstone and dolomite)
 RHOB_G_CC  .g/cc                      :             Bulk Density - Measures the density of bulk material, including any void space or other materials contained in the subject volume
 DRHO_G_CC  .g/cc                      :             Density Correction - Investigates the correction to the Bulk Density log; used as an indication of hole condition to validate the Bulk Density measure
 PEF_B_E    .b/e-                      : PEF         Photoelectric Factor - A log of photoelectric absorption properties. Often expressed in an approximation unit barns/electron (b/e-)
 LITH       .                          : LITH        Lithology Curve
~A  DEPTH   DEPTH       BS     CAL_INCH   GR_API   SGR_API   CGR_API    TH_PPM     K_per      U_PPM      ThK       ThU       SRES      MRES      DRES    DT_US_FT NPHI_RAT~ RHOB_G_C~ DRHO_G_C~  PEF_B_E     LITH   
# ...
14536.2874 14536.2874    8.7500    8.7048   75.9184   94.4028   75.9184   11.4851    2.2000    2.7400    5.2205    4.1916    4.8760    4.3721    4.0927   81.4825    0.2187    2.6212    0.0003    8.3823   37.0000 
14537.9278 14537.9278    8.7500    8.7096   69.1142   90.1332   69.1142   10.9442    1.9200    3.0826    5.7001    3.5503    4.8083    4.6318    4.4601   85.6846    0.2142    2.6071   -0.0053   10.2527   22.0000 
14539.5682 14539.5682    8.7500    8.7096   63.5932   87.2485   63.5932    9.8089    1.8100    3.3825    5.4193    2.8999    4.9322    5.7214    5.4888   89.8281    0.1539    2.6399   -0.0028    9.0942   22.0000 
14541.2087 14541.2087    8.7500    8.7122   80.2968  106.7497   80.2968   12.5625    2.2500    4.0709    5.5833    3.0859    4.5530    4.1371    3.8607   85.9763    0.2401    2.6158    0.0033    8.5622   37.0000 
14542.8491 14542.8491    8.7500    8.7140   81.2336  104.7765   81.2336   12.4641    2.3200    3.5717    5.3725    3.4897    4.5927    3.9573    3.7591   82.3428    0.2255    2.6597    0.0105    9.3067   37.0000 
14544.4895 14544.4895    8.7500    8.7102   63.1896   76.8184   63.1896   10.0224    1.7500    2.1572    5.7271    4.6460    4.7561    4.0420    3.9902   84.9307    0.1891    2.6528   -0.0009    8.5744   22.0000 
14546.1299 14546.1299    8.7500    8.7101   63.2323   74.2283   63.2323   10.0552    1.7500    1.7916    5.7458    5.6124    6.1361    5.0741    4.0923   89.4272    0.2203    2.6592    0.0033   11.3184   37.0000 
14547.7703 14547.7703    8.7500    8.7085   88.4497  103.3369   88.4497   13.5781    2.5200    2.5357    5.3881    5.3548    4.9602    4.0315    3.7979   85.9672    0.2251    2.6297    0.0060    8.5714   37.0000 
14549.4108 14549.4108    8.7500    8.7111   95.2131  105.6537   95.2131   14.4222    2.7500    2.0939    5.2444    6.8877    4.7348    3.8133    3.6225   84.3537    0.2431    2.5964   -0.0049    7.1919   37.0000 
14551.0512 14551.0512    8.7500    8.7111   79.8241   91.0816   79.8241   12.1615    2.2900    1.9900    5.3107    6.1113    5.5135    4.7001    4.1008   83.7802    0.2122    2.6309    0.0054    8.7832   37.0000 
14552.6916 14552.6916    8.7500    8.7078   80.6005   93.1370   80.6005   12.6684    2.2500    2.1346    5.6304    5.9348    5.0917    4.6899    4.2519   80.1655    0.2093    2.6263    0.0076    7.3268   37.0000 
14554.3320 14554.3320    8.7500    8.7052   68.2683   78.5335   68.2683   11.0014    1.8600    1.7740    5.9147    6.2015    5.6577    5.0671    4.6322   82.8495    0.1854    2.6262    0.0065    6.9234   37.0000 
14555.9724 14555.9724    8.7500    8.7034   67.4813   80.8294   67.4813   10.7014    1.8700    1.9175    5.7227    5.5809    7.1692    5.9041    5.5547   83.1847    0.2117    2.6166    0.0035    8.7629   37.0000 
14557.6129 14557.6129    8.7500    8.7081   78.7989   90.8963   78.7989   13.0130    2.0900    1.8665    6.2263    6.9719    5.3735    4.5873    4.4852   79.8270    0.2275    2.6089    0.0077    7.4468   37.0000 
14559.2533 14559.2533    8.7500    8.7051   79.8352   91.1976   79.8352   13.0624    2.1400    1.9192    6.1039    6.8062    6.3559    5.4967    5.4783   83.4160    0.1869    2.6448    0.0047    7.8177   37.0000 
14560.8937 14560.8937    8.7500    8.7093   81.6418   89.0358   81.6418   13.6981    2.1300    1.4815    6.4310    9.2461    6.4412    5.8395    5.3930   83.1876    0.1857    2.6361    0.0104    9.0362   37.0000 
14562.5341 14562.5341    8.7500    8.7081   84.4686   92.0802   84.4686   14.1161    2.2100    1.6722    6.3874    8.4416    5.6697    5.1998    4.9227   85.1705    0.1874    2.6247    0.0057    7.1241   37.0000 
14564.1745 14564.1745    8.7500    8.7114   83.2774   96.1127   83.2774   13.1146    2.3200    2.2398    5.6528    5.8553    5.9248    5.3255    4.8438   81.0946    0.1993    2.6368    0.0013    8.3847   37.0000 
14565.8150 14565.8150    8.7500    8.7096   82.0655   96.9838   82.0655   12.1914    2.4100    2.4266    5.0587    5.0241    5.6669    5.2748    5.0107   81.8531    0.2008    2.6265   -0.0064    9.0886   37.0000 
14567.4554 14567.4554    8.7500    8.7107   75.7684   90.9638   75.7684   11.3931    2.2000    2.3591    5.1787    4.8294    5.8849    5.2850    5.0797   82.2899    0.2149    2.6369   -0.0095    8.4928   37.0000 
14569.0958 14569.0958    8.7500    8.7126   76.6645   93.1315   76.6645   11.7327    2.1900    2.4733    5.3574    4.7437    6.1694    5.2653    4.9639   77.6079    0.2106    2.6082   -0.0030    7.9010   37.0000 
14570.7362 14570.7362    8.7500    8.7117   73.9230   92.1308   73.9230   11.5511    2.0700    2.7685    5.5802    4.1723    6.0179    5.4750    4.6564   84.6840    0.1855    2.6134   -0.0027    7.5034   37.0000 
14572.3766 14572.3766    8.7500    8.7144   73.9280   92.9169   73.9280   11.3218    2.1100    2.8558    5.3658    3.9645    6.4884    6.3727    5.6459   74.4383    0.2086    2.6124    0.0009    6.6808   37.0000 
14574.0171 14574.0171    8.7500    8.7126   67.7988   80.8778   67.7988   10.5343    1.9100    1.9734    5.5153    5.3381    4.6595    4.9221    4.3410   79.6817    0.1790    2.5937    0.0032    8.1187   22.0000 
14575.6575 14575.6575    8.7500    8.7107   58.7321   68.8101   58.7321    8.8436    1.7100    1.4688    5.1717    6.0210    8.4312    7.5027    6.4117   82.9573    0.1627    2.6517    0.0043    8.8137   22.0000 
14577.2979 14577.2979    8.7500    8.7126   77.3714   91.3118   77.3714   11.4878    2.2700    2.0490    5.0607    5.6065    5.9332    5.3201    5.3750   82.9548    0.1979    2.6050   -0.0029    7.5547   37.0000 
14578.9383 14578.9383    8.7500    8.7184   80.3865   93.2473   80.3865   12.1278    2.3300    1.9631    5.2051    6.1779    5.6195    5.1056    5.0507   83.4957    0.1970    2.6185    0.0029    9.6381   37.0000 
14580.5787 14580.5787    8.7500    8.7302   75.5735   88.6948   75.5735   11.2322    2.2200    2.1200    5.0595    5.2982    6.2366    5.6611    5.1458   82.9201    0.2054    2.6276    0.0045    9.5894   37.0000 
14582.2192 14582.2192    8.7500    8.7298   82.9883   96.1286   82.9883   12.4444    2.4200    2.4336    5.1423    5.1136    6.1343    5.5000    5.4278   84.7199    0.2081    2.6268    0.0061    7.5809   37.0000 
14583.8596 14583.8596    8.7500    8.7284   85.5822  101.7662   85.5822   12.6719    2.5200    2.9168    5.0285    4.3445    6.1139    5.6813    5.5882   77.9324    0.2090    2.6338    0.0038    8.1000   37.0000 
14585.5000 14585.5000    8.7500    8.7298   78.1503   93.2022   78.1503   11.8035    2.2600    2.6642    5.2228    4.4304    5.2825    4.8698    5.2104   79.6721    0.1866    2.5877   -0.0065    9.1122   37.0000 
14587.1404 14587.1404    8.7500    8.7552   69.9047   85.6961   69.9047   10.3319    2.0600    2.4747    5.0155    4.1750    7.3280    6.6128    5.5840   81.8661    0.2089    2.6241   -0.0084    8.0695   37.0000 
14588.7808 14588.7808    8.7500    8.7537   75.6421   92.8741   75.6421   11.9773    2.1000    2.6736    5.7035    4.4798    5.8986    5.5062    5.1320   82.0440    0.2066    2.5919   -0.0086    7.4369   37.0000 
14590.4213 14590.4213    8.7500    8.7537   71.9010   89.0650   71.9010   10.7902    2.0900    2.6990    5.1628    3.9979    6.9331    5.9107    5.4494   85.2544    0.2179    2.6290    0.0009    8.8423   37.0000 
14592.0617 14592.0617    8.7500    8.7552   77.5489   95.3131   77.5489   12.3253    2.1400    2.8121    5.7595    4.3830    7.1609    5.7443    5.1563   85.7054    0.2241    2.5876   -0.0035    8.4055   37.0000 
14593.7021 14593.7021    8.7500    8.7552   73.4012   93.8329   73.4012   10.9444    2.1500    3.3209    5.0904    3.2956    5.2602    4.6439    4.5675   84.8449    0.2278    2.6075    0.0030    8.1384   37.0000 
14595.3425 14595.3425    8.7500    8.7537   74.8508   92.7033   74.8508   11.8300    2.0800    2.9490    5.6875    4.0115    5.8844    5.2040    4.6330   84.6223    0.2208    2.6138    0.0053    7.7882   37.0000 
14596.9829 14596.9829    8.7500    8.7523   73.2120   89.4971   73.2120   11.5420    2.0400    2.8225    5.6578    4.0893    5.7896    5.0464    4.7445   80.4144    0.2179    2.6137    0.0066    9.1550   37.0000 
