~VERSION INFORMATION
 VERS.                 2.0:   CWLS LOG ASCII STANDARD - VERSION 2.0
 WRAP.                  NO:   SINGLE LINE PER DEPTH STEP
 CREA.                 08/02/2018 08:46:11
#CREATED USING DSPetro VERSION 5000.10.1.3 BY H191660 ON 08/02/2018 08:46:11
~WELL INFORMATION
#MNEM.UNIT       DATA                          DESCRIPTION MNEMONIC
#---------      ---------------------------   --------------------------
 STRT    .FT        12354.5289                : START DEPTH
 STOP    .FT        17894.2270                : STOP DEPTH
 STEP    .FT        1.6404                    : STEP VALUE
 NULL    .      -999.0000                     : NULL VALUE
 DATE    .      08/02/2018                    : LAS file Creation Date
 WELL .      UNIVERSITY_19-5             : Well Name
 COMP .      Neftex Exploration Insights : Company
 FLD  .      PHANTOM (WOLFCAMP)          : Field
 UWI  .      208                         : Unique Well Identifier (UWI)
 LOC  .                                  : Location
 RWS  .      -999                        : Def_Rw
 WST  .      -999                        : Def_Rwt
 SRVC .                                  : Contractor
~CURVE INFORMATION
#MNEM              UNIT       API CODE   Curve Type Comments
#----------  --------------- ----------  ---------- -----------
 DEPTH      .FT                        : Depth       
 DEPTH      .FT                        : Depth       
 BS         .inch                      : BitSize     
 CAL_INCH   .inch                      :             Caliper Log - A representation of the measured diameter of a borehole along its depth
 GR_API     .API                       : GammaRay    Gamma Ray (API) - Measures the intensity of natural gamma-ray radiation emitted from formations containing radioactive elements, such as K, Th and U
 SGR_API    .API                       : GammaRay    Spectral Gamma Ray - Total gamma calibrated to API, measured using a spectoral gamma array tool
 CGR_API    .API                       : GammaRay    Corrected / Computed Gamma Ray - Radiation with the Uranium component removed. Also known as a 'carbonate gamma ray'
 TH_PPM     .ppm                       : Spectral    Thorium Abundance (SGR) - The quantitative elemental abundace of Thorium derived from the Spectral Gamma Ray Log
 K_per        .PC                        :             Potassium Abundance (SGR) - The quantitative elemental abundace of Potassium derived from the Spectral Gamma Ray Log. Also wt_%
 U_PPM      .ppm                       :             Uranium Abundance (SGR) - The quantitative elemental abundace of Uranium derived from the Spectral Gamma Ray Log
 ThK        .PPM                       : Spectral    
 ThU        .PPM                       : Spectral    
 SRES       .ohmm                      :             10" array induction, two foot resistivity
 MRES       .ohm.m                     :             30" array induction, two foot resistivity
 DRES       .ohmm                      :             90" array induction, two foot resistivity log - units of ohmm
 DT_US_FT   .us/ft                     :             Interval Transit Time: Compressional Wave - Evaluates the time it takes for a compressional wave to traverse a fixed distance
 NPHI_RATIO .ratio                     :             Neutron Porosity - Measured with an neutron logging device calibrated to a given matrix (limestone, sandstone and dolomite)
 RHOB_G_CC  .g/cc                      :             Bulk Density - Measures the density of bulk material, including any void space or other materials contained in the subject volume
 DRHO_G_CC  .g/cc                      :             Density Correction - Investigates the correction to the Bulk Density log; used as an indication of hole condition to validate the Bulk Density measure
 PEF_B_E    .b/e-                      : PEF         Photoelectric Factor - A log of photoelectric absorption properties. Often expressed in an approximation unit barns/electron (b/e-)
 LITH       .                          : LITH        Lithology Curve
~A  DEPTH   DEPTH       BS     CAL_INCH   GR_API   SGR_API   CGR_API    TH_PPM     K_per      U_PPM      ThK       ThU       SRES      MRES      DRES    DT_US_FT NPHI_RAT~ RHOB_G_C~ DRHO_G_C~  PEF_B_E     LITH   
# ...
13788.2559 13788.2559    8.7500    9.0401   88.8554  102.1010   88.8554   14.5860    2.3700    2.2184    6.1544    6.5750    3.6348    3.7545    3.7953   94.2524    0.2310    2.5437   -0.0015    7.0379   37.0000 
13789.8963 13789.8963    8.7500    9.0324   88.0894   98.6829   88.0894   14.5976    2.3300    1.9208    6.2651    7.5998    3.3943    3.5820    3.6323   92.6351    0.2251    2.5149   -0.0013    6.8810   37.0000 
13791.5367 13791.5367    8.7500    9.0139   90.2438  104.4451   90.2438   15.0558    2.3700    2.4959    6.3527    6.0322    3.2281    3.4347    3.4921   93.1331    0.2298    2.5399   -0.0043    6.6835   37.0000 
13793.1772 13793.1772    8.7500    9.0216   81.9186   99.2970   81.9186   13.2132    2.2300    2.8897    5.9252    4.5725    3.5628    3.6912    3.7602   94.2377    0.2257    2.5321   -0.0083    7.1717   37.0000 
13794.8176 13794.8176    8.7500    9.0165   84.9353  104.1751   84.9353   13.7652    2.3000    3.2204    5.9849    4.2744    3.4554    3.6779    3.7695   94.2740    0.2163    2.5136   -0.0128    7.0054   37.0000 
13796.4580 13796.4580    8.7500    9.0109   79.6635   97.3559   79.6635   12.3075    2.2600    3.0202    5.4458    4.0751    3.3638    3.6218    3.6524   95.2013    0.2362    2.5466   -0.0032    6.6272   37.0000 
13798.0984 13798.0984    8.7500    9.0435   82.2545  100.4962   82.2545   12.5735    2.3600    3.1159    5.3278    4.0353    3.4560    3.6221    3.5896   94.3234    0.2521    2.5582   -0.0002    6.1733   37.0000 
13799.7388 13799.7388    8.7500    9.0242   85.7100  109.6296   85.7100   12.4716    2.5600    3.7331    4.8717    3.3408    2.8886    3.1860    3.2219   90.0535    0.2491    2.5584    0.0002    6.2342   37.0000 
13801.3793 13801.3793    8.7500    9.0278   76.6856   97.6405   76.6856   11.4567    2.2400    3.2688    5.1146    3.5049    3.1378    3.6334    3.9512   87.3948    0.2266    2.5712    0.0010    5.9572   37.0000 
13803.0197 13803.0197    8.7500    9.0165   60.2774   81.0992   60.2774    8.9964    1.7600    3.0181    5.1116    2.9808    4.6686    4.8054    5.3345   83.9180    0.2194    2.6031    0.0012    6.9110   37.0000 
13804.6601 13804.6601    8.7500    9.0231   59.0100   80.0491   59.0100    8.6330    1.7600    3.0788    4.9051    2.8040    5.9132    5.4340    5.7332   83.8210    0.1976    2.6405   -0.0025    6.9692   22.0000 
13806.3005 13806.3005    8.7500    8.9724   59.7088   77.9789   59.7088    9.1964    1.7000    2.7454    5.4096    3.3497    6.1276    5.1344    5.2760   86.0120    0.1422    2.6857    0.0012   11.2683   22.0000 
13807.9409 13807.9409    8.7500    8.9628   76.8869   90.3354   76.8869   12.3795    2.1000    2.2902    5.8950    5.4054    4.6172    5.2070    5.4001   87.5308    0.2024    2.6608    0.0124    8.4475   22.0000 
13809.5814 13809.5814    8.7500    9.0677   76.8624   83.4744   76.8624   13.2411    1.9500    1.5317    6.7903    8.6447    4.6392    4.9094    4.3274   90.0446    0.2317    2.5756    0.0026    6.7148   37.0000 
13811.2218 13811.2218    8.7500    9.0702   76.0502   83.9968   76.0502   12.9152    1.9600    1.7061    6.5894    7.5700    4.0720    4.0964    4.5014   90.8874    0.2039    2.5798    0.0051    6.5800   37.0000 
13812.8622 13812.8622    8.7500    9.0687   85.6736   93.0169   85.6736   14.5593    2.2000    1.6604    6.6179    8.7685    3.5454    3.6442    4.0758   88.9648    0.2384    2.5631   -0.0010    6.6788   37.0000 
13814.5026 13814.5026    8.7500    9.0702   96.2247  108.1006   96.2247   15.6866    2.5900    2.2985    6.0566    6.8247    3.1249    3.4660    3.4077   88.6598    0.2405    2.5495   -0.0078    6.3514   37.0000 
13816.1430 13816.1430    8.7500    9.1342   91.1031  100.6139   91.1031   14.9201    2.4400    1.8665    6.1148    7.9936    3.3129    3.4797    3.4704   87.9326    0.2306    2.5584   -0.0006    7.1377   37.0000 
13817.7835 13817.7835    8.7500    9.1214   84.2248   95.9569   84.2248   13.9255    2.2300    1.9563    6.2446    7.1183    4.0025    3.9806    3.7086   91.6502    0.2195    2.5750    0.0023    8.9066   37.0000 
13819.4239 13819.4239    8.7500    9.0549   78.4740   93.3113   78.4740   13.2276    2.0400    2.4248    6.4841    5.4551    3.4132    3.5624    3.4897   89.6145    0.2217    2.5544   -0.0040    8.4329   37.0000 
13821.0643 13821.0643    8.7500    8.9416   54.7952   68.1790   54.7952    9.1076    1.4400    2.0488    6.3247    4.4453    3.1470    3.5934    3.9354   90.9088    0.2240    2.5661   -0.0012    6.6082   37.0000 
13822.7047 13822.7047    8.7500    8.9387   40.1056   53.1290   40.1056    6.4297    1.1000    2.1515    5.8452    2.9885    3.2983    3.7563    4.5933   90.5548    0.2224    2.5591    0.0003    6.8948   22.0000 
13824.3451 13824.3451    8.7500    8.9403   37.4996   52.1982   37.4996    5.8091    1.0600    2.3884    5.4803    2.4322    6.1287    4.4817    4.4473   86.9151    0.2195    2.5695    0.0041    7.0493   22.0000 
13825.9856 13825.9856    8.7500    8.9383   36.6641   49.9664   36.6641    5.6696    1.0400    2.1270    5.4515    2.6655   12.2981    5.0254    6.5670   81.8847    0.2147    2.5881    0.0030    6.2063   22.0000 
13827.6260 13827.6260    8.7500    8.9229   36.2337   50.1072   36.2337    5.4560    1.0500    2.0600    5.1962    2.6485   11.7931    6.5521    5.7374   84.7172    0.1832    2.6382    0.0018    7.8626   22.0000 
13829.2664 13829.2664    8.7500    8.8140   32.4468   45.7443   32.4468    5.0317    0.9200    1.9108    5.4692    2.6333   10.7621    6.8591    6.9923   85.5215    0.0986    2.6852    0.0085   10.8672   22.0000 
13830.9068 13830.9068    8.7500    8.7834   44.2859   60.6497   44.2859    6.8209    1.2600    2.4474    5.4134    2.7870    6.4023    5.6554    7.8823   82.8928    0.2122    2.6612    0.0127    9.8937   37.0000 
13832.5472 13832.5472    8.7500    8.8605   69.3125   90.8397   69.3125   10.9203    1.9300    3.2265    5.6582    3.3846    7.8834    6.2633    5.7337   88.7729    0.2140    2.5607    0.0083    7.5549   37.0000 
13834.1877 13834.1877    8.7500    8.8083   49.6172   61.0356   49.6172    8.0666    1.3400    1.9301    6.0199    4.1794    7.3060    4.5761    4.1030   94.1488    0.1723    2.6644    0.0131    8.9948   22.0000 
13835.8281 13835.8281    8.7500    8.8543   77.7237   94.6344   77.7237   12.3535    2.1500    2.8817    5.7458    4.2869    4.5646    4.2964    3.8908   94.0168    0.2458    2.5929    0.0051    7.2666   37.0000 
13837.4685 13837.4685    8.7500    8.8866   78.2352   94.4328   78.2352   12.5490    2.1400    2.9626    5.8640    4.2358    3.5023    3.6940    3.6680   93.4378    0.2397    2.5669    0.0061    6.4184   37.0000 
13839.1089 13839.1089    8.7500    8.8861   80.6308   99.8165   80.6308   12.5445    2.2700    3.2410    5.5262    3.8706    3.6683    3.6286    3.5637   92.8180    0.2324    2.5775    0.0043    7.0393   37.0000 
13840.7493 13840.7493    8.7500    8.8846   74.7697   98.0386   74.7697   11.3675    2.1500    3.6319    5.2872    3.1299    3.9498    3.6485    3.7272   94.2680    0.2283    2.5573   -0.0025    7.4480   37.0000 
13842.3898 13842.3898    8.7500    8.8850   70.2183   91.8877   70.2183   10.2803    2.0900    3.3135    4.9188    3.1026    4.1332    3.8307    3.9586   95.7016    0.2243    2.5800    0.0008    7.1397   37.0000 
13844.0302 13844.0302    8.7500    8.8866   69.9523   94.0502   69.9523   10.2309    2.0800    3.6913    4.9187    2.7716    3.5876    3.6147    3.6776   92.8869    0.2326    2.5710    0.0023    7.2243   37.0000 
13845.6706 13845.6706    8.7500    8.8949   75.0547   97.8857   75.0547   11.0178    2.2300    3.5169    4.9407    3.1328    3.4441    3.5456    3.6285   90.6555    0.2347    2.5711    0.0044    6.4835   37.0000 
13847.3110 13847.3110    8.7500    8.8890   76.5379   94.4808   76.5379   11.3690    2.2500    2.7796    5.0529    4.0902    3.5163    3.7860    3.9514   88.1576    0.2271    2.5566   -0.0032    6.5581   37.0000 
13848.9514 13848.9514    8.7500    8.9234   73.9618   90.6854   73.9618   11.7279    2.0500    2.6936    5.7209    4.3540    3.6839    3.7012    4.0144   92.4561    0.2107    2.5792   -0.0044    6.3263   37.0000 
