~VERSION INFORMATION
 VERS.                 2.0:   CWLS LOG ASCII STANDARD - VERSION 2.0
 WRAP.                  NO:   SINGLE LINE PER DEPTH STEP
 CREA.                 08/02/2018 08:46:35
#CREATED USING DSPetro VERSION 5000.10.1.3 BY H191660 ON 08/02/2018 08:46:35
~WELL INFORMATION
#MNEM.UNIT       DATA                          DESCRIPTION MNEMONIC
#---------      ---------------------------   --------------------------
 STRT    .FT        12311.0000                : START DEPTH
 STOP    .FT        17628.0000                : STOP DEPTH
 STEP    .FT        0.5000                    : STEP VALUE
 NULL    .      -999.0000                     : NULL VALUE
 DATE    .      08/02/2018                    : LAS file Creation Date
 WELL  .      UNIVERSITY_20_5                  : Well Name
 COMP  .      Neftex Exploration Insights      : Company
 FLD   .      HALEY (LWR. WOLFCAMP-PENN CONS.) : Field
 STATE .      TEXAS                            : State
 COUNT .      LOVING                           : Country
 API   .      42-301-31423                     : API Number
 UWI   .      212                              : Unique Well Identifier (UWI)
 LOC   .      1320' FNL & 1320' FWL            : Location
 PDAT  .      G.L.                             : Permanent Datum
 EPDAT .      2805                             : Reference Elevation
 LGMEA .      K.B.                             : Log Measured from
 DRMEA .      KELLY BUSHING                    : Drill Measured From
 APDAT .      30                               : Elevation Above Permanent Datum
 KB    .      2835                             : KB Elevation
 DF    .      2834                             : DF Elevation
 GL    .      2805                             : GL Elevation
 RWS   .      -999                             : Def_Rw
 WST   .      -999                             : Def_Rwt
 CNTY  .      LOVING                           : County
 SRVC  .      Baker Atlas                      : Contractor
~CURVE INFORMATION
#MNEM              UNIT       API CODE   Curve Type Comments
#----------  --------------- ----------  ---------- -----------
 DEPTH      .FT                        : Depth       
 DEPTH      .FT                        : Depth       
 BS         .inch                      : BitSize     
 CAL        .inch                      :             
 GR         .API                       : GammaRay    
 K          .%                         : Spectral    Potassium
 TH         .PPM                       : Spectral    Thorium
 U          .PPM                       : Spectral    Uranium
 Th/k       .PPM                       : Spectral    
 Th/U       .PPM                       : Spectral    
 RESD       .ohmm                      :             
 RESM       .ohmm                      :             
 RESS       .ohmm                      :             
 DT         .us/ft                     :             
 DRHO       .G/C3                      : Drho        
 NPHI       .dec                       : Neutron     
 RHOB       .G/C3                      : Density     
 PEF        .b/e-                      : PEF         
 LITH       .                          : LITH        Lithology Curve
~A  DEPTH   DEPTH       BS       CAL        GR        K         TH        U        Th/k      Th/U      RESD      RESM      RESS       DT       DRHO      NPHI      RHOB      PEF       LITH   
# ...
16196.0000 16196.0000    6.5000    6.7640   66.4410    1.4200    6.6050    5.0170    4.6514    1.3165    8.5520    8.7490    9.7140   77.7250    0.0020    0.1470    2.5830    3.5080   37.0000 
16196.5000 16196.5000    6.5000    6.7800   67.9270    1.3870    6.3250    5.1680    4.5602    1.2239    9.8450   10.1010   11.1980   76.0560    0.0010    0.1423    2.5920    3.6260   37.0000 
16197.0000 16197.0000    6.5000    6.7940   67.3352    1.3440    5.9040    5.3070    4.3929    1.1125   11.3700   11.7340   13.2110   73.4540    0.0000    0.1365    2.6060    3.7810   37.0000 
16197.5000 16197.5000    6.5000    6.7940   66.2284    1.3170    5.4960    5.4190    4.1731    1.0142   12.7810   13.2850   15.4280   70.6800   -0.0020    0.1274    2.6220    3.7320   37.0000 
16198.0000 16198.0000    6.5000    6.7800   66.0849    1.2980    5.2100    5.4990    4.0139    0.9474   13.9490   14.6280   17.6880   68.8670   -0.0020    0.1174    2.6390    3.6590   37.0000 
16198.5000 16198.5000    6.5000    6.7620   65.9167    1.2690    5.0570    5.5210    3.9850    0.9160   13.9230   14.6810   18.1140   69.0640   -0.0010    0.1139    2.6500    3.8090   37.0000 
16199.0000 16199.0000    6.5000    6.7490   65.0881    1.2530    5.2680    5.3330    4.2043    0.9878   12.0980   12.7150   15.3050   71.4100   -0.0020    0.1203    2.6400    4.0530   37.0000 
16199.5000 16199.5000    6.5000    6.7400   65.4448    1.3180    6.1850    4.8170    4.6927    1.2840    9.6850   10.1010   11.6950   74.8380   -0.0040    0.1330    2.6130    4.1910   37.0000 
16200.0000 16200.0000    6.5000    6.7370   68.5545    1.4320    7.1780    4.3630    5.0126    1.6452    8.0840    8.3760    9.4260   77.8340   -0.0040    0.1485    2.5840    4.2330   37.0000 
16200.5000 16200.5000    6.5000    6.7380   72.2740    1.5530    7.7350    4.1460    4.9807    1.8657    7.5100    7.7520    8.5580   79.3350   -0.0040    0.1630    2.5640    4.1680   37.0000 
16201.0000 16201.0000    6.5000    6.7380   74.4219    1.7180    8.3660    3.9210    4.8696    2.1336    7.4410    7.6500    8.2760   79.0760   -0.0030    0.1648    2.5560    4.0420   37.0000 
16201.5000 16201.5000    6.5000    6.7420   73.4843    1.8610    8.9170    3.7880    4.7915    2.3540    7.4630    7.6270    8.0330   77.5330   -0.0030    0.1560    2.5570    3.9680   22.0000 
16202.0000 16202.0000    6.5000    6.7520   67.8773    1.9010    8.5500    3.9850    4.4976    2.1455    8.1620    8.2930    8.5140   75.3560   -0.0030    0.1497    2.5630    3.8340   22.0000 
16202.5000 16202.5000    6.5000    6.7580   60.0036    1.8420    7.4010    4.3600    4.0179    1.6975   10.6250   10.7330   10.6850   73.1460   -0.0030    0.1453    2.5700    3.5330   22.0000 
16203.0000 16203.0000    6.5000    6.7550   55.2142    1.7580    6.6320    4.4360    3.7725    1.4950   14.9600   15.0010   14.3580   71.6920   -0.0030    0.1366    2.5740    3.3300   22.0000 
16203.5000 16203.5000    6.5000    6.7500   54.8692    1.7250    6.4220    4.3290    3.7229    1.4835   18.0340   17.9550   16.3540   71.6600   -0.0030    0.1274    2.5720    3.4140   22.0000 
16204.0000 16204.0000    6.5000    6.7470   56.8157    1.7020    6.5430    4.3510    3.8443    1.5038   18.2480   18.1090   15.7520   72.9380   -0.0040    0.1238    2.5660    3.5870   22.0000 
16204.5000 16204.5000    6.5000    6.7460   60.4530    1.6150    6.9750    4.7340    4.3189    1.4734   16.9560   16.8600   14.3170   74.5590   -0.0040    0.1267    2.5530    3.6250   22.0000 
16205.0000 16205.0000    6.5000    6.7440   66.1056    1.5470    7.3460    5.2960    4.7485    1.3871   14.9510   14.9770   12.7810   75.3220   -0.0040    0.1334    2.5360    3.5870   22.0000 
16205.5000 16205.5000    6.5000    6.7450   72.7412    1.5320    7.4460    5.3070    4.8603    1.4031   13.5420   13.7090   12.0730   74.7530   -0.0020    0.1376    2.5300    3.5820   22.0000 
16206.0000 16206.0000    6.5000    6.7480   76.4380    1.4880    7.2380    4.2970    4.8642    1.6844   13.0670   13.3680   12.3640   73.6640    0.0020    0.1350    2.5440    3.6260   22.0000 
16206.5000 16206.5000    6.5000    6.7560   73.9310    1.4710    7.2690    3.2190    4.9415    2.2582   11.8220   12.1870   11.8980   73.4270    0.0060    0.1318    2.5700    3.6530   22.0000 
16207.0000 16207.0000    6.5000    6.7640   68.5360    1.5030    7.6700    2.8150    5.1031    2.7247    9.4810    9.8190   10.0110   74.6240    0.0040    0.1359    2.5820    3.6380   22.0000 
16207.5000 16207.5000    6.5000    6.7620   66.1941    1.5420    7.9860    2.4820    5.1790    3.2176    7.7930    8.0620    8.4690   76.5540   -0.0020    0.1442    2.5710    3.6250   22.0000 
16208.0000 16208.0000    6.5000    6.7540   67.2605    1.5680    8.2970    2.2250    5.2915    3.7290    7.1210    7.3670    7.8880   77.9210   -0.0080    0.1482    2.5570    3.5950   22.0000 
16208.5000 16208.5000    6.5000    6.7510   68.2590    1.5710    8.5540    2.1960    5.4449    3.8953    7.1550    7.4130    8.0780   77.6050   -0.0100    0.1459    2.5580    3.5850   22.0000 
16209.0000 16209.0000    6.5000    6.7530   67.3287    1.5260    8.4970    2.3350    5.5682    3.6390    7.8230    8.1300    9.0560   75.2820   -0.0090    0.1354    2.5730    3.7100   22.0000 
16209.5000 16209.5000    6.5000    6.7530   63.8420    1.2650    7.6850    2.8840    6.0751    2.6647    9.3520    9.7840   11.2570   71.6180   -0.0090    0.1169    2.5950    3.9840   22.0000 
16210.0000 16210.0000    6.5000    6.7470   57.8321    0.9640    6.3040    3.7330    6.5394    1.6887   12.1030   12.8130   15.4480   67.9810   -0.0080    0.0997    2.6300    4.3000   22.0000 
16210.5000 16210.5000    6.5000    6.7410   50.8575    0.8530    4.9960    4.4540    5.8570    1.1217   14.8750   15.9620   19.9670   66.0600   -0.0060    0.0897    2.6750    4.6460   22.0000 
16211.0000 16211.0000    6.5000    6.7480   45.4923    0.8480    4.5590    4.6830    5.3762    0.9735   14.2750   15.3070   18.1870   66.8670   -0.0060    0.0883    2.6990    4.8680   22.0000 
16211.5000 16211.5000    6.5000    6.7580   44.5432    1.0920    5.3770    4.0650    4.9240    1.3228   10.8670   11.4840   12.6290   69.8490   -0.0130    0.0965    2.6740    4.6470   22.0000 
16212.0000 16212.0000    6.5000    6.7580   49.2538    1.4860    6.3350    3.1190    4.2631    2.0311    8.8750    9.3220    9.8550   72.9980   -0.0170    0.1142    2.6290    4.0820   22.0000 
16212.5000 16212.5000    6.5000    6.7600   56.4956    1.6740    6.6900    2.6450    3.9964    2.5293    9.0030    9.5060    9.9330   74.0840   -0.0140    0.1275    2.5980    3.5350   22.0000 
16213.0000 16213.0000    6.5000    6.7690   60.4760    1.6370    6.7930    2.4070    4.1497    2.8222   11.2900   12.1500   12.8210   72.2070   -0.0080    0.1186    2.5850    3.1990   22.0000 
16213.5000 16213.5000    6.5000    6.7710   58.7608    1.5690    7.0340    2.1920    4.4831    3.2089   16.0920   18.0750   19.8700   68.3210   -0.0030    0.0994    2.5870    3.1060   18.0000 
16214.0000 16214.0000    6.5000    6.7640   53.7034    1.4970    7.6330    2.3880    5.0989    3.1964   21.3720   25.4630   31.2020   64.6880    0.0020    0.0845    2.6030    3.2680   18.0000 
16214.5000 16214.5000    6.5000    6.7520   48.5634    1.3960    8.2180    2.7620    5.8868    2.9754   21.7780   26.5130   35.6110   63.4600    0.0060    0.0786    2.6230    3.5780   18.0000 
16215.0000 16215.0000    6.5000    6.7450   45.7730    1.4100    8.3040    3.0860    5.8894    2.6909   16.5470   19.3260   23.9960   65.4210    0.0060    0.0840    2.6250    3.8030   18.0000 
16215.5000 16215.5000    6.5000    6.7500   48.6435    1.6680    8.0670    4.4930    4.8363    1.7955   10.6330   11.7950   13.3570   69.7820    0.0000    0.1029    2.5990    3.9330   18.0000 
16216.0000 16216.0000    6.5000    6.7570   59.1980    1.9310    8.0060    6.5240    4.1460    1.2272    7.2820    7.8510    8.5630   74.9550   -0.0050    0.1334    2.5650    4.0570   22.0000 
16216.5000 16216.5000    6.5000    6.7490   73.6686    2.0340    8.2210    7.2850    4.0418    1.1285    5.8030    6.1800    6.6410   79.7030   -0.0070    0.1619    2.5420    4.1170   37.0000 
