~VERSION INFORMATION
 VERS.                 2.0:   CWLS LOG ASCII STANDARD - VERSION 2.0
 WRAP.                  NO:   SINGLE LINE PER DEPTH STEP
 CREA.                 08/02/2018 08:46:11
#CREATED USING DSPetro VERSION 5000.10.1.3 BY H191660 ON 08/02/2018 08:46:11
~WELL INFORMATION
#MNEM.UNIT       DATA                          DESCRIPTION MNEMONIC
#---------      ---------------------------   --------------------------
 STRT    .FT        12354.5289                : START DEPTH
 STOP    .FT        17894.2270                : STOP DEPTH
 STEP    .FT        1.6404                    : STEP VALUE
 NULL    .      -999.0000                     : NULL VALUE
 DATE    .      08/02/2018                    : LAS file Creation Date
 WELL .      UNIVERSITY_19-5             : Well Name
 COMP .      Neftex Exploration Insights : Company
 FLD  .      PHANTOM (WOLFCAMP)          : Field
 UWI  .      208                         : Unique Well Identifier (UWI)
 LOC  .                                  : Location
 RWS  .      -999                        : Def_Rw
 WST  .      -999                        : Def_Rwt
 SRVC .                                  : Contractor
~CURVE INFORMATION
#MNEM              UNIT       API CODE   Curve Type Comments
#----------  --------------- ----------  ---------- -----------
 DEPTH      .FT                        : Depth       
 DEPTH      .FT                        : Depth       
 BS         .inch                      : BitSize     
 CAL_INCH   .inch                      :             Caliper Log - A representation of the measured diameter of a borehole along its depth
 GR_API     .API                       : GammaRay    Gamma Ray (API) - Measures the intensity of natural gamma-ray radiation emitted from formations containing radioactive elements, such as K, Th and U
 SGR_API    .API                       : GammaRay    Spectral Gamma Ray - Total gamma calibrated to API, measured using a spectoral gamma array tool
 CGR_API    .API                       : GammaRay    Corrected / Computed Gamma Ray - Radiation with the Uranium component removed. Also known as a 'carbonate gamma ray'
 TH_PPM     .ppm                       : Spectral    Thorium Abundance (SGR) - The quantitative elemental abundace of Thorium derived from the Spectral Gamma Ray Log
 K_per        .PC                        :             Potassium Abundance (SGR) - The quantitative elemental abundace of Potassium derived from the Spectral Gamma Ray Log. Also wt_%
 U_PPM      .ppm                       :             Uranium Abundance (SGR) - The quantitative elemental abundace of Uranium derived from the Spectral Gamma Ray Log
 ThK        .PPM                       : Spectral    
 ThU        .PPM                       : Spectral    
 SRES       .ohmm                      :             10" array induction, two foot resistivity
 MRES       .ohm.m                     :             30" array induction, two foot resistivity
 DRES       .ohmm                      :             90" array induction, two foot resistivity log - units of ohmm
 DT_US_FT   .us/ft                     :             Interval Transit Time: Compressional Wave - Evaluates the time it takes for a compressional wave to traverse a fixed distance
 NPHI_RATIO .ratio                     :             Neutron Porosity - Measured with an neutron logging device calibrated to a given matrix (limestone, sandstone and dolomite)
 RHOB_G_CC  .g/cc                      :             Bulk Density - Measures the density of bulk material, including any void space or other materials contained in the subject volume
 DRHO_G_CC  .g/cc                      :             Density Correction - Investigates the correction to the Bulk Density log; used as an indication of hole condition to validate the Bulk Density measure
 PEF_B_E    .b/e-                      : PEF         Photoelectric Factor - A log of photoelectric absorption properties. Often expressed in an approximation unit barns/electron (b/e-)
 LITH       .                          : LITH        Lithology Curve
~A  DEPTH   DEPTH       BS     CAL_INCH   GR_API   SGR_API   CGR_API    TH_PPM     K_per      U_PPM      ThK       ThU       SRES      MRES      DRES    DT_US_FT NPHI_RAT~ RHOB_G_C~ DRHO_G_C~  PEF_B_E     LITH   
# ...
15284.3189 15284.3189    8.7500    8.9651   73.1000   94.6440   73.1000   11.1091    2.1000    3.5179    5.2900    3.1579    6.7535    5.2517    5.5560 -999.0000    0.2209    2.6134    0.0022    7.8791   37.0000 
15285.9593 15285.9593    8.7500    8.9666   63.8917   84.7698   63.8917   10.0986    1.7700    3.3693    5.7054    2.9972    7.4633    6.3957    6.2674 -999.0000    0.1775    2.6390    0.0059    8.3027   37.0000 
15287.5997 15287.5997    8.7500    8.9759   70.1835   88.6398   70.1835   11.2826    1.9200    2.9339    5.8764    3.8456    8.0647    7.7035    7.9338 -999.0000    0.1785    2.6490    0.0027    8.7635   37.0000 
15289.2402 15289.2402    8.7500    9.0420   73.3471   92.2080   73.3471   11.5128    2.0500    2.9127    5.6160    3.9526    6.1837    5.4517    5.3819 -999.0000    0.2271    2.6263    0.0033    7.9518   37.0000 
15290.8806 15290.8806    8.7500    9.0473   75.9818   90.1154   75.9818   11.8844    2.1300    2.2477    5.5795    5.2874    6.2284    5.3570    5.2625 -999.0000    0.2203    2.6004    0.0029    7.8155   37.0000 
15292.5210 15292.5210    8.7500    9.0697   78.8664   95.4517   78.8664   11.9234    2.2800    2.5536    5.2296    4.6693    5.3861    4.8745    5.0632 -999.0000    0.2151    2.5903    0.0025    8.4264   37.0000 
15294.1614 15294.1614    8.7500    9.0711   77.4757   94.9673   77.4757   11.6300    2.2600    2.5875    5.1460    4.4947    5.6019    5.3940    5.7583 -999.0000    0.2113    2.6023    0.0002    8.7845   37.0000 
15295.8018 15295.8018    8.7500    9.0047   71.0403   91.6112   71.0403   10.2284    2.1400    2.9742    4.7796    3.4390    6.0468    5.5056    5.7988 -999.0000    0.2026    2.6065    0.0056    8.7739   37.0000 
15297.4423 15297.4423    8.7500    8.9170   76.7651   99.0516   76.7651   11.0694    2.3100    3.2992    4.7919    3.3552    6.7061    5.6523    5.9040 -999.0000    0.1958    2.6565    0.0055    9.3445   37.0000 
15299.0827 15299.0827    8.7500    8.8875   60.7079   76.2113   60.7079    8.9208    1.8000    2.4813    4.9560    3.5952    6.8571    6.1197    7.2054 -999.0000    0.2029    2.6218    0.0022    8.5041   37.0000 
15300.7231 15300.7231    8.7500    8.8620   70.5063   90.2646   70.5063   10.6571    2.0400    3.2419    5.2241    3.2873    5.8856    5.3698    5.4748 -999.0000    0.2182    2.6079    0.0055    7.7594   37.0000 
15302.3635 15302.3635    8.7500    8.8656   75.8912   92.6152   75.8912   11.3391    2.2200    2.6229    5.1077    4.3231    5.7639    4.9911    4.7371 -999.0000    0.2116    2.6132    0.0040    8.3078   37.0000 
15304.0039 15304.0039    8.7500    8.8656   68.7389   84.5145   68.7389   10.3038    2.0000    2.4918    5.1519    4.1351    5.7907    5.1316    5.0056 -999.0000    0.2156    2.6139    0.0038    8.0228   37.0000 
15305.6444 15305.6444    8.7500    8.8620   71.4575   83.3994   71.4575   10.5304    2.1100    2.0657    4.9907    5.0977    5.4263    5.2795    5.9395 -999.0000    0.1355    2.6184    0.0025    7.5507   37.0000 
15307.2848 15307.2848    8.7500    8.8288   67.3350   84.3409   67.3350    9.6482    2.0400    2.6879    4.7295    3.5895    6.4635    5.8945    6.1085 -999.0000    0.1631    2.6750   -0.0017   10.4731   37.0000 
15308.9252 15308.9252    8.7500    8.8296   72.8861   93.6018   72.8861   10.9524    2.1200    3.3561    5.1662    3.2634    6.9682    5.1635    4.4318 -999.0000    0.2266    2.6392    0.0006    9.3166   37.0000 
15310.5656 15310.5656    8.7500    8.8331   66.7402   85.5670   66.7402   10.2669    1.9000    3.0100    5.4036    3.4109    7.2605    5.6481    5.4517 -999.0000    0.2374    2.5826    0.0084    8.3326   37.0000 
15312.2060 15312.2060    8.7500    8.8472   64.9449   82.1456   64.9449   10.0567    1.8400    2.7594    5.4656    3.6445    6.5146    5.8203    6.6353 -999.0000    0.1587    2.6446    0.0083    8.8321   37.0000 
15313.8465 15313.8465    8.7500    8.8824   66.3761   83.5182   66.3761   10.4623    1.8500    2.8033    5.6553    3.7321    6.3452    5.7874    5.8423 -999.0000    0.1887    2.6230   -0.0001   10.8162   37.0000 
15315.4869 15315.4869    8.7500    8.8839   66.8067   81.8546   66.8067   10.5341    1.8600    2.4860    5.6635    4.2374    6.1154    5.6699    5.7813 -999.0000    0.1898    2.6220   -0.0030   10.7683   37.0000 
15317.1273 15317.1273    8.7500    8.8861   70.6266   86.9365   70.6266   11.2022    1.9500    2.6811    5.7447    4.1782    5.9123    5.4475    5.2453   50.6186    0.2079    2.6297    0.0001    9.0287   37.0000 
15318.7677 15318.7677    8.7500    8.8649   68.3040   86.8290   68.3040   11.2320    1.8200    2.9815    6.1714    3.7672    5.7809    5.1612    4.9285   51.6129    0.1857    2.6153   -0.0010    9.5107   37.0000 
15320.4081 15320.4081    8.7500    8.8711   69.1175   91.9921   69.1175   10.8274    1.9300    3.6347    5.6101    2.9789    5.5048    5.0004    4.9336   46.9282    0.1967    2.6266   -0.0047   10.0508   37.0000 
15322.0486 15322.0486    8.7500    8.8697   63.5066   86.8116   63.5066    9.9658    1.7700    3.6583    5.6304    2.7242    5.3067    5.6793    5.7378   45.6799    0.1873    2.6218   -0.0027   10.3187   37.0000 
15323.6890 15323.6890    8.7500    8.8133   53.2741   82.4292   53.2741    7.6721    1.6100    4.3694    4.7653    1.7559    8.7538    8.7145    7.4220 -999.0000    0.1726    2.6351    0.0028   15.2215   37.0000 
15325.3294 15325.3294    8.7500    8.8726   43.5619   76.6900   43.5619    6.3687    1.3000    4.8363    4.8990    1.3169    9.7855   10.5972   12.7562 -999.0000    0.2527    2.5716   -0.0033   10.5837   22.0000 
15326.9698 15326.9698    8.7500    8.7914   62.1336  121.1631   62.1336    9.8811    1.7100    8.4469    5.7784    1.1698    8.7263   11.1869   13.4486   56.3931    0.2364    2.4461   -0.0118    8.4297   22.0000 
15328.6102 15328.6102    8.7500    8.7879   63.0152  120.8295   63.0152   10.3431    1.6800    8.4124    6.1566    1.2295    7.3174   10.0858   14.3792   58.4459    0.1406    2.4597   -0.0108    8.4881   37.0000 
15330.2507 15330.2507    8.7500    8.8098   56.7779  104.1815   56.7779    9.7512    1.4400    6.9263    6.7717    1.4079   12.8822   13.6644   10.4498   56.1233    0.0918    2.4586   -0.0250    8.2100   27.0000 
15331.8911 15331.8911    8.7500    8.8062   50.9382   92.2917   50.9382    8.1641    1.3900    5.9084    5.8735    1.3818   20.1976   20.2683   15.8937   60.4909    0.0858    2.4441   -0.0418    8.6693   27.0000 
15333.5315 15333.5315    8.7500    8.6756   21.4491   39.4898   21.4491    3.3545    0.6000    2.4865    5.5908    1.3491   23.0792   31.3010   20.8566   58.4097    0.0881    2.5529   -0.0191   13.2340   18.0000 
15335.1719 15335.1719    8.7500    8.7053   10.2981   18.3507   10.2981    1.7329    0.2700    1.0325    6.4181    1.6784   57.8590   54.5559   40.9569   62.8609    0.1029    2.6567    0.0080    9.6211   18.0000 
15336.8123 15336.8123    8.7500    8.6100   11.4892   20.7004   11.4892    2.2289    0.2500    1.2916    8.9156    1.7257  248.7468  173.1411  118.3978   60.8848    0.1751    2.6039   -0.0359   24.8314   18.0000 
15338.4528 15338.4528    8.7500    8.6282   10.8904   22.3047   10.8904    2.1662    0.2300    1.5628    9.4183    1.3861  339.8811  267.6384  114.4565   62.6017    0.2307    2.4524   -0.0732   29.9560   18.0000 
15340.0932 15340.0932    8.7500    8.6926   12.2327   22.6773   12.2327    2.4546    0.2500    1.5313    9.8184    1.6030  156.0941  282.6496  140.0525   55.7434    0.1879    2.4378   -0.0565   24.5723   18.0000 
15341.7336 15341.7336    8.7500    8.7491    9.4504   17.4548    9.4504    1.8575    0.2000    1.1882    9.2875    1.5633  135.0731   66.0183   40.5463   54.9494    0.0641    2.5403   -0.0117   11.4044   18.0000 
15343.3740 15343.3740    8.7500    8.7371   11.3508   22.7578   11.3508    2.1069    0.2600    1.6167    8.1035    1.3032   52.8510   30.7979   28.7258   59.1763    0.0565    2.6185    0.0004    8.7295   18.0000 
15345.0144 15345.0144    8.7500    8.7589   21.0994   44.5210   21.0994    3.7288    0.5200    3.2823    7.1708    1.1360   33.1149   25.4600   19.5618   60.2268    0.1040    2.6474   -0.0033    9.8783   18.0000 
