~VERSION INFORMATION
 VERS.                 2.0:   CWLS LOG ASCII STANDARD - VERSION 2.0
 WRAP.                  NO:   SINGLE LINE PER DEPTH STEP
 CREA.                 08/02/2018 08:46:11
#CREATED USING DSPetro VERSION 5000.10.1.3 BY H191660 ON 08/02/2018 08:46:11
~WELL INFORMATION
#MNEM.UNIT       DATA                          DESCRIPTION MNEMONIC
#---------      ---------------------------   --------------------------
 STRT    .FT        12354.5289                : START DEPTH
 STOP    .FT        17894.2270                : STOP DEPTH
 STEP    .FT        1.6404                    : STEP VALUE
 NULL    .      -999.0000                     : NULL VALUE
 DATE    .      08/02/2018                    : LAS file Creation Date
 WELL .      UNIVERSITY_19-5             : Well Name
 COMP .      Neftex Exploration Insights : Company
 FLD  .      PHANTOM (WOLFCAMP)          : Field
 UWI  .      208                         : Unique Well Identifier (UWI)
 LOC  .                                  : Location
 RWS  .      -999                        : Def_Rw
 WST  .      -999                        : Def_Rwt
 SRVC .                                  : Contractor
~CURVE INFORMATION
#MNEM              UNIT       API CODE   Curve Type Comments
#----------  --------------- ----------  ---------- -----------
 DEPTH      .FT                        : Depth       
 DEPTH      .FT                        : Depth       
 BS         .inch                      : BitSize     
 CAL_INCH   .inch                      :             Caliper Log - A representation of the measured diameter of a borehole along its depth
 GR_API     .API                       : GammaRay    Gamma Ray (API) - Measures the intensity of natural gamma-ray radiation emitted from formations containing radioactive elements, such as K, Th and U
 SGR_API    .API                       : GammaRay    Spectral Gamma Ray - Total gamma calibrated to API, measured using a spectoral gamma array tool
 CGR_API    .API                       : GammaRay    Corrected / Computed Gamma Ray - Radiation with the Uranium component removed. Also known as a 'carbonate gamma ray'
 TH_PPM     .ppm                       : Spectral    Thorium Abundance (SGR) - The quantitative elemental abundace of Thorium derived from the Spectral Gamma Ray Log
 K_per        .PC                        :             Potassium Abundance (SGR) - The quantitative elemental abundace of Potassium derived from the Spectral Gamma Ray Log. Also wt_%
 U_PPM      .ppm                       :             Uranium Abundance (SGR) - The quantitative elemental abundace of Uranium derived from the Spectral Gamma Ray Log
 ThK        .PPM                       : Spectral    
 ThU        .PPM                       : Spectral    
 SRES       .ohmm                      :             10" array induction, two foot resistivity
 MRES       .ohm.m                     :             30" array induction, two foot resistivity
 DRES       .ohmm                      :             90" array induction, two foot resistivity log - units of ohmm
 DT_US_FT   .us/ft                     :             Interval Transit Time: Compressional Wave - Evaluates the time it takes for a compressional wave to traverse a fixed distance
 NPHI_RATIO .ratio                     :             Neutron Porosity - Measured with an neutron logging device calibrated to a given matrix (limestone, sandstone and dolomite)
 RHOB_G_CC  .g/cc                      :             Bulk Density - Measures the density of bulk material, including any void space or other materials contained in the subject volume
 DRHO_G_CC  .g/cc                      :             Density Correction - Investigates the correction to the Bulk Density log; used as an indication of hole condition to validate the Bulk Density measure
 PEF_B_E    .b/e-                      : PEF         Photoelectric Factor - A log of photoelectric absorption properties. Often expressed in an approximation unit barns/electron (b/e-)
 LITH       .                          : LITH        Lithology Curve
~A  DEPTH   DEPTH       BS     CAL_INCH   GR_API   SGR_API   CGR_API    TH_PPM     K_per      U_PPM      ThK       ThU       SRES      MRES      DRES    DT_US_FT NPHI_RAT~ RHOB_G_C~ DRHO_G_C~  PEF_B_E     LITH   
# ...
16718.0459 16718.0459    8.7500    8.6441   62.9303   80.9506   62.9303   12.5662    1.3000    2.9388    9.6663    4.2760    2.3234    2.0267    2.2437   89.7670    0.2633    2.5834   -0.0113   18.2927   37.0000 
16719.6864 16719.6864    8.7500    8.7501   64.8657   81.6683   64.8657   12.6918    1.3800    2.7576    9.1970    4.6025    2.5031    2.2070    2.3762   94.2322    0.2512    2.6193    0.0055   13.0680   37.0000 
16721.3268 16721.3268    8.7500    8.7236   67.9029   89.4663   67.9029   13.9069    1.3400    3.3550   10.3783    4.1451    3.4260    2.3897    2.1818   90.9341    0.2651    2.6115    0.0110   11.5401   37.0000 
16722.9672 16722.9672    8.7500    8.7059   65.0314   90.4947   65.0314   13.4280    1.2700    3.6566   10.5732    3.6723    3.4586    2.4980    2.1341   87.2077    0.2471    2.5789    0.0056   11.6700   37.0000 
16724.6076 16724.6076    8.7500    8.7127   59.5076   80.7155   59.5076   12.3609    1.1500    3.1104   10.7486    3.9741    3.3452    3.1170    2.3706   90.0460    0.2444    2.6197    0.0035   14.4819   37.0000 
16726.2480 16726.2480    8.7500    8.7990   59.4699   85.7122   59.4699   12.3535    1.1500    3.8182   10.7422    3.2354    2.9345    2.8143    2.7024   82.9874    0.2530    2.6170   -0.0037   12.7249   37.0000 
16727.8885 16727.8885    8.7500    8.8840   53.0735   74.3957   53.0735   10.8329    1.0600    3.1871   10.2197    3.3990    3.0229    2.7867    2.7207   58.2913    0.1890    2.5860   -0.0015   16.3870   37.0000 
16729.5289 16729.5289    8.7500    8.7972   38.6703   53.1480   38.6703    7.8504    0.7800    2.2277   10.0646    3.5240    9.0665    4.4261    3.7248   63.5340    0.3236    2.6577    0.0004   23.2229   37.0000 
16731.1693 16731.1693    8.7500    8.7328   24.6464   31.7964   24.6464    4.8589    0.5200    1.1039    9.3440    4.4016    9.2958    5.5355    4.2030  111.2932    0.3338    2.7675    0.0075   25.4525   12.0000 
16732.8097 16732.8097    8.7500    8.6592   54.1562   69.4887   54.1562   10.4670    1.1800    2.3308    8.8703    4.4907    2.3688    2.9485    3.0063  110.3936    0.3213    2.6961    0.0059   20.1895   37.0000 
16734.4501 16734.4501    8.7500    8.6459   78.6156  101.1575   78.6156   14.9124    1.7600    3.3822    8.4730    4.4091    0.9935    0.9730    0.9319  101.5085    0.2991    2.5347   -0.0011    9.3816   37.0000 
16736.0906 16736.0906    8.7500    8.6794   72.1851   94.6017   72.1851   13.5257    1.6400    3.3755    8.2474    4.0070    1.1354    1.1384    1.1525   86.3951    0.2982    2.6064    0.0043    8.8276   37.0000 
16737.7310 16737.7310    8.7500    8.6677   57.3369   83.4349   57.3369   11.0222    1.2600    3.8598    8.7478    2.8556    2.6879    2.3701    1.8449   96.3521    0.1737    2.6528    0.0071    9.7965   22.0000 
16739.3714 16739.3714    8.7500    8.6721   54.7067   77.0593   54.7067   10.6363    1.1800    3.3369    9.0138    3.1875    3.7721    3.0918    2.1662  101.5426    0.2417    2.6113    0.0027    9.2779   22.0000 
16741.0118 16741.0118    8.7500    8.6838   64.4335   91.8529   64.4335   12.3693    1.4200    4.1944    8.7108    2.9490    1.6613    1.4734    1.4862   90.8101    0.3076    2.5707    0.0016   10.4657   37.0000 
16742.6522 16742.6522    8.7500    8.6770   74.8056  100.9004   74.8056   14.4642    1.6300    4.2341    8.8737    3.4161    1.4247    1.2790    1.3146   74.5237    0.2555    2.5908    0.0009   10.3673   37.0000 
16744.2927 16744.2927    8.7500    8.6783   47.5647   66.9452   47.5647    9.5649    0.9700    3.0551    9.8607    3.1308    6.2148    4.7342    3.4599   72.4407    0.1660    2.6334    0.0053    8.0370   22.0000 
16745.9331 16745.9331    8.7500    8.6798   47.9829   70.5160   47.9829   10.3136    0.8700    3.4380   11.8547    2.9999    8.7334    7.4828    7.5662   76.2968    0.1606    2.6695   -0.0057   10.1595   22.0000 
16747.5735 16747.5735    8.7500    8.6632   63.4195   85.3505   63.4195   14.2071    1.0500    3.5757   13.5306    3.9732   10.4408    7.8715    8.6320   91.5606    0.1668    2.6901   -0.0047    9.6292   37.0000 
16749.2139 16749.2139    8.7500    8.7308   62.8916   83.3637   62.8916   14.5245    0.9600    3.2862   15.1297    4.4198    5.6088    3.9560    3.3361   95.0127    0.2496    2.5469    0.0014   10.2579   37.0000 
16750.8543 16750.8543    8.7500    8.8678   64.6230   85.5253   64.6230   14.6962    1.0300    3.1842   14.2682    4.6154    2.6531    2.2220    2.0935   90.1365    0.2668    2.5502    0.0013    9.0039   37.0000 
16752.4948 16752.4948    8.7500    8.7192   63.2445   85.0664   63.2445   14.8040    0.9300    3.2912   15.9183    4.4981    2.5053    2.2187    2.1027   89.5367    0.2615    2.5772    0.0035   15.6310   37.0000 
16754.1352 16754.1352    8.7500    8.7122   62.4031   85.9842   62.4031   14.3940    0.9600    3.6666   14.9937    3.9257    2.4068    2.3573    2.4497   86.6189    0.2366    2.5665    0.0028   14.1789   37.0000 
16755.7756 16755.7756    8.7500    8.7133   59.5111   75.6537   59.5111   13.7098    0.9200    2.6518   14.9020    5.1700    3.6730    3.4718    2.8675   86.8671    0.2128    2.5635    0.0022   13.8240   37.0000 
16757.4160 16757.4160    8.7500    8.7074   65.3927   83.2436   65.3927   14.9454    1.0300    3.0804   14.5101    4.8518    3.1238    2.8794    2.5347   82.8701    0.2619    2.5840    0.0024   13.9044   37.0000 
16759.0564 16759.0564    8.7500    8.7127   56.1394   71.4449   56.1394   12.6409    0.9100    2.5899   13.8911    4.8808    3.6855    3.6586    3.6876   81.5334    0.2225    2.6129    0.0081   13.1146   37.0000 
16760.6969 16760.6969    8.7500    8.7113   52.5989   70.0438   52.5989   11.6926    0.8800    2.8877   13.2870    4.0491    5.1449    5.2340    4.9514   84.7507    0.1818    2.6708    0.0044   17.0681   37.0000 
16762.3373 16762.3373    8.7500    8.7118   52.9795   73.1574   52.9795   11.9165    0.8700    3.2744   13.6971    3.6393    3.5011    5.0233    7.2369   89.4563    0.1741    2.5980   -0.0093   13.2598   37.0000 
16763.9777 16763.9777    8.7500    8.6327   55.0493   75.1459   55.0493   12.1873    0.9300    3.2207   13.1046    3.7841    2.6731    2.8310    3.2507   96.0468    0.2526    2.6479   -0.0024   16.3422   37.0000 
16765.6181 16765.6181    8.7500    8.6067   58.1510   78.4305   58.1510   12.5940    1.0300    3.3446   12.2272    3.7655    2.4628    1.9646    1.9481   95.1105    0.2740    2.5923   -0.0013   15.2840   37.0000 
16767.2585 16767.2585    8.7500    8.6073   58.5205   80.9149   58.5205   12.9900    0.9900    3.5853   13.1212    3.6231    2.4467    2.1292    2.0648   93.6216    0.2852    2.5618   -0.0047   10.7115   37.0000 
16768.8990 16768.8990    8.7500    8.6088   59.1113   80.4511   59.1113   13.2905    0.9700    3.4855   13.7015    3.8131    2.5871    2.1479    2.0240   92.3381    0.2835    2.5728   -0.0054   10.7890   37.0000 
16770.5394 16770.5394    8.7500    8.6073   60.7757   82.2476   60.7757   13.8029    0.9700    3.4605   14.2298    3.9887    2.8720    2.2620    2.0802   91.8489    0.2814    2.5395   -0.0068   10.4431   37.0000 
16772.1798 16772.1798    8.7500    8.6489   58.8909   81.0390   58.8909   13.4750    0.9200    3.4076   14.6467    3.9544    2.8288    2.4750    2.3642   92.1578    0.2697    2.5789    0.0021   14.1006   37.0000 
16773.8202 16773.8202    8.7500    8.6511   61.7757   81.8734   61.7757   14.1869    0.9600    3.2129   14.7780    4.4156    2.5661    2.5933    2.7355   87.1948    0.2555    2.5593   -0.0031   10.1933   37.0000 
16775.4606 16775.4606    8.7500    8.6721   58.0252   76.2664   58.0252   13.0190    0.9500    2.8927   13.7042    4.5006    3.8956    3.0381    2.7821   86.9885    0.2432    2.5610   -0.0080    9.9276   37.0000 
16777.1010 16777.1010    8.7500    8.6780   55.3592   71.5985   55.3592   12.5063    0.8900    2.5194   14.0520    4.9640    6.0058    3.3942    2.4562   91.6240    0.2202    2.6562   -0.0005   12.2161   37.0000 
16778.7415 16778.7415    8.7500    8.7368   61.4070   83.2476   61.4070   13.5599    1.0500    3.2499   12.9142    4.1724    3.4412    2.5821    2.3353   92.3869    0.2576    2.5778   -0.0001    9.4355   37.0000 
