~VERSION INFORMATION
 VERS.                 2.0:   CWLS LOG ASCII STANDARD - VERSION 2.0
 WRAP.                  NO:   SINGLE LINE PER DEPTH STEP
 CREA.                 08/02/2018 08:46:35
#CREATED USING DSPetro VERSION 5000.10.1.3 BY H191660 ON 08/02/2018 08:46:35
~WELL INFORMATION
#MNEM.UNIT       DATA                          DESCRIPTION MNEMONIC
#---------      ---------------------------   --------------------------
 STRT    .FT        12311.0000                : START DEPTH
 STOP    .FT        17628.0000                : STOP DEPTH
 STEP    .FT        0.5000                    : STEP VALUE
 NULL    .      -999.0000                     : NULL VALUE
 DATE    .      08/02/2018                    : LAS file Creation Date
 WELL  .      UNIVERSITY_20_5                  : Well Name
 COMP  .      Neftex Exploration Insights      : Company
 FLD   .      HALEY (LWR. WOLFCAMP-PENN CONS.) : Field
 STATE .      TEXAS                            : State
 COUNT .      LOVING                           : Country
 API   .      42-301-31423                     : API Number
 UWI   .      212                              : Unique Well Identifier (UWI)
 LOC   .      1320' FNL & 1320' FWL            : Location
 PDAT  .      G.L.                             : Permanent Datum
 EPDAT .      2805                             : Reference Elevation
 LGMEA .      K.B.                             : Log Measured from
 DRMEA .      KELLY BUSHING                    : Drill Measured From
 APDAT .      30                               : Elevation Above Permanent Datum
 KB    .      2835                             : KB Elevation
 DF    .      2834                             : DF Elevation
 GL    .      2805                             : GL Elevation
 RWS   .      -999                             : Def_Rw
 WST   .      -999                             : Def_Rwt
 CNTY  .      LOVING                           : County
 SRVC  .      Baker Atlas                      : Contractor
~CURVE INFORMATION
#MNEM              UNIT       API CODE   Curve Type Comments
#----------  --------------- ----------  ---------- -----------
 DEPTH      .FT                        : Depth       
 DEPTH      .FT                        : Depth       
 BS         .inch                      : BitSize     
 CAL        .inch                      :             
 GR         .API                       : GammaRay    
 K          .%                         : Spectral    Potassium
 TH         .PPM                       : Spectral    Thorium
 U          .PPM                       : Spectral    Uranium
 Th/k       .PPM                       : Spectral    
 Th/U       .PPM                       : Spectral    
 RESD       .ohmm                      :             
 RESM       .ohmm                      :             
 RESS       .ohmm                      :             
 DT         .us/ft                     :             
 DRHO       .G/C3                      : Drho        
 NPHI       .dec                       : Neutron     
 RHOB       .G/C3                      : Density     
 PEF        .b/e-                      : PEF         
 LITH       .                          : LITH        Lithology Curve
~A  DEPTH   DEPTH       BS       CAL        GR        K         TH        U        Th/k      Th/U      RESD      RESM      RESS       DT       DRHO      NPHI      RHOB      PEF       LITH   
# ...
16553.0000 16553.0000    6.5000    6.7490  107.4212    1.7070   20.2580    5.5530   11.8676    3.6481    1.8980    1.8860    2.0890   94.4650   -0.0110    0.3713    2.5970    8.3110   37.0000 
16553.5000 16553.5000    6.5000    6.7580  109.0926    1.7550   19.2390    5.8990   10.9624    3.2614    1.9090    1.8980    2.1000   94.6330   -0.0100    0.3811    2.6060    8.4680   37.0000 
16554.0000 16554.0000    6.5000    6.7570  109.9197    1.7900   18.4280    6.2820   10.2950    2.9335    1.9000    1.8900    2.0870   94.7260   -0.0110    0.3823    2.5910    8.0970   37.0000 
16554.5000 16554.5000    6.5000    6.7510  109.1825    1.8180   18.0660    6.5880    9.9373    2.7423    1.8870    1.8790    2.0700   94.7240   -0.0100    0.3801    2.5710    7.2570   37.0000 
16555.0000 16555.0000    6.5000    6.7570  108.0964    1.7880   18.1940    6.8240   10.1756    2.6662    1.8840    1.8780    2.0650   94.7300   -0.0080    0.3897    2.5600    6.2280   37.0000 
16555.5000 16555.5000    6.5000    6.7650  107.2280    1.7060   18.4110    6.9620   10.7919    2.6445    1.8780    1.8750    2.0570   94.8140   -0.0080    0.3985    2.5550    5.2700   37.0000 
16556.0000 16556.0000    6.5000    6.7540  106.2513    1.6050   18.8250    7.0630   11.7290    2.6653    1.8620    1.8630    2.0430   94.9830   -0.0090    0.3842    2.5520    4.7020   37.0000 
16556.5000 16556.5000    6.5000    6.7410  104.9771    1.5290   18.9150    7.1670   12.3708    2.6392    1.8480    1.8540    2.0370   95.2480   -0.0100    0.3580    2.5580    4.6880   37.0000 
16557.0000 16557.0000    6.5000    6.7460  103.5753    1.4970   18.4690    7.2200   12.3373    2.5580    1.8360    1.8470    2.0410   95.5540   -0.0090    0.3412    2.5690    4.9750   37.0000 
16557.5000 16557.5000    6.5000    6.7550  102.9006    1.4960   18.0390    7.3770   12.0582    2.4453    1.7990    1.8160    2.0190   95.8210   -0.0080    0.3398    2.5750    5.1590   37.0000 
16558.0000 16558.0000    6.5000    6.7570  103.6404    1.5190   17.7610    7.5320   11.6926    2.3581    1.7410    1.7630    1.9730   96.0350   -0.0100    0.3473    2.5740    5.1900   37.0000 
16558.5000 16558.5000    6.5000    6.7520  105.1324    1.6570   17.6900    7.0810   10.6759    2.4982    1.7030    1.7290    1.9510   96.2470   -0.0130    0.3487    2.5720    5.2950   37.0000 
16559.0000 16559.0000    6.5000    6.7450  106.3917    1.9640   17.7980    5.7560    9.0621    3.0921    1.6980    1.7280    1.9650   96.5790   -0.0140    0.3477    2.5760    5.5640   37.0000 
16559.5000 16559.5000    6.5000    6.7380  106.7437    2.1960   17.9130    4.5700    8.1571    3.9197    1.6850    1.7190    1.9590   97.0640   -0.0130    0.3556    2.5810    5.7820   37.0000 
16560.0000 16560.0000    6.5000    6.7360  106.0341    2.2750   17.9280    3.9700    7.8804    4.5159    1.6320    1.6660    1.8890   97.5320   -0.0120    0.3684    2.5770    5.8240   37.0000 
16560.5000 16560.5000    6.5000    6.7370  105.3221    2.3020   17.8140    3.6770    7.7385    4.8447    1.5700    1.6030    1.8040   97.7880   -0.0110    0.3757    2.5670    5.7980   37.0000 
16561.0000 16561.0000    6.5000    6.7340  105.3917    2.2220   17.8570    3.7540    8.0365    4.7568    1.5410    1.5740    1.7630   97.7660   -0.0100    0.3789    2.5630    5.7640   37.0000 
16561.5000 16561.5000    6.5000    6.7290  105.3224    2.0210   18.2610    4.1500    9.0356    4.4002    1.5450    1.5780    1.7670   97.5770   -0.0080    0.3735    2.5680    5.6910   37.0000 
16562.0000 16562.0000    6.5000    6.7330  104.4461    1.8490   18.6820    4.4390   10.1038    4.2086    1.5530    1.5870    1.7780   97.4080   -0.0070    0.3597    2.5730    5.5920   37.0000 
16562.5000 16562.5000    6.5000    6.7450  103.1798    1.7810   18.8740    4.4400   10.5974    4.2509    1.5520    1.5840    1.7750   97.2360   -0.0080    0.3464    2.5720    5.5550   37.0000 
16563.0000 16563.0000    6.5000    6.7490  102.1177    1.8090   18.9370    4.1180   10.4682    4.5986    1.5550    1.5860    1.7770   96.9040   -0.0090    0.3385    2.5770    5.7260   37.0000 
16563.5000 16563.5000    6.5000    6.7410  102.0418    1.9530   18.8550    3.5140    9.6544    5.3657    1.5720    1.6020    1.7930   96.5130   -0.0080    0.3393    2.5920    6.0190   37.0000 
16564.0000 16564.0000    6.5000    6.7290  103.6444    2.1060   18.5950    3.0990    8.8295    6.0003    1.5900    1.6180    1.8090   96.4880   -0.0060    0.3546    2.6090    6.2010   37.0000 
16564.5000 16564.5000    6.5000    6.7240  106.0988    2.2180   18.4060    2.9400    8.2985    6.2605    1.5910    1.6170    1.8010   97.2100   -0.0060    0.3682    2.6160    6.3260   37.0000 
16565.0000 16565.0000    6.5000    6.7300  107.7318    2.3170   18.9380    2.8460    8.1735    6.6543    1.5760    1.5990    1.7750   98.6140   -0.0100    0.3631    2.5970    6.3480   37.0000 
16565.5000 16565.5000    6.5000    6.7300  107.9715    2.3510   20.3510    2.8030    8.6563    7.2604    1.5770    1.5990    1.7700  100.0660   -0.0140    0.3602    2.5600    6.1050   37.0000 
16566.0000 16566.0000    6.5000    6.7150  107.4063    2.3190   21.3850    2.9150    9.2216    7.3362    1.6160    1.6370    1.8110  100.7990   -0.0160    0.3797    2.5300    5.7760   37.0000 
16566.5000 16566.5000    6.5000    6.6980  106.5579    2.2550   21.9650    3.0780    9.7406    7.1361    1.6780    1.6990    1.8790  100.5560   -0.0150    0.4004    2.5150    5.5830   37.0000 
16567.0000 16567.0000    6.5000    6.6890  105.3137    2.1770   22.4390    3.2590   10.3073    6.8852    1.7150    1.7350    1.9190   99.5770   -0.0140    0.3962    2.5130    5.4800   37.0000 
16567.5000 16567.5000    6.5000    6.6850  103.5884    2.1130   22.2020    3.6240   10.5073    6.1264    1.7080    1.7260    1.9080   98.2860   -0.0140    0.3823    2.5250    5.4600   37.0000 
16568.0000 16568.0000    6.5000    6.6870  102.3237    2.0210   21.0170    4.3020   10.3993    4.8854    1.6870    1.7020    1.8840   97.0990   -0.0150    0.3731    2.5460    5.6820   37.0000 
16568.5000 16568.5000    6.5000    6.6970  102.4842    1.8820   19.2690    5.0330   10.2386    3.8285    1.6710    1.6850    1.8690   96.2420   -0.0180    0.3771    2.5640    6.2260   37.0000 
16569.0000 16569.0000    6.5000    6.7050  103.5479    1.7580   17.5720    5.5320    9.9955    3.1764    1.6600    1.6730    1.8610   95.8000   -0.0220    0.3807    2.5720    6.7470   37.0000 
16569.5000 16569.5000    6.5000    6.7080  104.4103    1.6750   16.1640    5.8220    9.6501    2.7764    1.6610    1.6720    1.8670   95.7740   -0.0240    0.3703    2.5720    6.5970   37.0000 
16570.0000 16570.0000    6.5000    6.7010  105.1330    1.6370   15.1850    5.8270    9.2761    2.6060    1.6770    1.6860    1.8910   95.9640   -0.0220    0.3572    2.5700    5.8690   37.0000 
16570.5000 16570.5000    6.5000    6.6940  105.9070    1.6560   14.7170    5.4980    8.8871    2.6768    1.6940    1.7030    1.9180   96.0900   -0.0170    0.3573    2.5680    5.3980   37.0000 
16571.0000 16571.0000    6.5000    6.7000  106.0958    1.7460   15.2110    4.8210    8.7119    3.1552    1.6970    1.7050    1.9270   96.0700   -0.0140    0.3670    2.5710    5.5730   37.0000 
16571.5000 16571.5000    6.5000    6.7050  105.6984    1.9230   17.1930    3.6910    8.9407    4.6581    1.6870    1.6950    1.9200   96.0400   -0.0130    0.3742    2.5840    6.1370   37.0000 
16572.0000 16572.0000    6.5000    6.7000  105.4785    2.0790   19.5250    2.7330    9.3915    7.1442    1.6770    1.6840    1.9140   96.2440   -0.0130    0.3823    2.6020    6.3510   37.0000 
16572.5000 16572.5000    6.5000    6.6950  104.9641    2.1140   21.0440    2.4120    9.9546    8.7247    1.6640    1.6720    1.9050   96.7850   -0.0160    0.3839    2.6060    5.8270   37.0000 
16573.0000 16573.0000    6.5000    6.7010  103.1637    2.0420   22.1600    2.3710   10.8521    9.3463    1.6460    1.6540    1.8900   97.3310   -0.0190    0.3771    2.5910    5.2290   37.0000 
16573.5000 16573.5000    6.5000    6.7160  100.6335    1.8950   22.6530    2.6390   11.9541    8.5839    1.6380    1.6460    1.8850   97.3520   -0.0210    0.3762    2.5750    5.1930   37.0000 
