~VERSION INFORMATION
 VERS.                 2.0:   CWLS LOG ASCII STANDARD - VERSION 2.0
 WRAP.                  NO:   SINGLE LINE PER DEPTH STEP
 CREA.                 08/02/2018 08:46:11
#CREATED USING DSPetro VERSION 5000.10.1.3 BY H191660 ON 08/02/2018 08:46:11
~WELL INFORMATION
#MNEM.UNIT       DATA                          DESCRIPTION MNEMONIC
#---------      ---------------------------   --------------------------
 STRT    .FT        12354.5289                : START DEPTH
 STOP    .FT        17894.2270                : STOP DEPTH
 STEP    .FT        1.6404                    : STEP VALUE
 NULL    .      -999.0000                     : NULL VALUE
 DATE    .      08/02/2018                    : LAS file Creation Date
 WELL .      UNIVERSITY_19-5             : Well Name
 COMP .      Neftex Exploration Insights : Company
 FLD  .      PHANTOM (WOLFCAMP)          : Field
 UWI  .      208                         : Unique Well Identifier (UWI)
 LOC  .                                  : Location
 RWS  .      -999                        : Def_Rw
 WST  .      -999                        : Def_Rwt
 SRVC .                                  : Contractor
~CURVE INFORMATION
#MNEM              UNIT       API CODE   Curve Type Comments
#----------  --------------- ----------  ---------- -----------
 DEPTH      .FT                        : Depth       
 DEPTH      .FT                        : Depth       
 BS         .inch                      : BitSize     
 CAL_INCH   .inch                      :             Caliper Log - A representation of the measured diameter of a borehole along its depth
 GR_API     .API                       : GammaRay    Gamma Ray (API) - Measures the intensity of natural gamma-ray radiation emitted from formations containing radioactive elements, such as K, Th and U
 SGR_API    .API                       : GammaRay    Spectral Gamma Ray - Total gamma calibrated to API, measured using a spectoral gamma array tool
 CGR_API    .API                       : GammaRay    Corrected / Computed Gamma Ray - Radiation with the Uranium component removed. Also known as a 'carbonate gamma ray'
 TH_PPM     .ppm                       : Spectral    Thorium Abundance (SGR) - The quantitative elemental abundace of Thorium derived from the Spectral Gamma Ray Log
 K_per        .PC                        :             Potassium Abundance (SGR) - The quantitative elemental abundace of Potassium derived from the Spectral Gamma Ray Log. Also wt_%
 U_PPM      .ppm                       :             Uranium Abundance (SGR) - The quantitative elemental abundace of Uranium derived from the Spectral Gamma Ray Log
 ThK        .PPM                       : Spectral    
 ThU        .PPM                       : Spectral    
 SRES       .ohmm                      :             10" array induction, two foot resistivity
 MRES       .ohm.m                     :             30" array induction, two foot resistivity
 DRES       .ohmm                      :             90" array induction, two foot resistivity log - units of ohmm
 DT_US_FT   .us/ft                     :             Interval Transit Time: Compressional Wave - Evaluates the time it takes for a compressional wave to traverse a fixed distance
 NPHI_RATIO .ratio                     :             Neutron Porosity - Measured with an neutron logging device calibrated to a given matrix (limestone, sandstone and dolomite)
 RHOB_G_CC  .g/cc                      :             Bulk Density - Measures the density of bulk material, including any void space or other materials contained in the subject volume
 DRHO_G_CC  .g/cc                      :             Density Correction - Investigates the correction to the Bulk Density log; used as an indication of hole condition to validate the Bulk Density measure
 PEF_B_E    .b/e-                      : PEF         Photoelectric Factor - A log of photoelectric absorption properties. Often expressed in an approximation unit barns/electron (b/e-)
 LITH       .                          : LITH        Lithology Curve
~A  DEPTH   DEPTH       BS     CAL_INCH   GR_API   SGR_API   CGR_API    TH_PPM     K_per      U_PPM      ThK       ThU       SRES      MRES      DRES    DT_US_FT NPHI_RAT~ RHOB_G_C~ DRHO_G_C~  PEF_B_E     LITH   
# ...
16406.3661 16406.3661    8.7500    8.8751   91.6481  123.8632   91.6481   21.3562    1.3700    4.7951   15.5885    4.4538    2.5378    2.3255    2.3507   93.5390    0.3181    2.5874    0.0011   13.5120   37.0000 
16408.0066 16408.0066    8.7500    8.8398   88.1980  117.4623   88.1980   21.2602    1.2000    4.3833   17.7168    4.8503    2.5731    2.3003    2.3426   94.0829    0.3184    2.5703   -0.0089    9.2022   37.0000 
16409.6470 16409.6470    8.7500    8.8619   85.4655  114.5811   85.4655   19.9375    1.2700    4.1773   15.6988    4.7728    2.4424    2.2214    2.3127   96.2956    0.3359    2.5576   -0.0108   11.3364   37.0000 
16411.2874 16411.2874    8.7500    8.8594   90.7523  113.8301   90.7523   21.0034    1.3800    3.5723   15.2199    5.8795    2.2091    1.9172    1.8379  101.7113    0.3536    2.5808    0.0031   10.4928   37.0000 
16412.9278 16412.9278    8.7500    9.1081   80.4003  103.8296   80.4003   18.0141    1.3300    3.4965   13.5444    5.1520    1.8278    1.6068    1.4005  100.7558    0.3017    2.5849   -0.0061   15.9799   37.0000 
16414.5682 16414.5682    8.7500    9.0959   84.6299  107.8642   84.6299   17.7871    1.6000    3.6596   11.1169    4.8604    1.4296    1.3340    1.4486   97.3419    0.2859    2.6440    0.0015   12.3324   37.0000 
16416.2087 16416.2087    8.7500    9.3742   75.7237   95.1339   75.7237   15.9187    1.4300    3.1611   11.1320    5.0358    1.7548    1.6510    1.7446  104.8583    0.2888    2.6174    0.0058   10.2021   37.0000 
16417.8491 16417.8491    8.7500    9.4049   80.7593  103.2093   80.7593   16.2369    1.6500    3.5729    9.8405    4.5445    1.4422    1.3553    1.3235  102.1190    0.3213    2.5998    0.0005   12.1909   37.0000 
16419.4895 16419.4895    8.7500    8.9116   82.3171  107.1838   82.3171   17.0823    1.5900    4.0648   10.7436    4.2025    1.3816    1.4698    1.4465   87.4433    0.3457    2.6356    0.0003   12.7775   37.0000 
16421.1299 16421.1299    8.7500    8.9134   69.7989   92.1268   69.7989   14.6593    1.3200    3.3850   11.1055    4.3307    1.6683    1.7969    1.5722   87.3844    0.2658    2.6579   -0.0037   13.8768   37.0000 
16422.7703 16422.7703    8.7500    8.9403   63.6194   85.1826   63.6194   12.4337    1.3600    3.2545    9.1424    3.8205    3.9216    3.1490    2.6791  100.7567    0.2318    2.6192    0.0085    8.0493   37.0000 
16424.4108 16424.4108    8.7500    9.1132   72.5927   94.1139   72.5927   14.3292    1.5300    3.3012    9.3655    4.3406    2.2170    1.8831    1.8467  103.6691    0.2715    2.6098    0.0029    9.5816   37.0000 
16426.0512 16426.0512    8.7500    9.0362   78.9129  103.0243   78.9129   15.9663    1.5900    3.8631   10.0417    4.1330    1.7468    1.5568    1.5064  102.6926    0.3091    2.5713   -0.0065   15.2767   37.0000 
16427.6916 16427.6916    8.7500    8.7324   67.8541   93.1436   67.8541   13.8571    1.3500    3.9302   10.2645    3.5258    1.6356    1.4254    1.3582  100.6588    0.2895    2.5867   -0.0034   13.1186   37.0000 
16429.3320 16429.3320    8.7500    8.7574   66.4774   95.7947   66.4774   13.4996    1.3300    4.4313   10.1501    3.0464    1.8090    1.4945    1.4184   99.1091    0.2957    2.5676   -0.0088   13.9491   37.0000 
16430.9724 16430.9724    8.7500    8.7206   64.2257   95.0452   64.2257   12.9046    1.3100    4.5691    9.8508    2.8243    1.9309    1.7796    1.7925   85.4424    0.2964    2.5745   -0.0056   13.6849   37.0000 
16432.6129 16432.6129    8.7500    8.6562   64.2026   90.8137   64.2026   13.0828    1.2800    4.0099   10.2209    3.2626    2.3367    2.2217    2.1975   85.1364    0.2575    2.6889    0.0047   19.0241   22.0000 
16434.2533 16434.2533    8.7500    8.7280   58.8155   75.3122   58.8155   12.3655    1.1100    2.6353   11.1401    4.6923    6.5616    4.8837    4.2327   98.8366    0.2622    2.6743    0.0110   14.2215   22.0000 
16435.8937 16435.8937    8.7500    8.8133   86.4959  115.1705   86.4959   18.9797    1.4900    4.3470   12.7381    4.3662    2.0824    1.8373    1.9218   96.8730    0.3185    2.5862    0.0064   11.7078   37.0000 
16437.5341 16437.5341    8.7500    9.0463   96.4597  124.6706   96.4597   21.8534    1.5500    4.4152   14.0990    4.9496    2.1269    1.8510    1.8161   96.2674    0.2958    2.6136    0.0053   17.3439   37.0000 
16439.1745 16439.1745    8.7500    9.2554   94.8600  124.7502   94.8600   21.7388    1.4800    4.7465   14.6884    4.5800    2.3124    2.0746    2.0700   96.1013    0.3106    2.5939    0.0018    8.9360   37.0000 
16440.8150 16440.8150    8.7500    9.2759   93.3049  123.6182   93.3049   21.7070    1.4000    4.7758   15.5050    4.5452    2.2339    2.0207    1.9990   95.3821    0.3060    2.5842   -0.0015    7.1747   37.0000 
16442.4554 16442.4554    8.7500    9.3186   93.7728  121.4575   93.7728   21.8660    1.4000    4.3440   15.6186    5.0336    2.2633    2.0516    1.9710   98.9487    0.3049    2.5910   -0.0006    8.1195   37.0000 
16444.0958 16444.0958    8.7500    9.2995   90.6098  125.1557   90.6098   20.6337    1.4400    5.1687   14.3290    3.9920    2.1353    1.9489    1.9350   96.6403    0.3189    2.5816    0.0014    8.6969   37.0000 
16445.7362 16445.7362    8.7500    9.3790   90.3240  120.1461   90.3240   19.7622    1.5700    4.6294   12.5874    4.2688    2.1989    1.9657    1.9058   95.9347    0.3106    2.5927   -0.0008    8.5826   37.0000 
16447.3766 16447.3766    8.7500    8.9914   87.7970  115.5613   87.7970   19.2174    1.5300    4.3895   12.5604    4.3780    2.2297    1.9058    1.8461   96.1092    0.3040    2.5802   -0.0082    8.1030   37.0000 
16449.0171 16449.0171    8.7500    8.7913   88.5956  112.7448   88.5956   19.3771    1.5400    4.1122   12.5825    4.7121    2.3429    2.0457    1.9473   94.0950    0.3082    2.5611   -0.0083    8.7130   37.0000 
16450.6575 16450.6575    8.7500    8.8102   89.7089  109.4256   89.7089   20.1881    1.4600    3.7382   13.8275    5.4005    2.3100    2.1215    2.0133   88.5666    0.2975    2.5689    0.0004    8.6669   37.0000 
16452.2979 16452.2979    8.7500    8.8104   86.4137  107.9053   86.4137   19.6549    1.3700    3.9133   14.3466    5.0226    2.6853    2.3654    2.2670   90.0555    0.2749    2.6056    0.0048    9.3133   37.0000 
16453.9383 16453.9383    8.7500    8.7900   91.7502  115.7400   91.7502   21.2781    1.3900    4.3543   15.3080    4.8867    3.2976    2.8438    2.7075   94.4998    0.2767    2.6331    0.0048   11.1838   37.0000 
16455.5787 16455.5787    8.7500    8.7883   85.0877  111.6217   85.0877   19.8112    1.2700    4.5697   15.5994    4.3353    2.6065    2.3085    2.2067   94.0989    0.3005    2.5887    0.0010    9.0602   37.0000 
16457.2192 16457.2192    8.7500    9.0602   85.2222  114.4629   85.2222   20.0503    1.2400    4.9560   16.1696    4.0457    2.5827    2.3550    2.2933   91.4373    0.3095    2.5996    0.0023   10.8449   37.0000 
16458.8596 16458.8596    8.7500    9.0125   89.1019  117.0113   89.1019   21.0099    1.2900    4.8503   16.2867    4.3317    2.5734    2.2980    2.3045   92.0898    0.3129    2.6122    0.0047   11.4080   37.0000 
16460.5000 16460.5000    8.7500    8.8604   88.4881  115.7127   88.4881   20.8297    1.2900    4.7301   16.1471    4.4036    2.4327    2.1493    2.2643   92.1396    0.2964    2.5791    0.0000   10.1140   37.0000 
16462.1404 16462.1404    8.7500    8.8869   84.2474  107.9622   84.2474   19.6472    1.2600    4.0297   15.5930    4.8756    2.7305    2.3248    2.6551   93.9430    0.2798    2.5854   -0.0062    8.3924   37.0000 
16463.7808 16463.7808    8.7500    9.0758   94.2541  119.6368   94.2541   22.6516    1.2900    4.2526   17.5594    5.3265    3.3277    2.6300    2.6143   87.3640    0.3016    2.5823   -0.0038    8.2960   37.0000 
16465.4213 16465.4213    8.7500    9.0091   88.3121  112.4641   88.3121   21.4609    1.1700    4.0238   18.3426    5.3335    4.8923    2.8370    2.4688   86.8926    0.2576    2.6060    0.0035    8.1475   37.0000 
16467.0617 16467.0617    8.7500    9.0448   78.1415  101.4022   78.1415   18.8753    1.0500    3.8925   17.9765    4.8491    4.2857    2.7880    2.4995   84.6272    0.2564    2.6448    0.0032    7.8296   37.0000 
