~VERSION INFORMATION
 VERS.                 2.0:   CWLS LOG ASCII STANDARD - VERSION 2.0
 WRAP.                  NO:   SINGLE LINE PER DEPTH STEP
 CREA.                 08/02/2018 08:52:47
#CREATED USING DSPetro VERSION 5000.10.1.3 BY H191660 ON 08/02/2018 08:52:47
~WELL INFORMATION
#MNEM.UNIT       DATA                          DESCRIPTION MNEMONIC
#---------      ---------------------------   --------------------------
 STRT    .FT        12349.0092                : START DEPTH
 STOP    .FT        16985.0092                : STOP DEPTH
 STEP    .FT        0.5000                    : STEP VALUE
 NULL    .      -999.0000                     : NULL VALUE
 DATE    .      08/02/2018                    : LAS file Creation Date
 WELL  .      UNIVERSITY_19-6           : Well Name
 COMP  .      Anadarko Petroleum Corpor : Company
 FLD   .      LOVING                    : Field
 STATE .      TEXAS                     : State
 COUNT .      Texas                     : Country
 API   .      42301311860000            : API Number
 UWI   .      507                       : Unique Well Identifier (UWI)
 LOC   .      Onshore                   : Location
 TOWN  .      19                        : Township
 SCT   .      6                         : Section
 RANG  .      University Land           : Range
 LATI  .      3509001.74                : Latitude/Northing
 LONG  .      644715.32                 : Longitude/Easting
 PDAT  .      Ground Level              : Permanent Datum
 EPDAT .      2810                      : Reference Elevation
 LGMEA .      Kelly Bushing             : Log Measured from
 DRMEA .      Kelly Bushing             : Drill Measured From
 APDAT .      31                        : Elevation Above Permanent Datum
 KB    .      2841                      : KB Elevation
 DF    .      2840                      : DF Elevation
 GL    .      2810                      : GL Elevation
 RWS   .      0                         : Def_Rw
 WST   .      0                         : Def_Rwt
 UTMZ  .      13                        : UTM Zone
 BHS   .      OPEN                      : Completion Status
 CNTY  .      LOVING                    : County
 MDEC  .      0                         : Magnetic Declination
 SRVC  .      SCH                       : Contractor
~CURVE INFORMATION
#MNEM              UNIT       API CODE   Curve Type Comments
#----------  --------------- ----------  ---------- -----------
 DEPTH      .FT                        : Depth       
 DEPTH      .FT                        : Depth       
 BS         .IN                        : BitSize     Bit Size {F13.4}
 CAL        .IN                        :             
 HSGR       .GAPI                      :             
 HCGR       .GAPI                      :             
 TH         .PPM                       :             HNGS Formation Thorium Concentration {F13.4}
 U          .PPM                       :             HNGS Formation Uranium Concentration {F13.4}
 K          .CFCF                      :             HNGS Formation Potassium Concentration {F13.4}
 ThK        .PPM                       : Spectral    
 ThU        .PPM                       : Spectral    
 RSHALLOW   .OHMM                      :             12  RSHALLOW
 RMEDIUM    .OHMM                      :             13  Medium Resistivity
 RDEEP      .OHMM                      : DeepRes     14  Deep Resistivity
 DT         .US/F                      : Sonic       DT
 NPHI       .dec                       : Neutron     NPHI
 RHOB       .G/C3                      : Density     
 DRHO       .G/CC                      : Drho        
 PEF        .                          :             
 LITH       .                          : LITH        Lithology Curve
~A  DEPTH   DEPTH       BS       CAL       HSGR      HCGR       TH        U         K        ThK       ThU     RSHALLOW  RMEDIUM    RDEEP       DT       NPHI      RHOB      DRHO      PEF       LITH   
# ...
16349.0092 16349.0092    8.7500    8.3460   97.5632   77.2655   15.6292    3.2656    1.5600   10.0187    4.7860    2.4750    1.9100    1.8240   97.7550    0.2580    2.5706   -0.0373   15.7579   37.0000 
16349.5092 16349.5092    8.7500    8.3390   96.3307   76.5058   15.4672    3.2179    1.5400   10.0436    4.8066    2.3540    1.8730    1.7910   97.9720    0.2500    2.5666   -0.0426   17.0960   37.0000 
16350.0092 16350.0092    8.7500    8.3390   96.3446   74.6755   15.0080    3.5186    1.5200    9.8737    4.2654    2.3560    1.8650    1.7870   98.1850    0.2600    2.5682   -0.0626   25.8694   37.0000 
16350.5092 16350.5092    8.7500    8.3490   95.8195   73.2382   14.5914    3.6642    1.5100    9.6632    3.9822    2.4530    1.8930    1.8170   97.6070    0.2710    2.5682   -0.0804   29.2110   37.0000 
16351.0092 16351.0092    8.7500    8.3570   94.4031   73.0236   14.6381    3.5070    1.5000    9.7587    4.1740    2.3790    1.8580    1.7970  100.2740    0.2690    2.5681   -0.0791   18.9005   37.0000 
16351.5092 16351.5092    8.7500    8.3660   92.9264   72.5500   14.4482    3.3414    1.5000    9.6321    4.3240    2.2180    1.7990    1.7450  100.0260    0.2610    2.5663   -0.0724   32.9660   37.0000 
16352.0092 16352.0092    8.7500    8.3860   94.0514   73.8668   14.7859    3.3520    1.5200    9.7276    4.4111    2.1740    1.7590    1.7240   99.6200    0.2580    2.5593   -0.0774   67.3600   37.0000 
16352.5092 16352.5092    8.7500    8.3860   96.3219   77.4331   15.7164    3.2160    1.5500   10.1397    4.8869    2.1410    1.7370    1.7070   98.9530    0.2590    2.5561   -0.0749   20.7058   37.0000 
16353.0092 16353.0092    8.7500    8.3850   98.7527   81.1283   16.7551    3.0951    1.5800   10.6045    5.4134    2.1090    1.7170    1.6870  100.4380    0.2550    2.5549   -0.0801   28.2660   37.0000 
16353.5092 16353.5092    8.7500    8.3960   99.8721   83.1312   17.3835    3.0416    1.5800   11.0022    5.7152    2.0930    1.7150    1.6690   99.5010    0.2530    2.5547   -0.0800   19.1222   37.0000 
16354.0092 16354.0092    8.7500    8.3860  100.3770   82.4740   17.3658    3.2020    1.5500   11.2037    5.4234    2.0940    1.7310    1.6740  101.7720    0.2550    2.5484   -0.0712   36.7304   37.0000 
16354.5092 16354.5092    8.7500    8.3860   99.3134   80.0401   16.8245    3.3634    1.5100   11.1421    5.0023    2.0820    1.7380    1.6840  100.9710    0.2560    2.5412   -0.0708   26.2666   37.0000 
16355.0092 16355.0092    8.7500    8.3900   99.2008   79.5103   16.7180    3.4208    1.5000   11.1453    4.8872    2.0560    1.7160    1.7090   95.7000    0.2630    2.5331   -0.0764   16.3396   37.0000 
16355.5092 16355.5092    8.7500    8.3900   99.8383   81.4852   17.2563    3.2398    1.5100   11.4280    5.3263    2.0400    1.7050    1.7480   88.7580    0.2680    2.5290   -0.0700   27.5490   37.0000 
16356.0092 16356.0092    8.7500    8.3940  100.1193   82.2663   17.4754    3.1632    1.5200   11.4970    5.5246    2.2220    1.8050    1.9370   92.2110    0.2730    2.5416   -0.0692   18.7645   37.0000 
16356.5092 16356.5092    8.7500    8.3750  100.1497   81.7440   17.4583    3.2251    1.4900   11.7170    5.4133    2.7400    2.1100    2.2790   93.5270    0.2750    2.5715   -0.0438   12.8309   37.0000 
16357.0092 16357.0092    8.7500    8.3720  100.1732   81.3337   17.5262    3.2798    1.4600   12.0042    5.3437    3.6790    2.6160    2.7320   93.5850    0.2620    2.6012   -0.0516   19.8432   37.0000 
16357.5092 16357.5092    8.7500    8.3750  100.0898   81.6830   17.5359    3.2536    1.4700   11.9292    5.3897    4.0690    2.8360    2.9460   94.9160    0.2200    2.6004   -0.0598   16.8738   37.0000 
16358.0092 16358.0092    8.7500    8.3850   99.8058   80.9239   17.1518    3.2902    1.5000   11.4346    5.2130    3.6550    2.5970    2.5340   96.2210    0.2080    2.5863   -0.0553   19.6731   37.0000 
16358.5092 16358.5092    8.7500    8.3790   98.8906   77.9918   16.3385    3.4817    1.4800   11.0395    4.6927    3.2190    2.3820    2.2430   99.8080    0.2150    2.5808   -0.0531   16.1349   37.0000 
16359.0092 16359.0092    8.7500    8.3760   98.3514   74.9435   15.5403    3.7963    1.4500   10.7174    4.0935    2.8280    2.1650    2.1040  101.8820    0.2290    2.5737   -0.0398    8.9235   37.0000 
16359.5092 16359.5092    8.7500    8.3690   96.8249   73.7325   15.1972    3.7839    1.4400   10.5536    4.0163    2.4430    1.9750    1.9460  103.8740    0.2200    2.5517   -0.0418   14.3532   37.0000 
16360.0092 16360.0092    8.7500    8.3700   94.5433   71.9821   14.9593    3.7026    1.3800   10.8401    4.0402    2.2970    1.8600    1.9540  104.7580    0.2290    2.5260   -0.0606   15.9456   37.0000 
16360.5092 16360.5092    8.7500    8.3740   92.5766   69.1940   14.2640    3.7038    1.3500   10.5659    3.8512    2.2140    1.8520    1.8590  106.0300    0.2580    2.5143   -0.0706   24.6618   37.0000 
16361.0092 16361.0092    8.7500    8.3840   91.6530   68.1806   13.9912    3.6699    1.3400   10.4412    3.8124    2.1690    1.8130    1.8430  105.6540    0.2820    2.5189   -0.0918   36.5275   37.0000 
16361.5092 16361.5092    8.7500    8.3950   91.6619   69.1361   14.0898    3.5863    1.3800   10.2100    3.9288    2.1080    1.7310    1.8070  104.9950    0.3030    2.5475   -0.0992   23.7871   37.0000 
16362.0092 16362.0092    8.7500    8.3880   93.0283   70.5005   14.1425    3.6186    1.4400    9.8212    3.9083    2.0500    1.6800    1.7820  104.1480    0.3020    2.5918   -0.0899   44.5692   37.0000 
16362.5092 16362.5092    8.7500    8.3900   95.7523   72.7449   14.5795    3.7203    1.4900    9.7849    3.9189    2.2000    1.7370    1.7770  103.5570    0.3040    2.6095   -0.0577   17.3274   37.0000 
16363.0092 16363.0092    8.7500    8.3950   99.4003   74.2744   14.9803    4.0268    1.5100    9.9207    3.7202    2.4350    1.8680    1.7790  102.9900    0.2860    2.5797   -0.0358   14.2554   37.0000 
16363.5092 16363.5092    8.7500    8.3920  101.5303   75.7333   15.3729    4.1481    1.5200   10.1137    3.7060    2.5460    1.8830    1.7320  102.9610    0.2720    2.5442   -0.0517   14.9979   37.0000 
16364.0092 16364.0092    8.7500    8.3860   99.3643   74.5307   15.1599    4.0159    1.4900   10.1744    3.7750    2.3370    1.7140    1.6910  103.4320    0.2760    2.5258   -0.0508   16.2165   37.0000 
16364.5092 16364.5092    8.7500    8.3870   95.4928   72.5474   14.7701    3.7189    1.4500   10.1863    3.9716    2.1830    1.6300    1.6570  103.8990    0.2890    2.5317   -0.0361   14.4743   37.0000 
16365.0092 16365.0092    8.7500    8.3960   92.8779   70.7386   14.2955    3.5771    1.4300    9.9969    3.9964    2.1670    1.6100    1.6270  104.0710    0.3090    2.5515   -0.0446   16.5435   37.0000 
16365.5092 16365.5092    8.7500    8.3930   93.2809   72.3333   14.3750    3.4182    1.5000    9.5834    4.2054    2.0050    1.5370    1.6100  103.4270    0.2990    2.5596   -0.0580   15.5404   37.0000 
16366.0092 16366.0092    8.7500    8.4140   94.2260   74.5816   14.9991    3.2992    1.5200    9.8678    4.5463    1.8670    1.4730    1.5100  102.9500    0.2910    2.5490   -0.0690   19.5561   37.0000 
16366.5092 16366.5092    8.7500    8.3580   93.3115   73.7435   15.1024    3.2842    1.4600   10.3441    4.5985    1.8810    1.4860    1.4810  102.0520    0.2810    2.5515   -0.0528   14.6020   37.0000 
16367.0092 16367.0092    8.7500    8.2340   89.5290   69.3611   14.2635    3.2552    1.3600   10.4878    4.3817    2.1180    1.6370    1.6070   98.9570    0.2860    2.5792   -0.0424   16.1652   37.0000 
16367.5092 16367.5092    8.7500    8.2310   85.9508   65.7311   13.6756    3.2473    1.2600   10.8536    4.2114    2.3940    1.8360    1.7470   99.5520    0.2770    2.6095   -0.0309   12.9182   37.0000 
16368.0092 16368.0092    8.7500    8.2350   85.9094   65.5426   13.7108    3.2405    1.2400   11.0571    4.2311    2.7090    2.0430    1.9160  100.1760    0.2570    2.6201   -0.0193   10.5079   37.0000 
16368.5092 16368.5092    8.7500    8.2400   89.1538   69.0569   14.3987    3.1748    1.3200   10.9081    4.5353    2.9750    2.2420    2.1660  101.0900    0.2310    2.6033   -0.0323   19.8852   37.0000 
