~VERSION INFORMATION
 VERS.                 2.0:   CWLS LOG ASCII STANDARD - VERSION 2.0
 WRAP.                  NO:   SINGLE LINE PER DEPTH STEP
 CREA.                 08/02/2018 08:52:47
#CREATED USING DSPetro VERSION 5000.10.1.3 BY H191660 ON 08/02/2018 08:52:47
~WELL INFORMATION
#MNEM.UNIT       DATA                          DESCRIPTION MNEMONIC
#---------      ---------------------------   --------------------------
 STRT    .FT        12349.0092                : START DEPTH
 STOP    .FT        16985.0092                : STOP DEPTH
 STEP    .FT        0.5000                    : STEP VALUE
 NULL    .      -999.0000                     : NULL VALUE
 DATE    .      08/02/2018                    : LAS file Creation Date
 WELL  .      UNIVERSITY_19-6           : Well Name
 COMP  .      Anadarko Petroleum Corpor : Company
 FLD   .      LOVING                    : Field
 STATE .      TEXAS                     : State
 COUNT .      Texas                     : Country
 API   .      42301311860000            : API Number
 UWI   .      507                       : Unique Well Identifier (UWI)
 LOC   .      Onshore                   : Location
 TOWN  .      19                        : Township
 SCT   .      6                         : Section
 RANG  .      University Land           : Range
 LATI  .      3509001.74                : Latitude/Northing
 LONG  .      644715.32                 : Longitude/Easting
 PDAT  .      Ground Level              : Permanent Datum
 EPDAT .      2810                      : Reference Elevation
 LGMEA .      Kelly Bushing             : Log Measured from
 DRMEA .      Kelly Bushing             : Drill Measured From
 APDAT .      31                        : Elevation Above Permanent Datum
 KB    .      2841                      : KB Elevation
 DF    .      2840                      : DF Elevation
 GL    .      2810                      : GL Elevation
 RWS   .      0                         : Def_Rw
 WST   .      0                         : Def_Rwt
 UTMZ  .      13                        : UTM Zone
 BHS   .      OPEN                      : Completion Status
 CNTY  .      LOVING                    : County
 MDEC  .      0                         : Magnetic Declination
 SRVC  .      SCH                       : Contractor
~CURVE INFORMATION
#MNEM              UNIT       API CODE   Curve Type Comments
#----------  --------------- ----------  ---------- -----------
 DEPTH      .FT                        : Depth       
 DEPTH      .FT                        : Depth       
 BS         .IN                        : BitSize     Bit Size {F13.4}
 CAL        .IN                        :             
 HSGR       .GAPI                      :             
 HCGR       .GAPI                      :             
 TH         .PPM                       :             HNGS Formation Thorium Concentration {F13.4}
 U          .PPM                       :             HNGS Formation Uranium Concentration {F13.4}
 K          .CFCF                      :             HNGS Formation Potassium Concentration {F13.4}
 ThK        .PPM                       : Spectral    
 ThU        .PPM                       : Spectral    
 RSHALLOW   .OHMM                      :             12  RSHALLOW
 RMEDIUM    .OHMM                      :             13  Medium Resistivity
 RDEEP      .OHMM                      : DeepRes     14  Deep Resistivity
 DT         .US/F                      : Sonic       DT
 NPHI       .dec                       : Neutron     NPHI
 RHOB       .G/C3                      : Density     
 DRHO       .G/CC                      : Drho        
 PEF        .                          :             
 LITH       .                          : LITH        Lithology Curve
~A  DEPTH   DEPTH       BS       CAL       HSGR      HCGR       TH        U         K        ThK       ThU     RSHALLOW  RMEDIUM    RDEEP       DT       NPHI      RHOB      DRHO      PEF       LITH   
# ...
14509.0092 14509.0092    8.7500    9.0920  113.9751   93.0334   16.0215    3.1083    2.3500    6.8176    5.1544    5.7210    4.6260    4.5120   87.6520    0.1850    2.5916   -0.0130    6.7471   37.0000 
14509.5092 14509.5092    8.7500    9.0870  112.8339   91.6200   16.0774    3.1129    2.2700    7.0825    5.1648    5.6660    4.6170    4.5160   85.2500    0.1870    2.5842   -0.0041    7.0335   37.0000 
14510.0092 14510.0092    8.7500    9.0950  106.6963   85.2515   14.7129    3.0925    2.1500    6.8432    4.7576    5.7060    4.7000    4.7130   82.7740    0.1920    2.5813   -0.0002    6.6220   37.0000 
14510.5092 14510.5092    8.7500    9.1140   95.6697   75.6861   12.7802    2.8607    1.9600    6.5205    4.4675    5.8010    4.8030    4.9610   81.5240    0.1950    2.5997   -0.0133    6.7295   37.0000 
14511.0092 14511.0092    8.7500    9.1300   82.3622   65.8790   11.1205    2.4033    1.7100    6.5032    4.6271    6.2930    5.1280    5.2460   81.6500    0.1990    2.6290   -0.0089    8.2752   37.0000 
14511.5092 14511.5092    8.7500    9.0800   73.7550   60.3168   10.1516    2.0314    1.5700    6.4659    4.9973    7.7960    6.2120    6.2090   80.2230    0.2020    2.6395   -0.0078    6.2418   22.0000 
14512.0092 14512.0092    8.7500    8.9720   76.0857   63.3270   10.5405    1.9819    1.6700    6.3117    5.3184    9.1650    7.7080    7.9380   84.5080    0.1800    2.6294   -0.0093   12.8756   22.0000 
14512.5092 14512.5092    8.7500    8.9310   87.3635   73.8724   12.3824    2.1884    1.9300    6.4158    5.6582    8.9910    8.0530    8.1770   86.6710    0.1440    2.6097   -0.0058   17.1366   22.0000 
14513.0092 14513.0092    8.7500    8.9330   98.0013   84.9041   14.2793    2.2380    2.2100    6.4613    6.3804    7.2980    6.5980    6.8230   88.8710    0.1280    2.6000   -0.0001   10.4920   22.0000 
14513.5092 14513.5092    8.7500    8.9310  104.0264   91.7314   15.3166    2.1862    2.4000    6.3820    7.0060    6.8090    5.6300    5.8420   89.1170    0.1440    2.6081    0.0073    6.3413   22.0000 
14514.0092 14514.0092    8.7500    8.9270  107.2867   95.7892   16.0040    2.1125    2.5100    6.3761    7.5758    6.1570    5.1790    5.2250   89.1930    0.1700    2.6151    0.0035    6.3173   37.0000 
14514.5092 14514.5092    8.7500    8.9320  111.3687   99.2521   16.4026    2.2268    2.6300    6.2367    7.3660    5.7560    4.7290    4.8380   89.0390    0.1790    2.6113   -0.0116    6.5704   37.0000 
14515.0092 14515.0092    8.7500    8.9340  112.4764   99.7042   16.1956    2.3334    2.6900    6.0207    6.9408    5.3860    4.4730    4.5370   88.7770    0.1810    2.6000    0.0000    6.6616   37.0000 
14515.5092 14515.5092    8.7500    8.9280  109.0273   96.3480   15.7134    2.3285    2.5900    6.0669    6.7483    5.0270    4.3030    4.3860   87.6490    0.1850    2.5969    0.0002    6.3612   37.0000 
14516.0092 14516.0092    8.7500    8.9340  101.7092   88.9686   14.6782    2.3491    2.3600    6.2195    6.2484    5.1790    4.3170    4.4970   86.3430    0.1880    2.6027    0.0015    7.9540   37.0000 
14516.5092 14516.5092    8.7500    8.9310   94.8843   82.0014   13.4959    2.2867    2.1800    6.1907    5.9019    5.5510    4.6080    4.7280   86.3190    0.1860    2.6070   -0.0065    7.7461   37.0000 
14517.0092 14517.0092    8.7500    8.9310   93.2963   79.3294   12.9840    2.3605    2.1200    6.1245    5.5006    6.1620    5.0210    5.0200   87.2770    0.1790    2.6084   -0.0105   11.2328   37.0000 
14517.5092 14517.5092    8.7500    8.9360   96.9928   81.6498   13.3376    2.5417    2.1900    6.0902    5.2475    6.3160    5.2410    5.4780   86.6860    0.1650    2.6113   -0.0124    8.8905   37.0000 
14518.0092 14518.0092    8.7500    8.9320  103.9349   87.5224   14.0916    2.6872    2.3800    5.9208    5.2440    5.8050    4.9190    5.1950   88.3430    0.1580    2.6135   -0.0052    8.8012   37.0000 
14518.5092 14518.5092    8.7500    8.9300  108.7405   91.7592   14.7125    2.8096    2.5100    5.8616    5.2365    5.6200    4.7330    5.0900   88.0720    0.1650    2.6057   -0.0051    8.5803   37.0000 
14519.0092 14519.0092    8.7500    8.9290  111.4756   92.7803   14.8853    3.0976    2.5300    5.8835    4.8055    5.5010    4.6650    4.7180   88.1170    0.1820    2.5984   -0.0072    6.6960   37.0000 
14519.5092 14519.5092    8.7500    8.9320  110.8232   90.4588   14.2249    3.2729    2.5200    5.6448    4.3463    5.3430    4.5100    4.5810   87.8500    0.1910    2.6081    0.0021    6.6488   37.0000 
14520.0092 14520.0092    8.7500    8.9400  107.9168   87.4894   13.5587    3.1856    2.4700    5.4894    4.2563    5.2840    4.4430    4.4640   88.5330    0.1960    2.6269    0.0052    5.9909   37.0000 
14520.5092 14520.5092    8.7500    8.9590  105.4331   84.6893   13.1519    3.1629    2.3900    5.5029    4.1582    5.4870    4.5820    4.4810   89.8210    0.1960    2.6340   -0.0004    6.9454   37.0000 
14521.0092 14521.0092    8.7500    8.9640  104.0246   82.9965   12.7544    3.1513    2.3600    5.4044    4.0474    5.2570    4.4350    4.3540   88.7190    0.1950    2.6163   -0.0011    6.9689   37.0000 
14521.5092 14521.5092    8.7500    8.9610  103.3833   82.3347   12.4744    3.1020    2.3700    5.2635    4.0214    4.7760    4.0690    4.0740   88.0820    0.1890    2.5961    0.0008    6.6959   37.0000 
14522.0092 14522.0092    8.7500    8.9590  102.3294   80.5665   12.1838    3.1945    2.3300    5.2291    3.8140    4.8930    3.9240    4.0370   87.7220    0.1840    2.5897   -0.0004    7.6607   37.0000 
14522.5092 14522.5092    8.7500    8.9650  101.0760   77.9033   11.7785    3.4015    2.2500    5.2349    3.4628    5.0400    4.1730    4.3240   85.1480    0.1860    2.5906   -0.0088    5.3182   37.0000 
14523.0092 14523.0092    8.7500    8.9620   98.8204   74.8407   11.3276    3.4809    2.1600    5.2443    3.2542    5.1970    4.3590    4.8990   82.6860    0.1870    2.5925   -0.0094    9.0186   37.0000 
14523.5092 14523.5092    8.7500    8.9630   93.8544   69.5992   10.5579    3.4728    2.0100    5.2527    3.0402    5.4440    4.7050    4.9860   79.1100    0.1840    2.5937   -0.0149    8.8458   37.0000 
14524.0092 14524.0092    8.7500    8.9610   84.8368   61.2001    9.1667    3.3307    1.7800    5.1498    2.7522    6.5550    5.3770    5.6100   81.2350    0.1790    2.6070   -0.0087    7.3202   37.0000 
14524.5092 14524.5092    8.7500    8.9580   73.2832   52.8852    7.8061    2.8481    1.5600    5.0039    2.7408    7.9260    6.1900    6.1880   82.0980    0.1670    2.6363   -0.0035    7.5517   37.0000 
14525.0092 14525.0092    8.7500    8.9650   65.2222   48.0601    7.1187    2.4311    1.4100    5.0487    2.9282   10.1110    7.3090    6.2220   83.8520    0.1450    2.6672    0.0022    6.0594   22.0000 
14525.5092 14525.5092    8.7500    8.9650   68.7736   51.6380    7.6257    2.4952    1.5200    5.0169    3.0561    9.1140    7.0140    4.9270   87.9240    0.1310    2.6765   -0.0036    7.3945   22.0000 
14526.0092 14526.0092    8.7500    8.9590   84.0719   64.4044    9.5370    2.9318    1.9000    5.0195    3.2530    7.6950    6.0530    4.8860   91.1190    0.1300    2.6561    0.0046   10.5473   22.0000 
14526.5092 14526.5092    8.7500    8.9640  101.9606   79.3346   11.9916    3.4478    2.2900    5.2365    3.4781    6.1370    5.0820    4.6830   89.2950    0.1520    2.6288    0.0030    6.5693   22.0000 
14527.0092 14527.0092    8.7500    8.9670  112.0832   88.7297   13.7263    3.6374    2.5100    5.4687    3.7737    5.3470    4.2590    4.1430   90.2180    0.1770    2.6096    0.0025    7.2691   37.0000 
14527.5092 14527.5092    8.7500    9.0000  113.8258   92.2247   14.3685    3.4763    2.5900    5.5477    4.1333    4.9270    3.7700    3.7370   91.5120    0.1890    2.5969   -0.0050    9.8534   37.0000 
14528.0092 14528.0092    8.7500    9.0570  111.8618   92.2348   14.3460    3.2565    2.6000    5.5177    4.4053    4.7950    3.5710    3.4780   89.7160    0.1900    2.5886   -0.0023    6.5775   37.0000 
14528.5092 14528.5092    8.7500    9.0990  110.8729   92.0772   14.3387    3.1732    2.5900    5.5362    4.5187    4.7640    3.6330    3.4850   89.6940    0.1870    2.5930   -0.0142    6.7871   37.0000 
