~VERSION INFORMATION
 VERS.                 2.0:   CWLS LOG ASCII STANDARD - VERSION 2.0
 WRAP.                  NO:   SINGLE LINE PER DEPTH STEP
 CREA.                 08/02/2018 08:46:11
#CREATED USING DSPetro VERSION 5000.10.1.3 BY H191660 ON 08/02/2018 08:46:11
~WELL INFORMATION
#MNEM.UNIT       DATA                          DESCRIPTION MNEMONIC
#---------      ---------------------------   --------------------------
 STRT    .FT        12354.5289                : START DEPTH
 STOP    .FT        17894.2270                : STOP DEPTH
 STEP    .FT        1.6404                    : STEP VALUE
 NULL    .      -999.0000                     : NULL VALUE
 DATE    .      08/02/2018                    : LAS file Creation Date
 WELL .      UNIVERSITY_19-5             : Well Name
 COMP .      Neftex Exploration Insights : Company
 FLD  .      PHANTOM (WOLFCAMP)          : Field
 UWI  .      208                         : Unique Well Identifier (UWI)
 LOC  .                                  : Location
 RWS  .      -999                        : Def_Rw
 WST  .      -999                        : Def_Rwt
 SRVC .                                  : Contractor
~CURVE INFORMATION
#MNEM              UNIT       API CODE   Curve Type Comments
#----------  --------------- ----------  ---------- -----------
 DEPTH      .FT                        : Depth       
 DEPTH      .FT                        : Depth       
 BS         .inch                      : BitSize     
 CAL_INCH   .inch                      :             Caliper Log - A representation of the measured diameter of a borehole along its depth
 GR_API     .API                       : GammaRay    Gamma Ray (API) - Measures the intensity of natural gamma-ray radiation emitted from formations containing radioactive elements, such as K, Th and U
 SGR_API    .API                       : GammaRay    Spectral Gamma Ray - Total gamma calibrated to API, measured using a spectoral gamma array tool
 CGR_API    .API                       : GammaRay    Corrected / Computed Gamma Ray - Radiation with the Uranium component removed. Also known as a 'carbonate gamma ray'
 TH_PPM     .ppm                       : Spectral    Thorium Abundance (SGR) - The quantitative elemental abundace of Thorium derived from the Spectral Gamma Ray Log
 K_per        .PC                        :             Potassium Abundance (SGR) - The quantitative elemental abundace of Potassium derived from the Spectral Gamma Ray Log. Also wt_%
 U_PPM      .ppm                       :             Uranium Abundance (SGR) - The quantitative elemental abundace of Uranium derived from the Spectral Gamma Ray Log
 ThK        .PPM                       : Spectral    
 ThU        .PPM                       : Spectral    
 SRES       .ohmm                      :             10" array induction, two foot resistivity
 MRES       .ohm.m                     :             30" array induction, two foot resistivity
 DRES       .ohmm                      :             90" array induction, two foot resistivity log - units of ohmm
 DT_US_FT   .us/ft                     :             Interval Transit Time: Compressional Wave - Evaluates the time it takes for a compressional wave to traverse a fixed distance
 NPHI_RATIO .ratio                     :             Neutron Porosity - Measured with an neutron logging device calibrated to a given matrix (limestone, sandstone and dolomite)
 RHOB_G_CC  .g/cc                      :             Bulk Density - Measures the density of bulk material, including any void space or other materials contained in the subject volume
 DRHO_G_CC  .g/cc                      :             Density Correction - Investigates the correction to the Bulk Density log; used as an indication of hole condition to validate the Bulk Density measure
 PEF_B_E    .b/e-                      : PEF         Photoelectric Factor - A log of photoelectric absorption properties. Often expressed in an approximation unit barns/electron (b/e-)
 LITH       .                          : LITH        Lithology Curve
~A  DEPTH   DEPTH       BS     CAL_INCH   GR_API   SGR_API   CGR_API    TH_PPM     K_per      U_PPM      ThK       ThU       SRES      MRES      DRES    DT_US_FT NPHI_RAT~ RHOB_G_C~ DRHO_G_C~  PEF_B_E     LITH   
# ...
17466.0774 17466.0774    8.7500    8.6177   38.1391   57.9755   38.1391    8.4650    0.6400    3.1374   13.2266    2.6981   10.5947   11.3281   11.4494   69.2170    0.1167    2.5357    0.0052    8.6285   18.0000 
17467.7178 17467.7178    8.7500    8.5824   34.9305   54.7954   34.9305    8.0098    0.5400    3.1538   14.8330    2.5397   13.5444   12.4543   11.3437   76.1466    0.1218    2.5765    0.0177   19.0696   18.0000 
17469.3583 17469.3583    8.7500    8.6516   24.5431   35.8681   24.5431    5.7029    0.3700    1.8702   15.4132    3.0494   17.4860   12.8909   12.6755   64.4302    0.0670    2.6305    0.0148    8.8404   18.0000 
17470.9987 17470.9987    8.7500    8.5700   31.8738   42.6407   31.8738    7.4777    0.4700    1.7328   15.9100    4.3154   21.0323   21.3551   19.3257   65.1819    0.1058    2.6205    0.0173    7.8652   18.0000 
17472.6391 17472.6391    8.7500    8.5855   24.3635   33.4728   24.3635    5.4929    0.4000    1.3703   13.7322    4.0085   19.8945   17.9628   18.4165   66.8314    2.5094    2.5848    0.0141    6.8975   37.0000 
17474.2795 17474.2795    8.7500    8.5735   42.6279   64.9739   42.6279    8.4570    0.8900    3.3279    9.5022    2.5412   33.9849   17.5258   11.6075   85.2172    0.1178    2.6771    0.0246    8.1387   12.0000 
17475.9199 17475.9199    8.7500    8.6064   82.4696  122.4743   82.4696   15.8396    1.8100    6.1896    8.7512    2.5591    5.9491    4.7275    4.0129   89.3628    0.2372    2.5980    0.0095    8.3287   22.0000 
17477.5604 17477.5604    8.7500    8.6343   81.5096  127.8102   81.5096   15.1925    1.8700    7.0686    8.1243    2.1493    1.2318    1.1854    1.1618  113.8185    0.3042    2.5001    0.0082    7.4276   22.0000 
17479.2008 17479.2008    8.7500    8.6502   52.8579   85.2211   52.8579    9.8043    1.2200    4.8205    8.0363    2.0339    1.7784    1.7295    1.8807   96.0871    0.1890    2.5306    0.0176    6.6452   22.0000 
17480.8412 17480.8412    8.7500    8.7445   58.1611   97.3430   58.1611   11.4027    1.2400    5.6571    9.1957    2.0156    6.8794    6.6762    9.0029   89.6692    0.1929    2.5149    0.0212    6.0260   22.0000 
17482.4816 17482.4816    8.7500    8.6753   68.2156  106.4417   68.2156   13.8653    1.3700    5.5284   10.1207    2.5080    4.2507    4.6023    5.4340   71.0818    0.2058    2.4747    0.0107    5.7440   22.0000 
17484.1220 17484.1220    8.7500    8.6604   44.3288   63.3391   44.3288    8.9188    0.9000    2.8048    9.9098    3.1798    2.7370    2.7085    2.9358   69.7725    0.1192    2.5783    0.0054    8.1641   18.0000 
17485.7625 17485.7625    8.7500    8.6770   50.6252   66.5771   50.6252   11.1252    0.8700    2.4576   12.7876    4.5269   12.4143   17.6937   31.6207   81.4354    0.1465    2.5888    0.0079    5.8400   18.0000 
17487.4029 17487.4029    8.7500    8.6756   53.4624   70.6700   53.4624   11.5746    0.9500    2.4530   12.1838    4.7185    8.4236   10.5081   18.2834   84.5053    0.1667    2.5880    0.0100    6.6412   22.0000 
17489.0433 17489.0433    8.7500    8.6816   56.1484   75.8542   56.1484   12.1693    0.9900    2.7932   12.2922    4.3568    7.3588    8.7878   13.2015   84.8406    0.1755    2.5557    0.0084    6.3593   22.0000 
17490.6837 17490.6837    8.7500    8.6774   56.0647   72.8489   56.0647   12.4203    0.9500    2.4375   13.0740    5.0955    6.6800    8.2530   12.8677   80.7102    0.1780    2.5813    0.0135    6.6756   22.0000 
17492.3241 17492.3241    8.7500    8.6728   61.6037   77.6805   61.6037   13.4851    1.0700    2.4541   12.6029    5.4949    6.1447    7.8283   11.5291   81.3701    0.1663    2.5599    0.0142    7.2651   22.0000 
17493.9646 17493.9646    8.7500    8.6770   64.6531   82.1908   64.6531   14.7562    1.0200    2.6211   14.4669    5.6298    5.7484    7.2874   10.5685   81.3546    0.1968    2.5607    0.0131    6.2723   22.0000 
17495.6050 17495.6050    8.7500    8.6760   57.4947   75.2955   57.4947   12.7210    0.9700    2.6732   13.1144    4.7587    5.3265    6.6687   10.9181   81.8043    0.1866    2.5627    0.0093    6.3271   22.0000 
17497.2454 17497.2454    8.7500    8.6858   60.9774   84.5878   60.9774   13.6319    1.0100    3.4944   13.4969    3.9011    6.7513    9.5799   11.6278   82.0882    0.1879    2.5743    0.0207    6.6890   22.0000 
17498.8858 17498.8858    8.7500    8.6799   64.6950   87.0045   64.6950   14.2307    1.1100    3.3047   12.8204    4.3062    5.9639    8.9153   11.6361   81.9609    0.1934    2.5595    0.0134    8.1961   22.0000 
17500.5262 17500.5262    8.7500    8.6562   55.0925   77.2567   55.0925   12.0690    0.9500    3.2394   12.7042    3.7257    5.7270    8.7865   10.4473   84.6765    0.1886    2.5732    0.0111    6.3713   22.0000 
17502.1667 17502.1667    8.7500    8.6533   56.7509   73.9688   56.7509   12.3010    1.0000    2.6492   12.3010    4.6433    6.5540   10.4522   10.4244   84.2694    0.1865    2.5749    0.0133    9.1734   22.0000 
17503.8071 17503.8071    8.7500    8.6751   68.8404   91.1882   68.8404   15.5340    1.1100    3.6797   13.9946    4.2215    6.8873    8.9793    7.6196   84.3671    0.2026    2.5959    0.0207    7.1882   22.0000 
17505.4475 17505.4475    8.7500    8.6742   67.0955   88.7170   67.0955   15.3990    1.0400    3.5962   14.8067    4.2820    5.2036    6.9106    6.6824   90.4845    0.1836    2.5779    0.0094    6.6225   22.0000 
17507.0879 17507.0879    8.7500    8.6742   66.7422   92.6387   66.7422   15.8871    0.9400    4.1757   16.9012    3.8047    3.4395    3.7627    3.7813   89.1643    0.2039    2.5969    0.0121    8.7377   22.0000 
17508.7283 17508.7283    8.7500    8.6686   68.0307   96.8970   68.0307   15.4902    1.0800    4.3894   14.3428    3.5290    3.3183    3.2217    3.2053   84.1261    0.2038    2.5500    0.0194    6.6606   22.0000 
17510.3688 17510.3688    8.7500    8.6163   67.7755   96.3799   67.7755   15.4309    1.0700    4.5976   14.4214    3.3563    3.6810    3.4551    3.2669   82.3717    0.2436    2.5745    0.0197    6.5291   22.0000 
17512.0092 17512.0092    8.7500    8.6064   71.8789   99.9159   71.8789   15.7417    1.2500    4.6530   12.5934    3.3831    2.6774    2.6898    2.7286   85.8086    0.1791    2.5669    0.0225    9.2691   22.0000 
17513.6496 17513.6496    8.7500    8.6110   54.3008   74.7989   54.3008   11.7325    0.9700    3.3035   12.0954    3.5515    7.5276    5.0595    5.6285   84.4028    0.1373    2.6727    0.0451    9.0121   22.0000 
17515.2900 17515.2900    8.7500    8.5513   73.2514  102.3035   73.2514   15.2235    1.4100    4.4184   10.7968    3.4455    2.2396    2.2492    2.3337   84.4944    0.1951    2.5976    0.0285    9.2723   22.0000 
17516.9304 17516.9304    8.7500    8.6784   58.3513   83.0811   58.3513   12.1787    1.1100    3.6405   10.9718    3.3453    6.2845    5.5799    5.6085   80.5794    0.1805    2.6520    0.0231    9.1940   22.0000 
17518.5709 17518.5709    8.7500    8.6841   57.3546   81.6305   57.3546   12.2356    1.0500    3.4370   11.6530    3.5600    5.3374    5.0911    5.6149   83.1009    0.1738    2.6156    0.0143    8.5646   22.0000 
17520.2113 17520.2113    8.7500    8.7296   46.2690   62.3984   46.2690   10.6055    0.7200    2.4556   14.7299    4.3189    9.2931    8.9293    8.4661   79.4526    0.1210    2.6360    0.0125    9.8017   18.0000 
17521.8517 17521.8517    8.7500    8.6276   47.3097   62.7179   47.3097   11.2716    0.6600    2.3147   17.0782    4.8696   15.8881   12.9123   10.0048   72.8494    0.1203    2.6404    0.0163    8.0485   18.0000 
17523.4921 17523.4921    8.7500    8.7512   75.7637   94.1256   75.7637   18.1762    1.0400    2.9879   17.4771    6.0833    5.0234    4.8127    5.3462   85.3977    0.2282    2.5596    0.0128   11.5320   22.0000 
17525.1325 17525.1325    8.7500    8.7406   72.5729   89.8250   72.5729   17.0790    1.0600    2.7966   16.1123    6.1071    4.2718    4.2828    4.2418   82.1166    0.1899    2.6016    0.0101    8.2204   22.0000 
17526.7730 17526.7730    8.7500    8.7448   51.6975   68.9653   51.6975   12.1000    0.7600    2.7009   15.9211    4.4800    6.4946    6.2882    6.1806   76.4750    0.1400    2.6842    0.0309    8.8909   22.0000 
