~VERSION INFORMATION
 VERS.                 2.0:   CWLS LOG ASCII STANDARD - VERSION 2.0
 WRAP.                  NO:   SINGLE LINE PER DEPTH STEP
 CREA.                 08/02/2018 08:46:35
#CREATED USING DSPetro VERSION 5000.10.1.3 BY H191660 ON 08/02/2018 08:46:35
~WELL INFORMATION
#MNEM.UNIT       DATA                          DESCRIPTION MNEMONIC
#---------      ---------------------------   --------------------------
 STRT    .FT        12311.0000                : START DEPTH
 STOP    .FT        17628.0000                : STOP DEPTH
 STEP    .FT        0.5000                    : STEP VALUE
 NULL    .      -999.0000                     : NULL VALUE
 DATE    .      08/02/2018                    : LAS file Creation Date
 WELL  .      UNIVERSITY_20_5                  : Well Name
 COMP  .      Neftex Exploration Insights      : Company
 FLD   .      HALEY (LWR. WOLFCAMP-PENN CONS.) : Field
 STATE .      TEXAS                            : State
 COUNT .      LOVING                           : Country
 API   .      42-301-31423                     : API Number
 UWI   .      212                              : Unique Well Identifier (UWI)
 LOC   .      1320' FNL & 1320' FWL            : Location
 PDAT  .      G.L.                             : Permanent Datum
 EPDAT .      2805                             : Reference Elevation
 LGMEA .      K.B.                             : Log Measured from
 DRMEA .      KELLY BUSHING                    : Drill Measured From
 APDAT .      30                               : Elevation Above Permanent Datum
 KB    .      2835                             : KB Elevation
 DF    .      2834                             : DF Elevation
 GL    .      2805                             : GL Elevation
 RWS   .      -999                             : Def_Rw
 WST   .      -999                             : Def_Rwt
 CNTY  .      LOVING                           : County
 SRVC  .      Baker Atlas                      : Contractor
~CURVE INFORMATION
#MNEM              UNIT       API CODE   Curve Type Comments
#----------  --------------- ----------  ---------- -----------
 DEPTH      .FT                        : Depth       
 DEPTH      .FT                        : Depth       
 BS         .inch                      : BitSize     
 CAL        .inch                      :             
 GR         .API                       : GammaRay    
 K          .%                         : Spectral    Potassium
 TH         .PPM                       : Spectral    Thorium
 U          .PPM                       : Spectral    Uranium
 Th/k       .PPM                       : Spectral    
 Th/U       .PPM                       : Spectral    
 RESD       .ohmm                      :             
 RESM       .ohmm                      :             
 RESS       .ohmm                      :             
 DT         .us/ft                     :             
 DRHO       .G/C3                      : Drho        
 NPHI       .dec                       : Neutron     
 RHOB       .G/C3                      : Density     
 PEF        .b/e-                      : PEF         
 LITH       .                          : LITH        Lithology Curve
~A  DEPTH   DEPTH       BS       CAL        GR        K         TH        U        Th/k      Th/U      RESD      RESM      RESS       DT       DRHO      NPHI      RHOB      PEF       LITH   
# ...
16910.0000 16910.0000    6.5000    6.6430   51.3336    0.6240    8.1210    2.6480   13.0144    3.0668    5.9040    6.0280    6.6220   60.8830   -0.0060    0.1279    2.6070    5.4580   22.0000 
16910.5000 16910.5000    6.5000    6.6450   41.4634    0.5880    6.7330    2.3240   11.4507    2.8972    8.2660    8.5330    9.7610   61.2920   -0.0060    0.1057    2.6150    5.5340   22.0000 
16911.0000 16911.0000    6.5000    6.6230   36.4449    0.5650    5.6310    2.1790    9.9664    2.5842   12.9170   13.5750   17.1840   66.3180   -0.0040    0.0845    2.6350    5.6150   22.0000 
16911.5000 16911.5000    6.5000    6.5940   38.2142    0.5660    5.4910    2.2860    9.7014    2.4020   14.2250   14.8540   19.0260   75.0230   -0.0030    0.0749    2.6480    5.7450   18.0000 
16912.0000 16912.0000    6.5000    6.5890   46.2032    0.6290    5.5460    2.9120    8.8172    1.9045    9.9280   10.1210   11.0400   84.3880   -0.0030    0.0810    2.6420    5.7570   18.0000 
16912.5000 16912.5000    6.5000    6.5990   59.0126    0.8230    6.3390    4.0900    7.7023    1.5499    5.3610    5.3950    5.5150   90.5140   -0.0020    0.1048    2.6200    5.4040   22.0000 
16913.0000 16913.0000    6.5000    6.5970   74.3092    1.0430    7.5940    5.5060    7.2809    1.3792    3.0640    3.0690    3.1360   90.6320   -0.0030    0.1462    2.5850    4.7860   22.0000 
16913.5000 16913.5000    6.5000    6.5810   88.0993    1.0370    8.0650    6.7680    7.7772    1.1916    2.2810    2.2780    2.3470   84.4720   -0.0040    0.1903    2.5460    4.3370   37.0000 
16914.0000 16914.0000    6.5000    6.5680   94.0491    0.9270    8.0920    7.4760    8.7292    1.0824    2.3160    2.3090    2.4440   74.7870   -0.0070    0.1934    2.5150    4.2640   37.0000 
16914.5000 16914.5000    6.5000    6.5660   87.2378    0.9100    7.2860    7.3290    8.0066    0.9941    3.3350    3.3170    3.7610   65.7930   -0.0090    0.1297    2.5060    4.3480   37.0000 
16915.0000 16915.0000    6.5000    6.5620   70.3626    0.8690    4.8670    5.9980    5.6007    0.8114    7.0400    6.8650    9.2890   60.3780   -0.0090    0.0699    2.5270    4.2490   37.0000 
16915.5000 16915.5000    6.5000    6.5580   52.8114    0.6950    3.0880    4.1050    4.4432    0.7523   13.2410   12.4110   26.9600   58.8190   -0.0070    0.0389    2.5670    3.9640   37.0000 
16916.0000 16916.0000    6.5000    6.5600   42.3739    0.4930    2.8670    3.0940    5.8154    0.9266   19.6160   18.0210   83.2720   59.5430   -0.0060    0.0257    2.5990    3.7910   18.0000 
16916.5000 16916.5000    6.5000    6.5610   38.7008    0.3970    2.9950    2.9610    7.5441    1.0115   34.5430   29.9680  113.0590   60.6190   -0.0080    0.0220    2.6060    3.7800   18.0000 
16917.0000 16917.0000    6.5000    6.5590   38.5060    0.3450    3.1830    3.0770    9.2261    1.0344   35.3010   31.4420   58.9510   60.9600   -0.0100    0.0232    2.6000    3.7330   18.0000 
16917.5000 16917.5000    6.5000    6.5680   40.2851    0.2490    3.6340    3.5060   14.5944    1.0365   46.1700   42.8640   51.3530   60.4700   -0.0110    0.0276    2.5940    3.5210   18.0000 
16918.0000 16918.0000    6.5000    6.5850   43.2187    0.1810    4.0110    3.9940   22.1602    1.0043   63.6240   58.8400   53.8680   59.4510   -0.0110    0.0347    2.5940    3.2920   18.0000 
16918.5000 16918.5000    6.5000    6.5890   45.3947    0.1830    4.0560    4.3960   22.1639    0.9227   72.4470   67.2020   52.8490   58.3950   -0.0080    0.0434    2.6050    3.3310   18.0000 
16919.0000 16919.0000    6.5000    6.5820   46.0658    0.2080    3.8920    4.8000   18.7115    0.8108   74.8770   68.7560   54.8300   57.8200   -0.0040    0.0507    2.6200    3.6570   18.0000 
16919.5000 16919.5000    6.5000    6.5780   47.0311    0.2400    3.6300    4.9820   15.1250    0.7286   77.2410   70.7030   59.7460   57.9540   -0.0030    0.0542    2.6220    3.9400   18.0000 
16920.0000 16920.0000    6.5000    6.5730   49.4709    0.2910    3.1940    5.1190   10.9759    0.6240   77.8130   70.0810   60.4470   58.7910   -0.0050    0.0564    2.6140    4.0240   18.0000 
16920.5000 16920.5000    6.5000    6.5650   52.2416    0.3740    2.4780    5.4460    6.6257    0.4550   78.6500   69.4980   56.9480   60.1900   -0.0060    0.0591    2.6120    4.0270   18.0000 
16921.0000 16921.0000    6.5000    6.5680   54.2720    0.4850    1.9260    6.0410    3.9711    0.3188   83.9800   73.4030   55.4760   62.0260   -0.0040    0.0609    2.6180    4.0520   18.0000 
16921.5000 16921.5000    6.5000    6.5750   55.5808    0.5590    1.8790    6.4280    3.3614    0.2923   87.0510   75.9500   56.4770   64.2300   -0.0040    0.0607    2.6170    4.1220   18.0000 
16922.0000 16922.0000    6.5000    6.5790   56.7458    0.5900    2.3460    6.4730    3.9763    0.3624   70.4720   61.7700   50.7200   66.4710   -0.0060    0.0608    2.6060    4.2040   18.0000 
16922.5000 16922.5000    6.5000    6.5760   59.0755    0.6200    3.0870    6.4750    4.9790    0.4768   40.2140   35.6950   32.3540   67.9890   -0.0090    0.0640    2.5930    4.1570   18.0000 
16923.0000 16923.0000    6.5000    6.5650   63.5961    0.6340    3.7820    6.4320    5.9653    0.5880   18.8710   17.1790   16.6530   67.7850   -0.0090    0.0726    2.5840    3.9640   18.0000 
16923.5000 16923.5000    6.5000    6.5530   69.4147    0.6630    4.6140    6.3350    6.9593    0.7283    9.0560    8.5660    8.8210   65.1890   -0.0080    0.0863    2.5770    3.8380   37.0000 
16924.0000 16924.0000    6.5000    6.5530   72.3987    0.7070    5.3710    6.2210    7.5969    0.8634    5.9700    5.8480    6.1970   60.7890   -0.0080    0.0995    2.5690    3.9000   22.0000 
16924.5000 16924.5000    6.5000    6.5580   66.2713    0.6830    5.2830    6.2490    7.7350    0.8454    5.6640    5.6260    6.1960   56.5110   -0.0090    0.0969    2.5720    4.0800   22.0000 
16925.0000 16925.0000    6.5000    6.5600   50.3463    0.5210    4.2620    6.1590    8.1804    0.6920    7.5190    7.5620    9.1060   54.2500   -0.0090    0.0646    2.5970    4.3520   18.0000 
16925.5000 16925.5000    6.5000    6.5600   33.6048    0.3560    2.9340    5.6910    8.2416    0.5156   12.4990   12.6250   18.2270   54.4080   -0.0080    0.0333    2.6350    4.7080   18.0000 
16926.0000 16926.0000    6.5000    6.5530   26.9603    0.3120    2.2010    5.3770    7.0545    0.4093   16.6440   16.8120   28.8100   55.6440   -0.0070    0.0191    2.6610    4.9790   18.0000 
16926.5000 16926.5000    6.5000    6.5470   30.9338    0.3220    2.5910    5.1770    8.0466    0.5005   16.0540   16.1810   24.5960   56.1900   -0.0070    0.0190    2.6690    5.1040   18.0000 
16927.0000 16927.0000    6.5000    6.5550   34.6883    0.3580    3.6180    4.6990   10.1061    0.7700   14.4110   14.3050   18.3780   55.4520   -0.0080    0.0280    2.6660    5.1860   18.0000 
16927.5000 16927.5000    6.5000    6.5710   31.5987    0.3890    4.0660    4.4060   10.4524    0.9228   16.2780   15.9410   18.5470   54.2070   -0.0090    0.0384    2.6650    5.1270   18.0000 
16928.0000 16928.0000    6.5000    6.5780   25.9840    0.4200    3.8870    4.0480    9.2548    0.9602   24.5640   23.5890   25.5430   53.4340   -0.0090    0.0372    2.6750    4.8810   18.0000 
16928.5000 16928.5000    6.5000    6.5770   23.6738    0.4640    4.1220    2.9110    8.8836    1.4160   45.4790   42.7840   44.2850   53.3270   -0.0080    0.0257    2.6920    4.6620   18.0000 
16929.0000 16929.0000    6.5000    6.5740   24.3407    0.4700    4.8530    1.7110   10.3255    2.8364   75.3010   71.7020   72.4920   53.3820   -0.0070    0.0160    2.7070    4.6510   18.0000 
16929.5000 16929.5000    6.5000    6.5690   26.8712    0.4590    5.2900    1.2560   11.5251    4.2118  100.7220   96.9410   94.5520   53.0890   -0.0050    0.0127    2.7140    4.7870   18.0000 
16930.0000 16930.0000    6.5000    6.5680   30.6851    0.4700    5.0390    1.2750   10.7213    3.9522  122.8920  119.7060  109.7650   52.3720   -0.0070    0.0140    2.7040    4.8380   18.0000 
16930.5000 16930.5000    6.5000    6.5680   33.5705    0.5120    4.0520    1.7280    7.9141    2.3449  145.3610  139.1010  118.8630   51.4820   -0.0100    0.0172    2.6760    4.6590   18.0000 
