~VERSION INFORMATION
 VERS.                 2.0:   CWLS LOG ASCII STANDARD - VERSION 2.0
 WRAP.                  NO:   SINGLE LINE PER DEPTH STEP
 CREA.                 08/02/2018 08:52:47
#CREATED USING DSPetro VERSION 5000.10.1.3 BY H191660 ON 08/02/2018 08:52:47
~WELL INFORMATION
#MNEM.UNIT       DATA                          DESCRIPTION MNEMONIC
#---------      ---------------------------   --------------------------
 STRT    .FT        12349.0092                : START DEPTH
 STOP    .FT        16985.0092                : STOP DEPTH
 STEP    .FT        0.5000                    : STEP VALUE
 NULL    .      -999.0000                     : NULL VALUE
 DATE    .      08/02/2018                    : LAS file Creation Date
 WELL  .      UNIVERSITY_19-6           : Well Name
 COMP  .      Anadarko Petroleum Corpor : Company
 FLD   .      LOVING                    : Field
 STATE .      TEXAS                     : State
 COUNT .      Texas                     : Country
 API   .      42301311860000            : API Number
 UWI   .      507                       : Unique Well Identifier (UWI)
 LOC   .      Onshore                   : Location
 TOWN  .      19                        : Township
 SCT   .      6                         : Section
 RANG  .      University Land           : Range
 LATI  .      3509001.74                : Latitude/Northing
 LONG  .      644715.32                 : Longitude/Easting
 PDAT  .      Ground Level              : Permanent Datum
 EPDAT .      2810                      : Reference Elevation
 LGMEA .      Kelly Bushing             : Log Measured from
 DRMEA .      Kelly Bushing             : Drill Measured From
 APDAT .      31                        : Elevation Above Permanent Datum
 KB    .      2841                      : KB Elevation
 DF    .      2840                      : DF Elevation
 GL    .      2810                      : GL Elevation
 RWS   .      0                         : Def_Rw
 WST   .      0                         : Def_Rwt
 UTMZ  .      13                        : UTM Zone
 BHS   .      OPEN                      : Completion Status
 CNTY  .      LOVING                    : County
 MDEC  .      0                         : Magnetic Declination
 SRVC  .      SCH                       : Contractor
~CURVE INFORMATION
#MNEM              UNIT       API CODE   Curve Type Comments
#----------  --------------- ----------  ---------- -----------
 DEPTH      .FT                        : Depth       
 DEPTH      .FT                        : Depth       
 BS         .IN                        : BitSize     Bit Size {F13.4}
 CAL        .IN                        :             
 HSGR       .GAPI                      :             
 HCGR       .GAPI                      :             
 TH         .PPM                       :             HNGS Formation Thorium Concentration {F13.4}
 U          .PPM                       :             HNGS Formation Uranium Concentration {F13.4}
 K          .CFCF                      :             HNGS Formation Potassium Concentration {F13.4}
 ThK        .PPM                       : Spectral    
 ThU        .PPM                       : Spectral    
 RSHALLOW   .OHMM                      :             12  RSHALLOW
 RMEDIUM    .OHMM                      :             13  Medium Resistivity
 RDEEP      .OHMM                      : DeepRes     14  Deep Resistivity
 DT         .US/F                      : Sonic       DT
 NPHI       .dec                       : Neutron     NPHI
 RHOB       .G/C3                      : Density     
 DRHO       .G/CC                      : Drho        
 PEF        .                          :             
 LITH       .                          : LITH        Lithology Curve
~A  DEPTH   DEPTH       BS       CAL       HSGR      HCGR       TH        U         K        ThK       ThU     RSHALLOW  RMEDIUM    RDEEP       DT       NPHI      RHOB      DRHO      PEF       LITH   
# ...
14809.0092 14809.0092    8.7500    8.1170   80.0179   67.4770   11.3983    2.1625    1.7500    6.5133    5.2709    9.3680    6.5740    5.7070   79.5450    0.1620    2.6296   -0.0085    7.7602   37.0000 
14809.5092 14809.5092    8.7500    8.1170   79.7489   66.9503   11.3754    2.1644    1.7200    6.6136    5.2557    9.3590    6.4920    5.8290   73.6420    0.1180    2.6391   -0.0052    6.6556   22.0000 
14810.0092 14810.0092    8.7500    8.1110   77.1650   64.3940   10.9282    2.1030    1.6600    6.5833    5.1965    9.2730    6.4220    5.8710   70.9740    0.0840    2.6404   -0.0126    5.6326   22.0000 
14810.5092 14810.5092    8.7500    8.0770   68.7675   56.8922    9.7072    1.9215    1.4600    6.6487    5.0518    8.8000    6.4890    6.0810   69.5630    0.0680    2.6380   -0.0025   10.6339   22.0000 
14811.0092 14811.0092    8.7500    8.0610   57.2509   46.8451    8.0472    1.6708    1.1900    6.7623    4.8163   11.1990    7.5940    7.3790   70.0030    0.0650    2.6446    0.0054    9.7760   22.0000 
14811.5092 14811.5092    8.7500    8.0700   51.4588   42.1982    7.2764    1.4993    1.0700    6.8004    4.8532   18.1510   10.8440   10.3190   69.6840    0.0670    2.6625    0.0033   14.9140   22.0000 
14812.0092 14812.0092    8.7500    8.0860   55.6051   45.0389    7.7021    1.6989    1.1500    6.6975    4.5336   21.3220   13.4440   12.5470   71.2240    0.0670    2.6824   -0.0038   11.6964   22.0000 
14812.5092 14812.5092    8.7500    8.0630   63.8773   49.7789    8.4914    2.2127    1.2700    6.6861    3.8376   13.3590    9.0370    9.1800   72.8670    0.0710    2.6787   -0.0092   18.8426   22.0000 
14813.0092 14813.0092    8.7500    8.0130   70.3084   52.7716    8.9509    2.6636    1.3600    6.5815    3.3605    8.8660    6.7880    7.3460   74.2980    0.0900    2.6503   -0.0186   11.7819   37.0000 
14813.5092 14813.5092    8.7500    8.0150   73.0137   54.2146    9.2097    2.8196    1.3900    6.6257    3.2663    7.2990    5.9370    6.0820   72.8110    0.1220    2.6227   -0.0144    7.7831   37.0000 
14814.0092 14814.0092    8.7500    8.0230   69.0600   52.6314    9.0261    2.5241    1.3400    6.7359    3.5759    7.2700    5.7470    5.6460   69.4670    0.1500    2.6111   -0.0076   10.3793   37.0000 
14814.5092 14814.5092    8.7500    8.0240   58.6090   45.8656    7.7627    2.0023    1.1800    6.5785    3.8768    8.6160    6.5740    6.1420   70.4410    0.1520    2.6248   -0.0100   13.1017   37.0000 
14815.0092 14815.0092    8.7500    8.0280   48.4784   38.1819    6.4674    1.6368    0.9800    6.5993    3.9512   12.4680    8.9250    7.8320   71.2760    0.1450    2.6546   -0.0097   17.6091   22.0000 
14815.5092 14815.5092    8.7500    8.0310   46.7733   35.9321    6.1265    1.7114    0.9200    6.6592    3.5798   20.2660   12.9050   11.0840   70.5580    0.1280    2.6777   -0.0056    8.8185   22.0000 
14816.0092 14816.0092    8.7500    8.0440   54.1317   41.1120    6.8615    2.0388    1.0800    6.3533    3.3655   19.3820   12.0400   11.3550   73.9410    0.1070    2.6715   -0.0044   10.4587   22.0000 
14816.5092 14816.5092    8.7500    8.0500   63.6682   49.0508    7.9835    2.2841    1.3200    6.0482    3.4953   12.7640    8.9100    8.1380   77.1920    0.0950    2.6562   -0.0021    9.9204   22.0000 
14817.0092 14817.0092    8.7500    8.0770   70.5585   54.5410    8.6822    2.4955    1.5000    5.7881    3.4791    9.9340    6.9870    6.5080   77.9620    0.1010    2.6501    0.0015   12.5650   22.0000 
14817.5092 14817.5092    8.7500    8.0730   73.4104   57.3685    9.0507    2.5264    1.5900    5.6923    3.5824    8.6740    6.1320    5.5970   80.6690    0.1230    2.6508    0.0044    6.6158   37.0000 
14818.0092 14818.0092    8.7500    8.0800   76.0198   60.5089    9.5788    2.4773    1.6700    5.7358    3.8666    7.9290    5.7430    5.3350   83.9740    0.1420    2.6360    0.0030   10.7917   37.0000 
14818.5092 14818.5092    8.7500    8.0860   81.3237   65.0289   10.1852    2.6046    1.8200    5.5963    3.9105    7.3490    5.4030    5.1220   83.7780    0.1400    2.6069   -0.0288    7.7384   37.0000 
14819.0092 14819.0092    8.7500    8.0880   86.3547   69.2102   10.7651    2.7452    1.9500    5.5206    3.9214    6.7690    4.8400    4.5790   82.3620    0.1370    2.5779   -0.0364   14.0593   37.0000 
14819.5092 14819.5092    8.7500    8.0870   87.0094   69.8446   10.8527    2.7644    1.9700    5.5090    3.9259    5.7870    4.2620    4.0980   76.3750    0.1500    2.5690   -0.0342   15.7449   37.0000 
14820.0092 14820.0092    8.7500    8.0820   81.8067   65.7844   10.1227    2.5896    1.8700    5.4132    3.9090    5.5340    4.2040    4.1140   77.6750    0.1690    2.5833   -0.0234    6.6643   37.0000 
14820.5092 14820.5092    8.7500    8.0800   73.5020   59.5353    9.0212    2.2435    1.7200    5.2448    4.0210    6.3300    4.7040    4.6050   75.3670    0.1790    2.6051   -0.0120    8.0479   37.0000 
14821.0092 14821.0092    8.7500    8.0750   65.9951   54.2240    8.1536    1.8968    1.5700    5.1933    4.2985    7.4440    5.4270    5.1120   73.5860    0.1660    2.6264   -0.0123    8.7647   37.0000 
14821.5092 14821.5092    8.7500    8.0830   63.1465   52.3927    7.8892    1.7644    1.5200    5.1903    4.4713    9.3490    6.7060    6.0730   73.4510    0.1570    2.6469   -0.0231    7.9703   22.0000 
14822.0092 14822.0092    8.7500    8.0770   66.6274   54.9602    8.3740    1.9030    1.5800    5.3000    4.4004   12.4030    8.5880    7.6360   72.0220    0.1460    2.6587   -0.0028    8.8116   22.0000 
14822.5092 14822.5092    8.7500    8.0800   73.0625   60.5628    9.5505    2.0858    1.6800    5.6849    4.5789   12.7550    9.4800    8.1120   74.0450    0.1290    2.6563   -0.0008   10.4357   22.0000 
14823.0092 14823.0092    8.7500    8.0740   78.0123   64.6642   10.4895    2.2907    1.7500    5.9940    4.5792    9.8330    7.7490    7.0320   76.2280    0.1170    2.6380   -0.0023   10.7844   22.0000 
14823.5092 14823.5092    8.7500    8.0710   78.7543   64.5063   10.4359    2.4391    1.7500    5.9634    4.2786    7.7820    6.2570    5.9040   75.8290    0.1280    2.6205   -0.0092    9.4683   37.0000 
14824.0092 14824.0092    8.7500    8.0670   76.2157   63.0410   10.1497    2.2938    1.7200    5.9010    4.4248    7.3210    6.0230    5.5880   76.3900    0.1480    2.6174   -0.0131    7.1830   37.0000 
14824.5092 14824.5092    8.7500    8.0730   72.5024   61.0542    9.7317    2.0409    1.6800    5.7927    4.7683    7.8890    6.3370    5.8990   76.5430    0.1530    2.6239   -0.0061    7.2470   37.0000 
14825.0092 14825.0092    8.7500    8.0740   69.4587   58.3596    9.2944    1.9494    1.6100    5.7729    4.7678    8.5990    6.6590    6.1180   78.6900    0.1430    2.6356    0.0015    6.9381   37.0000 
14825.5092 14825.5092    8.7500    8.0750   69.1133   57.0942    9.2393    2.0615    1.5500    5.9608    4.4818    9.2460    7.0310    6.2580   77.8470    0.1430    2.6444   -0.0030    8.3682   37.0000 
14826.0092 14826.0092    8.7500    8.0760   70.5429   57.2653    9.3501    2.2527    1.5400    6.0715    4.1506   10.0880    7.4580    6.4590   77.0020    0.1580    2.6453   -0.0132    9.2755   37.0000 
14826.5092 14826.5092    8.7500    8.0740   75.0210   60.9355   10.2202    2.4058    1.5900    6.4278    4.2482   10.4360    7.6200    6.2790   76.6040    0.1720    2.6293   -0.0047    8.7789   37.0000 
14827.0092 14827.0092    8.7500    8.0770   78.5443   63.6662   11.0034    2.5815    1.6000    6.8771    4.2624    9.3380    7.0020    5.8970   75.8790    0.1710    2.6147   -0.0067    7.9023   37.0000 
14827.5092 14827.5092    8.7500    8.0820   77.4989   62.2815   10.7876    2.6864    1.5700    6.8711    4.0156    8.3340    6.3770    5.6290   77.3740    0.1690    2.6107   -0.0019   11.5495   37.0000 
14828.0092 14828.0092    8.7500    8.0860   70.7662   56.5764    9.5426    2.4820    1.4700    6.4915    3.8447    8.1180    6.1600    5.5160   75.0230    0.1630    2.6146    0.0018    7.4431   22.0000 
14828.5092 14828.5092    8.7500    8.0860   61.6382   48.8969    8.0359    2.1391    1.3000    6.1814    3.7566    8.6990    6.3240    5.9240   74.4440    0.1600    2.6209   -0.0013    6.8039   22.0000 
