~VERSION INFORMATION
 VERS.                 2.0:   CWLS LOG ASCII STANDARD - VERSION 2.0
 WRAP.                  NO:   SINGLE LINE PER DEPTH STEP
 CREA.                 08/02/2018 08:52:47
#CREATED USING DSPetro VERSION 5000.10.1.3 BY H191660 ON 08/02/2018 08:52:47
~WELL INFORMATION
#MNEM.UNIT       DATA                          DESCRIPTION MNEMONIC
#---------      ---------------------------   --------------------------
 STRT    .FT        12349.0092                : START DEPTH
 STOP    .FT        16985.0092                : STOP DEPTH
 STEP    .FT        0.5000                    : STEP VALUE
 NULL    .      -999.0000                     : NULL VALUE
 DATE    .      08/02/2018                    : LAS file Creation Date
 WELL  .      UNIVERSITY_19-6           : Well Name
 COMP  .      Anadarko Petroleum Corpor : Company
 FLD   .      LOVING                    : Field
 STATE .      TEXAS                     : State
 COUNT .      Texas                     : Country
 API   .      42301311860000            : API Number
 UWI   .      507                       : Unique Well Identifier (UWI)
 LOC   .      Onshore                   : Location
 TOWN  .      19                        : Township
 SCT   .      6                         : Section
 RANG  .      University Land           : Range
 LATI  .      3509001.74                : Latitude/Northing
 LONG  .      644715.32                 : Longitude/Easting
 PDAT  .      Ground Level              : Permanent Datum
 EPDAT .      2810                      : Reference Elevation
 LGMEA .      Kelly Bushing             : Log Measured from
 DRMEA .      Kelly Bushing             : Drill Measured From
 APDAT .      31                        : Elevation Above Permanent Datum
 KB    .      2841                      : KB Elevation
 DF    .      2840                      : DF Elevation
 GL    .      2810                      : GL Elevation
 RWS   .      0                         : Def_Rw
 WST   .      0                         : Def_Rwt
 UTMZ  .      13                        : UTM Zone
 BHS   .      OPEN                      : Completion Status
 CNTY  .      LOVING                    : County
 MDEC  .      0                         : Magnetic Declination
 SRVC  .      SCH                       : Contractor
~CURVE INFORMATION
#MNEM              UNIT       API CODE   Curve Type Comments
#----------  --------------- ----------  ---------- -----------
 DEPTH      .FT                        : Depth       
 DEPTH      .FT                        : Depth       
 BS         .IN                        : BitSize     Bit Size {F13.4}
 CAL        .IN                        :             
 HSGR       .GAPI                      :             
 HCGR       .GAPI                      :             
 TH         .PPM                       :             HNGS Formation Thorium Concentration {F13.4}
 U          .PPM                       :             HNGS Formation Uranium Concentration {F13.4}
 K          .CFCF                      :             HNGS Formation Potassium Concentration {F13.4}
 ThK        .PPM                       : Spectral    
 ThU        .PPM                       : Spectral    
 RSHALLOW   .OHMM                      :             12  RSHALLOW
 RMEDIUM    .OHMM                      :             13  Medium Resistivity
 RDEEP      .OHMM                      : DeepRes     14  Deep Resistivity
 DT         .US/F                      : Sonic       DT
 NPHI       .dec                       : Neutron     NPHI
 RHOB       .G/C3                      : Density     
 DRHO       .G/CC                      : Drho        
 PEF        .                          :             
 LITH       .                          : LITH        Lithology Curve
~A  DEPTH   DEPTH       BS       CAL       HSGR      HCGR       TH        U         K        ThK       ThU     RSHALLOW  RMEDIUM    RDEEP       DT       NPHI      RHOB      DRHO      PEF       LITH   
# ...
15129.0092 15129.0092    8.7500    8.2260   64.8808   43.7694    7.8081    3.1491    1.0600    7.3661    2.4795   10.1290    9.1630    9.1340   55.0940    0.1210    2.6237   -0.0127    6.0022   37.0000 
15129.5092 15129.5092    8.7500    8.2220   60.7555   42.0559    7.4824    2.8003    1.0200    7.3357    2.6720   10.1620    9.1150    9.1380   54.3940    0.1410    2.6525   -0.0066    7.9134   37.0000 
15130.0092 15130.0092    8.7500    8.2010   54.9595   38.9094    6.9918    2.4004    0.9300    7.5181    2.9127   12.2290   11.0670   11.0970   55.3640    0.1400    2.6745    0.0032    7.0110   37.0000 
15130.5092 15130.5092    8.7500    8.2210   51.8008   37.2324    6.6799    2.2003    0.9000    7.4221    3.0359   14.1410   13.0520   13.1060   54.9890    0.1150    2.6788    0.0048    8.9893   37.0000 
15131.0092 15131.0092    8.7500    8.2490   51.4006   37.1784    6.6625    2.1458    0.9000    7.4028    3.1049   13.6790   13.0970   13.1750   58.3630    0.0940    2.6728    0.0008    9.7294   37.0000 
15131.5092 15131.5092    8.7500    8.2480   51.1510   37.1173    6.5389    2.0983    0.9100    7.1856    3.1163   13.3660   12.8970   13.2690   57.0700    0.0880    2.6688   -0.0035    8.7694   37.0000 
15132.0092 15132.0092    8.7500    8.2440   50.4155   35.8936    6.2597    2.1190    0.8900    7.0334    2.9541   13.2400   12.9210   13.3520   53.3240    0.0900    2.6688    0.0095   12.0632   37.0000 
15132.5092 15132.5092    8.7500    8.2530   49.8526   34.6431    6.1978    2.1702    0.8400    7.3783    2.8559   12.9600   12.5390   13.0610   53.0970    0.0890    2.6668    0.0046   10.4346   37.0000 
15133.0092 15133.0092    8.7500    8.2520   50.9263   35.4878    6.5027    2.2046    0.8300    7.8346    2.9496   12.6180   12.0970   12.6700   52.8840    0.0890    2.6589   -0.0029   13.7046   37.0000 
15133.5092 15133.5092    8.7500    8.2470   52.0162   37.0888    6.8580    2.1664    0.8600    7.9744    3.1656   12.3010   11.5040   11.9550   52.3770    0.0960    2.6539   -0.0094    8.7302   37.0000 
15134.0092 15134.0092    8.7500    8.2490   52.5736   38.3636    7.3050    2.1360    0.8500    8.5941    3.4199   11.7010   10.7370   10.8510   52.0910    0.1060    2.6623   -0.0090    7.7964   37.0000 
15134.5092 15134.5092    8.7500    8.2410   52.9240   38.1616    7.4506    2.2457    0.8200    9.0861    3.3177   11.3740   10.2870   10.3940   51.7570    0.1160    2.6747   -0.0052    7.9643   37.0000 
15135.0092 15135.0092    8.7500    8.2380   53.7414   38.4041    7.5371    2.3362    0.8100    9.3050    3.2262   11.1690    9.9880    9.8350   51.2860    0.1130    2.6785   -0.0020    6.2978   37.0000 
15135.5092 15135.5092    8.7500    8.2380   54.6795   39.3565    7.7686    2.3573    0.8300    9.3598    3.2955   10.9520    9.7150    9.4740   49.6100    0.1030    2.6785   -0.0001    9.6420   37.0000 
15136.0092 15136.0092    8.7500    8.2110   54.2447   39.5149    7.7741    2.2353    0.8300    9.3664    3.4779   10.7800    9.5330    8.9630   50.9030    0.0960    2.6822   -0.0053    7.5665   37.0000 
15136.5092 15136.5092    8.7500    8.1960   54.6317   40.3934    7.9250    2.1520    0.8600    9.2151    3.6826   10.1640    8.8030    8.7370   50.8160    0.0920    2.6832   -0.0080   11.1802   37.0000 
15137.0092 15137.0092    8.7500    8.1740   55.5545   41.7081    8.2434    2.1334    0.8700    9.4752    3.8640    9.2290    8.0610    8.5320   55.8720    0.0940    2.6784   -0.0160    8.9965   37.0000 
15137.5092 15137.5092    8.7500    8.1470   56.8360   43.2746    8.5428    2.1198    0.9100    9.3877    4.0300    9.9090    8.4390    9.7070   57.6210    0.0970    2.6689   -0.0101   13.0868   37.0000 
15138.0092 15138.0092    8.7500    8.1450   59.0454   45.7462    8.9231    2.1133    0.9800    9.1052    4.2223   12.6910   10.9660   12.0020   59.9870    0.1030    2.6552    0.0014    9.2993   37.0000 
15138.5092 15138.5092    8.7500    8.1440   63.0163   49.4028    9.5257    2.1648    1.0800    8.8201    4.4003   17.5330   14.6810   14.5860   60.0800    0.1080    2.6413   -0.0073   12.6918   37.0000 
15139.0092 15139.0092    8.7500    8.1390   68.2419   53.1451   10.1052    2.3763    1.1800    8.5637    4.2525   14.4890   11.0720   11.6470   56.7100    0.1190    2.6252   -0.0187   12.5329   37.0000 
15139.5092 15139.5092    8.7500    8.1450   70.1016   52.9633    9.7882    2.6356    1.2300    7.9579    3.7139   11.2460    9.0200    9.1600   56.3600    0.1390    2.6099   -0.0184   20.0513   37.0000 
15140.0092 15140.0092    8.7500    8.1430   66.7779   49.2412    8.9887    2.6269    1.1600    7.7489    3.4218    9.4260    8.4350    8.3820   51.8440    0.1620    2.6088   -0.0178   17.0759   37.0000 
15140.5092 15140.5092    8.7500    8.1340   58.1105   42.3563    7.7322    2.3370    1.0000    7.7321    3.3086   10.9070    8.4520    8.5750   61.6590    0.1710    2.6329   -0.0125   10.6599   22.0000 
15141.0092 15141.0092    8.7500    8.1460   46.4743   32.7787    5.9250    2.0303    0.7800    7.5960    2.9183   19.6330   12.7570   12.7500   60.6710    0.1700    2.6732   -0.0016   11.9400   22.0000 
15141.5092 15141.5092    8.7500    8.1710   37.5968   25.5430    4.6449    1.8126    0.6000    7.7413    2.5625   33.9910   19.2570   19.5940   63.5030    0.1340    2.7049   -0.0030   12.8057   22.0000 
15142.0092 15142.0092    8.7500    8.2390   34.6239   22.7236    4.1507    1.8240    0.5300    7.8315    2.2756   40.0460   26.6790   24.6450   65.8000    0.0790    2.7182   -0.0026   10.0666   18.0000 
15142.5092 15142.5092    8.7500    8.2940   37.4178   23.7531    4.3286    2.1008    0.5600    7.7296    2.0605   45.5620   27.9500   23.1390   66.0810    0.0490    2.7178   -0.0018   15.8638   18.0000 
15143.0092 15143.0092    8.7500    8.2950   41.6757   26.0902    4.8060    2.3910    0.6100    7.8787    2.0100   41.3530   25.9320   16.9000   65.5870    0.0410    2.7046   -0.0062    8.9777   18.0000 
15143.5092 15143.5092    8.7500    8.3230   45.5227   28.1074    5.2734    2.6496    0.6400    8.2397    1.9903   26.2860   19.5400   11.4460   65.6030    0.0450    2.6847   -0.0014    9.4007   18.0000 
15144.0092 15144.0092    8.7500    8.3240   49.0162   29.4647    5.5985    2.9304    0.6600    8.4826    1.9105   20.4510   16.4130    8.2260   65.7640    0.0510    2.6702    0.0014    8.7055   22.0000 
15144.5092 15144.5092    8.7500    8.3580   51.2305   30.8946    5.9516    3.0183    0.6700    8.8830    1.9718   18.3730   14.2690    6.5740   65.9990    0.0670    2.6674    0.0040   18.7204   22.0000 
15145.0092 15145.0092    8.7500    8.3380   51.8399   32.6932    6.2439    2.8374    0.7200    8.6721    2.2006   19.9020   13.8550    5.6930   66.3670    0.0880    2.6708    0.0006   10.9283   22.0000 
15145.5092 15145.5092    8.7500    8.3970   52.3294   34.8553    6.4984    2.6237    0.8000    8.1230    2.4768   17.3660   12.5210    5.1930   68.8210    0.0980    2.6726    0.0023    7.4856   22.0000 
15146.0092 15146.0092    8.7500    8.4300   54.1390   37.0584    6.8825    2.5827    0.8500    8.0971    2.6648   11.0040   10.8230    4.9840   72.9130    0.0960    2.6762    0.0006    7.5982   22.0000 
15146.5092 15146.5092    8.7500    8.4440   58.7513   41.4096    7.7285    2.6329    0.9500    8.1354    2.9354   14.2660   11.6610    4.9620   63.7780    0.0920    2.6820   -0.0024    9.2398   22.0000 
15147.0092 15147.0092    8.7500    8.4410   66.0838   48.6348    9.0827    2.6831    1.1100    8.1827    3.3852   10.6800   10.1100    5.0430   66.0220    0.0960    2.6760   -0.0019    9.5371   22.0000 
15147.5092 15147.5092    8.7500    8.4320   73.7282   56.3479   10.5355    2.6769    1.2800    8.2309    3.9357    7.6310    7.8040    4.8290   69.0650    0.1000    2.6579   -0.0146    6.7887   22.0000 
15148.0092 15148.0092    8.7500    8.4370   77.1292   59.9860   11.2822    2.6422    1.3600    8.2957    4.2700    6.0720    5.7290    4.0240   70.5140    0.1140    2.6391   -0.0057    8.0760   37.0000 
15148.5092 15148.5092    8.7500    8.4570   75.0237   58.2607   10.9388    2.6139    1.3200    8.2870    4.1849    7.4170    5.8990    3.7740   71.3490    0.1440    2.6298    0.0032    8.7712   37.0000 
