~VERSION INFORMATION
 VERS.                 2.0:   CWLS LOG ASCII STANDARD - VERSION 2.0
 WRAP.                  NO:   SINGLE LINE PER DEPTH STEP
 CREA.                 08/02/2018 08:46:35
#CREATED USING DSPetro VERSION 5000.10.1.3 BY H191660 ON 08/02/2018 08:46:35
~WELL INFORMATION
#MNEM.UNIT       DATA                          DESCRIPTION MNEMONIC
#---------      ---------------------------   --------------------------
 STRT    .FT        12311.0000                : START DEPTH
 STOP    .FT        17628.0000                : STOP DEPTH
 STEP    .FT        0.5000                    : STEP VALUE
 NULL    .      -999.0000                     : NULL VALUE
 DATE    .      08/02/2018                    : LAS file Creation Date
 WELL  .      UNIVERSITY_20_5                  : Well Name
 COMP  .      Neftex Exploration Insights      : Company
 FLD   .      HALEY (LWR. WOLFCAMP-PENN CONS.) : Field
 STATE .      TEXAS                            : State
 COUNT .      LOVING                           : Country
 API   .      42-301-31423                     : API Number
 UWI   .      212                              : Unique Well Identifier (UWI)
 LOC   .      1320' FNL & 1320' FWL            : Location
 PDAT  .      G.L.                             : Permanent Datum
 EPDAT .      2805                             : Reference Elevation
 LGMEA .      K.B.                             : Log Measured from
 DRMEA .      KELLY BUSHING                    : Drill Measured From
 APDAT .      30                               : Elevation Above Permanent Datum
 KB    .      2835                             : KB Elevation
 DF    .      2834                             : DF Elevation
 GL    .      2805                             : GL Elevation
 RWS   .      -999                             : Def_Rw
 WST   .      -999                             : Def_Rwt
 CNTY  .      LOVING                           : County
 SRVC  .      Baker Atlas                      : Contractor
~CURVE INFORMATION
#MNEM              UNIT       API CODE   Curve Type Comments
#----------  --------------- ----------  ---------- -----------
 DEPTH      .FT                        : Depth       
 DEPTH      .FT                        : Depth       
 BS         .inch                      : BitSize     
 CAL        .inch                      :             
 GR         .API                       : GammaRay    
 K          .%                         : Spectral    Potassium
 TH         .PPM                       : Spectral    Thorium
 U          .PPM                       : Spectral    Uranium
 Th/k       .PPM                       : Spectral    
 Th/U       .PPM                       : Spectral    
 RESD       .ohmm                      :             
 RESM       .ohmm                      :             
 RESS       .ohmm                      :             
 DT         .us/ft                     :             
 DRHO       .G/C3                      : Drho        
 NPHI       .dec                       : Neutron     
 RHOB       .G/C3                      : Density     
 PEF        .b/e-                      : PEF         
 LITH       .                          : LITH        Lithology Curve
~A  DEPTH   DEPTH       BS       CAL        GR        K         TH        U        Th/k      Th/U      RESD      RESM      RESS       DT       DRHO      NPHI      RHOB      PEF       LITH   
# ...
14411.0000 14411.0000    8.5000    8.2770   51.6693 -999.0000 -999.0000 -999.0000 -999.0000 -999.0000    4.6670    4.6000    4.7970   84.4400   -0.0080    0.2345    2.5920    4.4740   37.0000 
14411.5000 14411.5000    8.5000    8.2660   52.3491 -999.0000 -999.0000 -999.0000 -999.0000 -999.0000    4.6870    4.6130    4.7960   84.3250   -0.0080    0.2446    2.5910    4.4950   37.0000 
14412.0000 14412.0000    8.5000    8.2330   53.5753 -999.0000 -999.0000 -999.0000 -999.0000 -999.0000    4.9080    4.8230    5.0040   83.0880   -0.0120    0.2443    2.5850    4.5760   37.0000 
14412.5000 14412.5000    8.5000    8.2160   52.5136 -999.0000 -999.0000 -999.0000 -999.0000 -999.0000    5.3950    5.2910    5.4850   80.1900   -0.0160    0.2319    2.5810    4.6490   37.0000 
14413.0000 14413.0000    8.5000    8.2180   49.2912 -999.0000 -999.0000 -999.0000 -999.0000 -999.0000    6.2970    6.1630    6.3990   75.9570   -0.0190    0.2158    2.5850    4.6070   22.0000 
14413.5000 14413.5000    8.5000    8.2160   45.6244 -999.0000 -999.0000 -999.0000 -999.0000 -999.0000    7.8820    7.6930    8.0220   71.7940   -0.0190    0.2023    2.6010    4.5370   22.0000 
14414.0000 14414.0000    8.5000    8.2080   41.7079 -999.0000 -999.0000 -999.0000 -999.0000 -999.0000    9.4900    9.2480    9.7170   69.6380   -0.0180    0.1875    2.6300    4.6840   22.0000 
14414.5000 14414.5000    8.5000    8.2090   37.7189 -999.0000 -999.0000 -999.0000 -999.0000 -999.0000    8.9720    8.7720    9.1230   70.7220   -0.0170    0.1767    2.6580    5.1980   22.0000 
14415.0000 14415.0000    8.5000    8.2110   36.6098 -999.0000 -999.0000 -999.0000 -999.0000 -999.0000    6.8150    6.7000    6.8610   74.5400   -0.0200    0.1793    2.6580    5.6570   22.0000 
14415.5000 14415.5000    8.5000    8.2090   40.4616 -999.0000 -999.0000 -999.0000 -999.0000 -999.0000    5.3930    5.3260    5.4310   79.0970   -0.0250    0.1975    2.6260    5.5190   22.0000 
14416.0000 14416.0000    8.5000    8.2090   46.0510 -999.0000 -999.0000 -999.0000 -999.0000 -999.0000    4.9680    4.9150    5.0020   82.3890   -0.0260    0.2195    2.5940    4.9730   22.0000 
14416.5000 14416.5000    8.5000    8.2150   49.9423 -999.0000 -999.0000 -999.0000 -999.0000 -999.0000    4.9680    4.9200    5.0100   83.7790   -0.0210    0.2238    2.5830    4.4830   37.0000 
14417.0000 14417.0000    8.5000    8.2250   52.6350 -999.0000 -999.0000 -999.0000 -999.0000 -999.0000    4.9100    4.8640    4.9680   83.9690   -0.0150    0.2160    2.5870    4.2130   22.0000 
14417.5000 14417.5000    8.5000    8.2380   54.1932 -999.0000 -999.0000 -999.0000 -999.0000 -999.0000    4.7180    4.6740    4.7910   84.0130   -0.0120    0.2144    2.5900    4.1270   22.0000 
14418.0000 14418.0000    8.5000    8.2440   53.7362 -999.0000 -999.0000 -999.0000 -999.0000 -999.0000    4.5220    4.4800    4.5960   84.3980   -0.0120    0.2212    2.5880    4.2110   22.0000 
14418.5000 14418.5000    8.5000    8.2400   53.3045 -999.0000 -999.0000 -999.0000 -999.0000 -999.0000    4.3420    4.2990    4.4030   84.8950   -0.0120    0.2288    2.5830    4.3800   37.0000 
14419.0000 14419.0000    8.5000    8.2330   54.1950 -999.0000 -999.0000 -999.0000 -999.0000 -999.0000    4.2490    4.2060    4.3010   85.1120   -0.0130    0.2352    2.5810    4.4850   37.0000 
14419.5000 14419.5000    8.5000    8.2260   55.4704 -999.0000 -999.0000 -999.0000 -999.0000 -999.0000    4.3430    4.2980    4.3960   84.9160   -0.0120    0.2395    2.5840    4.4940   37.0000 
14420.0000 14420.0000    8.5000    8.2190   55.9386 -999.0000 -999.0000 -999.0000 -999.0000 -999.0000    4.5390    4.4910    4.6020   84.4910   -0.0100    0.2322    2.5920    4.4660   37.0000 
14420.5000 14420.5000    8.5000    8.2270   56.0505 -999.0000 -999.0000 -999.0000 -999.0000 -999.0000    4.6140    4.5650    4.6870   84.1320   -0.0080    0.2205    2.6020    4.4230   22.0000 
14421.0000 14421.0000    8.5000    8.2490   56.0704 -999.0000 -999.0000 -999.0000 -999.0000 -999.0000    4.5420    4.4980    4.6240   84.0520   -0.0070    0.2174    2.6060    4.4130   22.0000 
14421.5000 14421.5000    8.5000    8.2610   56.0224 -999.0000 -999.0000 -999.0000 -999.0000 -999.0000    4.4760    4.4360    4.5610   84.2810   -0.0080    0.2203    2.6020    4.4610   22.0000 
14422.0000 14422.0000    8.5000    8.2520   55.6335 -999.0000 -999.0000 -999.0000 -999.0000 -999.0000    4.4480    4.4110    4.5370   84.6190   -0.0100    0.2212    2.5960    4.5040   22.0000 
14422.5000 14422.5000    8.5000    8.2430   55.5475 -999.0000 -999.0000 -999.0000 -999.0000 -999.0000    4.4420    4.4080    4.5360   84.6360   -0.0100    0.2221    2.5960    4.5190   22.0000 
14423.0000 14423.0000    8.5000    8.2460   55.5598 -999.0000 -999.0000 -999.0000 -999.0000 -999.0000    4.5590    4.5250    4.6710   83.5820   -0.0100    0.2249    2.6000    4.5400   37.0000 
14423.5000 14423.5000    8.5000    8.2420   54.1192 -999.0000 -999.0000 -999.0000 -999.0000 -999.0000    4.9760    4.9340    5.1210   80.8660   -0.0110    0.2178    2.6020    4.5780   22.0000 
14424.0000 14424.0000    8.5000    8.2340   50.7353 -999.0000 -999.0000 -999.0000 -999.0000 -999.0000    5.9140    5.8520    6.1040   76.8810   -0.0140    0.1968    2.6030    4.6520   22.0000 
14424.5000 14424.5000    8.5000    8.2380   46.5180 -999.0000 -999.0000 -999.0000 -999.0000 -999.0000    7.4620    7.3700    7.6920   73.2480   -0.0180    0.1779    2.6060    4.8660   22.0000 
14425.0000 14425.0000    8.5000    8.2520   42.4968 -999.0000 -999.0000 -999.0000 -999.0000 -999.0000    8.4700    8.3600    8.6120   72.0170   -0.0210    0.1706    2.6150    5.2530   22.0000 
14425.5000 14425.5000    8.5000    8.2560   40.0957 -999.0000 -999.0000 -999.0000 -999.0000 -999.0000    7.3920    7.3180    7.3360   74.0770   -0.0230    0.1737    2.6250    5.5850   22.0000 
14426.0000 14426.0000    8.5000    8.2430   42.1072 -999.0000 -999.0000 -999.0000 -999.0000 -999.0000    5.5610    5.5060    5.4530   78.3360   -0.0240    0.1859    2.6200    5.5960   22.0000 
14426.5000 14426.5000    8.5000    8.2240   49.8834 -999.0000 -999.0000 -999.0000 -999.0000 -999.0000    4.5230    4.4820    4.4400   82.5910   -0.0230    0.2034    2.6000    5.4620   22.0000 
14427.0000 14427.0000    8.5000    8.2160   58.6419 -999.0000 -999.0000 -999.0000 -999.0000 -999.0000    4.1700    4.1360    4.1220   85.3000   -0.0210    0.2156    2.5800    5.4910   22.0000 
14427.5000 14427.5000    8.5000    8.2220   61.6711 -999.0000 -999.0000 -999.0000 -999.0000 -999.0000    4.1540    4.1250    4.1520   86.3500   -0.0190    0.2202    2.5660    5.6410   37.0000 
14428.0000 14428.0000    8.5000    8.2250   59.7321 -999.0000 -999.0000 -999.0000 -999.0000 -999.0000    4.1920    4.1640    4.2480   86.3430   -0.0180    0.2249    2.5600    5.5510   37.0000 
14428.5000 14428.5000    8.5000    8.2270   58.6659 -999.0000 -999.0000 -999.0000 -999.0000 -999.0000    4.1670    4.1360    4.2820   85.6800   -0.0180    0.2327    2.5590    5.1180   37.0000 
14429.0000 14429.0000    8.5000    8.2360   59.6116 -999.0000 -999.0000 -999.0000 -999.0000 -999.0000    4.2200    4.1840    4.3860   84.2930   -0.0170    0.2352    2.5620    4.6160   37.0000 
14429.5000 14429.5000    8.5000    8.2380   58.9222 -999.0000 -999.0000 -999.0000 -999.0000 -999.0000    4.5470    4.5010    4.7630   82.3260   -0.0150    0.2248    2.5710    4.1980   37.0000 
14430.0000 14430.0000    8.5000    8.2250   54.8938 -999.0000 -999.0000 -999.0000 -999.0000 -999.0000    5.1390    5.0750    5.3910   80.6330   -0.0110    0.2090    2.5870    3.9190   22.0000 
14430.5000 14430.5000    8.5000    8.2200   50.1457 -999.0000 -999.0000 -999.0000 -999.0000 -999.0000    5.5000    5.4250    5.7300   80.1930   -0.0080    0.2002    2.6050    3.9170   22.0000 
14431.0000 14431.0000    8.5000    8.2350   48.2230 -999.0000 -999.0000 -999.0000 -999.0000 -999.0000    5.2640    5.1970    5.4150   81.2120   -0.0060    0.2001    2.6120    4.2130   22.0000 
14431.5000 14431.5000    8.5000    8.2470   49.4923 -999.0000 -999.0000 -999.0000 -999.0000 -999.0000    4.7920    4.7390    4.8820   82.9820   -0.0080    0.2072    2.6010    4.5500   22.0000 
