~VERSION INFORMATION
 VERS.                 2.0:   CWLS LOG ASCII STANDARD - VERSION 2.0
 WRAP.                  NO:   SINGLE LINE PER DEPTH STEP
 CREA.                 08/02/2018 08:46:35
#CREATED USING DSPetro VERSION 5000.10.1.3 BY H191660 ON 08/02/2018 08:46:35
~WELL INFORMATION
#MNEM.UNIT       DATA                          DESCRIPTION MNEMONIC
#---------      ---------------------------   --------------------------
 STRT    .FT        12311.0000                : START DEPTH
 STOP    .FT        17628.0000                : STOP DEPTH
 STEP    .FT        0.5000                    : STEP VALUE
 NULL    .      -999.0000                     : NULL VALUE
 DATE    .      08/02/2018                    : LAS file Creation Date
 WELL  .      UNIVERSITY_20_5                  : Well Name
 COMP  .      Neftex Exploration Insights      : Company
 FLD   .      HALEY (LWR. WOLFCAMP-PENN CONS.) : Field
 STATE .      TEXAS                            : State
 COUNT .      LOVING                           : Country
 API   .      42-301-31423                     : API Number
 UWI   .      212                              : Unique Well Identifier (UWI)
 LOC   .      1320' FNL & 1320' FWL            : Location
 PDAT  .      G.L.                             : Permanent Datum
 EPDAT .      2805                             : Reference Elevation
 LGMEA .      K.B.                             : Log Measured from
 DRMEA .      KELLY BUSHING                    : Drill Measured From
 APDAT .      30                               : Elevation Above Permanent Datum
 KB    .      2835                             : KB Elevation
 DF    .      2834                             : DF Elevation
 GL    .      2805                             : GL Elevation
 RWS   .      -999                             : Def_Rw
 WST   .      -999                             : Def_Rwt
 CNTY  .      LOVING                           : County
 SRVC  .      Baker Atlas                      : Contractor
~CURVE INFORMATION
#MNEM              UNIT       API CODE   Curve Type Comments
#----------  --------------- ----------  ---------- -----------
 DEPTH      .FT                        : Depth       
 DEPTH      .FT                        : Depth       
 BS         .inch                      : BitSize     
 CAL        .inch                      :             
 GR         .API                       : GammaRay    
 K          .%                         : Spectral    Potassium
 TH         .PPM                       : Spectral    Thorium
 U          .PPM                       : Spectral    Uranium
 Th/k       .PPM                       : Spectral    
 Th/U       .PPM                       : Spectral    
 RESD       .ohmm                      :             
 RESM       .ohmm                      :             
 RESS       .ohmm                      :             
 DT         .us/ft                     :             
 DRHO       .G/C3                      : Drho        
 NPHI       .dec                       : Neutron     
 RHOB       .G/C3                      : Density     
 PEF        .b/e-                      : PEF         
 LITH       .                          : LITH        Lithology Curve
~A  DEPTH   DEPTH       BS       CAL        GR        K         TH        U        Th/k      Th/U      RESD      RESM      RESS       DT       DRHO      NPHI      RHOB      PEF       LITH   
# ...
17246.0000 17246.0000    6.5000    6.6450   50.1409    1.0800    5.3020    2.4530    4.9093    2.1614    6.2330    5.9390    6.3920   68.1570   -0.0100    0.1480    2.6610    5.4100   22.0000 
17246.5000 17246.5000    6.5000    6.6430   50.5914    0.9990    5.5990    2.6330    5.6046    2.1265    6.5760    6.2410    6.6760   68.5490   -0.0070    0.1520    2.6720    4.9830   22.0000 
17247.0000 17247.0000    6.5000    6.6510   51.1362    0.9070    6.2460    2.8420    6.8864    2.1977    6.6890    6.3320    6.6930   69.2580   -0.0040    0.1507    2.6770    4.7350   22.0000 
17247.5000 17247.5000    6.5000    6.6570   52.2871    0.8250    7.2110    2.9500    8.7406    2.4444    6.4180    6.0810    6.3310   69.8860   -0.0020    0.1468    2.6740    4.7030   22.0000 
17248.0000 17248.0000    6.5000    6.6490   53.6134    0.7590    8.5390    2.9100   11.2503    2.9344    6.0610    5.7510    5.9170   70.0130   -0.0020    0.1458    2.6710    4.7360   22.0000 
17248.5000 17248.5000    6.5000    6.6320   54.0094    0.7180    9.7780    2.8000   13.6184    3.4921    5.9750    5.6790    5.8100   69.6040   -0.0010    0.1462    2.6710    4.7660   22.0000 
17249.0000 17249.0000    6.5000    6.6190   53.0269    0.6980   10.3830    2.6860   14.8754    3.8656    6.2400    5.9480    6.0710   69.0230   -0.0010    0.1444    2.6730    4.9160   22.0000 
17249.5000 17249.5000    6.5000    6.6170   52.0046    0.6730   10.4940    2.5580   15.5929    4.1024    6.6180    6.3450    6.4660   68.6500    0.0000    0.1412    2.6760    5.2970   22.0000 
17250.0000 17250.0000    6.5000    6.6180   52.5487    0.6520   10.2910    2.5000   15.7837    4.1164    6.6880    6.4720    6.5830   68.5900    0.0000    0.1406    2.6740    5.7370   22.0000 
17250.5000 17250.5000    6.5000    6.6270   54.2531    0.6490    9.7550    2.6070   15.0308    3.7418    6.3600    6.2290    6.3200   68.8090   -0.0020    0.1475    2.6650    5.9110   22.0000 
17251.0000 17251.0000    6.5000    6.6490   56.1605    0.6560    9.0360    2.8510   13.7744    3.1694    5.9490    5.9070    6.0210   69.4720   -0.0040    0.1591    2.6560    5.7420   22.0000 
17251.5000 17251.5000    6.5000    6.6600   59.2694    0.6800    8.4080    3.2660   12.3647    2.5744    5.6570    5.7140    5.9020   71.0640   -0.0070    0.1651    2.6470    5.4740   22.0000 
17252.0000 17252.0000    6.5000    6.6530   64.9487    0.7350    8.0470    3.9080   10.9483    2.0591    5.1200    5.2710    5.5450   73.9930   -0.0090    0.1655    2.6310    5.2770   22.0000 
17252.5000 17252.5000    6.5000    6.6440   72.7658    0.8460    8.0890    4.5260    9.5615    1.7872    4.0960    4.2600    4.5140   78.0150   -0.0110    0.1708    2.6130    5.1700   22.0000 
17253.0000 17253.0000    6.5000    6.6290   80.9784    1.0520    9.2660    5.0040    8.8080    1.8517    3.0590    3.1860    3.3650   82.1190   -0.0100    0.1859    2.5960    5.1930   22.0000 
17253.5000 17253.5000    6.5000    6.6170   87.3655    1.1870   11.1300    5.2240    9.3766    2.1306    2.4280    2.5250    2.6510   85.3830   -0.0100    0.2102    2.5820    5.3470   37.0000 
17254.0000 17254.0000    6.5000    6.6290   89.7734    1.1380   12.1350    5.1060   10.6634    2.3766    2.1550    2.2410    2.3440   87.8270   -0.0090    0.2347    2.5670    5.4580   37.0000 
17254.5000 17254.5000    6.5000    6.6550   87.9759    1.0930   12.2790    5.0090   11.2342    2.4514    2.0890    2.1750    2.2740   89.9810   -0.0060    0.2441    2.5460    5.3930   37.0000 
17255.0000 17255.0000    6.5000    6.6600   85.7831    1.0880   12.3010    4.9790   11.3061    2.4706    2.1310    2.2210    2.3290   92.1610    0.0020    0.2392    2.5270    5.2140   37.0000 
17255.5000 17255.5000    6.5000    6.6410   88.6653    1.0660   12.5310    4.6260   11.7552    2.7088    2.1870    2.2780    2.4030   94.0020    0.0160    0.2363    2.5180    4.9680   37.0000 
17256.0000 17256.0000    6.5000    6.6210   97.5259    1.0970   12.5660    4.7170   11.4549    2.6640    2.1820    2.2660    2.4090   94.4690    0.0310    0.2370    2.5130    4.6860   37.0000 
17256.5000 17256.5000    6.5000    6.6180  105.9534    1.3340   12.5970    5.8310    9.4430    2.1603    2.1800    2.2530    2.4190   92.9900    0.0370    0.2413    2.5060    4.4940   37.0000 
17257.0000 17257.0000    6.5000    6.6320  106.0415    1.5540   12.8290    6.8090    8.2555    1.8841    2.3200    2.3910    2.6060   90.0490    0.0330    0.2546    2.5010    4.6270   37.0000 
17257.5000 17257.5000    6.5000    6.6450   97.1406    1.5850   12.7310    6.8640    8.0322    1.8547    2.6530    2.7300    3.0310   86.5830    0.0240    0.2653    2.5190    5.3440   37.0000 
17258.0000 17258.0000    6.5000    6.6470   86.1941    1.5890   12.4980    5.9690    7.8653    2.0938    3.0130    3.0910    3.4580   83.4680    0.0150    0.2581    2.5650    6.4540   37.0000 
17258.5000 17258.5000    6.5000    6.6420   79.1857    1.5050   12.5790    4.7510    8.3581    2.6477    3.2710    3.3380    3.6850   81.1860    0.0080    0.2477    2.6130    7.0870   37.0000 
17259.0000 17259.0000    6.5000    6.6340   76.2195    1.3720   12.6360    4.1130    9.2099    3.0722    3.6190    3.6720    3.9460   79.6370    0.0030    0.2459    2.6390    7.1290   37.0000 
17259.5000 17259.5000    6.5000    6.6190   75.0008    1.2880   12.1330    4.1850    9.4200    2.8992    4.0770    4.1100    4.2580   78.6150    0.0010    0.2452    2.6480    6.8960   37.0000 
17260.0000 17260.0000    6.5000    6.6000   73.6465    1.2080   11.4210    4.4950    9.4545    2.5408    4.2600    4.2610    4.2470   78.2050    0.0010    0.2446    2.6470    6.2830   37.0000 
17260.5000 17260.5000    6.5000    6.5930   71.8156    1.1100   10.7510    4.8760    9.6856    2.2049    4.1180    4.0910    3.9730   78.4130   -0.0020    0.2507    2.6390    5.8670   37.0000 
17261.0000 17261.0000    6.5000    6.6030   71.8733    0.9780    9.8360    5.6920   10.0573    1.7280    4.0650    4.0130    3.8430   79.1770   -0.0060    0.2591    2.6320    6.3890   37.0000 
17261.5000 17261.5000    6.5000    6.6170   74.8741    0.8590    9.0690    6.4480   10.5576    1.4065    4.0580    3.9810    3.7900   80.4600   -0.0100    0.2575    2.6290    7.5220   37.0000 
17262.0000 17262.0000    6.5000    6.6260   77.4396    0.8160    9.3760    6.2920   11.4902    1.4901    3.8280    3.7310    3.5530   81.9890   -0.0130    0.2476    2.6250    8.0080   37.0000 
17262.5000 17262.5000    6.5000    6.6290   77.7619    0.8010   10.2660    5.7430   12.8165    1.7876    3.5270    3.4130    3.2640   83.7210   -0.0130    0.2449    2.6220    7.3860   37.0000 
17263.0000 17263.0000    6.5000    6.6330   79.3253    0.7900   10.7460    5.4280   13.6025    1.9797    3.2740    3.1400    3.0160   86.1020   -0.0090    0.2509    2.6220    6.3110   37.0000 
17263.5000 17263.5000    6.5000    6.6390   84.2188    0.8260   12.3240    4.7540   14.9201    2.5923    2.9350    2.7870    2.6790   89.2930   -0.0050    0.2597    2.6130    5.3720   37.0000 
17264.0000 17264.0000    6.5000    6.6420   88.7568    0.9090   15.6570    3.5690   17.2244    4.3869    2.6960    2.5260    2.4170   92.5370   -0.0050    0.2752    2.5880    4.8260   37.0000 
17264.5000 17264.5000    6.5000    6.6420   88.7751    0.9930   17.0700    2.9980   17.1903    5.6938    2.8000    2.5850    2.4520   94.0980   -0.0060    0.2932    2.5630    4.6840   37.0000 
17265.0000 17265.0000    6.5000    6.6380   83.5305    1.1050   15.4950    3.1610   14.0226    4.9019    3.2360    2.9380    2.7490   92.0590   -0.0080    0.2860    2.5440    4.8050   37.0000 
17265.5000 17265.5000    6.5000    6.6310   75.0564    1.2080   13.8730    3.3190   11.4843    4.1799    3.6040    3.2070    2.9620   86.2720   -0.0120    0.2659    2.5290    5.1170   37.0000 
17266.0000 17266.0000    6.5000    6.6260   66.7927    1.2260   13.2720    3.4210   10.8254    3.8796    3.7300    3.2460    2.9790   79.2140   -0.0160    0.2624    2.5260    5.7290   37.0000 
17266.5000 17266.5000    6.5000    6.6250   61.1463    1.2120   12.1870    3.5620   10.0553    3.4214    4.2350    3.5990    3.3080   74.1730   -0.0170    0.2600    2.5500    6.6760   37.0000 
