~VERSION INFORMATION
 VERS.                 2.0:   CWLS LOG ASCII STANDARD - VERSION 2.0
 WRAP.                  NO:   SINGLE LINE PER DEPTH STEP
 CREA.                 08/02/2018 08:52:47
#CREATED USING DSPetro VERSION 5000.10.1.3 BY H191660 ON 08/02/2018 08:52:47
~WELL INFORMATION
#MNEM.UNIT       DATA                          DESCRIPTION MNEMONIC
#---------      ---------------------------   --------------------------
 STRT    .FT        12349.0092                : START DEPTH
 STOP    .FT        16985.0092                : STOP DEPTH
 STEP    .FT        0.5000                    : STEP VALUE
 NULL    .      -999.0000                     : NULL VALUE
 DATE    .      08/02/2018                    : LAS file Creation Date
 WELL  .      UNIVERSITY_19-6           : Well Name
 COMP  .      Anadarko Petroleum Corpor : Company
 FLD   .      LOVING                    : Field
 STATE .      TEXAS                     : State
 COUNT .      Texas                     : Country
 API   .      42301311860000            : API Number
 UWI   .      507                       : Unique Well Identifier (UWI)
 LOC   .      Onshore                   : Location
 TOWN  .      19                        : Township
 SCT   .      6                         : Section
 RANG  .      University Land           : Range
 LATI  .      3509001.74                : Latitude/Northing
 LONG  .      644715.32                 : Longitude/Easting
 PDAT  .      Ground Level              : Permanent Datum
 EPDAT .      2810                      : Reference Elevation
 LGMEA .      Kelly Bushing             : Log Measured from
 DRMEA .      Kelly Bushing             : Drill Measured From
 APDAT .      31                        : Elevation Above Permanent Datum
 KB    .      2841                      : KB Elevation
 DF    .      2840                      : DF Elevation
 GL    .      2810                      : GL Elevation
 RWS   .      0                         : Def_Rw
 WST   .      0                         : Def_Rwt
 UTMZ  .      13                        : UTM Zone
 BHS   .      OPEN                      : Completion Status
 CNTY  .      LOVING                    : County
 MDEC  .      0                         : Magnetic Declination
 SRVC  .      SCH                       : Contractor
~CURVE INFORMATION
#MNEM              UNIT       API CODE   Curve Type Comments
#----------  --------------- ----------  ---------- -----------
 DEPTH      .FT                        : Depth       
 DEPTH      .FT                        : Depth       
 BS         .IN                        : BitSize     Bit Size {F13.4}
 CAL        .IN                        :             
 HSGR       .GAPI                      :             
 HCGR       .GAPI                      :             
 TH         .PPM                       :             HNGS Formation Thorium Concentration {F13.4}
 U          .PPM                       :             HNGS Formation Uranium Concentration {F13.4}
 K          .CFCF                      :             HNGS Formation Potassium Concentration {F13.4}
 ThK        .PPM                       : Spectral    
 ThU        .PPM                       : Spectral    
 RSHALLOW   .OHMM                      :             12  RSHALLOW
 RMEDIUM    .OHMM                      :             13  Medium Resistivity
 RDEEP      .OHMM                      : DeepRes     14  Deep Resistivity
 DT         .US/F                      : Sonic       DT
 NPHI       .dec                       : Neutron     NPHI
 RHOB       .G/C3                      : Density     
 DRHO       .G/CC                      : Drho        
 PEF        .                          :             
 LITH       .                          : LITH        Lithology Curve
~A  DEPTH   DEPTH       BS       CAL       HSGR      HCGR       TH        U         K        ThK       ThU     RSHALLOW  RMEDIUM    RDEEP       DT       NPHI      RHOB      DRHO      PEF       LITH   
# ...
13269.0092 13269.0092    8.7500    9.0490   88.2050   71.8964   11.4192    2.7880    1.9800    5.7673    4.0959    5.7220    5.0340    5.0830   95.2100    0.1770    2.5862   -0.0094    9.1443   37.0000 
13269.5092 13269.5092    8.7500    9.0120   98.9651   82.0969   13.1165    2.9056    2.2500    5.8296    4.5142    5.3800    4.7280    4.5910   93.7190    0.2040    2.5588   -0.0142   11.4679   37.0000 
13270.0092 13270.0092    8.7500    9.0130  106.4472   87.8581   14.0167    3.1262    2.4100    5.8161    4.4836    5.2210    4.5410    4.3520   95.0760    0.2060    2.5549   -0.0196   11.5176   37.0000 
13270.5092 13270.5092    8.7500    9.0110  110.4213   90.1268   14.2245    3.3369    2.5000    5.6898    4.2628    5.2030    4.5580    4.3700   95.1490    0.2060    2.5587   -0.0286   11.0908   37.0000 
13271.0092 13271.0092    8.7500    8.9920  110.6620   90.5980   14.1340    3.3274    2.5400    5.5646    4.2478    5.0090    4.4330    4.3120   95.0960    0.2040    2.5506   -0.0242   17.8659   37.0000 
13271.5092 13271.5092    8.7500    8.9910  109.1287   89.6567   13.8157    3.1866    2.5500    5.4179    4.3356    4.6860    4.2570    4.1730   95.0320    0.2010    2.5404   -0.0396   18.4536   37.0000 
13272.0092 13272.0092    8.7500    8.9940  106.5802   87.9650   13.6147    2.9535    2.4900    5.4677    4.6097    4.6440    4.2460    4.2250   95.0380    0.1920    2.5449   -0.0483   13.3941   37.0000 
13272.5092 13272.5092    8.7500    8.9920  102.8668   84.8128   13.2439    2.8440    2.3800    5.5647    4.6568    5.1760    4.7050    4.7770   95.0660    0.1850    2.5510   -0.0172   14.4421   37.0000 
13273.0092 13273.0092    8.7500    9.0040   98.3487   81.1784   12.6903    2.7205    2.2800    5.5659    4.6647    5.9840    5.3740    5.4170   95.1200    0.1860    2.5588   -0.0087   15.1200   37.0000 
13273.5092 13273.5092    8.7500    9.0170   94.7487   78.7467   12.3335    2.5639    2.2000    5.6061    4.8104    6.8380    6.2220    6.2340   94.2060    0.1820    2.5624   -0.0222   10.0720   37.0000 
13274.0092 13274.0092    8.7500    9.0170   97.0690   81.4383   12.8263    2.5352    2.2700    5.6504    5.0593    7.0960    6.6490    6.6920   93.9300    0.1750    2.5562   -0.0091   10.8227   37.0000 
13274.5092 13274.5092    8.7500    8.9920  102.4222   86.6542   13.6339    2.5568    2.4100    5.6572    5.3324    6.9140    6.4210    6.0830   93.3960    0.1810    2.5518   -0.0197   10.9732   37.0000 
13275.0092 13275.0092    8.7500    8.9360  106.5482   89.3205   13.9127    2.7648    2.5100    5.5429    5.0321    6.0570    5.8940    5.7570   93.2590    0.2000    2.5539   -0.0418   30.6965   37.0000 
13275.5092 13275.5092    8.7500    8.8840  107.1712   89.7199   13.9560    2.8295    2.5300    5.5162    4.9323    5.6070    5.3170    5.4790   90.6760    0.2160    2.5622   -0.0414   16.0028   37.0000 
13276.0092 13276.0092    8.7500    8.8940  105.7103   88.7622   13.8487    2.7906    2.4900    5.5617    4.9626    5.1300    4.8260    5.1160   90.1910    0.2230    2.5640   -0.0205   18.5405   37.0000 
13276.5092 13276.5092    8.7500    8.8900  102.0501   85.7726   13.4392    2.6471    2.4000    5.5997    5.0769    5.0110    4.7970    4.8480   91.3210    0.2180    2.5609   -0.0164   16.1190   37.0000 
13277.0092 13277.0092    8.7500    8.8470   94.7418   80.5580   12.6778    2.3511    2.2400    5.6597    5.3923    5.3420    5.0110    5.0460   91.9900    0.2090    2.5609   -0.0334   12.8250   37.0000 
13277.5092 13277.5092    8.7500    8.7760   88.3439   76.1075   11.9406    2.0829    2.1300    5.6059    5.7327    5.7440    5.2970    5.2890   92.4810    0.1920    2.5673   -0.0517   24.0938   37.0000 
13278.0092 13278.0092    8.7500    8.7230   87.5760   75.4996   11.7694    2.0485    2.1200    5.5516    5.7454    6.4090    5.9360    5.8640   95.6320    0.1730    2.5788   -0.0467   29.9627   37.0000 
13278.5092 13278.5092    8.7500    8.6900   92.2586   78.8849   12.1948    2.2598    2.2300    5.4685    5.3964    7.3830    6.9700    6.9460   97.0230    0.1500    2.5890   -0.0205   14.2294   22.0000 
13279.0092 13279.0092    8.7500    8.6040   98.0150   83.3617   12.8930    2.4352    2.3600    5.4631    5.2944    7.3410    6.9940    7.3830   94.0120    0.1460    2.5849   -0.0134    6.5282   22.0000 
13279.5092 13279.5092    8.7500    8.5170  100.5761   84.3438   13.0390    2.6630    2.3900    5.4556    4.8964    6.2500    6.0110    6.4750   85.2660    0.1670    2.5702   -0.0124    8.7383   37.0000 
13280.0092 13280.0092    8.7500    8.5110  100.9373   82.9042   12.7902    2.9231    2.3500    5.4426    4.3756    5.6180    5.5340    5.9990   83.1090    0.2020    2.5613   -0.0183    9.6815   37.0000 
13280.5092 13280.5092    8.7500    8.5040   99.3659   81.2651   12.6158    2.9209    2.2900    5.5091    4.3192    5.5070    5.5960    6.2610   81.5520    0.2130    2.5590   -0.0094    8.4287   37.0000 
13281.0092 13281.0092    8.7500    8.4880   96.0420   78.2539   12.0676    2.8530    2.2200    5.4359    4.2298    5.4720    5.7460    6.5990   81.7070    0.2160    2.5510   -0.0046    8.4726   37.0000 
13281.5092 13281.5092    8.7500    8.4600   92.0242   73.7150   11.2312    2.8890    2.1200    5.2977    3.8876    5.4810    5.8280    6.9210   90.1170    0.2140    2.5444   -0.0080    6.7849   37.0000 
13282.0092 13282.0092    8.7500    8.4370   89.1220   69.9007   10.7346    3.0274    1.9900    5.3943    3.5458    5.4640    5.9210    6.9030   88.6240    0.2050    2.5428   -0.0134    6.2828   37.0000 
13282.5092 13282.5092    8.7500    8.4180   87.4740   66.4544   10.2940    3.2573    1.8800    5.4755    3.1603    5.9160    6.6950    7.6180   88.9150    0.1990    2.5487   -0.0076    8.7846   37.0000 
13283.0092 13283.0092    8.7500    8.4010   85.0951   62.3476    9.7033    3.4906    1.7500    5.5447    2.7799    7.4070    8.8770   10.1110   90.2490    0.1940    2.5546   -0.0086    5.7389   37.0000 
13283.5092 13283.5092    8.7500    8.4000   79.6667   57.5769    8.9252    3.3956    1.6300    5.4756    2.6285    9.0400   11.9920   13.5890   90.5530    0.1920    2.5588    0.0017    6.7441   37.0000 
13284.0092 13284.0092    8.7500    8.4000   72.5834   52.5482    8.3261    3.0622    1.4500    5.7421    2.7190   11.1160   15.2770   17.6500   90.9190    0.1880    2.5721    0.0044    6.3858   37.0000 
13284.5092 13284.5092    8.7500    8.4020   66.9688   49.0890    7.9892    2.7586    1.3200    6.0524    2.8961   12.7610   20.3850   21.8980   91.2930    0.1810    2.6013   -0.0052    6.5112   37.0000 
13285.0092 13285.0092    8.7500    8.3990   62.9739   47.3107    7.8277    2.4379    1.2500    6.2621    3.2108   16.0950   26.4760   25.8170   90.7380    0.1690    2.6284   -0.0100    4.8393   22.0000 
13285.5092 13285.5092    8.7500    8.3510   61.0867   46.9094    7.8186    2.2207    1.2300    6.3566    3.5208   18.0360   23.7170   22.7020   90.4410    0.1440    2.6363    0.0004    6.5570   22.0000 
13286.0092 13286.0092    8.7500    8.2940   65.8124   50.8934    8.4760    2.3534    1.3400    6.3254    3.6016   13.4020   13.8980   13.1470   90.0010    0.1180    2.6224   -0.0031    9.7204   22.0000 
13286.5092 13286.5092    8.7500    8.2960   77.3373   59.9375   10.0007    2.7892    1.5700    6.3699    3.5855   11.3800   10.7180   10.9770   90.1000    0.1170    2.5982   -0.0084   11.0216   22.0000 
13287.0092 13287.0092    8.7500    8.2990   89.6907   70.9997   11.9425    3.0633    1.8500    6.4555    3.8986   10.1310    9.5100    9.5040   91.2100    0.1450    2.5680   -0.0140    8.9843   22.0000 
13287.5092 13287.5092    8.7500    8.3010   95.4932   77.0130   12.7674    3.0627    2.0300    6.2894    4.1687    9.0820    8.2900    8.3370   92.9350    0.1800    2.5478   -0.0164    6.6521   37.0000 
13288.0092 13288.0092    8.7500    8.2970   97.0076   79.4454   12.8920    2.9890    2.1400    6.0243    4.3131    7.7790    7.1520    7.2370   92.0090    0.1880    2.5425   -0.0193    6.4692   37.0000 
13288.5092 13288.5092    8.7500    8.3160   99.2182   81.8616   13.2650    3.0090    2.2100    6.0023    4.4084    6.8890    6.2030    6.2670   91.6310    0.1840    2.5437   -0.0201    7.6663   37.0000 
