~VERSION INFORMATION
 VERS.                 2.0:   CWLS LOG ASCII STANDARD - VERSION 2.0
 WRAP.                  NO:   SINGLE LINE PER DEPTH STEP
 CREA.                 08/02/2018 08:52:47
#CREATED USING DSPetro VERSION 5000.10.1.3 BY H191660 ON 08/02/2018 08:52:47
~WELL INFORMATION
#MNEM.UNIT       DATA                          DESCRIPTION MNEMONIC
#---------      ---------------------------   --------------------------
 STRT    .FT        12349.0092                : START DEPTH
 STOP    .FT        16985.0092                : STOP DEPTH
 STEP    .FT        0.5000                    : STEP VALUE
 NULL    .      -999.0000                     : NULL VALUE
 DATE    .      08/02/2018                    : LAS file Creation Date
 WELL  .      UNIVERSITY_19-6           : Well Name
 COMP  .      Anadarko Petroleum Corpor : Company
 FLD   .      LOVING                    : Field
 STATE .      TEXAS                     : State
 COUNT .      Texas                     : Country
 API   .      42301311860000            : API Number
 UWI   .      507                       : Unique Well Identifier (UWI)
 LOC   .      Onshore                   : Location
 TOWN  .      19                        : Township
 SCT   .      6                         : Section
 RANG  .      University Land           : Range
 LATI  .      3509001.74                : Latitude/Northing
 LONG  .      644715.32                 : Longitude/Easting
 PDAT  .      Ground Level              : Permanent Datum
 EPDAT .      2810                      : Reference Elevation
 LGMEA .      Kelly Bushing             : Log Measured from
 DRMEA .      Kelly Bushing             : Drill Measured From
 APDAT .      31                        : Elevation Above Permanent Datum
 KB    .      2841                      : KB Elevation
 DF    .      2840                      : DF Elevation
 GL    .      2810                      : GL Elevation
 RWS   .      0                         : Def_Rw
 WST   .      0                         : Def_Rwt
 UTMZ  .      13                        : UTM Zone
 BHS   .      OPEN                      : Completion Status
 CNTY  .      LOVING                    : County
 MDEC  .      0                         : Magnetic Declination
 SRVC  .      SCH                       : Contractor
~CURVE INFORMATION
#MNEM              UNIT       API CODE   Curve Type Comments
#----------  --------------- ----------  ---------- -----------
 DEPTH      .FT                        : Depth       
 DEPTH      .FT                        : Depth       
 BS         .IN                        : BitSize     Bit Size {F13.4}
 CAL        .IN                        :             
 HSGR       .GAPI                      :             
 HCGR       .GAPI                      :             
 TH         .PPM                       :             HNGS Formation Thorium Concentration {F13.4}
 U          .PPM                       :             HNGS Formation Uranium Concentration {F13.4}
 K          .CFCF                      :             HNGS Formation Potassium Concentration {F13.4}
 ThK        .PPM                       : Spectral    
 ThU        .PPM                       : Spectral    
 RSHALLOW   .OHMM                      :             12  RSHALLOW
 RMEDIUM    .OHMM                      :             13  Medium Resistivity
 RDEEP      .OHMM                      : DeepRes     14  Deep Resistivity
 DT         .US/F                      : Sonic       DT
 NPHI       .dec                       : Neutron     NPHI
 RHOB       .G/C3                      : Density     
 DRHO       .G/CC                      : Drho        
 PEF        .                          :             
 LITH       .                          : LITH        Lithology Curve
~A  DEPTH   DEPTH       BS       CAL       HSGR      HCGR       TH        U         K        ThK       ThU     RSHALLOW  RMEDIUM    RDEEP       DT       NPHI      RHOB      DRHO      PEF       LITH   
# ...
15429.0092 15429.0092    8.7500    8.1150   23.2127   10.9648    1.9020    1.7189    0.2800    6.7929    1.1065  114.2760  113.8380   72.1220   53.6010    0.0310    2.6723   -0.0062    6.7290   18.0000 
15429.5092 15429.5092    8.7500    8.1160   25.5193   12.1111    2.0994    1.8685    0.3000    6.9980    1.1236  101.3280   98.7690   57.3250   55.2290    0.0230    2.6744   -0.0023    7.1193   18.0000 
15430.0092 15430.0092    8.7500    8.1160   28.6894   13.9102    2.3840    2.0815    0.3500    6.8114    1.1453   90.2220   99.0960   52.7950   59.2590    0.0200    2.6771    0.0020    7.5688   18.0000 
15430.5092 15430.5092    8.7500    8.1070   34.8150   17.1347    2.8883    2.5157    0.4400    6.5643    1.1481   80.2670   83.3210   56.0280   62.1840    0.0210    2.6768    0.0015    8.2341   18.0000 
15431.0092 15431.0092    8.7500    8.1020   44.6542   22.6750    3.7575    3.1212    0.6000    6.2627    1.2039   54.2700   50.3250   37.8200   64.3340    0.0260    2.6662   -0.0030   10.0412   18.0000 
15431.5092 15431.5092    8.7500    8.1040   56.2703   29.1538    4.7905    3.8724    0.7800    6.1418    1.2371   27.3380   28.7390   23.9800   63.6540    0.0380    2.6433   -0.0069    7.2117   18.0000 
15432.0092 15432.0092    8.7500    8.0980   64.7578   33.4040    5.4603    4.5364    0.8900    6.1352    1.2037   16.8870   16.0460   14.7710   64.7890    0.0580    2.6221    0.0018    8.2938   18.0000 
15432.5092 15432.5092    8.7500    8.1040   66.6274   35.1103    5.7884    4.6039    0.9300    6.2241    1.2573   14.4890   13.6410   12.6180   66.6950    0.0830    2.6150   -0.0103    6.5013   18.0000 
15433.0092 15433.0092    8.7500    8.1350   63.6477   34.7298    5.8988    4.2386    0.8900    6.6278    1.3917   15.2060   13.6620   12.3730   67.6840    0.1000    2.6117   -0.0139    9.4657   22.0000 
15433.5092 15433.5092    8.7500    8.1570   59.2980   32.4044    5.5496    3.9425    0.8200    6.7678    1.4076   17.3580   15.1400   13.3910   65.2510    0.1030    2.6136   -0.0172    8.7781   22.0000 
15434.0092 15434.0092    8.7500    8.1260   56.5209   30.7648    5.3224    3.8153    0.7700    6.9122    1.3950   18.5630   15.9540   13.9640   62.9740    0.0930    2.6202   -0.0151    8.7216   22.0000 
15434.5092 15434.5092    8.7500    8.1240   55.0792   30.3052    5.2902    3.7029    0.7500    7.0536    1.4287   18.7220   15.6850   13.7760   63.8680    0.0830    2.6207   -0.0200    8.1164   18.0000 
15435.0092 15435.0092    8.7500    8.1510   53.3165   30.5811    5.3694    3.4061    0.7600    7.0650    1.5764   19.9690   16.8220   14.5450   64.0310    0.0770    2.6103   -0.0086   12.3528   18.0000 
15435.5092 15435.5092    8.7500    8.1400   51.0452   30.5788    5.3714    3.0746    0.7600    7.0676    1.7470   21.0440   17.5000   15.1520   66.1170    0.0770    2.6023   -0.0201   14.4799   18.0000 
15436.0092 15436.0092    8.7500    8.1500   48.4441   29.9681    5.2929    2.7753    0.7400    7.1526    1.9071   22.0870   18.1620   16.2860   67.3490    0.0800    2.6061   -0.0241    9.1721   18.0000 
15436.5092 15436.5092    8.7500    8.1580   46.6349   28.4132    5.0492    2.7224    0.6900    7.3177    1.8547   23.9560   20.4620   18.1430   68.1350    0.0820    2.6188   -0.0113    9.4813   18.0000 
15437.0092 15437.0092    8.7500    8.1710   47.2136   29.2584    5.2484    2.6866    0.7000    7.4977    1.9535   24.4220   20.7200   18.1860   67.5260    0.0820    2.6332   -0.0078    7.2119   22.0000 
15437.5092 15437.5092    8.7500    8.2430   50.4462   32.4282    5.8452    2.6870    0.7800    7.4938    2.1753   21.4550   18.9750   16.8560   67.3290    0.0810    2.6491   -0.0004    7.6768   22.0000 
15438.0092 15438.0092    8.7500    8.2850   53.9077   35.3569    6.4497    2.7735    0.8300    7.7707    2.3255   16.9540   15.1430   14.0820   65.9160    0.0810    2.6529    0.0020    6.7985   22.0000 
15438.5092 15438.5092    8.7500    8.2960   55.8144   36.9566    6.8637    2.8223    0.8500    8.0749    2.4319   14.4910   13.5420   12.5850   64.1770    0.0820    2.6487   -0.0032    6.8148   22.0000 
15439.0092 15439.0092    8.7500    8.3280   56.1441   38.1422    7.1709    2.7167    0.8600    8.3382    2.6395   15.4290   14.0890   13.3880   64.8430    0.0860    2.6416   -0.0091    7.6500   22.0000 
15439.5092 15439.5092    8.7500    8.3680   54.1990   37.4688    7.0630    2.5370    0.8400    8.4083    2.7840   16.7890   15.5240   14.4960   66.0330    0.0870    2.6389   -0.0140   12.2415   22.0000 
15440.0092 15440.0092    8.7500    8.3770   50.8206   35.1207    6.7037    2.3665    0.7800    8.5945    2.8327   18.3210   17.1950   15.6460   67.2400    0.0850    2.6464   -0.0128    9.0848   22.0000 
15440.5092 15440.5092    8.7500    8.3540   48.0013   32.8786    6.4067    2.2790    0.7000    9.1524    2.8112   19.3460   18.3310   16.9880   66.4040    0.0770    2.6462    0.0019    9.6988   22.0000 
15441.0092 15441.0092    8.7500    8.3360   46.7849   31.3766    6.1017    2.3054    0.6700    9.1070    2.6467   19.1860   18.2000   17.9700   66.6470    0.0700    2.6421    0.0092   14.7767   18.0000 
15441.5092 15441.5092    8.7500    8.3280   47.1036   30.3170    5.8956    2.4950    0.6500    9.0702    2.3630   19.1990   18.3080   18.3820   66.7780    0.0690    2.6399   -0.0038   10.1012   18.0000 
15442.0092 15442.0092    8.7500    8.3490   47.8423   30.7354    6.0432    2.5828    0.6500    9.2972    2.3398   19.4530   18.6810   18.6270   67.0040    0.0690    2.6379   -0.0079    8.1138   18.0000 
15442.5092 15442.5092    8.7500    8.3170   49.4874   31.9652    6.2056    2.6748    0.6900    8.9936    2.3200   18.8710   18.8360   18.5590   66.4930    0.0680    2.6316   -0.0038    8.4146   18.0000 
15443.0092 15443.0092    8.7500    8.3460   51.1971   32.6892    6.3213    2.8044    0.7100    8.9032    2.2541   18.5170   18.3540   17.4210   66.9980    0.0700    2.6199   -0.0039    9.4756   18.0000 
15443.5092 15443.5092    8.7500    8.3720   51.7710   32.6339    6.2999    2.8446    0.7100    8.8731    2.2147   17.5460   17.1790   17.0430   66.3710    0.0740    2.6104   -0.0036    6.4160   18.0000 
15444.0092 15444.0092    8.7500    8.3770   51.3236   31.7376    5.7978    2.8591    0.7500    7.7305    2.0279   16.7430   16.4250   16.6390   66.4460    0.0760    2.6057    0.0068    8.3233   18.0000 
15444.5092 15444.5092    8.7500    8.3830   51.9491   31.7331    5.6027    2.9400    0.7800    7.1830    1.9057   16.7210   16.3570   16.3220   66.4890    0.0800    2.6251   -0.0062   12.8688   18.0000 
15445.0092 15445.0092    8.7500    8.4040   53.3365   32.2988    5.7668    3.0592    0.7800    7.3933    1.8851   16.1100   15.8370   15.6530   66.2830    0.0830    2.6628   -0.0048   13.7462   22.0000 
15445.5092 15445.5092    8.7500    8.4270   53.0072   32.3761    5.6774    3.0395    0.8000    7.0968    1.8679   14.8390   15.2940   15.1030   65.8350    0.0890    2.7024   -0.0054   13.2919   22.0000 
15446.0092 15446.0092    8.7500    8.4400   48.0356   28.9094    4.9091    2.8223    0.7400    6.6339    1.7394   16.7680   16.7540   16.6500   64.5770    0.0950    2.7204   -0.0072   12.9511   12.0000 
15446.5092 15446.5092    8.7500    8.3860   39.2690   23.3494    4.0193    2.3551    0.5900    6.8122    1.7066   25.0580   22.0700   21.9810   64.9530    0.0930    2.7183   -0.0010   15.0790   12.0000 
15447.0092 15447.0092    8.7500    8.3470   33.5227   20.6510    3.6321    1.9336    0.5100    7.1217    1.8784   32.3940   28.6180   28.7910   64.0920    0.0750    2.7071   -0.0043   12.7005   12.0000 
15447.5092 15447.5092    8.7500    8.3470   35.4918   22.0684    3.8436    2.0187    0.5500    6.9884    1.9040   27.2430   29.4340   27.6920   64.0930    0.0520    2.6905   -0.0093    9.6651   18.0000 
15448.0092 15448.0092    8.7500    8.3760   42.9908   26.0390    4.4838    2.5426    0.6600    6.7936    1.7635   19.3860   20.3000   19.4900   68.2080    0.0370    2.6648   -0.0099    7.7920   18.0000 
15448.5092 15448.5092    8.7500    8.3730   49.1446   29.2291    4.9658    2.9967    0.7500    6.6211    1.6571   17.2950   17.4560   16.7950   68.0850    0.0380    2.6435   -0.0085    9.6083   18.0000 
