~VERSION INFORMATION
 VERS.                 2.0:   CWLS LOG ASCII STANDARD - VERSION 2.0
 WRAP.                  NO:   SINGLE LINE PER DEPTH STEP
 CREA.                 08/02/2018 08:46:11
#CREATED USING DSPetro VERSION 5000.10.1.3 BY H191660 ON 08/02/2018 08:46:11
~WELL INFORMATION
#MNEM.UNIT       DATA                          DESCRIPTION MNEMONIC
#---------      ---------------------------   --------------------------
 STRT    .FT        12354.5289                : START DEPTH
 STOP    .FT        17894.2270                : STOP DEPTH
 STEP    .FT        1.6404                    : STEP VALUE
 NULL    .      -999.0000                     : NULL VALUE
 DATE    .      08/02/2018                    : LAS file Creation Date
 WELL .      UNIVERSITY_19-5             : Well Name
 COMP .      Neftex Exploration Insights : Company
 FLD  .      PHANTOM (WOLFCAMP)          : Field
 UWI  .      208                         : Unique Well Identifier (UWI)
 LOC  .                                  : Location
 RWS  .      -999                        : Def_Rw
 WST  .      -999                        : Def_Rwt
 SRVC .                                  : Contractor
~CURVE INFORMATION
#MNEM              UNIT       API CODE   Curve Type Comments
#----------  --------------- ----------  ---------- -----------
 DEPTH      .FT                        : Depth       
 DEPTH      .FT                        : Depth       
 BS         .inch                      : BitSize     
 CAL_INCH   .inch                      :             Caliper Log - A representation of the measured diameter of a borehole along its depth
 GR_API     .API                       : GammaRay    Gamma Ray (API) - Measures the intensity of natural gamma-ray radiation emitted from formations containing radioactive elements, such as K, Th and U
 SGR_API    .API                       : GammaRay    Spectral Gamma Ray - Total gamma calibrated to API, measured using a spectoral gamma array tool
 CGR_API    .API                       : GammaRay    Corrected / Computed Gamma Ray - Radiation with the Uranium component removed. Also known as a 'carbonate gamma ray'
 TH_PPM     .ppm                       : Spectral    Thorium Abundance (SGR) - The quantitative elemental abundace of Thorium derived from the Spectral Gamma Ray Log
 K_per        .PC                        :             Potassium Abundance (SGR) - The quantitative elemental abundace of Potassium derived from the Spectral Gamma Ray Log. Also wt_%
 U_PPM      .ppm                       :             Uranium Abundance (SGR) - The quantitative elemental abundace of Uranium derived from the Spectral Gamma Ray Log
 ThK        .PPM                       : Spectral    
 ThU        .PPM                       : Spectral    
 SRES       .ohmm                      :             10" array induction, two foot resistivity
 MRES       .ohm.m                     :             30" array induction, two foot resistivity
 DRES       .ohmm                      :             90" array induction, two foot resistivity log - units of ohmm
 DT_US_FT   .us/ft                     :             Interval Transit Time: Compressional Wave - Evaluates the time it takes for a compressional wave to traverse a fixed distance
 NPHI_RATIO .ratio                     :             Neutron Porosity - Measured with an neutron logging device calibrated to a given matrix (limestone, sandstone and dolomite)
 RHOB_G_CC  .g/cc                      :             Bulk Density - Measures the density of bulk material, including any void space or other materials contained in the subject volume
 DRHO_G_CC  .g/cc                      :             Density Correction - Investigates the correction to the Bulk Density log; used as an indication of hole condition to validate the Bulk Density measure
 PEF_B_E    .b/e-                      : PEF         Photoelectric Factor - A log of photoelectric absorption properties. Often expressed in an approximation unit barns/electron (b/e-)
 LITH       .                          : LITH        Lithology Curve
~A  DEPTH   DEPTH       BS     CAL_INCH   GR_API   SGR_API   CGR_API    TH_PPM     K_per      U_PPM      ThK       ThU       SRES      MRES      DRES    DT_US_FT NPHI_RAT~ RHOB_G_C~ DRHO_G_C~  PEF_B_E     LITH   
# ...
13476.5761 13476.5761    8.7500    8.9901   70.5646   89.7753   70.5646   10.8775    2.0100    3.1759    5.4117    3.4250    5.3358    4.8121    9.5795   81.4646    0.2210    2.5539   -0.0112   15.5696   37.0000 
13478.2165 13478.2165    8.7500    9.0139   67.0906   86.1547   67.0906   10.1454    1.9400    3.0197    5.2296    3.3597    5.9127    5.1832   11.7450   80.3956    0.1478    2.5609   -0.0019   11.2486   37.0000 
13479.8570 13479.8570    8.7500    9.0102   55.4581   74.1354   55.4581    8.6156    1.5700    3.0533    5.4876    2.8217    8.1422    5.8846   12.7980   70.0152    0.1413    2.5490   -0.0057    9.2318   37.0000 
13481.4974 13481.4974    8.7500    9.0247   52.4026   71.5358   52.4026    8.6347    1.3900    2.8942    6.2120    2.9834    7.9545    6.7097   14.7415   66.1383    0.1771    2.5172   -0.0142    5.8115   22.0000 
13483.1378 13483.1378    8.7500    8.9166   33.8713   49.6460   33.8713    5.7868    0.8700    2.2635    6.6515    2.5566    7.7415    6.5493   12.5588   51.2173    0.1321    2.5379   -0.0144    7.5734   22.0000 
13484.7782 13484.7782    8.7500    8.7592   19.8817   30.6958   19.8817    3.7929    0.4400    1.6537    8.6202    2.2936    7.7944    6.4593   11.8086   64.6716    0.0954    2.7513    0.0041    8.4304   18.0000 
13486.4186 13486.4186    8.7500    8.7868    6.8481   11.3040    6.8481    1.3888    0.1400    0.6914    9.9200    2.0087    7.7898    6.4344   11.6932   64.5107    0.1279    2.7156   -0.0022    8.2959   18.0000 
13488.0591 13488.0591    8.7500    8.7607    6.1870   11.4084    6.1870    1.4114    0.1000    0.8091   14.1140    1.7444    7.8107    6.4246   11.6540   65.4578    0.1234    2.6345   -0.0063    9.7658   18.0000 
13489.6995 13489.6995    8.7500    8.7316    6.3972   11.0310    6.3972    1.2114    0.1400    0.6202    8.6529    1.9532    7.8485    6.4269   11.7112   61.4689    0.1293    2.6532   -0.0059   12.5044   18.0000 
13491.3399 13491.3399    8.7500    8.7300    6.7991   11.9692    6.7991    1.1567    0.1700    0.6980    6.8041    1.6572    7.8446    6.4072   11.6855   51.5201    0.0844    2.6913    0.0052   11.6230   18.0000 
13492.9803 13492.9803    8.7500    8.7331    7.0416   12.4778    7.0416    1.0257    0.2100    0.7597    4.8843    1.3501    7.8415    6.3952   11.6696   71.2636    0.0638    2.7009    0.0015   10.1868   18.0000 
13494.6207 13494.6207    8.7500    8.7331   10.7468   17.8677   10.7468    1.4567    0.3400    1.0207    4.2844    1.4272    7.8476    6.4000   11.6706   81.8843    0.0601    2.6998   -0.0002   10.4726   18.0000 
13496.2612 13496.2612    8.7500    8.7960   53.1387   75.1901   53.1387    7.6090    1.6100    3.1195    4.7261    2.4392    7.8332    6.3905   11.7029   76.4830    0.1807    2.6008   -0.0095    7.1483   22.0000 
13497.9016 13497.9016    8.7500    8.7989   61.5154   82.9130   61.5154    8.6052    1.9000    3.0122    4.5291    2.8568    7.8603    6.3864   11.8368   80.4262    0.2028    2.5693   -0.0093    8.3235   22.0000 
13499.5420 13499.5420    8.7500    8.7761   62.0937   80.1282   62.0937    9.0629    1.8500    2.5340    4.8989    3.5765    7.8578    6.3864   12.0428   80.8642    0.1810    2.5780   -0.0103    8.2156   37.0000 
13501.1824 13501.1824    8.7500    8.7588   65.5729   81.9828   65.5729    9.5075    1.9700    2.3692    4.8261    4.0130    7.8902    6.3998   12.5534   81.8699    0.1807    2.5822   -0.0028    7.9414   37.0000 
13502.8228 13502.8228    8.7500    8.8605   61.5812   74.7998   61.5812    8.6749    1.8900    1.9842    4.5899    4.3720    7.9741    6.4328   13.6705   90.4856    0.1662    2.5925    0.0018    9.0468   37.0000 
13504.4633 13504.4633    8.7500    8.8857   64.1778   77.9827   64.1778    8.8066    2.0100    2.2898    4.3814    3.8460    8.0377    6.2688   15.2952   86.3401    0.2198    2.5856   -0.0028    7.4854   37.0000 
13506.1037 13506.1037    8.7500    8.9121   75.1011   90.3681   75.1011   10.3183    2.3500    2.5180    4.3908    4.0978    7.9632    6.0860   11.3869   84.1794    0.2270    2.5744   -0.0061    6.2194   37.0000 
13507.7441 13507.7441    8.7500    8.8620   70.0106   82.1107   70.0106    9.9728    2.1300    2.1520    4.6821    4.6342    7.2068    6.8169   12.2731   94.8136    0.1602    2.5987    0.0003    8.1862   37.0000 
13509.3845 13509.3845    8.7500    8.8329   71.2973   85.0648   71.2973   10.8027    2.0600    2.2387    5.2440    4.8254    5.4486    6.0991   10.3185   92.8233    0.1865    2.5888   -0.0092    6.8256   37.0000 
13511.0249 13511.0249    8.7500    8.9782   79.1289   93.0548   79.1289   12.9035    2.1300    2.4728    6.0580    5.2182    3.7357    4.5087    5.9493   93.4013    0.2185    2.5383   -0.0083    6.0676   37.0000 
13512.6654 13512.6654    8.7500    8.9679   80.3459   92.3177   80.3459   12.8152    2.2100    2.1348    5.7987    6.0030    3.9673    4.3794    5.6849   89.4221    0.2091    2.5320   -0.0036    6.2477   37.0000 
13514.3058 13514.3058    8.7500    8.9664   78.8858   91.3427   78.8858   12.4649    2.1900    2.2399    5.6917    5.5649    3.8569    4.4893    6.0073   87.0952    0.2185    2.5373   -0.0011    6.3733   37.0000 
13515.9462 13515.9462    8.7500    8.9920   70.8085   86.2939   70.8085   10.9877    2.0000    2.5446    5.4939    4.3180    3.8283    4.4059    5.5407   80.5957    0.1716    2.5546   -0.0030    6.2921   37.0000 
13517.5866 13517.5866    8.7500    9.0150   62.8918   79.2467   62.8918    9.6237    1.8000    2.5973    5.3465    3.7053    5.3124    6.1639    7.4848   90.8966    0.1640    2.5428    0.0010    6.1350   37.0000 
13519.2270 13519.2270    8.7500    9.0170   69.2896   81.7893   69.2896   11.1477    1.8900    2.1990    5.8983    5.0694    5.2289    5.4338    6.3710   94.6209    0.1848    2.5368   -0.0047    7.1183   37.0000 
13520.8675 13520.8675    8.7500    9.0549   74.9790   84.9162   74.9790   11.8678    2.0800    1.8375    5.7057    6.4587    6.2535    6.8760    7.9366   92.0811    0.1831    2.5764   -0.0042    6.5807   37.0000 
13522.5079 13522.5079    8.7500    9.1495   91.9395  103.8880   91.9395   14.7427    2.5200    2.3120    5.8503    6.3766    2.7361    2.7725    2.7974   95.4152    0.2512    2.5536   -0.0019    6.6797   37.0000 
13524.1483 13524.1483    8.7500    9.1485   82.5648   97.1965   82.5648   12.3790    2.4100    2.4488    5.1365    5.0551    3.4533    3.5430    3.6224   97.8689    0.2229    2.5502    0.0008    6.8597   37.0000 
13525.7887 13525.7887    8.7500    9.1536   85.9450  103.0445   85.9450   12.6672    2.5400    2.8913    4.9871    4.3811    3.2343    3.3004    3.1579   93.3325    0.2320    2.5545    0.0013    6.9274   37.0000 
13527.4291 13527.4291    8.7500    9.1515   87.0095  105.5237   87.0095   13.3672    2.4800    3.0377    5.3900    4.4004    2.6397    2.7792    2.7512   91.9288    0.2370    2.5565    0.0044    6.4581   37.0000 
13529.0696 13529.0696    8.7500    9.1060   90.2845  102.0501   90.2845   14.3352    2.5000    2.3960    5.7341    5.9830    3.1663    3.3765    3.4799   94.4509    0.2431    2.5460    0.0028    6.8173   37.0000 
13530.7100 13530.7100    8.7500    9.0932   85.3778   98.9920   85.3778   14.0305    2.2800    2.5795    6.1537    5.4392    3.0290    3.3063    2.9482   93.1152    0.2364    2.5579    0.0042    6.3281   37.0000 
13532.3504 13532.3504    8.7500    9.0043   96.3447  108.5447   96.3447   15.2963    2.6600    2.4145    5.7505    6.3352    3.1205    3.3828    3.6935   93.3352    0.2391    2.5501    0.0018    6.5191   37.0000 
13533.9908 13533.9908    8.7500    8.9674   80.3979   96.2031   80.3979   12.1154    2.3300    2.8006    5.1997    4.3260    3.2105    4.0137    4.8035   95.8936    0.2204    2.5735    0.0036    6.9282   37.0000 
13535.6312 13535.6312    8.7500    8.9279   83.6295  101.6191   83.6295   12.4916    2.4500    2.9208    5.0986    4.2768    3.8560    4.4482    6.7480   97.4743    0.2192    2.5330   -0.0056    6.7762   37.0000 
13537.2717 13537.2717    8.7500    8.9383   80.6344   99.7299   80.6344   12.0811    2.3500    2.8384    5.1409    4.2563    5.7240    5.5255    5.9566   93.3825    0.2330    2.5033   -0.0020    6.3750   37.0000 
