~VERSION INFORMATION
 VERS.                 2.0:   CWLS LOG ASCII STANDARD - VERSION 2.0
 WRAP.                  NO:   SINGLE LINE PER DEPTH STEP
 CREA.                 08/02/2018 08:46:35
#CREATED USING DSPetro VERSION 5000.10.1.3 BY H191660 ON 08/02/2018 08:46:35
~WELL INFORMATION
#MNEM.UNIT       DATA                          DESCRIPTION MNEMONIC
#---------      ---------------------------   --------------------------
 STRT    .FT        12311.0000                : START DEPTH
 STOP    .FT        17628.0000                : STOP DEPTH
 STEP    .FT        0.5000                    : STEP VALUE
 NULL    .      -999.0000                     : NULL VALUE
 DATE    .      08/02/2018                    : LAS file Creation Date
 WELL  .      UNIVERSITY_20_5                  : Well Name
 COMP  .      Neftex Exploration Insights      : Company
 FLD   .      HALEY (LWR. WOLFCAMP-PENN CONS.) : Field
 STATE .      TEXAS                            : State
 COUNT .      LOVING                           : Country
 API   .      42-301-31423                     : API Number
 UWI   .      212                              : Unique Well Identifier (UWI)
 LOC   .      1320' FNL & 1320' FWL            : Location
 PDAT  .      G.L.                             : Permanent Datum
 EPDAT .      2805                             : Reference Elevation
 LGMEA .      K.B.                             : Log Measured from
 DRMEA .      KELLY BUSHING                    : Drill Measured From
 APDAT .      30                               : Elevation Above Permanent Datum
 KB    .      2835                             : KB Elevation
 DF    .      2834                             : DF Elevation
 GL    .      2805                             : GL Elevation
 RWS   .      -999                             : Def_Rw
 WST   .      -999                             : Def_Rwt
 CNTY  .      LOVING                           : County
 SRVC  .      Baker Atlas                      : Contractor
~CURVE INFORMATION
#MNEM              UNIT       API CODE   Curve Type Comments
#----------  --------------- ----------  ---------- -----------
 DEPTH      .FT                        : Depth       
 DEPTH      .FT                        : Depth       
 BS         .inch                      : BitSize     
 CAL        .inch                      :             
 GR         .API                       : GammaRay    
 K          .%                         : Spectral    Potassium
 TH         .PPM                       : Spectral    Thorium
 U          .PPM                       : Spectral    Uranium
 Th/k       .PPM                       : Spectral    
 Th/U       .PPM                       : Spectral    
 RESD       .ohmm                      :             
 RESM       .ohmm                      :             
 RESS       .ohmm                      :             
 DT         .us/ft                     :             
 DRHO       .G/C3                      : Drho        
 NPHI       .dec                       : Neutron     
 RHOB       .G/C3                      : Density     
 PEF        .b/e-                      : PEF         
 LITH       .                          : LITH        Lithology Curve
~A  DEPTH   DEPTH       BS       CAL        GR        K         TH        U        Th/k      Th/U      RESD      RESM      RESS       DT       DRHO      NPHI      RHOB      PEF       LITH   
# ...
15818.0000 15818.0000    8.5000    8.6820   54.5176 -999.0000 -999.0000 -999.0000 -999.0000 -999.0000    3.6720    3.6690    3.8040  101.1890   -0.0120    0.2955    2.3110    4.7510   22.0000 
15818.5000 15818.5000    8.5000    8.6870   55.9633 -999.0000 -999.0000 -999.0000 -999.0000 -999.0000    3.0130    3.0160    3.1240  103.5940   -0.0100    0.2997    2.3290    4.6740   22.0000 
15819.0000 15819.0000    8.5000    8.6880   57.5453 -999.0000 -999.0000 -999.0000 -999.0000 -999.0000    2.6470    2.6490    2.7580  105.3780   -0.0080    0.3145    2.3480    4.7890   22.0000 
15819.5000 15819.5000    8.5000    8.6890   59.6262 -999.0000 -999.0000 -999.0000 -999.0000 -999.0000    2.6210    2.6190    2.7620  104.4730   -0.0090    0.3275    2.3550    5.0530   22.0000 
15820.0000 15820.0000    8.5000    8.6810   60.5245 -999.0000 -999.0000 -999.0000 -999.0000 -999.0000    2.9430    2.9330    3.1700   99.9600   -0.0120    0.3207    2.3600    5.1610   22.0000 
15820.5000 15820.5000    8.5000    8.6680   57.2688 -999.0000 -999.0000 -999.0000 -999.0000 -999.0000    3.6080    3.5780    4.0010   93.0370   -0.0100    0.2824    2.3940    4.9570   22.0000 
15821.0000 15821.0000    8.5000    8.6660   50.1607 -999.0000 -999.0000 -999.0000 -999.0000 -999.0000    4.3560    4.2930    4.9690   86.2070   -0.0040    0.2431    2.4540    4.6620   22.0000 
15821.5000 15821.5000    8.5000    8.6660   43.5020 -999.0000 -999.0000 -999.0000 -999.0000 -999.0000    4.8590    4.7620    5.6090   81.4290   -0.0020    0.2241    2.5040    4.5540   22.0000 
15822.0000 15822.0000    8.5000    8.6620   39.9831 -999.0000 -999.0000 -999.0000 -999.0000 -999.0000    5.1950    5.0720    5.9580   78.9350   -0.0060    0.2162    2.5240    4.6700   22.0000 
15822.5000 15822.5000    8.5000    8.6590   38.3597 -999.0000 -999.0000 -999.0000 -999.0000 -999.0000    5.7020    5.5510    6.4500   77.5120   -0.0090    0.2055    2.5360    4.9250   22.0000 
15823.0000 15823.0000    8.5000    8.6680   36.5718 -999.0000 -999.0000 -999.0000 -999.0000 -999.0000    6.5460    6.3570    7.2750   75.8050   -0.0080    0.1923    2.5550    5.0520   22.0000 
15823.5000 15823.5000    8.5000    8.6760   34.9945 -999.0000 -999.0000 -999.0000 -999.0000 -999.0000    7.6660    7.4380    8.3250   73.5880   -0.0060    0.1815    2.5730    4.7640   22.0000 
15824.0000 15824.0000    8.5000    8.6770   34.4632 -999.0000 -999.0000 -999.0000 -999.0000 -999.0000    8.8210    8.5700    9.2680   71.6230   -0.0070    0.1755    2.5790    4.2550   22.0000 
15824.5000 15824.5000    8.5000    8.6810   35.1135 -999.0000 -999.0000 -999.0000 -999.0000 -999.0000    9.4890    9.2550    9.5550   70.4890   -0.0090    0.1732    2.5820    4.0040   22.0000 
15825.0000 15825.0000    8.5000    8.6940   36.5696 -999.0000 -999.0000 -999.0000 -999.0000 -999.0000    9.3280    9.1530    9.0640   69.8860   -0.0100    0.1694    2.5850    4.2310   22.0000 
15825.5000 15825.5000    8.5000    8.7040   38.1484 -999.0000 -999.0000 -999.0000 -999.0000 -999.0000    9.4470    9.3310    8.9120   68.7360   -0.0130    0.1584    2.5830    4.8870   18.0000 
15826.0000 15826.0000    8.5000    8.7090   37.3323 -999.0000 -999.0000 -999.0000 -999.0000 -999.0000   11.4150   11.3470   10.5100   66.2580   -0.0170    0.1400    2.5870    5.8160   18.0000 
15826.5000 15826.5000    8.5000    8.7160   33.6988 -999.0000 -999.0000 -999.0000 -999.0000 -999.0000   16.4550   16.4900   14.9900   63.4210   -0.0160    0.1179    2.6120    6.5270   18.0000 
15827.0000 15827.0000    8.5000    8.7200   30.3489 -999.0000 -999.0000 -999.0000 -999.0000 -999.0000   19.1810   19.2830   17.7040   62.3700   -0.0120    0.1044    2.6420    6.3280   18.0000 
15827.5000 15827.5000    8.5000    8.7150   30.2624 -999.0000 -999.0000 -999.0000 -999.0000 -999.0000   14.1460   14.3110   13.1810   64.1600   -0.0080    0.1045    2.6520    5.6710   18.0000 
15828.0000 15828.0000    8.5000    8.7040   34.4946 -999.0000 -999.0000 -999.0000 -999.0000 -999.0000    8.4380    8.5810    8.0960   67.5780   -0.0070    0.1144    2.6370    5.5780   18.0000 
15828.5000 15828.5000    8.5000    8.7030   40.7423 -999.0000 -999.0000 -999.0000 -999.0000 -999.0000    6.2120    6.3190    6.0810   69.8230   -0.0080    0.1233    2.6160    6.2020   18.0000 
15829.0000 15829.0000    8.5000    8.7100   43.0906 -999.0000 -999.0000 -999.0000 -999.0000 -999.0000    6.2520    6.3570    6.2460   68.8350   -0.0100    0.1124    2.6100    6.8530   18.0000 
15829.5000 15829.5000    8.5000    8.7100   38.3624 -999.0000 -999.0000 -999.0000 -999.0000 -999.0000    8.8340    8.9900    9.0100   65.1640   -0.0140    0.0830    2.6190    6.7090   18.0000 
15830.0000 15830.0000    8.5000    8.6970   30.6827 -999.0000 -999.0000 -999.0000 -999.0000 -999.0000   16.5180   16.9230   17.2430   61.0710   -0.0180    0.0597    2.6310    6.1140   18.0000 
15830.5000 15830.5000    8.5000    8.6780   25.1968 -999.0000 -999.0000 -999.0000 -999.0000 -999.0000   28.4290   29.2100   31.2610   58.2320   -0.0200    0.0493    2.6400    5.8130   18.0000 
15831.0000 15831.0000    8.5000    8.6710   22.3901 -999.0000 -999.0000 -999.0000 -999.0000 -999.0000   38.0390   38.6560   40.3820   56.8780   -0.0190    0.0469    2.6520    5.8460   18.0000 
15831.5000 15831.5000    8.5000    8.6820   20.8523 -999.0000 -999.0000 -999.0000 -999.0000 -999.0000   42.9670   42.9620   42.1710   56.3680   -0.0150    0.0462    2.6630    5.8700   18.0000 
15832.0000 15832.0000    8.5000    8.6980   19.5431 -999.0000 -999.0000 -999.0000 -999.0000 -999.0000   51.4200   51.1270   44.6480   56.1000   -0.0100    0.0451    2.6690    5.6050   18.0000 
15832.5000 15832.5000    8.5000    8.7050   19.1172 -999.0000 -999.0000 -999.0000 -999.0000 -999.0000   60.0540   60.7760   46.7570   56.0660   -0.0080    0.0440    2.6700    5.1120   18.0000 
15833.0000 15833.0000    8.5000    8.7020   20.5055 -999.0000 -999.0000 -999.0000 -999.0000 -999.0000   63.4090   63.5490   45.5970   56.3430   -0.0060    0.0444    2.6670    4.7930   18.0000 
15833.5000 15833.5000    8.5000    8.6940   22.7174 -999.0000 -999.0000 -999.0000 -999.0000 -999.0000   60.8660   60.7730   43.0540   56.6750   -0.0080    0.0466    2.6600    4.8850   18.0000 
15834.0000 15834.0000    8.5000    8.6920   23.8214 -999.0000 -999.0000 -999.0000 -999.0000 -999.0000   57.4770   57.4650   41.2740   56.8490   -0.0130    0.0493    2.6490    5.1410   18.0000 
15834.5000 15834.5000    8.5000    8.7140   23.5853 -999.0000 -999.0000 -999.0000 -999.0000 -999.0000   55.6900   55.6960   40.4780   56.9310   -0.0180    0.0501    2.6400    5.1950   18.0000 
15835.0000 15835.0000    8.5000    8.7430   22.8881 -999.0000 -999.0000 -999.0000 -999.0000 -999.0000   54.1300   54.0030   39.3060   57.1630   -0.0190    0.0494    2.6400    5.0210   18.0000 
15835.5000 15835.5000    8.5000    8.7550   22.7613 -999.0000 -999.0000 -999.0000 -999.0000 -999.0000   51.1730   50.8120   36.8020   57.7050   -0.0180    0.0511    2.6430    4.7930   18.0000 
15836.0000 15836.0000    8.5000    8.7460   23.4969 -999.0000 -999.0000 -999.0000 -999.0000 -999.0000   47.4650   46.9260   33.9150   58.4040   -0.0160    0.0574    2.6390    4.5920   18.0000 
15836.5000 15836.5000    8.5000    8.7280   24.3029 -999.0000 -999.0000 -999.0000 -999.0000 -999.0000   44.7160   44.0750   31.9860   58.9170   -0.0160    0.0653    2.6270    4.4030   18.0000 
15837.0000 15837.0000    8.5000    8.7220   23.9995 -999.0000 -999.0000 -999.0000 -999.0000 -999.0000   43.7210   43.0310   31.5460   58.9640   -0.0160    0.0704    2.6180    4.2300   18.0000 
15837.5000 15837.5000    8.5000    8.7410   23.3452 -999.0000 -999.0000 -999.0000 -999.0000 -999.0000   44.2620   43.5320   32.3370   58.6010   -0.0160    0.0708    2.6200    4.2130   18.0000 
15838.0000 15838.0000    8.5000    8.7690   23.3683 -999.0000 -999.0000 -999.0000 -999.0000 -999.0000   44.9150   44.1950   33.2910   58.3080   -0.0140    0.0684    2.6320    4.4450   18.0000 
15838.5000 15838.5000    8.5000    8.7790   23.6512 -999.0000 -999.0000 -999.0000 -999.0000 -999.0000   44.0040   43.4490   33.0680   58.5500   -0.0130    0.0664    2.6440    4.7190   18.0000 
