~VERSION INFORMATION
 VERS.                 2.0:   CWLS LOG ASCII STANDARD - VERSION 2.0
 WRAP.                  NO:   SINGLE LINE PER DEPTH STEP
 CREA.                 08/02/2018 08:52:47
#CREATED USING DSPetro VERSION 5000.10.1.3 BY H191660 ON 08/02/2018 08:52:47
~WELL INFORMATION
#MNEM.UNIT       DATA                          DESCRIPTION MNEMONIC
#---------      ---------------------------   --------------------------
 STRT    .FT        12349.0092                : START DEPTH
 STOP    .FT        16985.0092                : STOP DEPTH
 STEP    .FT        0.5000                    : STEP VALUE
 NULL    .      -999.0000                     : NULL VALUE
 DATE    .      08/02/2018                    : LAS file Creation Date
 WELL  .      UNIVERSITY_19-6           : Well Name
 COMP  .      Anadarko Petroleum Corpor : Company
 FLD   .      LOVING                    : Field
 STATE .      TEXAS                     : State
 COUNT .      Texas                     : Country
 API   .      42301311860000            : API Number
 UWI   .      507                       : Unique Well Identifier (UWI)
 LOC   .      Onshore                   : Location
 TOWN  .      19                        : Township
 SCT   .      6                         : Section
 RANG  .      University Land           : Range
 LATI  .      3509001.74                : Latitude/Northing
 LONG  .      644715.32                 : Longitude/Easting
 PDAT  .      Ground Level              : Permanent Datum
 EPDAT .      2810                      : Reference Elevation
 LGMEA .      Kelly Bushing             : Log Measured from
 DRMEA .      Kelly Bushing             : Drill Measured From
 APDAT .      31                        : Elevation Above Permanent Datum
 KB    .      2841                      : KB Elevation
 DF    .      2840                      : DF Elevation
 GL    .      2810                      : GL Elevation
 RWS   .      0                         : Def_Rw
 WST   .      0                         : Def_Rwt
 UTMZ  .      13                        : UTM Zone
 BHS   .      OPEN                      : Completion Status
 CNTY  .      LOVING                    : County
 MDEC  .      0                         : Magnetic Declination
 SRVC  .      SCH                       : Contractor
~CURVE INFORMATION
#MNEM              UNIT       API CODE   Curve Type Comments
#----------  --------------- ----------  ---------- -----------
 DEPTH      .FT                        : Depth       
 DEPTH      .FT                        : Depth       
 BS         .IN                        : BitSize     Bit Size {F13.4}
 CAL        .IN                        :             
 HSGR       .GAPI                      :             
 HCGR       .GAPI                      :             
 TH         .PPM                       :             HNGS Formation Thorium Concentration {F13.4}
 U          .PPM                       :             HNGS Formation Uranium Concentration {F13.4}
 K          .CFCF                      :             HNGS Formation Potassium Concentration {F13.4}
 ThK        .PPM                       : Spectral    
 ThU        .PPM                       : Spectral    
 RSHALLOW   .OHMM                      :             12  RSHALLOW
 RMEDIUM    .OHMM                      :             13  Medium Resistivity
 RDEEP      .OHMM                      : DeepRes     14  Deep Resistivity
 DT         .US/F                      : Sonic       DT
 NPHI       .dec                       : Neutron     NPHI
 RHOB       .G/C3                      : Density     
 DRHO       .G/CC                      : Drho        
 PEF        .                          :             
 LITH       .                          : LITH        Lithology Curve
~A  DEPTH   DEPTH       BS       CAL       HSGR      HCGR       TH        U         K        ThK       ThU     RSHALLOW  RMEDIUM    RDEEP       DT       NPHI      RHOB      DRHO      PEF       LITH   
# ...
13589.0092 13589.0092    8.7500    8.8220   77.5268   53.6243    8.0146    3.3768    1.5700    5.1048    2.3734    6.7590    9.4940   12.3530   88.5790    0.1740    2.4866   -0.0061    5.3608   37.0000 
13589.5092 13589.5092    8.7500    8.8300   72.5348   50.0283    7.5150    3.1720    1.4500    5.1828    2.3692    6.6820    9.2890   11.7190   88.8610    0.1670    2.5028   -0.0055    5.9527   37.0000 
13590.0092 13590.0092    8.7500    8.8380   63.8877   43.6365    6.5791    2.8381    1.2600    5.2214    2.3181    7.0250    9.0310   11.0470   88.1820    0.1570    2.5399   -0.0017    4.6335   37.0000 
13590.5092 13590.5092    8.7500    8.8200   53.1584   35.7568    5.5271    2.4458    1.0100    5.4723    2.2598    8.6440   11.8550   14.1230   87.0860    0.1430    2.6021    0.0125    6.6091   22.0000 
13591.0092 13591.0092    8.7500    8.7190   41.3489   27.9533    4.4312    1.8839    0.7700    5.7547    2.3521   12.7940   16.4290   20.0910   88.1080    0.1220    2.6700   -0.0012    5.4286   18.0000 
13591.5092 13591.5092    8.7500    8.6970   33.9102   24.3834    3.8451    1.3665    0.6800    5.6546    2.8138   13.7790   27.1340   32.2720   94.9770    0.0960    2.7095    0.0020    7.0783   18.0000 
13592.0092 13592.0092    8.7500    8.7410   31.3400   24.1478    3.8060    1.0866    0.6700    5.6806    3.5026   12.6780   29.8070   44.9930   94.7650    0.0750    2.7212    0.0043    6.4576   18.0000 
13592.5092 13592.5092    8.7500    8.7550   33.4412   26.4069    4.2367    1.1108    0.7200    5.8843    3.8141   11.8170   34.4760   49.1420   94.5990    0.0600    2.7189   -0.0010    6.7120   18.0000 
13593.0092 13593.0092    8.7500    8.7770   43.3840   33.7671    5.4220    1.5273    0.9200    5.8936    3.5501   10.9140   25.4340   26.9650   94.2000    0.0600    2.6965   -0.0031    9.2827   18.0000 
13593.5092 13593.5092    8.7500    8.7890   65.0107   50.9844    8.2070    2.2823    1.3900    5.9044    3.5960    6.7370    8.8100   10.2130   94.2780    0.0830    2.6373   -0.0088    7.2992   18.0000 
13594.0092 13594.0092    8.7500    8.7880   91.8784   73.3566   11.7345    3.1160    2.0100    5.8382    3.7659    3.5250    4.1960    4.2820   94.1710    0.1370    2.5584   -0.0138   14.2101   22.0000 
13594.5092 13594.5092    8.7500    8.8100  112.6257   90.3356   14.3911    3.7618    2.4900    5.7796    3.8256    2.4090    2.6450    2.7460   94.3240    0.2100    2.4985   -0.0246    7.7999   37.0000 
13595.0092 13595.0092    8.7500    8.8800  119.5709   96.6389   15.4779    3.8860    2.6500    5.8408    3.9830    2.4420    2.6580    2.7440   94.2210    0.2340    2.4715   -0.0256    7.4239   37.0000 
13595.5092 13595.5092    8.7500    9.0360  118.1958   95.9677   15.3760    3.7914    2.6300    5.8464    4.0555    2.6290    2.7190    2.8370   94.0770    0.2340    2.4709   -0.0266    8.7285   37.0000 
13596.0092 13596.0092    8.7500    9.0870  114.9873   93.8055   15.1308    3.6460    2.5500    5.9336    4.1500    2.8150    2.8380    2.9280   93.9710    0.2300    2.4824   -0.0078   10.5709   37.0000 
13596.5092 13596.5092    8.7500    9.1260  108.6562   88.0421   14.2308    3.4814    2.3900    5.9543    4.0877    2.9560    3.0860    3.0630   94.0630    0.2170    2.4948   -0.0013    5.9952   37.0000 
13597.0092 13597.0092    8.7500    9.1410   97.2108   77.8659   12.7239    3.2154    2.0900    6.0879    3.9572    3.2130    3.2790    3.6470   93.9970    0.2090    2.5065   -0.0057    5.3491   37.0000 
13597.5092 13597.5092    8.7500    9.1610   80.9201   63.0442   10.4596    2.8831    1.6600    6.3009    3.6279    3.6210    4.0410    4.2800   93.9750    0.2030    2.5162   -0.0207    6.0413   37.0000 
13598.0092 13598.0092    8.7500    9.1650   67.1345   52.1669    8.7436    2.3495    1.3600    6.4290    3.7214    4.7720    5.2860    5.2930   94.3230    0.1860    2.5211   -0.0134    5.3173   22.0000 
13598.5092 13598.5092    8.7500    9.1140   57.6364   45.8740    7.8665    1.8870    1.1700    6.7235    4.1688    7.0840    8.2940    7.4950   94.2790    0.1540    2.5218   -0.0021    6.8191   22.0000 
13599.0092 13599.0092    8.7500    9.1000   53.4740   43.3003    7.5735    1.6311    1.0800    7.0125    4.6432   11.1000   15.3970   15.3810   94.3410    0.1220    2.5255   -0.0063    6.2085   22.0000 
13599.5092 13599.5092    8.7500    9.1010   55.4083   44.4376    7.9601    1.6902    1.0700    7.4393    4.7096   13.2680   16.8750   17.5120   93.7280    0.1000    2.5331   -0.0168    6.3637   18.0000 
13600.0092 13600.0092    8.7500    9.1010   62.9993   49.6631    8.9960    2.0223    1.1800    7.6238    4.4485   10.0120   12.4370   13.9040   93.1680    0.1010    2.5411   -0.0179    4.4736   18.0000 
13600.5092 13600.5092    8.7500    9.0930   68.8144   53.4389    9.6903    2.2970    1.2700    7.6302    4.2187    7.8220   10.2870   11.3080   93.5930    0.1170    2.5375   -0.0083    5.7573   22.0000 
13601.0092 13601.0092    8.7500    9.1020   71.4639   54.6476    9.9440    2.4819    1.2900    7.7085    4.0066    9.2350   11.1400   12.4240   93.5870    0.1330    2.5257    0.0022   10.0583   22.0000 
13601.5092 13601.5092    8.7500    9.0980   74.4178   56.5812   10.1186    2.5965    1.3700    7.3859    3.8970   10.9310   14.0000   15.3450   93.5920    0.1330    2.5131    0.0005    5.1095   37.0000 
13602.0092 13602.0092    8.7500    9.0990   84.4515   64.8041   11.4549    2.8943    1.5900    7.2044    3.9578    7.6480    9.3830   10.4780   93.5890    0.1270    2.5010   -0.0091    6.5934   37.0000 
13602.5092 13602.5092    8.7500    9.1380   94.7188   73.3261   12.7706    3.2266    1.8300    6.9785    3.9579    5.0740    5.4550    5.7100   93.5630    0.1540    2.4949   -0.0114    4.9479   37.0000 
13603.0092 13603.0092    8.7500    9.1320   93.6050   72.5525   12.3955    3.2559    1.8500    6.7003    3.8071    3.7100    3.8800    4.0110   93.5680    0.1870    2.5037   -0.0272    8.0100   37.0000 
13603.5092 13603.5092    8.7500    9.0980   83.1563   63.3476   10.6789    3.0828    1.6400    6.5115    3.4640    4.2460    4.7820    5.0140   93.5610    0.1840    2.5265   -0.0142   10.1566   37.0000 
13604.0092 13604.0092    8.7500    9.1050   75.6500   57.0480    9.6467    2.8752    1.4800    6.5180    3.3551    5.9360    6.6700    5.9390   93.5400    0.1470    2.5488   -0.0084    9.6864   22.0000 
13604.5092 13604.5092    8.7500    9.1040   79.4568   59.4899    9.8291    3.1004    1.5800    6.2210    3.1703    5.1310    5.6920    4.9600   93.5140    0.1340    2.5590   -0.0050   12.2467   22.0000 
13605.0092 13605.0092    8.7500    9.1050   91.9658   68.9788   11.2323    3.5741    1.8600    6.0389    3.1427    4.0880    4.3840    4.0780   93.4970    0.1560    2.5538   -0.0037    5.8615   37.0000 
13605.5092 13605.5092    8.7500    9.1040  104.2312   79.5523   12.9497    3.8565    2.1400    6.0513    3.3579    3.6550    3.8470    3.5050   93.4630    0.2040    2.5371   -0.0039    6.4995   37.0000 
13606.0092 13606.0092    8.7500    9.1420  109.0142   84.5531   13.5844    3.8637    2.3100    5.8807    3.5159    3.1430    3.2430    3.2350   93.4420    0.2190    2.5199   -0.0046    7.0514   37.0000 
13606.5092 13606.5092    8.7500    9.1480  108.5726   85.0592   13.4494    3.7583    2.3600    5.6989    3.5786    3.1380    3.3090    3.3460   93.3940    0.2000    2.5147   -0.0083    6.8841   37.0000 
13607.0092 13607.0092    8.7500    9.1410  106.7449   84.5673   13.3747    3.5809    2.3500    5.6914    3.7350    3.1470    3.4270    3.2940   93.3800    0.1840    2.5183   -0.0069    8.6972   37.0000 
13607.5092 13607.5092    8.7500    9.1350  108.2079   86.1114   13.5393    3.5798    2.4000    5.6414    3.7821    3.0700    3.3280    3.2540   93.3280    0.1900    2.5206    0.0032    6.6208   37.0000 
13608.0092 13608.0092    8.7500    9.1070  108.2766   86.2932   13.8124    3.5454    2.3600    5.8527    3.8959    3.1090    3.3900    3.3590   93.3240    0.2060    2.5274    0.0031    6.3170   37.0000 
13608.5092 13608.5092    8.7500    9.1030  101.5428   80.6482   13.1165    3.3159    2.1700    6.0445    3.9556    3.2890    3.5860    3.5770   93.2440    0.2060    2.5439   -0.0074   11.1875   37.0000 
