~VERSION INFORMATION
 VERS.                 2.0:   CWLS LOG ASCII STANDARD - VERSION 2.0
 WRAP.                  NO:   SINGLE LINE PER DEPTH STEP
 CREA.                 08/02/2018 08:52:47
#CREATED USING DSPetro VERSION 5000.10.1.3 BY H191660 ON 08/02/2018 08:52:47
~WELL INFORMATION
#MNEM.UNIT       DATA                          DESCRIPTION MNEMONIC
#---------      ---------------------------   --------------------------
 STRT    .FT        12349.0092                : START DEPTH
 STOP    .FT        16985.0092                : STOP DEPTH
 STEP    .FT        0.5000                    : STEP VALUE
 NULL    .      -999.0000                     : NULL VALUE
 DATE    .      08/02/2018                    : LAS file Creation Date
 WELL  .      UNIVERSITY_19-6           : Well Name
 COMP  .      Anadarko Petroleum Corpor : Company
 FLD   .      LOVING                    : Field
 STATE .      TEXAS                     : State
 COUNT .      Texas                     : Country
 API   .      42301311860000            : API Number
 UWI   .      507                       : Unique Well Identifier (UWI)
 LOC   .      Onshore                   : Location
 TOWN  .      19                        : Township
 SCT   .      6                         : Section
 RANG  .      University Land           : Range
 LATI  .      3509001.74                : Latitude/Northing
 LONG  .      644715.32                 : Longitude/Easting
 PDAT  .      Ground Level              : Permanent Datum
 EPDAT .      2810                      : Reference Elevation
 LGMEA .      Kelly Bushing             : Log Measured from
 DRMEA .      Kelly Bushing             : Drill Measured From
 APDAT .      31                        : Elevation Above Permanent Datum
 KB    .      2841                      : KB Elevation
 DF    .      2840                      : DF Elevation
 GL    .      2810                      : GL Elevation
 RWS   .      0                         : Def_Rw
 WST   .      0                         : Def_Rwt
 UTMZ  .      13                        : UTM Zone
 BHS   .      OPEN                      : Completion Status
 CNTY  .      LOVING                    : County
 MDEC  .      0                         : Magnetic Declination
 SRVC  .      SCH                       : Contractor
~CURVE INFORMATION
#MNEM              UNIT       API CODE   Curve Type Comments
#----------  --------------- ----------  ---------- -----------
 DEPTH      .FT                        : Depth       
 DEPTH      .FT                        : Depth       
 BS         .IN                        : BitSize     Bit Size {F13.4}
 CAL        .IN                        :             
 HSGR       .GAPI                      :             
 HCGR       .GAPI                      :             
 TH         .PPM                       :             HNGS Formation Thorium Concentration {F13.4}
 U          .PPM                       :             HNGS Formation Uranium Concentration {F13.4}
 K          .CFCF                      :             HNGS Formation Potassium Concentration {F13.4}
 ThK        .PPM                       : Spectral    
 ThU        .PPM                       : Spectral    
 RSHALLOW   .OHMM                      :             12  RSHALLOW
 RMEDIUM    .OHMM                      :             13  Medium Resistivity
 RDEEP      .OHMM                      : DeepRes     14  Deep Resistivity
 DT         .US/F                      : Sonic       DT
 NPHI       .dec                       : Neutron     NPHI
 RHOB       .G/C3                      : Density     
 DRHO       .G/CC                      : Drho        
 PEF        .                          :             
 LITH       .                          : LITH        Lithology Curve
~A  DEPTH   DEPTH       BS       CAL       HSGR      HCGR       TH        U         K        ThK       ThU     RSHALLOW  RMEDIUM    RDEEP       DT       NPHI      RHOB      DRHO      PEF       LITH   
# ...
16669.0092 16669.0092    8.7500    9.4570  109.9887   87.5446   20.1260    3.4371    1.3500   14.9081    5.8555    1.9020    1.6030    1.5540   98.9450    0.3010    2.6294   -0.0256   13.9561   37.0000 
16669.5092 16669.5092    8.7500    9.4340  111.5502   87.8316   20.1855    3.7082    1.3600   14.8423    5.4435    1.8720    1.5590    1.5160   99.6090    0.2960    2.6151   -0.0357   20.8625   37.0000 
16670.0092 16670.0092    8.7500    9.3940  113.0426   89.0886   20.3544    3.7692    1.4000   14.5389    5.4002    1.8040    1.5230    1.5070   99.8340    0.2930    2.5980   -0.0302    9.4587   37.0000 
16670.5092 16670.5092    8.7500    9.2620  113.4279   90.1181   20.6127    3.7112    1.4100   14.6189    5.5542    1.8520    1.5770    1.5790   97.7580    0.2940    2.5731   -0.0192   12.0496   37.0000 
16671.0092 16671.0092    8.7500    9.1260  111.6564   87.8631   20.3361    3.8189    1.3300   15.2903    5.3251    1.9070    1.6340    1.5970   96.7300    0.2950    2.5783   -0.0410   15.3012   37.0000 
16671.5092 16671.5092    8.7500    9.0350  108.0835   83.0364   19.4489    4.0141    1.2200   15.9416    4.8452    1.9680    1.7210    1.6600   93.7730    0.2940    2.6112   -0.0604   24.5254   37.0000 
16672.0092 16672.0092    8.7500    9.0700  104.3774   79.8936   18.8565    3.9624    1.1500   16.3969    4.7589    2.2530    1.8560    1.7500   93.2460    0.2940    2.6373   -0.0356   29.9284   37.0000 
16672.5092 16672.5092    8.7500    9.0650  104.4301   79.6129   18.8765    4.0047    1.1300   16.7048    4.7136    2.7230    2.1880    2.0020   92.8320    0.2860    2.6220   -0.0100    5.8305   37.0000 
16673.0092 16673.0092    8.7500    8.9790  110.0011   81.5622   19.5334    4.5281    1.1300   17.2862    4.3138    2.8700    2.2730    2.1430   92.6990    0.2600    2.5865   -0.0149   10.0071   37.0000 
16673.5092 16673.5092    8.7500    8.8640  116.9294   85.3805   20.5719    4.9732    1.1600   17.7345    4.1366    2.6770    2.1190    2.0310   92.8940    0.2320    2.5786   -0.0206    9.0736   37.0000 
16674.0092 16674.0092    8.7500    8.7740  119.8133   86.8071   20.8085    5.1290    1.2000   17.3404    4.0570    2.4170    1.9620    1.9200   94.4780    0.2290    2.5892   -0.0143    6.5891   37.0000 
16674.5092 16674.5092    8.7500    8.7510  118.5551   85.7080   20.4947    5.0727    1.1900   17.2224    4.0402    2.2060    1.8340    1.8070   96.5840    0.2540    2.6019   -0.0046    7.1594   37.0000 
16675.0092 16675.0092    8.7500    8.8260  117.1965   85.1511   20.3394    4.9134    1.1900   17.0919    4.1396    2.1860    1.8100    1.7880   97.0660    0.2870    2.6014   -0.0029    7.1397   37.0000 
16675.5092 16675.5092    8.7500    8.9520  117.8737   85.1232   20.3895    4.9713    1.1800   17.2792    4.1014    2.2550    1.8570    1.8420   96.2990    0.2990    2.5986   -0.0120    7.8478   37.0000 
16676.0092 16676.0092    8.7500    8.9620  118.7829   84.7187   20.3219    5.0827    1.1600   17.5189    3.9983    2.3190    1.9040    1.8940   96.0090    0.2830    2.5972   -0.0042   10.5403   37.0000 
16676.5092 16676.5092    8.7500    8.9610  120.2117   85.9515   20.5113    5.0563    1.2000   17.0928    4.0566    2.4090    1.9710    1.9400   96.1760    0.2800    2.5923   -0.0079   11.6479   37.0000 
16677.0092 16677.0092    8.7500    8.9860  123.5600   90.5279   21.3648    4.9100    1.3000   16.4346    4.3513    2.5330    2.0600    2.0200   96.3490    0.2800    2.5834   -0.0024    6.3315   37.0000 
16677.5092 16677.5092    8.7500    8.9870  125.5928   93.0563   21.7928    4.8504    1.3700   15.9072    4.4930    2.5640    2.0780    2.0290   96.3350    0.2880    2.5737    0.0010    7.5219   37.0000 
16678.0092 16678.0092    8.7500    8.9650  124.8039   93.8265   21.9974    4.6666    1.3800   15.9401    4.7138    2.4340    1.9880    1.9470   96.1020    0.2920    2.5739    0.0013   11.1027   37.0000 
16678.5092 16678.5092    8.7500    9.0250  123.2951   95.1884   22.3848    4.3440    1.3900   16.1042    5.1530    2.3510    1.9410    1.9050   95.3050    0.2930    2.5788   -0.0116    9.0836   37.0000 
16679.0092 16679.0092    8.7500    9.0740  124.6267   96.2370   22.7573    4.4173    1.3800   16.4908    5.1519    2.3990    1.9620    1.9390   94.8480    0.2860    2.5800   -0.0148   10.3178   37.0000 
16679.5092 16679.5092    8.7500    9.0940  127.4509   97.9795   23.3197    4.5807    1.3800   16.8983    5.0909    2.4860    2.0150    1.9810   94.3960    0.2830    2.5785   -0.0263   10.5962   37.0000 
16680.0092 16680.0092    8.7500    9.0970  127.6270   97.9772   23.3359    4.6076    1.3800   16.9101    5.0647    2.4940    2.0360    1.9930   94.1850    0.2830    2.5787   -0.0207   13.5725   37.0000 
16680.5092 16680.5092    8.7500    9.0950  125.0962   96.0407   22.8054    4.4801    1.3600   16.7687    5.0904    2.4610    2.0040    1.9690   94.5400    0.2780    2.5850   -0.0128    7.8352   37.0000 
16681.0092 16681.0092    8.7500    9.0980  122.1195   94.4396   22.3630    4.2319    1.3500   16.5652    5.2844    2.4670    2.0030    1.9740   94.9770    0.2730    2.5918   -0.0078    9.3352   37.0000 
16681.5092 16681.5092    8.7500    9.1080  120.9679   93.6749   22.0867    4.1495    1.3500   16.3605    5.3227    2.5540    2.0700    2.0160   95.2000    0.2730    2.5906   -0.0186   11.3838   37.0000 
16682.0092 16682.0092    8.7500    9.1290  121.6594   94.1283   22.1331    4.1844    1.3700   16.1556    5.2894    2.5970    2.1050    2.0430   95.0470    0.2700    2.5841   -0.0194    9.0782   37.0000 
16682.5092 16682.5092    8.7500    9.1300  123.4080   95.0023   22.4357    4.2937    1.3700   16.3764    5.2253    2.4660    2.0080    1.9390   94.9380    0.2690    2.5776   -0.0177   11.4345   37.0000 
16683.0092 16683.0092    8.7500    9.1110  125.4628   95.5583   22.6227    4.4775    1.3600   16.6343    5.0525    2.3570    1.9210    1.8650   94.9340    0.2780    2.5736   -0.0152    9.3880   37.0000 
16683.5092 16683.5092    8.7500    9.0880  125.9267   94.8528   22.3581    4.6365    1.3700   16.3198    4.8222    2.3800    1.9340    1.8750   95.3770    0.2860    2.5779   -0.0161    9.6507   37.0000 
16684.0092 16684.0092    8.7500    9.0910  125.3487   93.0200   21.8984    4.8012    1.3500   16.2210    4.5610    2.4280    1.9690    1.8920   95.7710    0.2870    2.5848   -0.0252    7.2960   37.0000 
16684.5092 16684.5092    8.7500    9.0790  123.8081   91.2734   21.4401    4.8171    1.3300   16.1204    4.4508    2.4110    1.9560    1.8690   96.1140    0.2820    2.5832   -0.0168    9.7565   37.0000 
16685.0092 16685.0092    8.7500    9.0750  123.5729   91.2536   21.3192    4.7809    1.3500   15.7920    4.4592    2.3540    1.9170    1.8180   96.5310    0.2880    2.5807   -0.0154    8.7247   37.0000 
16685.5092 16685.5092    8.7500    8.9700  125.9566   93.0254   21.5526    4.8376    1.4100   15.2856    4.4552    2.2740    1.8650    1.7960   96.4460    0.2890    2.5813   -0.0168    6.3292   37.0000 
16686.0092 16686.0092    8.7500    8.9450  127.6495   93.2354   21.7268    5.0676    1.3900   15.6308    4.2874    2.1960    1.8060    1.7660   97.0890    0.2860    2.5828   -0.0115    7.1444   37.0000 
16686.5092 16686.5092    8.7500    8.9780  127.1106   92.1016   21.7594    5.2562    1.3200   16.4843    4.1398    2.1290    1.7670    1.7310   97.2090    0.2760    2.5839   -0.0104    8.9320   37.0000 
16687.0092 16687.0092    8.7500    8.9940  125.0740   90.7962   21.4921    5.2266    1.3000   16.5324    4.1121    2.1250    1.7650    1.7220   97.0050    0.2810    2.5845   -0.0250    7.3600   37.0000 
16687.5092 16687.5092    8.7500    9.0240  123.4620   88.6630   20.9313    5.2816    1.2800   16.3526    3.9631    2.1540    1.7860    1.7290   95.7210    0.2830    2.5829   -0.0254    9.6745   37.0000 
16688.0092 16688.0092    8.7500    9.0250  123.0714   87.8215   20.4618    5.2822    1.3100   15.6197    3.8737    2.1670    1.8000    1.7370   95.4500    0.2760    2.5745   -0.0225    6.4760   37.0000 
16688.5092 16688.5092    8.7500    9.0150  122.7721   87.8778   20.2484    5.2271    1.3500   14.9989    3.8737    2.1660    1.7980    1.7240   95.8580    0.2730    2.5716   -0.0268   12.6601   37.0000 
