~VERSION INFORMATION
 VERS.                 2.0:   CWLS LOG ASCII STANDARD - VERSION 2.0
 WRAP.                  NO:   SINGLE LINE PER DEPTH STEP
 CREA.                 08/02/2018 08:52:47
#CREATED USING DSPetro VERSION 5000.10.1.3 BY H191660 ON 08/02/2018 08:52:47
~WELL INFORMATION
#MNEM.UNIT       DATA                          DESCRIPTION MNEMONIC
#---------      ---------------------------   --------------------------
 STRT    .FT        12349.0092                : START DEPTH
 STOP    .FT        16985.0092                : STOP DEPTH
 STEP    .FT        0.5000                    : STEP VALUE
 NULL    .      -999.0000                     : NULL VALUE
 DATE    .      08/02/2018                    : LAS file Creation Date
 WELL  .      UNIVERSITY_19-6           : Well Name
 COMP  .      Anadarko Petroleum Corpor : Company
 FLD   .      LOVING                    : Field
 STATE .      TEXAS                     : State
 COUNT .      Texas                     : Country
 API   .      42301311860000            : API Number
 UWI   .      507                       : Unique Well Identifier (UWI)
 LOC   .      Onshore                   : Location
 TOWN  .      19                        : Township
 SCT   .      6                         : Section
 RANG  .      University Land           : Range
 LATI  .      3509001.74                : Latitude/Northing
 LONG  .      644715.32                 : Longitude/Easting
 PDAT  .      Ground Level              : Permanent Datum
 EPDAT .      2810                      : Reference Elevation
 LGMEA .      Kelly Bushing             : Log Measured from
 DRMEA .      Kelly Bushing             : Drill Measured From
 APDAT .      31                        : Elevation Above Permanent Datum
 KB    .      2841                      : KB Elevation
 DF    .      2840                      : DF Elevation
 GL    .      2810                      : GL Elevation
 RWS   .      0                         : Def_Rw
 WST   .      0                         : Def_Rwt
 UTMZ  .      13                        : UTM Zone
 BHS   .      OPEN                      : Completion Status
 CNTY  .      LOVING                    : County
 MDEC  .      0                         : Magnetic Declination
 SRVC  .      SCH                       : Contractor
~CURVE INFORMATION
#MNEM              UNIT       API CODE   Curve Type Comments
#----------  --------------- ----------  ---------- -----------
 DEPTH      .FT                        : Depth       
 DEPTH      .FT                        : Depth       
 BS         .IN                        : BitSize     Bit Size {F13.4}
 CAL        .IN                        :             
 HSGR       .GAPI                      :             
 HCGR       .GAPI                      :             
 TH         .PPM                       :             HNGS Formation Thorium Concentration {F13.4}
 U          .PPM                       :             HNGS Formation Uranium Concentration {F13.4}
 K          .CFCF                      :             HNGS Formation Potassium Concentration {F13.4}
 ThK        .PPM                       : Spectral    
 ThU        .PPM                       : Spectral    
 RSHALLOW   .OHMM                      :             12  RSHALLOW
 RMEDIUM    .OHMM                      :             13  Medium Resistivity
 RDEEP      .OHMM                      : DeepRes     14  Deep Resistivity
 DT         .US/F                      : Sonic       DT
 NPHI       .dec                       : Neutron     NPHI
 RHOB       .G/C3                      : Density     
 DRHO       .G/CC                      : Drho        
 PEF        .                          :             
 LITH       .                          : LITH        Lithology Curve
~A  DEPTH   DEPTH       BS       CAL       HSGR      HCGR       TH        U         K        ThK       ThU     RSHALLOW  RMEDIUM    RDEEP       DT       NPHI      RHOB      DRHO      PEF       LITH   
# ...
16969.0092 16969.0092    8.7500    8.9190   92.0800   64.1904   13.9192    4.2840    1.1300   12.3179    3.2491    2.8110    2.0840    1.9610   94.0130    0.1870    2.5365   -0.0397   19.5146   37.0000 
16969.5092 16969.5092    8.7500    8.9300   95.6492   66.8797   14.6453    4.4553    1.1600   12.6252    3.2872    2.6100    1.9270    1.8430   94.3160    0.1920    2.5322   -0.0570   15.1424   37.0000 
16970.0092 16970.0092    8.7500    8.9840   98.2345   68.1314   15.0346    4.6872    1.1600   12.9608    3.2076    2.6150    1.8920    1.8320   93.0520    0.1990    2.5394   -0.0344   13.3635   37.0000 
16970.5092 16970.5092    8.7500    8.9640   99.9248   68.2015   15.0208    4.9013    1.1700   12.8383    3.0647    2.6960    2.0180    1.9620   91.0440    0.2080    2.5536   -0.0331   15.4648   37.0000 
16971.0092 16971.0092    8.7500    8.9270   97.2062   65.6372   14.4358    4.8379    1.1300   12.7750    2.9839    3.3510    2.4990    2.2990   86.0170    0.2190    2.5625   -0.0268   11.8975   37.0000 
16971.5092 16971.5092    8.7500    8.9220   88.8470   59.7183   13.2921    4.4326    1.0000   13.2920    2.9987    4.6610    3.2250    2.7680   81.8100    0.2280    2.5651   -0.0105   11.7406   37.0000 
16972.0092 16972.0092    8.7500    8.9280   78.9119   53.2797   11.9990    3.8984    0.8700   13.7918    3.0779    7.0900    4.5150    3.6590   79.0130    0.2260    2.5682   -0.0165    9.6251   37.0000 
16972.5092 16972.5092    8.7500    8.9550   72.9161   49.1752   11.0133    3.5941    0.8100   13.5966    3.0642    8.7590    5.8190    4.8070   76.4390    0.2110    2.5654   -0.0191    8.0521   37.0000 
16973.0092 16973.0092    8.7500    9.0000   71.5923   47.9192   10.6583    3.5825    0.8000   13.3229    2.9751    8.4050    5.6550    4.7490   76.4590    0.1880    2.5650   -0.0087    8.0804   37.0000 
16973.5092 16973.5092    8.7500    9.0100   72.4727   47.5897   10.7997    3.7823    0.7600   14.2101    2.8553    8.5030    5.5450    4.6700   73.9960    0.1630    2.5681   -0.0220    6.4717   37.0000 
16974.0092 16974.0092    8.7500    9.0030   75.6927   49.6166   11.5575    3.9530    0.7400   15.6183    2.9237    7.0590    4.8640    4.2900   74.0920    0.1470    2.5674   -0.0261    7.5642   37.0000 
16974.5092 16974.5092    8.7500    9.0060   76.0806   50.0869   11.7542    3.9210    0.7300   16.1016    2.9978    5.8340    4.1710    3.6330   70.6550    0.1390    2.5686   -0.0273    7.2559   37.0000 
16975.0092 16975.0092    8.7500    9.0010   66.1555   42.9512   10.0571    3.4454    0.6300   15.9635    2.9190    4.8120    3.5380    3.1780   72.3330    0.1390    2.5692   -0.0264    7.8301   37.0000 
16975.5092 16975.5092    8.7500    8.9830   47.6095   30.8686    7.2448    2.4661    0.4500   16.0991    2.9378    4.2420    3.1110    2.8120   66.0210    0.1410    2.5715   -0.0295   15.7618   37.0000 
16976.0092 16976.0092    8.7500    8.9750   29.9009   19.4231    4.5882    1.5578    0.2800   16.3857    2.9454    4.2130    3.2650    3.0590   62.3520    0.1460    2.5837   -0.0388   10.7878   37.0000 
16976.5092 16976.5092    8.7500    8.9910   20.8890   13.3078    3.1587    1.1213    0.1900   16.6242    2.8169    6.7050    4.8480    4.6800   61.9130    0.1590    2.6211   -0.0143   10.0025   37.0000 
16977.0092 16977.0092    8.7500    9.0230   18.4660   11.4253    2.6740    1.0336    0.1700   15.7295    2.5871   14.9270   10.7410    9.0990   57.8930    0.1750    2.6746   -0.0019    6.0431   37.0000 
16977.5092 16977.5092    8.7500    8.9280   17.6753   10.6165    2.4432    1.0236    0.1600   15.2700    2.3869   33.2430   24.8680   20.5690   54.5020    0.1760    2.7180    0.0000    7.8845   37.0000 
16978.0092 16978.0092    8.7500    8.8080   17.3422    9.8710    2.2349    1.0744    0.1600   13.9682    2.0802   60.1050   34.7480   33.8290   52.4470    0.1290    2.7301   -0.0057    6.1690   37.0000 
16978.5092 16978.5092    8.7500    8.7960   17.4135    9.3700    2.1448    1.1453    0.1500   14.2986    1.8727  179.8060   47.2320   43.8520   51.6550    0.0720    2.7172   -0.0023    6.5727   37.0000 
16979.0092 16979.0092    8.7500    8.8270   18.0922    9.7937    2.2669    1.2023    0.1500   15.1126    1.8855  166.8990  123.4620   40.1470   51.7810    0.0370    2.7064    0.0012    7.8993   37.0000 
16979.5092 16979.5092    8.7500    8.8360   18.3520   10.2997    2.3411    1.2038    0.1600   14.6319    1.9448  183.9890  141.2500   42.4380   52.7760    0.0260    2.7061    0.0005    8.1291   37.0000 
16980.0092 16980.0092    8.7500    8.8370   18.0525   10.9154    2.4364    1.0778    0.1800   13.5356    2.2605  286.3280  143.5530   45.7460   51.5090    0.0270    2.7112    0.0013    6.3199   37.0000 
16980.5092 16980.5092    8.7500    8.8380   17.7103   10.9692    2.3982    1.0355    0.1900   12.6222    2.3160  360.7710  171.5840   50.7080   51.6260    0.0280    2.7062    0.0046    8.5542   37.0000 
16981.0092 16981.0092    8.7500    8.8360   18.6736   11.2772    2.4503    1.1176    0.2000   12.2515    2.1925  293.1240  153.1140   56.8870   51.0460    0.0280    2.6926    0.0031    8.5176   37.0000 
16981.5092 16981.5092    8.7500    8.8490   22.0157   13.1852    2.8652    1.3057    0.2300   12.4574    2.1944  175.6580  125.6770   54.3250   51.0500    0.0270    2.6878    0.0011    6.8998   37.0000 
16982.0092 16982.0092    8.7500    8.8770   27.5013   16.7564    3.6059    1.6060    0.3000   12.0197    2.2453  101.0460   95.6800   44.9790   54.5300    0.0250    2.6971   -0.0011    8.1746   37.0000 
16982.5092 16982.5092    8.7500    8.8920   34.0564   21.2704    4.6229    1.9462    0.3700   12.4946    2.3754   65.6650   63.6870   32.6210   61.2920    0.0210    2.7097   -0.0032    9.0905   37.0000 
16983.0092 16983.0092    8.7500    8.8870   40.4522   25.3494    5.5569    2.3271    0.4400   12.6295    2.3879   41.6750   36.0310   20.4620   69.0390    0.0190    2.7092   -0.0021    8.6348   37.0000 
16983.5092 16983.5092    8.7500    8.8810   47.5050   30.5536    6.6623    2.6467    0.5300   12.5706    2.5172   26.3280   20.9460   13.6550   77.4000    0.0190    2.6847   -0.0076    5.9259   37.0000 
16984.0092 16984.0092    8.7500    8.8760   55.9347   36.7200    7.9331    3.0138    0.6500   12.2049    2.6323   13.3130   10.9670    7.7880   78.5200    0.0220    2.6413   -0.0031    5.6170   37.0000 
16984.5092 16984.5092    8.7500    8.8920   63.6520   42.3341    9.0711    3.3141    0.7700   11.7808    2.7371    8.6000    7.3560    5.9810   82.6220    0.0300    2.5955   -0.0072    6.9351   37.0000 
16985.0092 16985.0092    8.7500    8.9210   68.4522   46.3008    9.8776    3.4290    0.8500   11.6208    2.8806    6.5540    5.5680    4.7410   82.2970    0.0490    2.5698   -0.0201    6.4471   37.0000 
