~VERSION INFORMATION
 VERS.                 2.0:   CWLS LOG ASCII STANDARD - VERSION 2.0
 WRAP.                  NO:   SINGLE LINE PER DEPTH STEP
 CREA.                 08/02/2018 08:46:35
#CREATED USING DSPetro VERSION 5000.10.1.3 BY H191660 ON 08/02/2018 08:46:35
~WELL INFORMATION
#MNEM.UNIT       DATA                          DESCRIPTION MNEMONIC
#---------      ---------------------------   --------------------------
 STRT    .FT        12311.0000                : START DEPTH
 STOP    .FT        17628.0000                : STOP DEPTH
 STEP    .FT        0.5000                    : STEP VALUE
 NULL    .      -999.0000                     : NULL VALUE
 DATE    .      08/02/2018                    : LAS file Creation Date
 WELL  .      UNIVERSITY_20_5                  : Well Name
 COMP  .      Neftex Exploration Insights      : Company
 FLD   .      HALEY (LWR. WOLFCAMP-PENN CONS.) : Field
 STATE .      TEXAS                            : State
 COUNT .      LOVING                           : Country
 API   .      42-301-31423                     : API Number
 UWI   .      212                              : Unique Well Identifier (UWI)
 LOC   .      1320' FNL & 1320' FWL            : Location
 PDAT  .      G.L.                             : Permanent Datum
 EPDAT .      2805                             : Reference Elevation
 LGMEA .      K.B.                             : Log Measured from
 DRMEA .      KELLY BUSHING                    : Drill Measured From
 APDAT .      30                               : Elevation Above Permanent Datum
 KB    .      2835                             : KB Elevation
 DF    .      2834                             : DF Elevation
 GL    .      2805                             : GL Elevation
 RWS   .      -999                             : Def_Rw
 WST   .      -999                             : Def_Rwt
 CNTY  .      LOVING                           : County
 SRVC  .      Baker Atlas                      : Contractor
~CURVE INFORMATION
#MNEM              UNIT       API CODE   Curve Type Comments
#----------  --------------- ----------  ---------- -----------
 DEPTH      .FT                        : Depth       
 DEPTH      .FT                        : Depth       
 BS         .inch                      : BitSize     
 CAL        .inch                      :             
 GR         .API                       : GammaRay    
 K          .%                         : Spectral    Potassium
 TH         .PPM                       : Spectral    Thorium
 U          .PPM                       : Spectral    Uranium
 Th/k       .PPM                       : Spectral    
 Th/U       .PPM                       : Spectral    
 RESD       .ohmm                      :             
 RESM       .ohmm                      :             
 RESS       .ohmm                      :             
 DT         .us/ft                     :             
 DRHO       .G/C3                      : Drho        
 NPHI       .dec                       : Neutron     
 RHOB       .G/C3                      : Density     
 PEF        .b/e-                      : PEF         
 LITH       .                          : LITH        Lithology Curve
~A  DEPTH   DEPTH       BS       CAL        GR        K         TH        U        Th/k      Th/U      RESD      RESM      RESS       DT       DRHO      NPHI      RHOB      PEF       LITH   
# ...
15482.0000 15482.0000    8.5000    8.3750   43.5476 -999.0000 -999.0000 -999.0000 -999.0000 -999.0000   13.1250   10.6240    8.1550   81.1820    0.0110    0.1798    2.5800    3.7330   22.0000 
15482.5000 15482.5000    8.5000    8.3630   44.3536 -999.0000 -999.0000 -999.0000 -999.0000 -999.0000   12.7520   10.2790    7.8560   81.0000    0.0070    0.1862    2.5700    3.8180   22.0000 
15483.0000 15483.0000    8.5000    8.3770   45.4538 -999.0000 -999.0000 -999.0000 -999.0000 -999.0000   12.0610    9.7500    7.5130   80.9940    0.0050    0.1910    2.5670    3.7630   22.0000 
15483.5000 15483.5000    8.5000    8.3900   45.4863 -999.0000 -999.0000 -999.0000 -999.0000 -999.0000   11.4310    9.3210    7.3170   81.2000    0.0070    0.1948    2.5750    3.7150   22.0000 
15484.0000 15484.0000    8.5000    8.3900   44.7550 -999.0000 -999.0000 -999.0000 -999.0000 -999.0000   10.7610    8.8880    7.1720   81.5080    0.0110    0.1974    2.5840    3.7560   22.0000 
15484.5000 15484.5000    8.5000    8.3780   44.7376 -999.0000 -999.0000 -999.0000 -999.0000 -999.0000    9.9210    8.3170    6.9450   81.7250    0.0120    0.1970    2.5840    3.8210   22.0000 
15485.0000 15485.0000    8.5000    8.3720   45.2480 -999.0000 -999.0000 -999.0000 -999.0000 -999.0000    9.0280    7.6840    6.6590   81.8230    0.0090    0.1966    2.5770    3.8620   22.0000 
15485.5000 15485.5000    8.5000    8.3800   45.3908 -999.0000 -999.0000 -999.0000 -999.0000 -999.0000    8.2490    7.1210    6.4020   81.9570    0.0050    0.1999    2.5690    3.8800   22.0000 
15486.0000 15486.0000    8.5000    8.3990   45.6161 -999.0000 -999.0000 -999.0000 -999.0000 -999.0000    7.6150    6.6560    6.1890   82.2610    0.0020    0.2040    2.5640    3.9100   22.0000 
15486.5000 15486.5000    8.5000    8.4120   46.6559 -999.0000 -999.0000 -999.0000 -999.0000 -999.0000    7.1010    6.2710    6.0060   82.7210    0.0010    0.2046    2.5610    3.9370   22.0000 
15487.0000 15487.0000    8.5000    8.4100   48.0109 -999.0000 -999.0000 -999.0000 -999.0000 -999.0000    6.7350    5.9950    5.8850   83.2210    0.0030    0.2022    2.5620    3.8490   22.0000 
15487.5000 15487.5000    8.5000    8.4110   49.1542 -999.0000 -999.0000 -999.0000 -999.0000 -999.0000    6.5420    5.8570    5.8580   83.6600    0.0060    0.1980    2.5670    3.6910   22.0000 
15488.0000 15488.0000    8.5000    8.4200   49.8568 -999.0000 -999.0000 -999.0000 -999.0000 -999.0000    6.4890    5.8300    5.9010   83.9560    0.0070    0.1930    2.5700    3.6890   22.0000 
15488.5000 15488.5000    8.5000    8.4200   50.4514 -999.0000 -999.0000 -999.0000 -999.0000 -999.0000    6.5330    5.8780    5.9770   83.8900    0.0030    0.1908    2.5620    3.8550   22.0000 
15489.0000 15489.0000    8.5000    8.3990   51.5311 -999.0000 -999.0000 -999.0000 -999.0000 -999.0000    6.7360    6.0560    6.1440   83.2180   -0.0050    0.1938    2.5460    3.9260   22.0000 
15489.5000 15489.5000    8.5000    8.3820   51.9964 -999.0000 -999.0000 -999.0000 -999.0000 -999.0000    7.3070    6.5540    6.5840   82.0020   -0.0100    0.1966    2.5340    3.8590   22.0000 
15490.0000 15490.0000    8.5000    8.3770   49.6375 -999.0000 -999.0000 -999.0000 -999.0000 -999.0000    8.4670    7.5760    7.4700   80.5690   -0.0120    0.1937    2.5280    3.9010   22.0000 
15490.5000 15490.5000    8.5000    8.3740   45.6069 -999.0000 -999.0000 -999.0000 -999.0000 -999.0000    9.9410    8.8820    8.5640   79.2800   -0.0130    0.1916    2.5270    4.0880   22.0000 
15491.0000 15491.0000    8.5000    8.3660   43.3255 -999.0000 -999.0000 -999.0000 -999.0000 -999.0000   10.6450    9.5180    9.0170   78.3390   -0.0120    0.1935    2.5270    4.1490   22.0000 
15491.5000 15491.5000    8.5000    8.3650   43.3939 -999.0000 -999.0000 -999.0000 -999.0000 -999.0000    9.8450    8.8310    8.3270   77.8110   -0.0100    0.1920    2.5310    4.0540   22.0000 
15492.0000 15492.0000    8.5000    8.3710   44.5974 -999.0000 -999.0000 -999.0000 -999.0000 -999.0000    8.0500    7.2640    6.9510   77.8260   -0.0080    0.1867    2.5370    4.0530   22.0000 
15492.5000 15492.5000    8.5000    8.3790   46.3253 -999.0000 -999.0000 -999.0000 -999.0000 -999.0000    6.3240    5.7560    5.6970   78.3560   -0.0060    0.1867    2.5380    4.1550   22.0000 
15493.0000 15493.0000    8.5000    8.3960   47.8123 -999.0000 -999.0000 -999.0000 -999.0000 -999.0000    5.4760    5.0660    5.2120   78.5870   -0.0050    0.1937    2.5350    4.2370   22.0000 
15493.5000 15493.5000    8.5000    8.4180   47.7748 -999.0000 -999.0000 -999.0000 -999.0000 -999.0000    5.7390    5.3880    5.8110   77.2000   -0.0060    0.2004    2.5300    4.4510   22.0000 
15494.0000 15494.0000    8.5000    8.4250   44.9439 -999.0000 -999.0000 -999.0000 -999.0000 -999.0000    7.4620    6.9610    8.1000   73.6630   -0.0080    0.2015    2.5330    4.9010   22.0000 
15494.5000 15494.5000    8.5000    8.4140   39.3873 -999.0000 -999.0000 -999.0000 -999.0000 -999.0000    9.8670    9.0860   11.6270   69.0670   -0.0100    0.1855    2.5520    5.3570   22.0000 
15495.0000 15495.0000    8.5000    8.4100   34.1341 -999.0000 -999.0000 -999.0000 -999.0000 -999.0000   10.3310    9.5130   12.3090   65.8820   -0.0110    0.1520    2.5930    5.5810   22.0000 
15495.5000 15495.5000    8.5000    8.4180   33.2983 -999.0000 -999.0000 -999.0000 -999.0000 -999.0000    8.7250    8.1300    9.6690   65.9860   -0.0100    0.1313    2.6410    5.5740   22.0000 
15496.0000 15496.0000    8.5000    8.4220   37.5469 -999.0000 -999.0000 -999.0000 -999.0000 -999.0000    7.2570    6.8000    7.4980   68.7740   -0.0100    0.1374    2.6620    5.4160   22.0000 
15496.5000 15496.5000    8.5000    8.4160   43.3679 -999.0000 -999.0000 -999.0000 -999.0000 -999.0000    6.5600    6.1170    6.4360   72.0250   -0.0140    0.1609    2.6390    5.2270   22.0000 
15497.0000 15497.0000    8.5000    8.4100   46.9393 -999.0000 -999.0000 -999.0000 -999.0000 -999.0000    6.4520    5.9280    6.0770   73.9570   -0.0170    0.1781    2.6050    5.0370   22.0000 
15497.5000 15497.5000    8.5000    8.4080   47.2268 -999.0000 -999.0000 -999.0000 -999.0000 -999.0000    6.8420    6.1900    6.2650   74.5110   -0.0160    0.1830    2.5910    4.8170   22.0000 
15498.0000 15498.0000    8.5000    8.3990   46.4516 -999.0000 -999.0000 -999.0000 -999.0000 -999.0000    7.4780    6.6670    6.6750   75.1010   -0.0130    0.1859    2.5950    4.6930   22.0000 
15498.5000 15498.5000    8.5000    8.3840   46.7457 -999.0000 -999.0000 -999.0000 -999.0000 -999.0000    7.7590    6.8240    6.7480   76.8960   -0.0120    0.1832    2.5970    4.7270   22.0000 
15499.0000 15499.0000    8.5000    8.3700   48.0180 -999.0000 -999.0000 -999.0000 -999.0000 -999.0000    7.7090    6.7030    6.5560   79.5680   -0.0130    0.1769    2.5850    4.7100   22.0000 
15499.5000 15499.5000    8.5000    8.3720   48.8551 -999.0000 -999.0000 -999.0000 -999.0000 -999.0000    7.9410    6.8520    6.6740   81.9180   -0.0140    0.1700    2.5680    4.4920   22.0000 
15500.0000 15500.0000    8.5000    8.3940   49.0554 -999.0000 -999.0000 -999.0000 -999.0000 -999.0000    8.7570    7.5290    7.3720   83.0890   -0.0140    0.1639    2.5570    4.1910   22.0000 
15500.5000 15500.5000    8.5000    8.4170   48.8474 -999.0000 -999.0000 -999.0000 -999.0000 -999.0000   10.0790    8.6630    8.6040   82.9510   -0.0130    0.1643    2.5530    4.0310   22.0000 
15501.0000 15501.0000    8.5000    8.4100   47.8633 -999.0000 -999.0000 -999.0000 -999.0000 -999.0000   10.9710    9.4290    9.5100   82.1030   -0.0130    0.1685    2.5500    4.0870   22.0000 
15501.5000 15501.5000    8.5000    8.3800   46.1627 -999.0000 -999.0000 -999.0000 -999.0000 -999.0000   10.0050    8.6170    8.5970   81.2250   -0.0120    0.1683    2.5480    4.1670   22.0000 
15502.0000 15502.0000    8.5000    8.3600   45.1250 -999.0000 -999.0000 -999.0000 -999.0000 -999.0000    7.9680    6.8520    6.5620   80.4080   -0.0110    0.1659    2.5480    4.0430   22.0000 
15502.5000 15502.5000    8.5000    8.3570   45.3742 -999.0000 -999.0000 -999.0000 -999.0000 -999.0000    6.8920    5.8970    5.2540   79.5520   -0.0110    0.1678    2.5480    3.8370   22.0000 
