~VERSION INFORMATION
 VERS.                 2.0:   CWLS LOG ASCII STANDARD - VERSION 2.0
 WRAP.                  NO:   SINGLE LINE PER DEPTH STEP
 CREA.                 08/02/2018 08:52:47
#CREATED USING DSPetro VERSION 5000.10.1.3 BY H191660 ON 08/02/2018 08:52:47
~WELL INFORMATION
#MNEM.UNIT       DATA                          DESCRIPTION MNEMONIC
#---------      ---------------------------   --------------------------
 STRT    .FT        12349.0092                : START DEPTH
 STOP    .FT        16985.0092                : STOP DEPTH
 STEP    .FT        0.5000                    : STEP VALUE
 NULL    .      -999.0000                     : NULL VALUE
 DATE    .      08/02/2018                    : LAS file Creation Date
 WELL  .      UNIVERSITY_19-6           : Well Name
 COMP  .      Anadarko Petroleum Corpor : Company
 FLD   .      LOVING                    : Field
 STATE .      TEXAS                     : State
 COUNT .      Texas                     : Country
 API   .      42301311860000            : API Number
 UWI   .      507                       : Unique Well Identifier (UWI)
 LOC   .      Onshore                   : Location
 TOWN  .      19                        : Township
 SCT   .      6                         : Section
 RANG  .      University Land           : Range
 LATI  .      3509001.74                : Latitude/Northing
 LONG  .      644715.32                 : Longitude/Easting
 PDAT  .      Ground Level              : Permanent Datum
 EPDAT .      2810                      : Reference Elevation
 LGMEA .      Kelly Bushing             : Log Measured from
 DRMEA .      Kelly Bushing             : Drill Measured From
 APDAT .      31                        : Elevation Above Permanent Datum
 KB    .      2841                      : KB Elevation
 DF    .      2840                      : DF Elevation
 GL    .      2810                      : GL Elevation
 RWS   .      0                         : Def_Rw
 WST   .      0                         : Def_Rwt
 UTMZ  .      13                        : UTM Zone
 BHS   .      OPEN                      : Completion Status
 CNTY  .      LOVING                    : County
 MDEC  .      0                         : Magnetic Declination
 SRVC  .      SCH                       : Contractor
~CURVE INFORMATION
#MNEM              UNIT       API CODE   Curve Type Comments
#----------  --------------- ----------  ---------- -----------
 DEPTH      .FT                        : Depth       
 DEPTH      .FT                        : Depth       
 BS         .IN                        : BitSize     Bit Size {F13.4}
 CAL        .IN                        :             
 HSGR       .GAPI                      :             
 HCGR       .GAPI                      :             
 TH         .PPM                       :             HNGS Formation Thorium Concentration {F13.4}
 U          .PPM                       :             HNGS Formation Uranium Concentration {F13.4}
 K          .CFCF                      :             HNGS Formation Potassium Concentration {F13.4}
 ThK        .PPM                       : Spectral    
 ThU        .PPM                       : Spectral    
 RSHALLOW   .OHMM                      :             12  RSHALLOW
 RMEDIUM    .OHMM                      :             13  Medium Resistivity
 RDEEP      .OHMM                      : DeepRes     14  Deep Resistivity
 DT         .US/F                      : Sonic       DT
 NPHI       .dec                       : Neutron     NPHI
 RHOB       .G/C3                      : Density     
 DRHO       .G/CC                      : Drho        
 PEF        .                          :             
 LITH       .                          : LITH        Lithology Curve
~A  DEPTH   DEPTH       BS       CAL       HSGR      HCGR       TH        U         K        ThK       ThU     RSHALLOW  RMEDIUM    RDEEP       DT       NPHI      RHOB      DRHO      PEF       LITH   
# ...
12969.0092 12969.0092    8.7500    8.5950  120.3157   80.4503   12.5311    5.8468    2.2600    5.5447    2.1432    3.4620    3.0950    3.3180   93.9960    0.2150    2.5329   -0.0107    6.7526   37.0000 
12969.5092 12969.5092    8.7500    8.6230  121.6887   81.9403   12.6565    5.8263    2.3200    5.4554    2.1723    3.4870    3.2120    3.3360   96.6930    0.2100    2.5324   -0.0161    6.2803   37.0000 
12970.0092 12970.0092    8.7500    8.6580  124.0764   84.4252   13.0754    5.8209    2.3900    5.4709    2.2463    3.5180    3.3310    3.2770   97.5040    0.2090    2.5298   -0.0084    8.4928   37.0000 
12970.5092 12970.5092    8.7500    8.6770  125.2816   86.1042   13.2680    5.7943    2.4500    5.4155    2.2898    3.4240    3.2270    3.2130   93.6650    0.2160    2.5264   -0.0165   11.2211   37.0000 
12971.0092 12971.0092    8.7500    8.6760  125.3786   87.9493   13.5980    5.5916    2.4900    5.4610    2.4319    3.3060    3.1360    3.1500   93.6770    0.2270    2.5218   -0.0227    6.1497   37.0000 
12971.5092 12971.5092    8.7500    8.6990  124.1563   88.5364   13.7490    5.3389    2.5000    5.4996    2.5752    3.2130    3.0530    3.0850   93.6650    0.2270    2.5209   -0.0218    8.5147   37.0000 
12972.0092 12972.0092    8.7500    8.7380  118.9091   86.4162   13.4800    4.9124    2.4300    5.5473    2.7441    3.0840    2.9520    3.0580   93.6050    0.2180    2.5250   -0.0143    6.6158   37.0000 
12972.5092 12972.5092    8.7500    8.7560  110.1546   80.8665   12.5621    4.4263    2.2800    5.5097    2.8381    3.2410    3.0460    3.2170   93.4410    0.2050    2.5369   -0.0062    6.1378   37.0000 
12973.0092 12973.0092    8.7500    8.7570   98.8283   73.2717   11.2943    3.8434    2.0800    5.4299    2.9386    3.6250    3.4550    3.4910   93.1810    0.1860    2.5595   -0.0132    6.9204   37.0000 
12973.5092 12973.5092    8.7500    8.7550   94.2134   70.9746   10.9412    3.4968    2.0200    5.4164    3.1289    4.2570    3.8530    3.8050   93.5860    0.1750    2.5682   -0.0151    7.4668   37.0000 
12974.0092 12974.0092    8.7500    8.7530   98.0001   74.9170   11.5737    3.4309    2.1200    5.4593    3.3734    4.1040    3.5860    3.5780   95.0220    0.1780    2.5585   -0.0129    6.4101   37.0000 
12974.5092 12974.5092    8.7500    8.7550  106.5674   82.1613   12.8276    3.5751    2.3100    5.5531    3.5881    3.8300    3.3180    3.2680   97.3600    0.1920    2.5484   -0.0135    5.6978   37.0000 
12975.0092 12975.0092    8.7500    8.7760  113.9426   87.5628   13.8480    3.8793    2.4300    5.6988    3.5697    3.8970    3.1780    2.9960  102.0290    0.2070    2.5475   -0.0072    7.1059   37.0000 
12975.5092 12975.5092    8.7500    8.8090  118.6447   90.3457   14.3849    4.1802    2.4900    5.7771    3.4412    3.9460    3.1440    2.8400  102.0420    0.2190    2.5471   -0.0066    9.1563   37.0000 
12976.0092 12976.0092    8.7500    8.8220  122.1959   93.3853   14.9013    4.2477    2.5700    5.7982    3.5081    3.9650    3.1290    2.8270  101.9430    0.2290    2.5400   -0.0088    8.5098   37.0000 
12976.5092 12976.5092    8.7500    8.8240  124.9061   95.9604   15.3606    4.2843    2.6300    5.8405    3.5853    3.8180    2.9710    3.1490   99.9970    0.2300    2.5270   -0.0045    7.2409   37.0000 
12977.0092 12977.0092    8.7500    8.8390  128.0179   98.0743   15.6491    4.4475    2.6900    5.8175    3.5186    3.9180    3.3060    3.3980   96.6730    0.2230    2.5157   -0.0194    8.2231   37.0000 
12977.5092 12977.5092    8.7500    8.8560  129.3079   99.5610   15.8420    4.4742    2.7400    5.7818    3.5407    4.0470    3.8410    3.7900   92.0840    0.2180    2.5035   -0.0218   12.2309   37.0000 
12978.0092 12978.0092    8.7500    8.8630  124.4901   96.0116   15.3552    4.3163    2.6300    5.8385    3.5575    4.8670    4.8020    4.2100   93.4670    0.2160    2.4987   -0.0177    7.3198   37.0000 
12978.5092 12978.5092    8.7500    8.8600  109.9675   82.9687   13.4150    4.0818    2.2500    5.9622    3.2865    5.5040    5.5120    4.6870   93.4190    0.2050    2.5227   -0.0120    6.1033   37.0000 
12979.0092 12979.0092    8.7500    8.8550   89.4534   66.0499   10.8314    3.4904    1.7600    6.1541    3.1032    6.0400    6.1150    5.0480   94.2230    0.1690    2.5672   -0.0043    9.4283   37.0000 
12979.5092 12979.5092    8.7500    8.8220   72.9513   53.1488    8.7198    2.9347    1.4200    6.1406    2.9712    7.9780    7.5950    6.3820   94.3920    0.1210    2.6073    0.0002    6.5353   22.0000 
12980.0092 12980.0092    8.7500    8.7860   68.1642   50.6011    8.3250    2.6617    1.3500    6.1667    3.1277    9.5380    8.7920    7.9380  104.5980    0.0930    2.6301   -0.0029   10.0640   22.0000 
12980.5092 12980.5092    8.7500    8.7910   73.1463   55.4307    9.0802    2.7133    1.4800    6.1353    3.3465   10.2340    8.5130    7.9090  104.9560    0.0970    2.6303   -0.0025   12.7158   22.0000 
12981.0092 12981.0092    8.7500    8.8140   81.6128   62.2299    9.9906    2.9681    1.7000    5.8768    3.3660    9.7430    7.5080    7.5830  102.7390    0.1240    2.6100   -0.0034    7.5733   22.0000 
12981.5092 12981.5092    8.7500    8.8270   91.0454   69.3075   11.1703    3.3338    1.8800    5.9417    3.3507    6.7720    5.8830    5.8260  101.3140    0.1510    2.5707    0.0009    8.3499   37.0000 
12982.0092 12982.0092    8.7500    8.8270  100.4669   75.8622   12.2640    3.7767    2.0600    5.9534    3.2473    4.9770    4.5360    4.8130  101.0290    0.1760    2.5334   -0.0117    8.2725   37.0000 
12982.5092 12982.5092    8.7500    8.8340  108.5519   81.9345   13.2486    4.0991    2.2200    5.9679    3.2321    4.4580    4.1050    4.1810  100.6710    0.1950    2.5125   -0.0281   14.8287   37.0000 
12983.0092 12983.0092    8.7500    8.8520  112.9185   85.1227   13.9141    4.3034    2.2800    6.1027    3.2333    4.1140    3.7510    3.5980  100.4400    0.1980    2.5057   -0.0276    7.5869   37.0000 
12983.5092 12983.5092    8.7500    8.8600  115.3397   87.8801   14.4296    4.3214    2.3400    6.1665    3.3391    3.7370    3.5180    3.3430  100.4390    0.1980    2.5083   -0.0167    8.3810   37.0000 
12984.0092 12984.0092    8.7500    8.8680  116.7273   90.6680   14.9541    4.1794    2.4100    6.2050    3.5780    3.5000    3.3720    3.2150  100.2580    0.2010    2.5178   -0.0225   12.5587   37.0000 
12984.5092 12984.5092    8.7500    8.8800  117.5087   92.4927   15.2800    4.1124    2.4500    6.2367    3.7156    3.5720    3.3110    3.1940  100.2580    0.2060    2.5255   -0.0126    7.5693   37.0000 
12985.0092 12985.0092    8.7500    8.8900  119.7615   95.8626   15.9511    4.0247    2.5200    6.3298    3.9633    3.4100    3.2060    3.1390  100.2560    0.2130    2.5266   -0.0091   13.1238   37.0000 
12985.5092 12985.5092    8.7500    8.8950  122.5449   97.8125   16.3056    4.1445    2.5700    6.3446    3.9343    3.1720    3.0890    3.0810  100.2120    0.2190    2.5202   -0.0109    7.3057   37.0000 
12986.0092 12986.0092    8.7500    8.9000  124.7011   99.0664   16.6201    4.2482    2.5800    6.4419    3.9123    3.1690    3.0250    3.0170  100.0750    0.2220    2.5189    0.0002    7.2100   37.0000 
12986.5092 12986.5092    8.7500    8.9020  125.0568  100.3630   17.1416    4.1440    2.5600    6.6959    4.1365    3.2160    3.0330    2.9980   99.0510    0.2220    2.5217   -0.0096    6.3588   37.0000 
12987.0092 12987.0092    8.7500    8.9020  123.6051  100.2852   17.0534    4.0091    2.5800    6.6098    4.2537    3.1920    3.0360    2.9720   91.3340    0.2200    2.5236   -0.0030    6.8341   37.0000 
12987.5092 12987.5092    8.7500    8.9050  119.6072   99.1532   16.8087    3.6589    2.5600    6.5659    4.5939    3.1640    3.0250    2.9480   92.4710    0.2140    2.5279   -0.0016    6.5025   37.0000 
12988.0092 12988.0092    8.7500    8.9030  114.7428   95.7577   16.3261    3.4531    2.4500    6.6637    4.7279    3.1570    2.9940    2.9120   91.3230    0.2060    2.5357   -0.0043    7.7950   37.0000 
12988.5092 12988.5092    8.7500    8.9030  111.1120   92.7527   15.8370    3.3213    2.3700    6.6823    4.7683    3.1270    2.9860    2.9390   91.7890    0.2030    2.5395   -0.0055    7.9832   37.0000 
