~VERSION INFORMATION
 VERS.                 2.0:   CWLS LOG ASCII STANDARD - VERSION 2.0
 WRAP.                  NO:   SINGLE LINE PER DEPTH STEP
 CREA.                 08/02/2018 08:52:47
#CREATED USING DSPetro VERSION 5000.10.1.3 BY H191660 ON 08/02/2018 08:52:47
~WELL INFORMATION
#MNEM.UNIT       DATA                          DESCRIPTION MNEMONIC
#---------      ---------------------------   --------------------------
 STRT    .FT        12349.0092                : START DEPTH
 STOP    .FT        16985.0092                : STOP DEPTH
 STEP    .FT        0.5000                    : STEP VALUE
 NULL    .      -999.0000                     : NULL VALUE
 DATE    .      08/02/2018                    : LAS file Creation Date
 WELL  .      UNIVERSITY_19-6           : Well Name
 COMP  .      Anadarko Petroleum Corpor : Company
 FLD   .      LOVING                    : Field
 STATE .      TEXAS                     : State
 COUNT .      Texas                     : Country
 API   .      42301311860000            : API Number
 UWI   .      507                       : Unique Well Identifier (UWI)
 LOC   .      Onshore                   : Location
 TOWN  .      19                        : Township
 SCT   .      6                         : Section
 RANG  .      University Land           : Range
 LATI  .      3509001.74                : Latitude/Northing
 LONG  .      644715.32                 : Longitude/Easting
 PDAT  .      Ground Level              : Permanent Datum
 EPDAT .      2810                      : Reference Elevation
 LGMEA .      Kelly Bushing             : Log Measured from
 DRMEA .      Kelly Bushing             : Drill Measured From
 APDAT .      31                        : Elevation Above Permanent Datum
 KB    .      2841                      : KB Elevation
 DF    .      2840                      : DF Elevation
 GL    .      2810                      : GL Elevation
 RWS   .      0                         : Def_Rw
 WST   .      0                         : Def_Rwt
 UTMZ  .      13                        : UTM Zone
 BHS   .      OPEN                      : Completion Status
 CNTY  .      LOVING                    : County
 MDEC  .      0                         : Magnetic Declination
 SRVC  .      SCH                       : Contractor
~CURVE INFORMATION
#MNEM              UNIT       API CODE   Curve Type Comments
#----------  --------------- ----------  ---------- -----------
 DEPTH      .FT                        : Depth       
 DEPTH      .FT                        : Depth       
 BS         .IN                        : BitSize     Bit Size {F13.4}
 CAL        .IN                        :             
 HSGR       .GAPI                      :             
 HCGR       .GAPI                      :             
 TH         .PPM                       :             HNGS Formation Thorium Concentration {F13.4}
 U          .PPM                       :             HNGS Formation Uranium Concentration {F13.4}
 K          .CFCF                      :             HNGS Formation Potassium Concentration {F13.4}
 ThK        .PPM                       : Spectral    
 ThU        .PPM                       : Spectral    
 RSHALLOW   .OHMM                      :             12  RSHALLOW
 RMEDIUM    .OHMM                      :             13  Medium Resistivity
 RDEEP      .OHMM                      : DeepRes     14  Deep Resistivity
 DT         .US/F                      : Sonic       DT
 NPHI       .dec                       : Neutron     NPHI
 RHOB       .G/C3                      : Density     
 DRHO       .G/CC                      : Drho        
 PEF        .                          :             
 LITH       .                          : LITH        Lithology Curve
~A  DEPTH   DEPTH       BS       CAL       HSGR      HCGR       TH        U         K        ThK       ThU     RSHALLOW  RMEDIUM    RDEEP       DT       NPHI      RHOB      DRHO      PEF       LITH   
12349.0092 12349.0092    8.7500 -999.0000   59.0414   40.5168    7.5321    2.9224    0.9300    8.0990    2.5774    1.6230   10.2780   84.8610  101.1390    0.2400    2.6517 -999.0000   15.6424   11.0000 
12349.5092 12349.5092    8.7500 -999.0000   55.6856   38.6724    7.1955    2.6284    0.8900    8.0848    2.7376    1.4520   10.8700   84.6450   98.6700    0.2580    2.6474 -999.0000   16.7649   11.0000 
12350.0092 12350.0092    8.7500 -999.0000   54.9153   38.2415    7.1838    2.5060    0.8700    8.2572    2.8666    1.3270   12.5880   84.3480   97.6220    0.2510    2.6050 -999.0000   14.4148   11.0000 
12350.5092 12350.5092    8.7500 -999.0000   52.1880   35.3820    6.7386    2.4751    0.7900    8.5299    2.7226    1.2220   14.8010   84.0910   94.5360    0.2320    2.5466 -999.0000   26.9271   11.0000 
12351.0092 12351.0092    8.7500 -999.0000   48.9039   31.9469    6.1805    2.4604    0.6900    8.9572    2.5120    1.1390   17.6190   83.7970   81.0300    0.2090    2.4974 -999.0000   23.0792   11.0000 
12351.5092 12351.5092    8.7500 -999.0000   46.8041   29.3551    5.5591    2.4748    0.6600    8.4229    2.2463    1.0650   19.2290   83.4880   78.0570    0.1850    2.4779 -999.0000   17.5024   11.0000 
12352.0092 12352.0092    8.7500 -999.0000   45.9626   28.9289    5.3009    2.3731    0.6800    7.7955    2.2337    1.0030   20.4150   83.1510   78.3870    0.1550    2.4814 -999.0000   32.7877   11.0000 
12352.5092 12352.5092    8.7500 -999.0000   45.2031   29.4578    5.3846    2.1729    0.6900    7.8038    2.4781    0.9530   16.8970   82.6280   78.9840    0.1220    2.4944 -999.0000  108.0639   11.0000 
12353.0092 12353.0092    8.7500 -999.0000   43.9985   28.4317    5.1330    2.1446    0.6800    7.5485    2.3935    0.9080   14.4660   81.9940   83.8450    0.0910    2.5118 -999.0000   18.3143   11.0000 
12353.5092 12353.5092    8.7500 -999.0000   47.7887   30.7692    5.5433    2.3661    0.7400    7.4909    2.3428    0.8710   16.9350   81.3680   85.4430    0.1090    2.5234 -999.0000   31.9166   11.0000 
12354.0092 12354.0092    8.7500 -999.0000   58.0986   37.9252    6.8751    2.8479    0.9000    7.6391    2.4141    0.8440   15.3740   80.7990   89.3700    0.1670    2.5247 -999.0000   52.4288   11.0000 
12354.5092 12354.5092    8.7500 -999.0000   70.9441   46.2399    8.4667    3.5341    1.0900    7.7677    2.3957    0.8240   11.6500   80.1730   94.4640    0.2440    2.5152 -999.0000   20.4752   11.0000 
12355.0092 12355.0092    8.7500 -999.0000   80.6354   52.3374    9.6918    4.0998    1.2100    8.0098    2.3640    0.8090   11.0110   79.5990   94.6680    0.2370    2.5089 -999.0000   11.3081   11.0000 
12355.5092 12355.5092    8.7500 -999.0000   84.2005   54.6394    9.9843    4.3202    1.2900    7.7398    2.3111    0.7990   11.6690   79.1330   96.7870    0.2390    2.5027 -999.0000   12.7783   11.0000 
12356.0092 12356.0092    8.7500 -999.0000   85.3522   56.0857    9.9008    4.3334    1.3800    7.1745    2.2848    0.7900   12.1950   78.7080   97.3730    0.2340    2.4993 -999.0000   14.3455   11.0000 
12356.5092 12356.5092    8.7500 -999.0000   85.9728   58.0519   10.0077    4.1779    1.4700    6.8080    2.3954    0.7850   13.3040   78.4650   97.7430    0.2220    2.4928 -999.0000   27.0812   11.0000 
12357.0092 12357.0092    8.7500 -999.0000   87.5757   59.9430   10.2708    4.1354    1.5300    6.7129    2.4836    0.7850   15.3610   78.4190   94.6640    0.2130    2.4929 -999.0000   42.2925   11.0000 
12357.5092 12357.5092    8.7500 -999.0000   89.5619   60.6934   10.3411    4.3600    1.5600    6.6289    2.3718    0.7840   12.9530   78.3930   96.6620    0.2090    2.5026 -999.0000   82.1125   11.0000 
12358.0092 12358.0092    8.7500 -999.0000   90.5535   60.8610   10.2993    4.5464    1.5700    6.5601    2.2654    0.7840   11.9500   78.3810   97.3760    0.1980    2.4791 -999.0000   21.5026   11.0000 
12358.5092 12358.5092    8.7500 -999.0000   88.9505   60.6079   10.2538    4.3924    1.5700    6.5311    2.3344    0.7840   12.1370   78.3810   95.3620    0.2030    2.4701 -999.0000   50.1889   11.0000 
12359.0092 12359.0092    8.7500 -999.0000   85.5780   59.1702    9.9481    4.1196    1.5400    6.4598    2.4148    0.7840   13.0610   78.3760   92.2070    0.2060    2.4701 -999.0000   32.8463   11.0000 
12359.5092 12359.5092    8.7500 -999.0000   82.2733   56.8018    9.3160    3.9520    1.5200    6.1290    2.3573    0.7840   12.3920   78.3720   88.8740    0.2150    2.4993 -999.0000   72.1250   11.0000 
12360.0092 12360.0092    8.7500 -999.0000   77.9131   55.5891    9.1641    3.5306    1.4800    6.1920    2.5956    0.7840   10.6830   78.3710   90.7260    0.2360    2.5315 -999.0000 -271.6071   11.0000 
12360.5092 12360.5092    8.7500 -999.0000   69.6444   52.5481    8.8453    2.8133    1.3700    6.4564    3.1441    0.7840    8.8260   78.3580   92.5710    0.2450    2.5683 -999.0000   67.7468   11.0000 
12361.0092 12361.0092    8.7500 -999.0000   56.8466   44.5360    7.6114    2.0932    1.1400    6.6766    3.6362    0.7830    7.9830   78.3440   94.6120    0.2060    2.6258 -999.0000   53.1819   11.0000 
12361.5092 12361.5092    8.7500 -999.0000   46.1975   37.1339    6.5611    1.5926    0.9100    7.2099    4.1196    0.7830    7.7720   78.3350  110.2780    0.1440    2.6667 -999.0000  116.2635   11.0000 
12362.0092 12362.0092    8.7500 -999.0000   43.3619   34.6463    6.2211    1.5340    0.8300    7.4953    4.0555    0.7830    7.7860   78.3180  111.0220    0.1390    2.6892 -999.0000  287.4628   11.0000 
12362.5092 12362.5092    8.7500 -999.0000   47.6995   38.3932    6.9187    1.6681    0.9200    7.5203    4.1476    0.7830    5.1800   78.3050  107.9510    0.1940    2.6956 -999.0000 -3425.2229   11.0000 
12363.0092 12363.0092    8.7500 -999.0000   55.3544   44.9915    8.2471    1.8768    1.0600    7.7804    4.3943    0.7820    2.4500   78.2950   87.4030    0.3120    2.7352 -999.0000   28.1923   11.0000 
12363.5092 12363.5092    8.7500 -999.0000   60.7082   49.7238    9.2017    2.0470    1.1500    8.0015    4.4952    0.7820    1.5710   78.2820   89.3710    0.3760    2.7122 -999.0000   44.3100   11.0000 
12364.0092 12364.0092    8.7500 -999.0000   60.9845   50.9044    9.4786    1.9745    1.1700    8.1014    4.8005    0.7820    1.2910   78.2690   88.3070    0.3760    2.5878 -999.0000  137.5705   11.0000 
12364.5092 12364.5092    8.7500 -999.0000   57.0711   47.8303    9.0089    1.7846    1.0800    8.3416    5.0481    0.7820    1.2190   78.2520   86.9180    0.4190    2.4781 -999.0000   82.2242   11.0000 
12365.0092 12365.0092    8.7500 -999.0000   49.6274   41.8035    7.9756    1.5393    0.9300    8.5759    5.1813    0.7810    1.2490   78.2270   86.1770    0.5490    2.4312 -999.0000  -77.1109   11.0000 
12365.5092 12365.5092    8.7500 -999.0000   42.0706   34.4697    6.5051    1.4530    0.7800    8.3398    4.4770    0.7810    1.4100   78.1850   86.0440    0.3710    2.4396 -999.0000   29.9342   11.0000 
12366.0092 12366.0092    8.7500 -999.0000   36.9884   28.1023    5.2537    1.5487    0.6400    8.2088    3.3923    0.7800    1.7420   78.1370   85.7330    0.2660    2.4480 -999.0000   34.4409   11.0000 
12366.5092 12366.5092    8.7500 -999.0000   36.9252   27.4281    5.0508    1.6222    0.6400    7.8919    3.1136    0.7790    1.8690   78.0970   88.1200    0.1910    2.4774 -999.0000   48.9153   11.0000 
12367.0092 12367.0092    8.7500 -999.0000   40.2032   30.6033    5.5299    1.6749    0.7300    7.5752    3.3016    0.7790    2.1050   78.0650   86.6840    0.2170    2.5855 -999.0000 -162.0133   11.0000 
12367.5092 12367.5092    8.7500 -999.0000   41.7657   33.1116    6.0290    1.5979    0.7800    7.7295    3.7731    0.7780    5.0680   78.0480   89.7590    0.2130    2.7130 -999.0000   35.8476   11.0000 
12368.0092 12368.0092    8.7500 -999.0000   41.1657   33.5503    6.1324    1.4691    0.7900    7.7625    4.1742    9.9620    5.8540    5.7220   88.4580    0.2120    2.7651 -999.0000   11.1972   11.0000 
12368.5092 12368.5092    8.7500 -999.0000   45.6843   37.7660    6.8546    1.5450    0.9000    7.6162    4.4366    6.0120    4.0260    3.9210   90.8440    0.2160    2.7206 -999.0000   11.5694   11.0000 
