~VERSION INFORMATION
 VERS.                 2.0:   CWLS LOG ASCII STANDARD - VERSION 2.0
 WRAP.                  NO:   SINGLE LINE PER DEPTH STEP
 CREA.                 08/02/2018 08:46:35
#CREATED USING DSPetro VERSION 5000.10.1.3 BY H191660 ON 08/02/2018 08:46:35
~WELL INFORMATION
#MNEM.UNIT       DATA                          DESCRIPTION MNEMONIC
#---------      ---------------------------   --------------------------
 STRT    .FT        12311.0000                : START DEPTH
 STOP    .FT        17628.0000                : STOP DEPTH
 STEP    .FT        0.5000                    : STEP VALUE
 NULL    .      -999.0000                     : NULL VALUE
 DATE    .      08/02/2018                    : LAS file Creation Date
 WELL  .      UNIVERSITY_20_5                  : Well Name
 COMP  .      Neftex Exploration Insights      : Company
 FLD   .      HALEY (LWR. WOLFCAMP-PENN CONS.) : Field
 STATE .      TEXAS                            : State
 COUNT .      LOVING                           : Country
 API   .      42-301-31423                     : API Number
 UWI   .      212                              : Unique Well Identifier (UWI)
 LOC   .      1320' FNL & 1320' FWL            : Location
 PDAT  .      G.L.                             : Permanent Datum
 EPDAT .      2805                             : Reference Elevation
 LGMEA .      K.B.                             : Log Measured from
 DRMEA .      KELLY BUSHING                    : Drill Measured From
 APDAT .      30                               : Elevation Above Permanent Datum
 KB    .      2835                             : KB Elevation
 DF    .      2834                             : DF Elevation
 GL    .      2805                             : GL Elevation
 RWS   .      -999                             : Def_Rw
 WST   .      -999                             : Def_Rwt
 CNTY  .      LOVING                           : County
 SRVC  .      Baker Atlas                      : Contractor
~CURVE INFORMATION
#MNEM              UNIT       API CODE   Curve Type Comments
#----------  --------------- ----------  ---------- -----------
 DEPTH      .FT                        : Depth       
 DEPTH      .FT                        : Depth       
 BS         .inch                      : BitSize     
 CAL        .inch                      :             
 GR         .API                       : GammaRay    
 K          .%                         : Spectral    Potassium
 TH         .PPM                       : Spectral    Thorium
 U          .PPM                       : Spectral    Uranium
 Th/k       .PPM                       : Spectral    
 Th/U       .PPM                       : Spectral    
 RESD       .ohmm                      :             
 RESM       .ohmm                      :             
 RESS       .ohmm                      :             
 DT         .us/ft                     :             
 DRHO       .G/C3                      : Drho        
 NPHI       .dec                       : Neutron     
 RHOB       .G/C3                      : Density     
 PEF        .b/e-                      : PEF         
 LITH       .                          : LITH        Lithology Curve
~A  DEPTH   DEPTH       BS       CAL        GR        K         TH        U        Th/k      Th/U      RESD      RESM      RESS       DT       DRHO      NPHI      RHOB      PEF       LITH   
# ...
14768.0000 14768.0000    8.5000    8.1610   51.1127 -999.0000 -999.0000 -999.0000 -999.0000 -999.0000    4.9690    4.8950    5.1820   80.0380   -0.0130    0.2064    2.6160    4.6160   22.0000 
14768.5000 14768.5000    8.5000    8.1690   50.0254 -999.0000 -999.0000 -999.0000 -999.0000 -999.0000    4.7980    4.7340    4.9840   80.9920   -0.0090    0.2014    2.6330    4.4850   22.0000 
14769.0000 14769.0000    8.5000    8.1730   49.9425 -999.0000 -999.0000 -999.0000 -999.0000 -999.0000    4.6580    4.6050    4.8290   81.6400   -0.0090    0.2067    2.6310    4.4050   22.0000 
14769.5000 14769.5000    8.5000    8.1670   50.7894 -999.0000 -999.0000 -999.0000 -999.0000 -999.0000    4.8180    4.7730    5.0030   81.2400   -0.0130    0.2105    2.6150    4.2740   22.0000 
14770.0000 14770.0000    8.5000    8.1550   51.3697 -999.0000 -999.0000 -999.0000 -999.0000 -999.0000    5.2780    5.2370    5.5040   79.8590   -0.0150    0.2082    2.6050    4.2050   22.0000 
14770.5000 14770.5000    8.5000    8.1540   50.2205 -999.0000 -999.0000 -999.0000 -999.0000 -999.0000    5.5580    5.5240    5.8180   78.3400   -0.0150    0.2002    2.6100    4.3720   22.0000 
14771.0000 14771.0000    8.5000    8.1640   48.1727 -999.0000 -999.0000 -999.0000 -999.0000 -999.0000    5.3460    5.3230    5.6050   77.4400   -0.0140    0.1907    2.6190    4.7020   22.0000 
14771.5000 14771.5000    8.5000    8.1690   47.8527 -999.0000 -999.0000 -999.0000 -999.0000 -999.0000    5.0460    5.0290    5.2960   77.3980   -0.0140    0.1852    2.6250    5.0140   22.0000 
14772.0000 14772.0000    8.5000    8.1580   49.0722 -999.0000 -999.0000 -999.0000 -999.0000 -999.0000    4.9810    4.9630    5.2290   78.0230   -0.0150    0.1826    2.6270    5.2180   22.0000 
14772.5000 14772.5000    8.5000    8.1520   49.0503 -999.0000 -999.0000 -999.0000 -999.0000 -999.0000    5.0780    5.0530    5.3210   78.6670   -0.0160    0.1832    2.6230    5.2070   22.0000 
14773.0000 14773.0000    8.5000    8.1640   48.2589 -999.0000 -999.0000 -999.0000 -999.0000 -999.0000    5.2350    5.1960    5.4660   78.6080   -0.0170    0.1885    2.6170    5.0210   22.0000 
14773.5000 14773.5000    8.5000    8.1810   49.1621 -999.0000 -999.0000 -999.0000 -999.0000 -999.0000    5.5570    5.4980    5.7860   77.4210   -0.0160    0.1943    2.6150    4.8940   22.0000 
14774.0000 14774.0000    8.5000    8.1850   50.5352 -999.0000 -999.0000 -999.0000 -999.0000 -999.0000    6.3480    6.2480    6.5850   75.1850   -0.0160    0.1960    2.6180    4.9580   22.0000 
14774.5000 14774.5000    8.5000    8.1670   49.3010 -999.0000 -999.0000 -999.0000 -999.0000 -999.0000    7.7340    7.5580    7.9550   72.7100   -0.0160    0.1907    2.6290    5.1140   22.0000 
14775.0000 14775.0000    8.5000    8.1480   45.3470 -999.0000 -999.0000 -999.0000 -999.0000 -999.0000    8.8890    8.6300    8.9890   71.2570   -0.0130    0.1755    2.6520    5.1780   22.0000 
14775.5000 14775.5000    8.5000    8.1500   41.2673 -999.0000 -999.0000 -999.0000 -999.0000 -999.0000    8.7390    8.4630    8.6590   71.6960   -0.0110    0.1612    2.6680    5.1380   12.0000 
14776.0000 14776.0000    8.5000    8.1630   39.5080 -999.0000 -999.0000 -999.0000 -999.0000 -999.0000    7.5680    7.3230    7.3810   73.9730   -0.0130    0.1613    2.6590    5.0680   12.0000 
14776.5000 14776.5000    8.5000    8.1630   40.7269 -999.0000 -999.0000 -999.0000 -999.0000 -999.0000    6.2710    6.0570    6.0830   77.2630   -0.0160    0.1768    2.6400    4.8870   22.0000 
14777.0000 14777.0000    8.5000    8.1570   43.6561 -999.0000 -999.0000 -999.0000 -999.0000 -999.0000    5.3660    5.1770    5.2190   80.2720   -0.0170    0.1981    2.6230    4.5620   22.0000 
14777.5000 14777.5000    8.5000    8.1630   47.0672 -999.0000 -999.0000 -999.0000 -999.0000 -999.0000    4.9730    4.7930    4.8610   81.9960   -0.0180    0.2138    2.6070    4.2790   22.0000 
14778.0000 14778.0000    8.5000    8.1620   50.5236 -999.0000 -999.0000 -999.0000 -999.0000 -999.0000    5.0300    4.8360    4.9340   82.3510   -0.0170    0.2196    2.5960    4.1720   22.0000 
14778.5000 14778.5000    8.5000    8.1480   53.1013 -999.0000 -999.0000 -999.0000 -999.0000 -999.0000    5.3520    5.1250    5.2360   81.7750   -0.0140    0.2184    2.6000    4.2340   22.0000 
14779.0000 14779.0000    8.5000    8.1490   53.2456 -999.0000 -999.0000 -999.0000 -999.0000 -999.0000    5.5650    5.3090    5.3930   80.9420   -0.0090    0.2132    2.6120    4.4230   22.0000 
14779.5000 14779.5000    8.5000    8.1690   51.5086 -999.0000 -999.0000 -999.0000 -999.0000 -999.0000    5.5400    5.2690    5.2960   80.4640   -0.0070    0.2114    2.6180    4.7810   22.0000 
14780.0000 14780.0000    8.5000    8.1760   50.4155 -999.0000 -999.0000 -999.0000 -999.0000 -999.0000    5.4820    5.1970    5.1630   80.5830   -0.0090    0.2173    2.6120    5.3180   22.0000 
14780.5000 14780.5000    8.5000    8.1670   50.5185 -999.0000 -999.0000 -999.0000 -999.0000 -999.0000    5.3800    5.0870    5.0070   81.2470   -0.0110    0.2212    2.6060    5.7410   22.0000 
14781.0000 14781.0000    8.5000    8.1650   50.1661 -999.0000 -999.0000 -999.0000 -999.0000 -999.0000    5.0710    4.7850    4.6930   82.2560   -0.0120    0.2138    2.6070    5.6750   22.0000 
14781.5000 14781.5000    8.5000    8.1730   49.5029 -999.0000 -999.0000 -999.0000 -999.0000 -999.0000    4.7700    4.4950    4.4190   83.2150   -0.0130    0.2061    2.6040    5.3100   22.0000 
14782.0000 14782.0000    8.5000    8.1780   50.0829 -999.0000 -999.0000 -999.0000 -999.0000 -999.0000    4.8140    4.5320    4.4800   83.2730   -0.0170    0.2108    2.5870    5.0300   22.0000 
14782.5000 14782.5000    8.5000    8.1770   51.6778 -999.0000 -999.0000 -999.0000 -999.0000 -999.0000    5.2620    4.9480    4.9160   81.6080   -0.0210    0.2239    2.5710    4.9000   37.0000 
14783.0000 14783.0000    8.5000    8.1770   52.1648 -999.0000 -999.0000 -999.0000 -999.0000 -999.0000    5.9710    5.6040    5.5760   78.2240   -0.0230    0.2274    2.5690    4.8920   37.0000 
14783.5000 14783.5000    8.5000    8.1720   50.6340 -999.0000 -999.0000 -999.0000 -999.0000 -999.0000    6.9560    6.5140    6.4510   74.3120   -0.0250    0.2146    2.5830    4.9650   22.0000 
14784.0000 14784.0000    8.5000    8.1590   47.8017 -999.0000 -999.0000 -999.0000 -999.0000 -999.0000    8.1440    7.6070    7.4390   71.8840   -0.0260    0.1967    2.6120    5.1530   22.0000 
14784.5000 14784.5000    8.5000    8.1520   44.4442 -999.0000 -999.0000 -999.0000 -999.0000 -999.0000    8.3600    7.7890    7.4480   72.4680   -0.0240    0.1811    2.6490    5.4500   22.0000 
14785.0000 14785.0000    8.5000    8.1600   41.8937 -999.0000 -999.0000 -999.0000 -999.0000 -999.0000    7.2100    6.6990    6.2420   75.8400   -0.0230    0.1768    2.6600    5.5030   22.0000 
14785.5000 14785.5000    8.5000    8.1740   42.7182 -999.0000 -999.0000 -999.0000 -999.0000 -999.0000    6.1400    5.6950    5.2070   80.1320   -0.0250    0.1898    2.6350    5.0920   22.0000 
14786.0000 14786.0000    8.5000    8.1800   47.9900 -999.0000 -999.0000 -999.0000 -999.0000 -999.0000    5.7720    5.3460    4.8210   83.3270   -0.0230    0.2130    2.6080    4.6070   22.0000 
14786.5000 14786.5000    8.5000    8.1690   54.3005 -999.0000 -999.0000 -999.0000 -999.0000 -999.0000    5.8250    5.3890    4.8250   84.5080   -0.0190    0.2222    2.5980    4.4040   22.0000 
14787.0000 14787.0000    8.5000    8.1550   57.0274 -999.0000 -999.0000 -999.0000 -999.0000 -999.0000    6.0320    5.5750    4.9890   84.0610   -0.0160    0.2148    2.5920    4.4120   22.0000 
14787.5000 14787.5000    8.5000    8.1560   56.1100 -999.0000 -999.0000 -999.0000 -999.0000 -999.0000    6.3230    5.8380    5.2500   82.9740   -0.0170    0.2105    2.5840    4.3810   22.0000 
14788.0000 14788.0000    8.5000    8.1620   55.0655 -999.0000 -999.0000 -999.0000 -999.0000 -999.0000    6.6640    6.1490    5.5680   81.9240   -0.0170    0.2158    2.5850    4.2910   22.0000 
14788.5000 14788.5000    8.5000    8.1630   53.9293 -999.0000 -999.0000 -999.0000 -999.0000 -999.0000    6.9220    6.3880    5.8180   81.2800   -0.0130    0.2196    2.5980    4.3060   22.0000 
