~VERSION INFORMATION
 VERS.                 2.0:   CWLS LOG ASCII STANDARD - VERSION 2.0
 WRAP.                  NO:   SINGLE LINE PER DEPTH STEP
 CREA.                 08/02/2018 08:52:47
#CREATED USING DSPetro VERSION 5000.10.1.3 BY H191660 ON 08/02/2018 08:52:47
~WELL INFORMATION
#MNEM.UNIT       DATA                          DESCRIPTION MNEMONIC
#---------      ---------------------------   --------------------------
 STRT    .FT        12349.0092                : START DEPTH
 STOP    .FT        16985.0092                : STOP DEPTH
 STEP    .FT        0.5000                    : STEP VALUE
 NULL    .      -999.0000                     : NULL VALUE
 DATE    .      08/02/2018                    : LAS file Creation Date
 WELL  .      UNIVERSITY_19-6           : Well Name
 COMP  .      Anadarko Petroleum Corpor : Company
 FLD   .      LOVING                    : Field
 STATE .      TEXAS                     : State
 COUNT .      Texas                     : Country
 API   .      42301311860000            : API Number
 UWI   .      507                       : Unique Well Identifier (UWI)
 LOC   .      Onshore                   : Location
 TOWN  .      19                        : Township
 SCT   .      6                         : Section
 RANG  .      University Land           : Range
 LATI  .      3509001.74                : Latitude/Northing
 LONG  .      644715.32                 : Longitude/Easting
 PDAT  .      Ground Level              : Permanent Datum
 EPDAT .      2810                      : Reference Elevation
 LGMEA .      Kelly Bushing             : Log Measured from
 DRMEA .      Kelly Bushing             : Drill Measured From
 APDAT .      31                        : Elevation Above Permanent Datum
 KB    .      2841                      : KB Elevation
 DF    .      2840                      : DF Elevation
 GL    .      2810                      : GL Elevation
 RWS   .      0                         : Def_Rw
 WST   .      0                         : Def_Rwt
 UTMZ  .      13                        : UTM Zone
 BHS   .      OPEN                      : Completion Status
 CNTY  .      LOVING                    : County
 MDEC  .      0                         : Magnetic Declination
 SRVC  .      SCH                       : Contractor
~CURVE INFORMATION
#MNEM              UNIT       API CODE   Curve Type Comments
#----------  --------------- ----------  ---------- -----------
 DEPTH      .FT                        : Depth       
 DEPTH      .FT                        : Depth       
 BS         .IN                        : BitSize     Bit Size {F13.4}
 CAL        .IN                        :             
 HSGR       .GAPI                      :             
 HCGR       .GAPI                      :             
 TH         .PPM                       :             HNGS Formation Thorium Concentration {F13.4}
 U          .PPM                       :             HNGS Formation Uranium Concentration {F13.4}
 K          .CFCF                      :             HNGS Formation Potassium Concentration {F13.4}
 ThK        .PPM                       : Spectral    
 ThU        .PPM                       : Spectral    
 RSHALLOW   .OHMM                      :             12  RSHALLOW
 RMEDIUM    .OHMM                      :             13  Medium Resistivity
 RDEEP      .OHMM                      : DeepRes     14  Deep Resistivity
 DT         .US/F                      : Sonic       DT
 NPHI       .dec                       : Neutron     NPHI
 RHOB       .G/C3                      : Density     
 DRHO       .G/CC                      : Drho        
 PEF        .                          :             
 LITH       .                          : LITH        Lithology Curve
~A  DEPTH   DEPTH       BS       CAL       HSGR      HCGR       TH        U         K        ThK       ThU     RSHALLOW  RMEDIUM    RDEEP       DT       NPHI      RHOB      DRHO      PEF       LITH   
# ...
13889.0092 13889.0092    8.7500    9.1020   93.3163   70.4688   11.4290    3.2921    1.9100    5.9838    3.4717    5.1060    4.7670    5.0410   93.6650    0.1200    2.5563   -0.0003    7.8172   37.0000 
13889.5092 13889.5092    8.7500    9.1330  100.5841   77.6108   12.6096    3.2427    2.0900    6.0333    3.8886    4.1310    3.9200    4.2650   92.7510    0.1540    2.5404    0.0088    7.2180   37.0000 
13890.0092 13890.0092    8.7500    9.1970  102.3634   80.8632   12.9956    3.1034    2.2100    5.8804    4.1875    3.6800    3.5960    3.8590   91.1990    0.1860    2.5384    0.0061    7.1424   37.0000 
13890.5092 13890.5092    8.7500    9.2280  102.0765   81.1368   12.8126    3.0610    2.2500    5.6945    4.1858    3.6190    3.7210    3.8910   89.6940    0.1940    2.5472   -0.0103    7.4700   37.0000 
13891.0092 13891.0092    8.7500    9.2720  102.2399   80.7363   12.6241    3.0852    2.2600    5.5859    4.0918    3.8550    4.0650    4.2150   90.7260    0.1900    2.5495   -0.0092    6.4495   37.0000 
13891.5092 13891.5092    8.7500    9.3320  104.6841   82.0230   12.7455    3.2642    2.3100    5.5175    3.9046    3.6540    3.8310    3.9560   89.9380    0.1900    2.5401   -0.0020    8.1621   37.0000 
13892.0092 13892.0092    8.7500    9.4570  104.8406   83.3660   13.0853    3.1667    2.3300    5.6160    4.1321    3.2900    3.4640    3.5660   89.6200    0.2000    2.5341   -0.0063    8.3580   37.0000 
13892.5092 13892.5092    8.7500    9.4820  102.1582   82.7571   13.0263    2.9120    2.3100    5.6391    4.4733    3.2700    3.4780    3.5610   90.0350    0.2060    2.5420   -0.0045    6.9692   37.0000 
13893.0092 13893.0092    8.7500    9.5180   97.5182   79.2446   12.6153    2.7682    2.1800    5.7868    4.5572    3.7220    3.9820    4.0490   90.1990    0.1860    2.5573    0.0003    6.7779   37.0000 
13893.5092 13893.5092    8.7500    9.5280   95.4675   78.0950   12.3756    2.6983    2.1600    5.7294    4.5864    4.2080    4.5860    4.6470   90.8390    0.1750    2.5681    0.0005    7.9840   37.0000 
13894.0092 13894.0092    8.7500    9.4950   97.3379   79.7252   12.5521    2.7457    2.2200    5.6541    4.5715    4.1120    4.4230    4.4810   90.3870    0.1730    2.5738   -0.0004    7.6523   37.0000 
13894.5092 13894.5092    8.7500    9.4220   99.4460   81.5573   12.7757    2.7975    2.2800    5.6034    4.5668    3.8200    4.0090    4.1070   91.2690    0.1880    2.5750   -0.0098    8.2452   37.0000 
13895.0092 13895.0092    8.7500    9.4080   99.5915   82.0991   12.8854    2.8065    2.2900    5.6268    4.5913    3.6380    3.8220    3.9990   91.4230    0.1920    2.5705   -0.0084    5.8726   37.0000 
13895.5092 13895.5092    8.7500    9.4080   97.3131   79.8386   12.5275    2.7886    2.2300    5.6177    4.4924    3.6890    3.8740    3.9960   90.4000    0.1760    2.5675   -0.0105    9.4025   37.0000 
13896.0092 13896.0092    8.7500    9.3590   96.9280   78.6576   12.3311    2.8764    2.2000    5.6050    4.2870    3.9370    4.2660    4.2860   90.9880    0.1590    2.5658   -0.0114    7.5974   37.0000 
13896.5092 13896.5092    8.7500    9.2590  100.0064   81.1456   12.7400    3.0593    2.2700    5.6123    4.1644    3.9560    4.2010    4.2520   93.0450    0.1520    2.5635   -0.0098    6.2105   37.0000 
13897.0092 13897.0092    8.7500    9.2650  105.5505   85.8602   13.5010    3.2230    2.3900    5.6490    4.1890    3.6600    3.8460    3.9010   93.3680    0.1670    2.5508   -0.0038    8.9720   37.0000 
13897.5092 13897.5092    8.7500    9.2810  108.6292   87.6169   13.7750    3.4243    2.4400    5.6455    4.0227    3.4080    3.5930    3.6680   90.9030    0.1800    2.5407   -0.0151    6.7661   37.0000 
13898.0092 13898.0092    8.7500    9.2880  107.5670   85.0079   13.3435    3.6209    2.3700    5.6302    3.6852    3.2540    3.4370    3.5290   88.5670    0.1880    2.5362   -0.0089    7.3609   37.0000 
13898.5092 13898.5092    8.7500    9.3570  105.0635   81.8451   12.6070    3.6765    2.3300    5.4107    3.4291    3.2510    3.3880    3.5380   86.8000    0.1930    2.5402   -0.0027    6.8409   37.0000 
13899.0092 13899.0092    8.7500    9.4080  101.6864   78.5038   11.9358    3.6601    2.2600    5.2813    3.2611    3.3200    3.4670    3.5620   86.0950    0.1990    2.5510    0.0008    9.6792   37.0000 
13899.5092 13899.5092    8.7500    9.3870   98.1165   76.8891   11.7815    3.4037    2.2000    5.3552    3.4614    3.6680    3.8480    3.9890   86.1860    0.1950    2.5645   -0.0020    5.7716   37.0000 
13900.0092 13900.0092    8.7500    9.4210   93.2119   73.0107   11.2577    3.2856    2.0700    5.4385    3.4264    4.2760    4.5080    4.6300   86.8120    0.1890    2.5753   -0.0094   10.5707   37.0000 
13900.5092 13900.5092    8.7500    9.4280   87.3540   66.9696   10.3536    3.2842    1.9000    5.4493    3.1526    5.1070    5.5170    5.6290   88.4040    0.1760    2.5728   -0.0122    6.2263   37.0000 
13901.0092 13901.0092    8.7500    9.4410   84.1025   63.3814    9.8629    3.2841    1.7800    5.5409    3.0032    5.7940    6.3420    6.5510   89.4070    0.1650    2.5618   -0.0126    6.6859   37.0000 
13901.5092 13901.5092    8.7500    9.4780   86.6894   66.5851   10.4018    3.2267    1.8700    5.5625    3.2237    5.5570    5.9800    5.8770   91.4910    0.1440    2.5547   -0.0101    6.0158   37.0000 
13902.0092 13902.0092    8.7500    9.5070   92.6025   72.4246   11.2994    3.2281    2.0300    5.5662    3.5003    4.4640    4.7370    4.8250   91.3930    0.1420    2.5560   -0.0071    6.3816   37.0000 
13902.5092 13902.5092    8.7500    9.5210   98.0840   77.4611   12.1936    3.2845    2.1600    5.6452    3.7125    3.8940    4.1280    4.2690   91.5530    0.1480    2.5604   -0.0040    6.6964   37.0000 
13903.0092 13903.0092    8.7500    9.5280  101.5312   80.2645   12.5442    3.3237    2.2500    5.5752    3.7742    3.9330    4.1900    4.3160   91.6140    0.1700    2.5565   -0.0045    6.9787   37.0000 
13903.5092 13903.5092    8.7500    9.5300  105.4166   83.8632   13.1290    3.3893    2.3500    5.5868    3.8737    3.7950    3.9870    4.1870   90.1720    0.1830    2.5484   -0.0026    6.5619   37.0000 
13904.0092 13904.0092    8.7500    9.5350  108.4719   86.6886   13.5951    3.4696    2.4200    5.6178    3.9183    3.5520    3.6580    3.8510   90.6900    0.1950    2.5465   -0.0103    5.9921   37.0000 
13904.5092 13904.5092    8.7500    9.5350  106.3031   83.8291   13.1326    3.5167    2.3500    5.5883    3.7344    3.5720    3.7370    3.8630   90.8190    0.2040    2.5570   -0.0032    6.2540   37.0000 
13905.0092 13905.0092    8.7500    9.5370   99.9704   76.9278   12.0230    3.5232    2.1600    5.5662    3.4125    3.7960    4.0180    4.1300   89.5670    0.2020    2.5710    0.0033    8.1042   37.0000 
13905.5092 13905.5092    8.7500    9.4610   95.7888   73.6527   11.5619    3.3783    2.0600    5.6126    3.4224    4.2860    4.4410    4.4880   90.4230    0.1960    2.5857    0.0040    5.5489   37.0000 
13906.0092 13906.0092    8.7500    9.4700   96.2834   74.8813   11.7086    3.3224    2.1000    5.5755    3.5241    4.3670    4.5470    4.5210   89.9700    0.1870    2.5882    0.0057    8.0375   37.0000 
13906.5092 13906.5092    8.7500    9.5120  101.8702   80.9919   12.6419    3.2857    2.2700    5.5692    3.8476    3.9700    4.0900    4.1160   91.6590    0.1860    2.5774   -0.0007    7.9560   37.0000 
13907.0092 13907.0092    8.7500    9.5940  106.4733   85.0508   13.3017    3.3499    2.3800    5.5889    3.9708    3.6660    3.8600    3.8790   92.4180    0.1870    2.5640   -0.0062    6.6526   37.0000 
13907.5092 13907.5092    8.7500    9.6750  107.3531   86.0182   13.4486    3.3768    2.4100    5.5803    3.9826    3.5170    3.6780    3.7040   93.1030    0.1880    2.5556   -0.0007    6.0081   37.0000 
13908.0092 13908.0092    8.7500    9.7020  103.2527   83.4135   12.9769    3.1602    2.3500    5.5221    4.1063    3.3990    3.5120    3.6470   92.6220    0.1920    2.5603   -0.0052    6.9837   37.0000 
13908.5092 13908.5092    8.7500    9.7350   98.9344   80.8849   12.7438    2.8501    2.2500    5.6639    4.4713    3.5800    3.7830    3.7180   92.4890    0.1900    2.5646   -0.0073    6.8438   37.0000 
