~VERSION INFORMATION
 VERS.                 2.0:   CWLS LOG ASCII STANDARD - VERSION 2.0
 WRAP.                  NO:   SINGLE LINE PER DEPTH STEP
 CREA.                 08/02/2018 08:52:47
#CREATED USING DSPetro VERSION 5000.10.1.3 BY H191660 ON 08/02/2018 08:52:47
~WELL INFORMATION
#MNEM.UNIT       DATA                          DESCRIPTION MNEMONIC
#---------      ---------------------------   --------------------------
 STRT    .FT        12349.0092                : START DEPTH
 STOP    .FT        16985.0092                : STOP DEPTH
 STEP    .FT        0.5000                    : STEP VALUE
 NULL    .      -999.0000                     : NULL VALUE
 DATE    .      08/02/2018                    : LAS file Creation Date
 WELL  .      UNIVERSITY_19-6           : Well Name
 COMP  .      Anadarko Petroleum Corpor : Company
 FLD   .      LOVING                    : Field
 STATE .      TEXAS                     : State
 COUNT .      Texas                     : Country
 API   .      42301311860000            : API Number
 UWI   .      507                       : Unique Well Identifier (UWI)
 LOC   .      Onshore                   : Location
 TOWN  .      19                        : Township
 SCT   .      6                         : Section
 RANG  .      University Land           : Range
 LATI  .      3509001.74                : Latitude/Northing
 LONG  .      644715.32                 : Longitude/Easting
 PDAT  .      Ground Level              : Permanent Datum
 EPDAT .      2810                      : Reference Elevation
 LGMEA .      Kelly Bushing             : Log Measured from
 DRMEA .      Kelly Bushing             : Drill Measured From
 APDAT .      31                        : Elevation Above Permanent Datum
 KB    .      2841                      : KB Elevation
 DF    .      2840                      : DF Elevation
 GL    .      2810                      : GL Elevation
 RWS   .      0                         : Def_Rw
 WST   .      0                         : Def_Rwt
 UTMZ  .      13                        : UTM Zone
 BHS   .      OPEN                      : Completion Status
 CNTY  .      LOVING                    : County
 MDEC  .      0                         : Magnetic Declination
 SRVC  .      SCH                       : Contractor
~CURVE INFORMATION
#MNEM              UNIT       API CODE   Curve Type Comments
#----------  --------------- ----------  ---------- -----------
 DEPTH      .FT                        : Depth       
 DEPTH      .FT                        : Depth       
 BS         .IN                        : BitSize     Bit Size {F13.4}
 CAL        .IN                        :             
 HSGR       .GAPI                      :             
 HCGR       .GAPI                      :             
 TH         .PPM                       :             HNGS Formation Thorium Concentration {F13.4}
 U          .PPM                       :             HNGS Formation Uranium Concentration {F13.4}
 K          .CFCF                      :             HNGS Formation Potassium Concentration {F13.4}
 ThK        .PPM                       : Spectral    
 ThU        .PPM                       : Spectral    
 RSHALLOW   .OHMM                      :             12  RSHALLOW
 RMEDIUM    .OHMM                      :             13  Medium Resistivity
 RDEEP      .OHMM                      : DeepRes     14  Deep Resistivity
 DT         .US/F                      : Sonic       DT
 NPHI       .dec                       : Neutron     NPHI
 RHOB       .G/C3                      : Density     
 DRHO       .G/CC                      : Drho        
 PEF        .                          :             
 LITH       .                          : LITH        Lithology Curve
~A  DEPTH   DEPTH       BS       CAL       HSGR      HCGR       TH        U         K        ThK       ThU     RSHALLOW  RMEDIUM    RDEEP       DT       NPHI      RHOB      DRHO      PEF       LITH   
# ...
15729.0092 15729.0092    8.7500    8.6000   81.4620   63.2823   10.0517    2.7996    1.7500    5.7438    3.5904   11.8730    9.0240    7.7240   84.4830    0.1510    2.5910   -0.0063    6.4789   22.0000 
15729.5092 15729.5092    8.7500    8.6140   85.0932   65.2327   10.2751    3.0545    1.8200    5.6457    3.3639    9.6780    7.7810    6.8350   86.4030    0.1410    2.5867   -0.0016    8.7229   22.0000 
15730.0092 15730.0092    8.7500    8.5950   89.6797   68.1651   10.7015    3.3438    1.9000    5.6324    3.2004    8.2340    6.8900    6.1050   84.0490    0.1410    2.5880   -0.0098    8.8957   22.0000 
15730.5092 15730.5092    8.7500    8.5830   93.3198   70.9896   10.9813    3.4814    2.0100    5.4633    3.1543    7.8440    6.3930    5.7320   85.3620    0.1440    2.5872   -0.0048    9.3095   22.0000 
15731.0092 15731.0092    8.7500    8.6140   94.2552   72.0511   11.1592    3.4607    2.0400    5.4702    3.2245    7.9020    6.1750    5.5630   85.9140    0.1470    2.5921   -0.0098    8.4842   22.0000 
15731.5092 15731.5092    8.7500    8.6430   93.3344   71.7553   11.1512    3.3889    2.0200    5.5204    3.2905    7.6450    6.0710    5.4770   86.5420    0.1510    2.5918   -0.0206   10.0896   22.0000 
15732.0092 15732.0092    8.7500    8.6320   93.3013   72.1580   10.9123    3.3241    2.0900    5.2212    3.2828    7.6550    6.0630    5.4570   86.9550    0.1600    2.5880   -0.0307    8.2584   37.0000 
15732.5092 15732.5092    8.7500    8.6200   94.7810   73.1803   10.7406    3.3824    2.1700    4.9496    3.1754    8.1350    6.4070    5.7530   86.7950    0.1700    2.5740   -0.0249    7.8582   37.0000 
15733.0092 15733.0092    8.7500    8.5880   96.4783   73.8496   10.8498    3.5464    2.1900    4.9542    3.0594    8.5780    6.6940    5.9850   86.5020    0.1780    2.5616   -0.0080    8.2403   37.0000 
15733.5092 15733.5092    8.7500    8.5630   96.9697   72.1295   10.7979    3.7916    2.1000    5.1418    2.8479    8.7570    6.7740    6.0700   86.2250    0.1800    2.5580   -0.0123    8.5708   37.0000 
15734.0092 15734.0092    8.7500    8.5540   97.2367   68.8101   10.4776    4.2172    1.9800    5.2917    2.4845    8.6430    6.8070    6.0830   86.1900    0.1830    2.5616   -0.0209   13.6996   37.0000 
15734.5092 15734.5092    8.7500    8.4350   98.4368   66.2388   10.2200    4.7155    1.8800    5.4362    2.1673    8.4200    6.7160    6.1310   86.8360    0.1910    2.5681   -0.0294   10.0058   37.0000 
15735.0092 15735.0092    8.7500    8.3140  100.8134   65.4177   10.1641    5.0630    1.8400    5.5240    2.0075    8.4640    6.7980    6.2420   87.2000    0.1960    2.5637   -0.0180    7.3282   37.0000 
15735.5092 15735.5092    8.7500    8.2910  102.2362   63.5490    9.7987    5.4321    1.8000    5.4437    1.8039    9.2230    7.4250    6.7150   87.0120    0.1960    2.5515   -0.0223    4.2677   37.0000 
15736.0092 15736.0092    8.7500    8.2860  100.6514   59.4787    9.3164    5.7068    1.6600    5.6123    1.6325   10.3250    8.2210    7.3610   88.2170    0.1840    2.5326   -0.0211    6.5610   37.0000 
15736.5092 15736.5092    8.7500    8.2430   99.0623   55.7475    8.8535    5.9548    1.5400    5.7490    1.4868   11.6210    9.2110    8.2310   86.1280    0.1670    2.5169   -0.0154    7.5070   37.0000 
15737.0092 15737.0092    8.7500    8.2000  100.7973   52.7707    8.3797    6.5774    1.4600    5.7395    1.2740   12.8260    9.9750    8.8660   86.8550    0.1550    2.5020   -0.0052    7.8598   37.0000 
15737.5092 15737.5092    8.7500    8.1530  106.9164   52.4679    8.5011    7.3816    1.4200    5.9867    1.1517   12.7650   10.6610    9.3330   87.9890    0.1540    2.4966   -0.0124    6.3087   37.0000 
15738.0092 15738.0092    8.7500    8.1110  112.4177   51.7431    8.5748    8.1201    1.3700    6.2590    1.0560   11.6940   10.1520    9.0020   88.0230    0.1610    2.5004   -0.0223    8.9910   37.0000 
15738.5092 15738.5092    8.7500    8.1150  114.8415   50.9770    8.5020    8.4951    1.3400    6.3448    1.0008   10.8290    9.6490    8.7730   91.3910    0.1670    2.5093   -0.0165    7.2126   37.0000 
15739.0092 15739.0092    8.7500    8.1300  116.8614   51.8078    8.6369    8.7070    1.3600    6.3507    0.9919   10.3320    9.6050    8.4650   94.0420    0.1700    2.5196   -0.0132    7.3530   37.0000 
15739.5092 15739.5092    8.7500    8.1460  120.3955   54.5669    9.0546    8.8467    1.4400    6.2879    1.0235   10.1750    9.6470    8.3590   95.4350    0.1670    2.5287   -0.0016    7.2243   37.0000 
15740.0092 15740.0092    8.7500    8.1650  124.6457   57.9850    9.6689    8.9550    1.5200    6.3611    1.0797   10.1180    9.6200    8.3330   97.9980    0.1620    2.5366    0.0008    6.8671   37.0000 
15740.5092 15740.5092    8.7500    8.1970  126.6906   58.7240    9.9134    9.1915    1.5200    6.5220    1.0785   10.1020    9.6630    8.3600   96.9550    0.1630    2.5415    0.0007    8.5086   37.0000 
15741.0092 15741.0092    8.7500    8.2090  125.0319   57.5087    9.7594    9.1978    1.4800    6.5942    1.0611    9.7840    9.5380    8.2540   95.4540    0.1660    2.5354   -0.0029    7.3809   37.0000 
15741.5092 15741.5092    8.7500    8.1980  121.1497   56.3019    9.4520    8.8958    1.4700    6.4299    1.0625    9.4150    9.2000    8.2530   92.1680    0.1660    2.5250   -0.0132    6.6523   37.0000 
15742.0092 15742.0092    8.7500    8.1830  116.3144   54.7792    8.9395    8.4601    1.4700    6.0813    1.0567    9.3750    9.5030    8.2700   87.6130    0.1640    2.5142   -0.0081    6.6157   37.0000 
15742.5092 15742.5092    8.7500    8.1770  113.9896   54.1679    8.7581    8.1515    1.4700    5.9579    1.0744    9.8270    9.8600    8.6300   86.5210    0.1660    2.5078   -0.0101    6.8407   37.0000 
15743.0092 15743.0092    8.7500    8.1730  113.5768   53.5270    8.7146    8.1534    1.4400    6.0518    1.0688   10.2980   10.1430    9.1680   86.2690    0.1690    2.5078   -0.0164    6.0542   37.0000 
15743.5092 15743.5092    8.7500    8.1450  114.7788   54.3167    8.9843    8.3030    1.4400    6.2391    1.0821    9.5840   10.2230    9.7630   87.0540    0.1720    2.5116   -0.0107    5.9169   37.0000 
15744.0092 15744.0092    8.7500    8.1130  116.5693   55.4122    9.2293    8.4551    1.4600    6.3214    1.0916    9.7700    9.9910   10.8980   87.7430    0.1760    2.5244   -0.0200    7.0010   37.0000 
15744.5092 15744.5092    8.7500    8.0980  119.0866   56.8698    9.3128    8.5766    1.5200    6.1269    1.0858    9.8390    9.6080   10.4780   88.0540    0.1760    2.5279   -0.0156    5.7946   37.0000 
15745.0092 15745.0092    8.7500    8.1440  122.1497   58.8289    9.5779    8.7657    1.5800    6.0620    1.0927   10.0730    9.0450    9.4440   89.0890    0.1720    2.5095   -0.0080    7.9041   37.0000 
15745.5092 15745.5092    8.7500    8.1520  123.5612   60.3154    9.7539    8.8445    1.6400    5.9475    1.1028   10.0550    8.5900    8.5160   90.5360    0.1730    2.4781   -0.0322    7.1999   37.0000 
15746.0092 15746.0092    8.7500    8.1000  124.7841   62.8541   10.1506    8.7243    1.7100    5.9360    1.1635   10.4660    7.8210    7.4860   90.6820    0.1780    2.4612   -0.0475    5.7699   37.0000 
15746.5092 15746.5092    8.7500    8.1440  125.5532   66.6824   10.9105    8.3421    1.7900    6.0952    1.3079   10.8350    7.2740    6.7800   90.5850    0.1840    2.4676   -0.0253    6.4105   37.0000 
15747.0092 15747.0092    8.7500    8.2000  123.3397   67.6678   11.2202    7.9302    1.7900    6.2683    1.4149   10.4980    6.4850    6.1580   89.0190    0.1880    2.4978   -0.0135    6.4329   37.0000 
15747.5092 15747.5092    8.7500    8.1690  116.2443   65.6295   11.0674    7.2405    1.7000    6.5102    1.5285   10.5820    6.3140    6.2400   89.9190    0.1890    2.5297   -0.0094    7.9256   37.0000 
15748.0092 15748.0092    8.7500    8.1650  106.4568   63.1463   10.6407    6.2959    1.6400    6.4882    1.6901   11.5220    6.4350    6.1540   90.1010    0.1880    2.5578   -0.0138   10.8193   37.0000 
15748.5092 15748.5092    8.7500    8.1790   99.3493   62.1101   10.4161    5.5582    1.6200    6.4297    1.8740   11.1860    6.3650    5.9250   88.5260    0.1900    2.5707   -0.0245   11.6391   37.0000 
