~VERSION INFORMATION
 VERS.                 2.0:   CWLS LOG ASCII STANDARD - VERSION 2.0
 WRAP.                  NO:   SINGLE LINE PER DEPTH STEP
 CREA.                 08/02/2018 08:46:35
#CREATED USING DSPetro VERSION 5000.10.1.3 BY H191660 ON 08/02/2018 08:46:35
~WELL INFORMATION
#MNEM.UNIT       DATA                          DESCRIPTION MNEMONIC
#---------      ---------------------------   --------------------------
 STRT    .FT        12311.0000                : START DEPTH
 STOP    .FT        17628.0000                : STOP DEPTH
 STEP    .FT        0.5000                    : STEP VALUE
 NULL    .      -999.0000                     : NULL VALUE
 DATE    .      08/02/2018                    : LAS file Creation Date
 WELL  .      UNIVERSITY_20_5                  : Well Name
 COMP  .      Neftex Exploration Insights      : Company
 FLD   .      HALEY (LWR. WOLFCAMP-PENN CONS.) : Field
 STATE .      TEXAS                            : State
 COUNT .      LOVING                           : Country
 API   .      42-301-31423                     : API Number
 UWI   .      212                              : Unique Well Identifier (UWI)
 LOC   .      1320' FNL & 1320' FWL            : Location
 PDAT  .      G.L.                             : Permanent Datum
 EPDAT .      2805                             : Reference Elevation
 LGMEA .      K.B.                             : Log Measured from
 DRMEA .      KELLY BUSHING                    : Drill Measured From
 APDAT .      30                               : Elevation Above Permanent Datum
 KB    .      2835                             : KB Elevation
 DF    .      2834                             : DF Elevation
 GL    .      2805                             : GL Elevation
 RWS   .      -999                             : Def_Rw
 WST   .      -999                             : Def_Rwt
 CNTY  .      LOVING                           : County
 SRVC  .      Baker Atlas                      : Contractor
~CURVE INFORMATION
#MNEM              UNIT       API CODE   Curve Type Comments
#----------  --------------- ----------  ---------- -----------
 DEPTH      .FT                        : Depth       
 DEPTH      .FT                        : Depth       
 BS         .inch                      : BitSize     
 CAL        .inch                      :             
 GR         .API                       : GammaRay    
 K          .%                         : Spectral    Potassium
 TH         .PPM                       : Spectral    Thorium
 U          .PPM                       : Spectral    Uranium
 Th/k       .PPM                       : Spectral    
 Th/U       .PPM                       : Spectral    
 RESD       .ohmm                      :             
 RESM       .ohmm                      :             
 RESS       .ohmm                      :             
 DT         .us/ft                     :             
 DRHO       .G/C3                      : Drho        
 NPHI       .dec                       : Neutron     
 RHOB       .G/C3                      : Density     
 PEF        .b/e-                      : PEF         
 LITH       .                          : LITH        Lithology Curve
~A  DEPTH   DEPTH       BS       CAL        GR        K         TH        U        Th/k      Th/U      RESD      RESM      RESS       DT       DRHO      NPHI      RHOB      PEF       LITH   
# ...
13004.0000 13004.0000    8.5000    9.1000   46.5714 -999.0000 -999.0000 -999.0000 -999.0000 -999.0000    8.9580    7.7720    7.5010   82.3420   -0.0040    0.2117    2.5560    4.4410   37.0000 
13004.5000 13004.5000    8.5000    9.1130   45.7926 -999.0000 -999.0000 -999.0000 -999.0000 -999.0000    9.8890    8.7520    8.4990   79.4620   -0.0070    0.2040    2.5630    4.6670   37.0000 
13005.0000 13005.0000    8.5000    9.1190   44.3574 -999.0000 -999.0000 -999.0000 -999.0000 -999.0000   11.3800   10.2390    9.9050   76.6550   -0.0090    0.1919    2.5810    4.8250   22.0000 
13005.5000 13005.5000    8.5000    9.1120   41.9448 -999.0000 -999.0000 -999.0000 -999.0000 -999.0000   12.5100   11.4030   10.8760   75.3360   -0.0110    0.1749    2.6030    4.8600   22.0000 
13006.0000 13006.0000    8.5000    9.1040   38.8268 -999.0000 -999.0000 -999.0000 -999.0000 -999.0000   12.2090   11.2390   10.5030   76.3710   -0.0130    0.1648    2.6170    4.7720   22.0000 
13006.5000 13006.5000    8.5000    9.1040   36.6190 -999.0000 -999.0000 -999.0000 -999.0000 -999.0000   10.6120    9.8390    9.0380   79.4640   -0.0130    0.1669    2.6140    4.6640   22.0000 
13007.0000 13007.0000    8.5000    9.1070   36.6334 -999.0000 -999.0000 -999.0000 -999.0000 -999.0000    8.8110    8.2140    7.4980   83.2810   -0.0150    0.1776    2.5910    4.6020   22.0000 
13007.5000 13007.5000    8.5000    9.1080   38.8676 -999.0000 -999.0000 -999.0000 -999.0000 -999.0000    7.5830    7.0940    6.4910   86.0080   -0.0160    0.1903    2.5560    4.5690   22.0000 
13008.0000 13008.0000    8.5000    9.1050   42.0540 -999.0000 -999.0000 -999.0000 -999.0000 -999.0000    7.0830    6.6390    6.1260   85.9330   -0.0170    0.1944    2.5230    4.5260   22.0000 
13008.5000 13008.5000    8.5000    9.0990   44.0066 -999.0000 -999.0000 -999.0000 -999.0000 -999.0000    7.3900    6.9300    6.4730   82.1820   -0.0160    0.1853    2.5080    4.4270   22.0000 
13009.0000 13009.0000    8.5000    9.0950   43.5033 -999.0000 -999.0000 -999.0000 -999.0000 -999.0000    8.9440    8.3820    7.9120   75.7540   -0.0150    0.1642    2.5190    4.2840   22.0000 
13009.5000 13009.5000    8.5000    9.1070   40.5369 -999.0000 -999.0000 -999.0000 -999.0000 -999.0000   12.9980   12.1700   11.4740   69.6320   -0.0130    0.1358    2.5590    4.3280   37.0000 
13010.0000 13010.0000    8.5000    9.1340   35.3930 -999.0000 -999.0000 -999.0000 -999.0000 -999.0000   19.1560   17.9570   16.8000   67.2310   -0.0100    0.1125    2.6120    4.8920   18.0000 
13010.5000 13010.5000    8.5000    9.1470   30.2594 -999.0000 -999.0000 -999.0000 -999.0000 -999.0000   20.3290   19.0700   17.3770   70.2560   -0.0110    0.1056    2.6320    5.6650   18.0000 
13011.0000 13011.0000    8.5000    9.1330   29.7579 -999.0000 -999.0000 -999.0000 -999.0000 -999.0000   15.1810   14.2390   12.5620   77.3830   -0.0200    0.1170    2.5850    5.9220   18.0000 
13011.5000 13011.5000    8.5000    9.1210   34.6392 -999.0000 -999.0000 -999.0000 -999.0000 -999.0000   10.9460   10.3050    9.0490   85.1240   -0.0270    0.1464    2.5120    5.7120   22.0000 
13012.0000 13012.0000    8.5000    9.1240   40.6711 -999.0000 -999.0000 -999.0000 -999.0000 -999.0000    8.9120    8.4420    7.4900   90.2580   -0.0260    0.1882    2.4710    5.3130   22.0000 
13012.5000 13012.5000    8.5000    9.1290   45.0289 -999.0000 -999.0000 -999.0000 -999.0000 -999.0000    7.9310    7.5580    6.8560   91.5610   -0.0190    0.2264    2.4710    4.8770   22.0000 
13013.0000 13013.0000    8.5000    9.1280   47.2207 -999.0000 -999.0000 -999.0000 -999.0000 -999.0000    7.4920    7.1760    6.7050   89.8320   -0.0140    0.2374    2.4890    4.5030   22.0000 
13013.5000 13013.5000    8.5000    9.1320   46.7075 -999.0000 -999.0000 -999.0000 -999.0000 -999.0000    7.4220    7.1280    6.8650   86.7780   -0.0120    0.2212    2.5070    4.2580   22.0000 
13014.0000 13014.0000    8.5000    9.1440   45.0388 -999.0000 -999.0000 -999.0000 -999.0000 -999.0000    7.5330    7.2360    7.1310   83.7410   -0.0100    0.2044    2.5270    4.1590   22.0000 
13014.5000 13014.5000    8.5000    9.1510   44.5416 -999.0000 -999.0000 -999.0000 -999.0000 -999.0000    7.6460    7.3260    7.3010   81.3880   -0.0080    0.1964    2.5430    4.1510   22.0000 
13015.0000 13015.0000    8.5000    9.1370   44.2068 -999.0000 -999.0000 -999.0000 -999.0000 -999.0000    7.6870    7.3330    7.2860   80.2970   -0.0080    0.1941    2.5500    4.1230   22.0000 
13015.5000 13015.5000    8.5000    9.1200   42.5770 -999.0000 -999.0000 -999.0000 -999.0000 -999.0000    7.4250    7.0430    6.8940   81.1010   -0.0100    0.1949    2.5480    4.0770   22.0000 
13016.0000 13016.0000    8.5000    9.1150   41.3237 -999.0000 -999.0000 -999.0000 -999.0000 -999.0000    6.5290    6.1560    5.9090   84.1470   -0.0110    0.1988    2.5450    4.0920   37.0000 
13016.5000 13016.5000    8.5000    9.1100   43.1678 -999.0000 -999.0000 -999.0000 -999.0000 -999.0000    5.3420    5.0070    4.7360   88.9070   -0.0120    0.2060    2.5380    4.1040   37.0000 
13017.0000 13017.0000    8.5000    9.1060   48.2339 -999.0000 -999.0000 -999.0000 -999.0000 -999.0000    4.6110    4.2960    4.0200   93.6450   -0.0130    0.2222    2.5220    3.9550   37.0000 
13017.5000 13017.5000    8.5000    9.1210   53.6077 -999.0000 -999.0000 -999.0000 -999.0000 -999.0000    4.5500    4.2160    3.9160   96.5520   -0.0120    0.2465    2.5050    3.6900   37.0000 
13018.0000 13018.0000    8.5000    9.1390   56.3216 -999.0000 -999.0000 -999.0000 -999.0000 -999.0000    5.1970    4.7950    4.4130   97.2000   -0.0080    0.2555    2.4990    3.5560   37.0000 
13018.5000 13018.5000    8.5000    9.1360   55.7204 -999.0000 -999.0000 -999.0000 -999.0000 -999.0000    6.5460    6.0210    5.4550   96.5740   -0.0050    0.2416    2.5010    3.6970   37.0000 
13019.0000 13019.0000    8.5000    9.1240   53.1660 -999.0000 -999.0000 -999.0000 -999.0000 -999.0000    7.6210    6.9970    6.2480   96.0140   -0.0050    0.2297    2.5000    3.9660   37.0000 
13019.5000 13019.5000    8.5000    9.1210   51.4355 -999.0000 -999.0000 -999.0000 -999.0000 -999.0000    7.1810    6.5950    5.8310   96.1100   -0.0080    0.2270    2.4920    4.0800   37.0000 
13020.0000 13020.0000    8.5000    9.1210   52.8289 -999.0000 -999.0000 -999.0000 -999.0000 -999.0000    6.0030    5.5240    4.8960   96.2170   -0.0130    0.2299    2.4810    3.9700   37.0000 
13020.5000 13020.5000    8.5000    9.1190   55.6058 -999.0000 -999.0000 -999.0000 -999.0000 -999.0000    5.3680    4.9560    4.4340   95.1870   -0.0160    0.2372    2.4750    3.7530   37.0000 
13021.0000 13021.0000    8.5000    9.1110   55.9816 -999.0000 -999.0000 -999.0000 -999.0000 -999.0000    5.4190    5.0190    4.5490   92.6450   -0.0190    0.2405    2.4770    3.4980   37.0000 
13021.5000 13021.5000    8.5000    9.1000   53.6586 -999.0000 -999.0000 -999.0000 -999.0000 -999.0000    6.0680    5.6320    5.1760   89.2300   -0.0200    0.2323    2.4850    3.2960   37.0000 
13022.0000 13022.0000    8.5000    9.0980   50.9243 -999.0000 -999.0000 -999.0000 -999.0000 -999.0000    7.1990    6.6740    6.1990   86.3940   -0.0200    0.2141    2.5070    3.3510   37.0000 
13022.5000 13022.5000    8.5000    9.1060   48.7256 -999.0000 -999.0000 -999.0000 -999.0000 -999.0000    8.1270    7.4980    6.9840   85.7880   -0.0160    0.1983    2.5420    3.7740   37.0000 
13023.0000 13023.0000    8.5000    9.1100   47.5683 -999.0000 -999.0000 -999.0000 -999.0000 -999.0000    8.0200    7.3300    6.7490   87.9860   -0.0120    0.1947    2.5640    4.1840   37.0000 
13023.5000 13023.5000    8.5000    9.1010   48.5088 -999.0000 -999.0000 -999.0000 -999.0000 -999.0000    7.5310    6.7960    6.0930   91.9710   -0.0120    0.2047    2.5550    4.1520   37.0000 
13024.0000 13024.0000    8.5000    9.0960   51.0348 -999.0000 -999.0000 -999.0000 -999.0000 -999.0000    7.7680    6.9090    5.9600   95.7240   -0.0110    0.2206    2.5260    3.9130   37.0000 
13024.5000 13024.5000    8.5000    9.1080   53.5426 -999.0000 -999.0000 -999.0000 -999.0000 -999.0000    8.7210    7.6470    6.3360   97.3060   -0.0100    0.2364    2.5000    3.7930   37.0000 
