~VERSION INFORMATION
 VERS.                 2.0:   CWLS LOG ASCII STANDARD - VERSION 2.0
 WRAP.                  NO:   SINGLE LINE PER DEPTH STEP
 CREA.                 08/02/2018 08:46:11
#CREATED USING DSPetro VERSION 5000.10.1.3 BY H191660 ON 08/02/2018 08:46:11
~WELL INFORMATION
#MNEM.UNIT       DATA                          DESCRIPTION MNEMONIC
#---------      ---------------------------   --------------------------
 STRT    .FT        12354.5289                : START DEPTH
 STOP    .FT        17894.2270                : STOP DEPTH
 STEP    .FT        1.6404                    : STEP VALUE
 NULL    .      -999.0000                     : NULL VALUE
 DATE    .      08/02/2018                    : LAS file Creation Date
 WELL .      UNIVERSITY_19-5             : Well Name
 COMP .      Neftex Exploration Insights : Company
 FLD  .      PHANTOM (WOLFCAMP)          : Field
 UWI  .      208                         : Unique Well Identifier (UWI)
 LOC  .                                  : Location
 RWS  .      -999                        : Def_Rw
 WST  .      -999                        : Def_Rwt
 SRVC .                                  : Contractor
~CURVE INFORMATION
#MNEM              UNIT       API CODE   Curve Type Comments
#----------  --------------- ----------  ---------- -----------
 DEPTH      .FT                        : Depth       
 DEPTH      .FT                        : Depth       
 BS         .inch                      : BitSize     
 CAL_INCH   .inch                      :             Caliper Log - A representation of the measured diameter of a borehole along its depth
 GR_API     .API                       : GammaRay    Gamma Ray (API) - Measures the intensity of natural gamma-ray radiation emitted from formations containing radioactive elements, such as K, Th and U
 SGR_API    .API                       : GammaRay    Spectral Gamma Ray - Total gamma calibrated to API, measured using a spectoral gamma array tool
 CGR_API    .API                       : GammaRay    Corrected / Computed Gamma Ray - Radiation with the Uranium component removed. Also known as a 'carbonate gamma ray'
 TH_PPM     .ppm                       : Spectral    Thorium Abundance (SGR) - The quantitative elemental abundace of Thorium derived from the Spectral Gamma Ray Log
 K_per        .PC                        :             Potassium Abundance (SGR) - The quantitative elemental abundace of Potassium derived from the Spectral Gamma Ray Log. Also wt_%
 U_PPM      .ppm                       :             Uranium Abundance (SGR) - The quantitative elemental abundace of Uranium derived from the Spectral Gamma Ray Log
 ThK        .PPM                       : Spectral    
 ThU        .PPM                       : Spectral    
 SRES       .ohmm                      :             10" array induction, two foot resistivity
 MRES       .ohm.m                     :             30" array induction, two foot resistivity
 DRES       .ohmm                      :             90" array induction, two foot resistivity log - units of ohmm
 DT_US_FT   .us/ft                     :             Interval Transit Time: Compressional Wave - Evaluates the time it takes for a compressional wave to traverse a fixed distance
 NPHI_RATIO .ratio                     :             Neutron Porosity - Measured with an neutron logging device calibrated to a given matrix (limestone, sandstone and dolomite)
 RHOB_G_CC  .g/cc                      :             Bulk Density - Measures the density of bulk material, including any void space or other materials contained in the subject volume
 DRHO_G_CC  .g/cc                      :             Density Correction - Investigates the correction to the Bulk Density log; used as an indication of hole condition to validate the Bulk Density measure
 PEF_B_E    .b/e-                      : PEF         Photoelectric Factor - A log of photoelectric absorption properties. Often expressed in an approximation unit barns/electron (b/e-)
 LITH       .                          : LITH        Lithology Curve
~A  DEPTH   DEPTH       BS     CAL_INCH   GR_API   SGR_API   CGR_API    TH_PPM     K_per      U_PPM      ThK       ThU       SRES      MRES      DRES    DT_US_FT NPHI_RAT~ RHOB_G_C~ DRHO_G_C~  PEF_B_E     LITH   
# ...
17092.0617 17092.0617    8.7500    8.7501   55.9198   80.5827   55.9198   10.9811    1.1900    3.6957    9.2278    2.9713    1.7300    1.6061    1.5797  100.9600    0.2780    2.5831    0.0098   10.6407   37.0000 
17093.7021 17093.7021    8.7500    8.7442   55.4311   82.0594   55.4311   10.8814    1.1800    3.9629    9.2215    2.7458    1.7870    1.6297    1.4968   95.5275    0.2612    2.5870    0.0096    9.1575   37.0000 
17095.3425 17095.3425    8.7500    8.7766   52.8630   82.3236   52.8630   10.3763    1.1200    4.4081    9.2646    2.3539    3.0649    3.0767    2.7230   84.9627    0.2397    2.5849    0.0065    9.6414   37.0000 
17096.9829 17096.9829    8.7500    8.7280   32.1982   51.9774   32.1982    6.5929    0.6400    2.8756   10.3014    2.2927    6.8340    7.0094    4.3661   78.1043    0.1328    2.5992    0.0046   11.2553   12.0000 
17098.6234 17098.6234    8.7500    8.5982   26.5525   46.0083   26.5525    5.0895    0.5800    2.7905    8.7750    1.8239    3.1396    3.8432    4.3904   92.2234    0.2772    2.6525    0.0018    8.6681   12.0000 
17100.2638 17100.2638    8.7500    8.7015   48.5532   86.8988   48.5532    9.4019    1.0500    5.5113    8.9542    1.7059    2.4903    2.6405    2.6137   98.6297    0.2127    2.5368   -0.0043   18.4654   37.0000 
17101.9042 17101.9042    8.7500    8.6515   49.5482   81.2543   49.5482    9.4854    1.0900    4.6455    8.7022    2.0418    2.3080    2.2773    2.3483   99.0642    0.2016    2.5791    0.0066   11.7514   37.0000 
17103.5446 17103.5446    8.7500    8.6529   50.7743   85.0011   50.7743   10.1329    1.0500    5.0197    9.6504    2.0186    1.8571    1.8447    1.9200  104.0107    0.2595    2.5507    0.0092   11.2482   37.0000 
17105.1850 17105.1850    8.7500    8.6099   56.3382   90.5666   56.3382   11.0885    1.1900    5.1451    9.3181    2.1552    1.6387    1.8646    2.4675   92.0590    0.2640    2.5269    0.0024    8.9042   37.0000 
17106.8255 17106.8255    8.7500    8.5708   53.8449   90.9466   53.8449   10.4081    1.1700    5.4249    8.8958    1.9186    2.9757    4.1033    4.5563   62.6358    0.2546    2.5272   -0.0058   10.2936   37.0000 
17108.4659 17108.4659    8.7500    8.5911   52.4584   86.3531   52.4584    9.9328    1.1800    5.0006    8.4176    1.9863    3.6193   17.5626   22.1969   96.3243    0.0737    2.6996    0.0119   10.2194   22.0000 
17110.1063 17110.1063    8.7500    8.6262   48.3361   77.7425   48.3361    9.0142    1.1100    4.3700    8.1209    2.0627    2.7621    2.6717    2.4474  101.8572    0.1555    2.5606   -0.0036   12.4668   22.0000 
17111.7467 17111.7467    8.7500    8.6264   63.9639  102.0233   63.9639   11.7533    1.4900    5.5385    7.8881    2.1221    1.9393    1.9654    1.9650  103.0655    0.3159    2.5471   -0.0155   11.1443   37.0000 
17113.3871 17113.3871    8.7500    8.6724   62.5178  104.4220   62.5178   11.7244    1.4200    6.1357    8.2566    1.9108    1.8254    1.8655    2.0612   97.5653    0.3017    2.5529   -0.0143   10.6043   37.0000 
17115.0276 17115.0276    8.7500    8.6470   63.9042  102.5884   63.9042   12.4805    1.3700    5.6221    9.1099    2.2199    1.7999    1.7963    1.9226   88.5826    0.2801    2.5741   -0.0056   15.3612   37.0000 
17116.6680 17116.6680    8.7500    8.7324   64.0604  103.5773   64.0604   12.1739    1.4300    5.7153    8.5132    2.1301    2.4947    2.2036    2.0389   86.7666    0.2404    2.5916   -0.0094   15.4493   37.0000 
17118.3084 17118.3084    8.7500    8.8582   63.3664  101.9065   63.3664   11.8598    1.4400    5.5762    8.2360    2.1269    1.9866    1.9732    1.9095  101.2920    0.3038    2.5738   -0.0097   10.9267   37.0000 
17119.9488 17119.9488    8.7500    8.9115   65.0031  103.0422   65.0031   12.5101    1.4200    5.6492    8.8099    2.2145    1.4754    1.5960    1.6365   99.0319    0.3072    2.5900   -0.0010   12.3063   37.0000 
17121.5892 17121.5892    8.7500    8.8442   65.5927  103.7449   65.5927   12.7918    1.4100    5.7651    9.0722    2.2188    1.8090    1.8156    1.9252   93.7716    0.2160    2.5853   -0.0068   12.7528   37.0000 
17123.2297 17123.2297    8.7500    8.6349   67.4324  104.0355   67.4324   13.5543    1.3800    5.6748    9.8220    2.3885    3.4971    3.3568    3.7464   83.7646    0.2375    2.6390    0.0070   20.9345   37.0000 
17124.8701 17124.8701    8.7500    8.7306   63.0215   98.8835   63.0215   12.5913    1.3000    5.5138    9.6856    2.2836    3.7045    3.8180    4.0674   64.5794    0.2396    2.7410    0.0134   30.3952   22.0000 
17126.5105 17126.5105    8.7500    8.7041   65.8584  101.2620   65.8584   13.5048    1.3000    5.5315   10.3883    2.4414    7.1507    7.9027    6.2553   56.7016    0.2379    2.7943    0.0215   30.7386   22.0000 
17128.1509 17128.1509    8.7500    8.7296   69.9353  106.1231   69.9353   13.7756    1.4800    5.5198    9.3078    2.4957    3.5103   10.3324   18.0888   93.4800    0.1210    2.7254    0.0101   21.9928   37.0000 
17129.7913 17129.7913    8.7500    8.7372   70.3121  104.5454   70.3121   13.8557    1.4800    5.2016    9.3620    2.6637    1.7456    1.8464    2.6092  102.3970    0.2546    2.5531   -0.0002   14.6263   37.0000 
17131.4318 17131.4318    8.7500    8.6853   70.6857  102.6288   70.6857   13.6503    1.5400    4.6861    8.8638    2.9129    1.6547    1.7386    1.8187   81.6755    0.2529    2.5271   -0.0019   11.5934   37.0000 
17133.0722 17133.0722    8.7500    8.6058   53.4351   79.8141   53.4351   10.4821    1.1400    3.7144    9.1948    2.8220    2.0099    2.0579    2.5718   65.0281    0.2561    2.5555    0.0052   11.0019   37.0000 
17134.7126 17134.7126    8.7500    8.6323   26.3868   41.4081   26.3868    5.7122    0.4700    2.1677   12.1536    2.6351    7.7129   11.0219    4.0725   59.3753    0.2535    2.7050    0.0068    9.9376   12.0000 
17136.3530 17136.3530    8.7500    8.6264   26.8408   43.0216   26.8408    6.1572    0.4200    2.2855   14.6600    2.6940    2.2955    4.2396    4.4662   67.5127    0.2495    2.6749    0.0050   11.5987   12.0000 
17137.9934 17137.9934    8.7500    8.6279   28.0793   44.7855   28.0793    5.6600    0.5700    2.5044    9.9298    2.2600    1.1492    1.5273    1.6253   87.8533    0.2613    2.6901    0.0119   11.9769   12.0000 
17139.6339 17139.6339    8.7500    8.6283   55.7148   94.7878   55.7148   10.9691    1.1800    5.6688    9.2958    1.9350    1.2405    1.8433    1.7758   81.9718    0.2602    2.5032    0.0038    6.8982   22.0000 
17141.2743 17141.2743    8.7500    8.5794   60.4495  105.0842   60.4495   12.0131    1.2600    6.5960    9.5342    1.8213    3.4281    3.5630    3.3922   64.4405    0.2525    2.5625    0.0067    9.3882   22.0000 
17142.9147 17142.9147    8.7500    8.6073   31.2277   57.1925   31.2277    6.7621    0.5500    3.7229   12.2947    1.8164   28.0934   17.0203   10.0318   65.8138    0.2536    2.6659    0.0025    8.4687   22.0000 
17144.5551 17144.5551    8.7500    8.6073   21.0990   38.5918   21.0990    5.1832    0.2700    2.4717   19.1970    2.0970   18.1250   14.7738   11.6504   68.3823    0.2563    2.6438   -0.0066    9.8317   22.0000 
17146.1955 17146.1955    8.7500    8.6325   30.3637   49.6166   30.3637    7.1774    0.4400    2.6626   16.3123    2.6956   10.5942    8.4335    5.1977   74.4985    0.2663    2.6749   -0.0037   10.0027   22.0000 
17147.8360 17147.8360    8.7500    8.6515   32.4244   47.7124   32.4244    7.4382    0.5000    2.1562   14.8764    3.4497    4.3229    3.0671    2.2625   79.0963    0.2592    2.6376    0.0022    9.8935   22.0000 
17149.4764 17149.4764    8.7500    8.6515   52.7335   76.3864   52.7335   11.1572    0.9800    3.4154   11.3849    3.2667    2.8022    1.9843    1.7301   77.7573    0.2553    2.6149    0.0037   10.1032   22.0000 
17151.1168 17151.1168    8.7500    8.6515   57.9352   83.0186   57.9352   12.3806    1.0600    3.7454   11.6798    3.3055    3.0149    2.2588    2.0823   74.8172    0.1981    2.6237    0.0169   10.5418   22.0000 
17152.7572 17152.7572    8.7500    8.6449   49.5262   69.6879   49.5262   10.1578    0.9800    3.0383   10.3651    3.3433    4.0945    4.0379    3.6682   73.4817    0.2184    2.6415    0.0066   12.4592   22.0000 
