~VERSION INFORMATION
 VERS.                 2.0:   CWLS LOG ASCII STANDARD - VERSION 2.0
 WRAP.                  NO:   SINGLE LINE PER DEPTH STEP
 CREA.                 08/02/2018 08:52:47
#CREATED USING DSPetro VERSION 5000.10.1.3 BY H191660 ON 08/02/2018 08:52:47
~WELL INFORMATION
#MNEM.UNIT       DATA                          DESCRIPTION MNEMONIC
#---------      ---------------------------   --------------------------
 STRT    .FT        12349.0092                : START DEPTH
 STOP    .FT        16985.0092                : STOP DEPTH
 STEP    .FT        0.5000                    : STEP VALUE
 NULL    .      -999.0000                     : NULL VALUE
 DATE    .      08/02/2018                    : LAS file Creation Date
 WELL  .      UNIVERSITY_19-6           : Well Name
 COMP  .      Anadarko Petroleum Corpor : Company
 FLD   .      LOVING                    : Field
 STATE .      TEXAS                     : State
 COUNT .      Texas                     : Country
 API   .      42301311860000            : API Number
 UWI   .      507                       : Unique Well Identifier (UWI)
 LOC   .      Onshore                   : Location
 TOWN  .      19                        : Township
 SCT   .      6                         : Section
 RANG  .      University Land           : Range
 LATI  .      3509001.74                : Latitude/Northing
 LONG  .      644715.32                 : Longitude/Easting
 PDAT  .      Ground Level              : Permanent Datum
 EPDAT .      2810                      : Reference Elevation
 LGMEA .      Kelly Bushing             : Log Measured from
 DRMEA .      Kelly Bushing             : Drill Measured From
 APDAT .      31                        : Elevation Above Permanent Datum
 KB    .      2841                      : KB Elevation
 DF    .      2840                      : DF Elevation
 GL    .      2810                      : GL Elevation
 RWS   .      0                         : Def_Rw
 WST   .      0                         : Def_Rwt
 UTMZ  .      13                        : UTM Zone
 BHS   .      OPEN                      : Completion Status
 CNTY  .      LOVING                    : County
 MDEC  .      0                         : Magnetic Declination
 SRVC  .      SCH                       : Contractor
~CURVE INFORMATION
#MNEM              UNIT       API CODE   Curve Type Comments
#----------  --------------- ----------  ---------- -----------
 DEPTH      .FT                        : Depth       
 DEPTH      .FT                        : Depth       
 BS         .IN                        : BitSize     Bit Size {F13.4}
 CAL        .IN                        :             
 HSGR       .GAPI                      :             
 HCGR       .GAPI                      :             
 TH         .PPM                       :             HNGS Formation Thorium Concentration {F13.4}
 U          .PPM                       :             HNGS Formation Uranium Concentration {F13.4}
 K          .CFCF                      :             HNGS Formation Potassium Concentration {F13.4}
 ThK        .PPM                       : Spectral    
 ThU        .PPM                       : Spectral    
 RSHALLOW   .OHMM                      :             12  RSHALLOW
 RMEDIUM    .OHMM                      :             13  Medium Resistivity
 RDEEP      .OHMM                      : DeepRes     14  Deep Resistivity
 DT         .US/F                      : Sonic       DT
 NPHI       .dec                       : Neutron     NPHI
 RHOB       .G/C3                      : Density     
 DRHO       .G/CC                      : Drho        
 PEF        .                          :             
 LITH       .                          : LITH        Lithology Curve
~A  DEPTH   DEPTH       BS       CAL       HSGR      HCGR       TH        U         K        ThK       ThU     RSHALLOW  RMEDIUM    RDEEP       DT       NPHI      RHOB      DRHO      PEF       LITH   
# ...
14189.0092 14189.0092    8.7500    9.5050  110.3229   95.4873   16.0825    2.8067    2.4800    6.4849    5.7300    3.7750    3.6950    3.5750   86.4710    0.1790    2.5650   -0.0030    9.8096   37.0000 
14189.5092 14189.5092    8.7500    9.5530  106.4120   93.2903   15.9302    2.5437    2.3900    6.6653    6.2626    3.6720    3.6390    3.6180   86.3760    0.1850    2.5734   -0.0117    6.5499   37.0000 
14190.0092 14190.0092    8.7500    9.5640  102.0206   88.3303   14.9240    2.5971    2.2900    6.5170    5.7464    3.7840    3.6050    3.7050   86.4270    0.1830    2.5783   -0.0029   11.6699   37.0000 
14190.5092 14190.5092    8.7500    9.4970  100.5462   85.8018   14.2703    2.7185    2.2600    6.3143    5.2494    3.6820    3.6420    3.7090   86.5380    0.1750    2.5801    0.0005    6.3605   37.0000 
14191.0092 14191.0092    8.7500    9.4060  102.8042   87.6905   14.5640    2.8102    2.3100    6.3048    5.1826    3.8530    3.8210    3.8610   86.5330    0.1660    2.5782    0.0026    5.6025   37.0000 
14191.5092 14191.5092    8.7500    9.3620  105.8770   90.6279   15.0912    2.8282    2.3800    6.3408    5.3360    3.8170    3.8410    3.8220   84.8150    0.1660    2.5776    0.0007    8.9139   37.0000 
14192.0092 14192.0092    8.7500    9.3550  109.8906   93.7395   15.1766    2.9035    2.5400    5.9751    5.2270    3.6880    3.8250    3.7090   84.3190    0.1710    2.5792   -0.0072    5.8482   37.0000 
14192.5092 14192.5092    8.7500    9.3630  110.1895   92.6428   14.7679    3.0632    2.5500    5.7913    4.8211    3.6640    3.8510    3.6320   85.0170    0.1790    2.5777   -0.0136    6.4033   37.0000 
14193.0092 14193.0092    8.7500    9.3770  107.9112   88.3217   14.0469    3.2535    2.4400    5.7569    4.3175    3.6900    3.8370    3.5720   86.0460    0.1870    2.5743   -0.0117    6.1148   37.0000 
14193.5092 14193.5092    8.7500    9.3810  105.3419   84.4389   13.4734    3.3766    2.3200    5.8075    3.9902    3.6700    3.8580    3.5590   87.7100    0.1870    2.5702   -0.0133    5.7793   37.0000 
14194.0092 14194.0092    8.7500    9.3810  105.1294   84.4358   13.4642    3.3226    2.3200    5.8035    4.0523    3.6760    3.8610    3.5910   87.8770    0.1890    2.5715   -0.0102    5.0389   37.0000 
14194.5092 14194.5092    8.7500    9.3820  105.2406   83.5684   13.1086    3.3875    2.3400    5.6020    3.8697    3.6370    3.8750    3.6590   87.2810    0.1890    2.5787   -0.0072    7.5314   37.0000 
14195.0092 14195.0092    8.7500    9.3790  103.7872   80.5166   12.4726    3.5385    2.2800    5.4704    3.5248    3.5920    3.8820    3.7650   86.7240    0.1880    2.5839   -0.0044    6.2105   37.0000 
14195.5092 14195.5092    8.7500    9.3970  101.6492   79.1972   12.3840    3.3698    2.2200    5.5784    3.6750    3.6860    3.9490    3.8740   83.4510    0.1820    2.5840   -0.0037    6.6578   37.0000 
14196.0092 14196.0092    8.7500    9.4200  100.0696   77.7902   12.1900    3.3242    2.1800    5.5917    3.6670    3.8020    4.0090    3.9720   82.6980    0.1780    2.5823   -0.0029    8.1626   37.0000 
14196.5092 14196.5092    8.7500    9.4230   98.1906   74.9942   11.7518    3.4462    2.1000    5.5961    3.4101    3.9050    4.1610    4.0800   82.4130    0.1750    2.5871   -0.0076    9.2527   37.0000 
14197.0092 14197.0092    8.7500    9.4250   97.0332   73.5104   11.5546    3.4645    2.0500    5.6364    3.3351    4.1240    4.2290    4.1740   80.9620    0.1760    2.5957   -0.0111   10.5461   37.0000 
14197.5092 14197.5092    8.7500    9.4240   95.8024   74.0487   12.0526    3.3188    1.9900    6.0566    3.6316    4.2900    4.3830    4.3100   82.7030    0.1720    2.6034   -0.0009    9.0681   37.0000 
14198.0092 14198.0092    8.7500    9.4200   96.2029   75.4291   12.3749    3.2354    2.0200    6.1262    3.8248    4.3520    4.3710    4.4800   80.2170    0.1690    2.6083   -0.0016    8.0947   37.0000 
14198.5092 14198.5092    8.7500    9.4270   96.0966   75.6916   12.4339    3.2375    2.0200    6.1554    3.8406    4.6140    4.6170    4.4960   78.4210    0.1660    2.6079    0.0006    9.4698   37.0000 
14199.0092 14199.0092    8.7500    9.4300   94.6790   74.7537   12.2871    3.1569    1.9900    6.1744    3.8921    5.3980    5.0120    4.8770   78.0810    0.1640    2.5959   -0.0022   11.0576   37.0000 
14199.5092 14199.5092    8.7500    9.4470   91.3467   71.4793   11.7301    3.1278    1.9100    6.1414    3.7503    6.1660    5.9860    5.4110   79.0590    0.1630    2.5856   -0.0119    7.1188   37.0000 
14200.0092 14200.0092    8.7500    9.4640   86.2649   67.5863   11.1339    2.9466    1.8000    6.1855    3.7786    7.5770    6.8080    6.9040   77.3670    0.1580    2.5812   -0.0083    7.8220   37.0000 
14200.5092 14200.5092    8.7500    9.3940   79.3501   62.4648   10.3504    2.6695    1.6500    6.2730    3.8773    8.8430    7.8610    9.0220   78.1420    0.1480    2.5935   -0.0038    9.9971   37.0000 
14201.0092 14201.0092    8.7500    9.2890   68.9252   53.7934    8.7219    2.4129    1.4500    6.0151    3.6147   12.5130   10.3120   12.8570   80.1100    0.1300    2.6182   -0.0036   12.7593   37.0000 
14201.5092 14201.5092    8.7500    9.1990   56.4544   43.7590    6.9916    2.0242    1.2000    5.8263    3.4540   23.3230   17.8670   19.5990   80.5700    0.1030    2.6520   -0.0094    8.4157   18.0000 
14202.0092 14202.0092    8.7500    9.1680   45.7140   35.4493    5.6854    1.6162    0.9700    5.8611    3.5177   28.2000   19.7430   23.5120   80.8510    0.0740    2.6845   -0.0164    6.4138   18.0000 
14202.5092 14202.5092    8.7500    9.1540   46.1266   34.7819    5.6278    1.7547    0.9400    5.9870    3.2073   17.3440   13.0320   11.5150   81.7060    0.0500    2.6949   -0.0118    6.0905   18.0000 
14203.0092 14203.0092    8.7500    9.1400   60.4267   44.0201    7.0303    2.4330    1.2100    5.8103    2.8896   11.2550    8.7720    9.1130   80.9970    0.0490    2.6797   -0.0110    7.1158   18.0000 
14203.5092 14203.5092    8.7500    9.1400   79.6668   57.5829    9.0707    3.2145    1.6000    5.6693    2.8218    8.3000    6.9970    7.0650   79.4520    0.0790    2.6353   -0.0075   11.5196   18.0000 
14204.0092 14204.0092    8.7500    9.1580   91.8784   67.0985   10.4026    3.6206    1.9000    5.4751    2.8732    7.0170    6.2120    6.6770   79.2700    0.1360    2.5952   -0.0090    7.9681   37.0000 
14204.5092 14204.5092    8.7500    9.2010   94.3066   69.5333   10.8146    3.6964    1.9600    5.5177    2.9257    6.6740    6.1460    5.9210   78.5590    0.1680    2.5814   -0.0060    7.6732   37.0000 
14205.0092 14205.0092    8.7500    9.2360   92.5818   68.2787   10.6469    3.6312    1.9200    5.5453    2.9321    6.4860    5.9630    5.7020   78.0920    0.1580    2.5865    0.0060    6.9445   37.0000 
14205.5092 14205.5092    8.7500    9.2530   89.2018   66.3709   10.2851    3.4112    1.8800    5.4708    3.0151    6.5060    5.8780    5.8580   78.1070    0.1460    2.5964    0.0081    6.4459   37.0000 
14206.0092 14206.0092    8.7500    9.2570   85.3011   63.3516    9.8062    3.2535    1.7900    5.4783    3.0140    6.5900    6.1500    6.4150   77.9100    0.1410    2.5991    0.0077    6.9097   37.0000 
14206.5092 14206.5092    8.7500    9.2550   81.7290   60.2090    9.4322    3.1188    1.6800    5.6144    3.0243    6.8990    6.4890    6.9540   77.8240    0.1360    2.6049   -0.0028    6.0833   37.0000 
14207.0092 14207.0092    8.7500    9.2570   80.4044   58.7664    9.2932    3.0951    1.6300    5.7013    3.0026    7.1250    6.9020    7.4140   76.7980    0.1310    2.6039   -0.0072    6.8688   37.0000 
14207.5092 14207.5092    8.7500    9.2560   79.4626   57.9832    9.2416    3.0610    1.6000    5.7760    3.0191    7.4910    7.4260    7.7780   72.7980    0.1300    2.5996   -0.0077    6.6028   37.0000 
14208.0092 14208.0092    8.7500    9.2510   77.8106   57.1504    9.1508    2.9796    1.5700    5.8285    3.0711    7.9200    7.7860    8.0010   67.9080    0.1270    2.6013   -0.0074    7.2145   37.0000 
14208.5092 14208.5092    8.7500    9.2540   78.1525   56.4613    9.0126    3.1316    1.5500    5.8146    2.8780    8.3860    8.2890    8.1030   68.0990    0.1240    2.5979   -0.0054    6.6896   37.0000 
