~VERSION INFORMATION
 VERS.                 2.0:   CWLS LOG ASCII STANDARD - VERSION 2.0
 WRAP.                  NO:   SINGLE LINE PER DEPTH STEP
 CREA.                 08/02/2018 08:52:47
#CREATED USING DSPetro VERSION 5000.10.1.3 BY H191660 ON 08/02/2018 08:52:47
~WELL INFORMATION
#MNEM.UNIT       DATA                          DESCRIPTION MNEMONIC
#---------      ---------------------------   --------------------------
 STRT    .FT        12349.0092                : START DEPTH
 STOP    .FT        16985.0092                : STOP DEPTH
 STEP    .FT        0.5000                    : STEP VALUE
 NULL    .      -999.0000                     : NULL VALUE
 DATE    .      08/02/2018                    : LAS file Creation Date
 WELL  .      UNIVERSITY_19-6           : Well Name
 COMP  .      Anadarko Petroleum Corpor : Company
 FLD   .      LOVING                    : Field
 STATE .      TEXAS                     : State
 COUNT .      Texas                     : Country
 API   .      42301311860000            : API Number
 UWI   .      507                       : Unique Well Identifier (UWI)
 LOC   .      Onshore                   : Location
 TOWN  .      19                        : Township
 SCT   .      6                         : Section
 RANG  .      University Land           : Range
 LATI  .      3509001.74                : Latitude/Northing
 LONG  .      644715.32                 : Longitude/Easting
 PDAT  .      Ground Level              : Permanent Datum
 EPDAT .      2810                      : Reference Elevation
 LGMEA .      Kelly Bushing             : Log Measured from
 DRMEA .      Kelly Bushing             : Drill Measured From
 APDAT .      31                        : Elevation Above Permanent Datum
 KB    .      2841                      : KB Elevation
 DF    .      2840                      : DF Elevation
 GL    .      2810                      : GL Elevation
 RWS   .      0                         : Def_Rw
 WST   .      0                         : Def_Rwt
 UTMZ  .      13                        : UTM Zone
 BHS   .      OPEN                      : Completion Status
 CNTY  .      LOVING                    : County
 MDEC  .      0                         : Magnetic Declination
 SRVC  .      SCH                       : Contractor
~CURVE INFORMATION
#MNEM              UNIT       API CODE   Curve Type Comments
#----------  --------------- ----------  ---------- -----------
 DEPTH      .FT                        : Depth       
 DEPTH      .FT                        : Depth       
 BS         .IN                        : BitSize     Bit Size {F13.4}
 CAL        .IN                        :             
 HSGR       .GAPI                      :             
 HCGR       .GAPI                      :             
 TH         .PPM                       :             HNGS Formation Thorium Concentration {F13.4}
 U          .PPM                       :             HNGS Formation Uranium Concentration {F13.4}
 K          .CFCF                      :             HNGS Formation Potassium Concentration {F13.4}
 ThK        .PPM                       : Spectral    
 ThU        .PPM                       : Spectral    
 RSHALLOW   .OHMM                      :             12  RSHALLOW
 RMEDIUM    .OHMM                      :             13  Medium Resistivity
 RDEEP      .OHMM                      : DeepRes     14  Deep Resistivity
 DT         .US/F                      : Sonic       DT
 NPHI       .dec                       : Neutron     NPHI
 RHOB       .G/C3                      : Density     
 DRHO       .G/CC                      : Drho        
 PEF        .                          :             
 LITH       .                          : LITH        Lithology Curve
~A  DEPTH   DEPTH       BS       CAL       HSGR      HCGR       TH        U         K        ThK       ThU     RSHALLOW  RMEDIUM    RDEEP       DT       NPHI      RHOB      DRHO      PEF       LITH   
# ...
16049.0092 16049.0092    8.7500    7.9450   88.5703   45.7149    7.4027    6.0579    1.2400    5.9699    1.2220   11.5990    8.6860    7.3830   89.0390    0.1730    2.4950   -0.0758   38.0928   37.0000 
16049.5092 16049.5092    8.7500    7.9660   95.5202   49.4283    8.0713    6.5074    1.3300    6.0686    1.2403   11.4770    8.7080    7.6530   90.6160    0.1580    2.4861   -0.0980   28.9585   37.0000 
16050.0092 16050.0092    8.7500    7.9400  101.0026   54.4410    8.9874    6.6262    1.4400    6.2413    1.3564   11.5600    8.4920    7.7080   87.8120    0.1550    2.4887   -0.1051   19.5318   37.0000 
16050.5092 16050.5092    8.7500    7.9090   97.6002   56.3862    9.5338    5.9674    1.4600    6.5300    1.5976   11.7160    8.7310    7.8440   87.3780    0.1620    2.5053   -0.0850   21.1391   37.0000 
16051.0092 16051.0092    8.7500    7.9320   88.1723   52.8612    9.2696    5.1121    1.3100    7.0760    1.8133   11.9900    9.0130    7.7330   84.4040    0.1730    2.5315   -0.0663   27.8798   37.0000 
16051.5092 16051.5092    8.7500    7.9740   78.9667   48.5320    8.7152    4.3853    1.1700    7.4489    1.9874   12.5880    9.1530    7.3920   82.4300    0.1690    2.5454   -0.0569   13.8363   37.0000 
16052.0092 16052.0092    8.7500    7.9560   77.0357   48.4842    8.8871    4.1050    1.1300    7.8647    2.1649   11.6820    8.6760    6.5280   82.7960    0.1510    2.5437   -0.0486   15.9688   37.0000 
16052.5092 16052.5092    8.7500    7.9350   80.5728   52.0336    9.6140    4.1334    1.2000    8.0117    2.3259   10.4450    7.7500    6.1380   83.7640    0.1350    2.5349   -0.0564   20.5916   37.0000 
16053.0092 16053.0092    8.7500    7.9360   86.7125   57.0723   10.8448    4.3293    1.2700    8.5393    2.5050    9.9070    7.2240    5.6370   88.7010    0.1370    2.5248   -0.0435   12.5916   37.0000 
16053.5092 16053.5092    8.7500    7.9600   91.8356   61.7215   11.7765    4.4685    1.3700    8.5961    2.6355    9.2020    6.9370    5.2810   92.1560    0.1490    2.5179   -0.0711   28.1467   37.0000 
16054.0092 16054.0092    8.7500    7.9520   96.8954   66.3254   12.4326    4.5837    1.5100    8.2335    2.7123    9.1070    6.5040    5.0940   93.0800    0.1680    2.5119   -0.0878   41.7118   37.0000 
16054.5092 16054.5092    8.7500    7.9190   98.2417   67.1672   12.5964    4.6497    1.5200    8.2871    2.7091    8.9420    6.2140    4.9650   92.4470    0.1830    2.5067   -0.0877   22.7835   37.0000 
16055.0092 16055.0092    8.7500    7.9160   93.8821   64.2709   12.1080    4.4395    1.4500    8.3503    2.7273    8.7060    6.1430    4.9780   90.4660    0.1900    2.5113   -0.0868   27.3121   37.0000 
16055.5092 16055.5092    8.7500    7.9600   86.9745   59.9936   11.3259    4.0307    1.3500    8.3896    2.8099    8.6420    6.0270    5.0400   87.7930    0.1830    2.5162   -0.0784   29.7932   37.0000 
16056.0092 16056.0092    8.7500    7.9770   81.6780   55.5959   10.1249    3.8191    1.3100    7.7289    2.6511    8.1070    5.9760    5.1590   87.0970    0.1710    2.5209   -0.0678   23.4360   37.0000 
16056.5092 16056.5092    8.7500    7.9820   81.1684   54.2952    9.6046    3.9439    1.3300    7.2215    2.4353    8.0330    5.7070    5.1030   86.7420    0.1680    2.5236   -0.0440   18.9258   37.0000 
16057.0092 16057.0092    8.7500    7.9780   82.6749   55.2883    9.7199    4.0646    1.3700    7.0948    2.3914    7.8280    5.4190    5.0200   86.2550    0.1720    2.5257   -0.0421   15.2354   37.0000 
16057.5092 16057.5092    8.7500    7.9780   84.4399   56.1938    9.7192    4.1700    1.4100    6.8931    2.3307    7.4420    5.2040    4.9750   89.4770    0.1790    2.5223   -0.0555   29.5350   37.0000 
16058.0092 16058.0092    8.7500    7.9830   87.0612   57.0136    9.6726    4.4122    1.4700    6.5800    2.1922    7.6680    5.2230    4.9770   90.0610    0.1850    2.5191   -0.0813   22.6658   37.0000 
16058.5092 16058.5092    8.7500    7.9860   91.1957   58.5459    9.5454    4.7657    1.5700    6.0799    2.0029    7.9370    5.2960    4.9420   90.0160    0.1860    2.5251   -0.0854   26.4695   37.0000 
16059.0092 16059.0092    8.7500    7.9820   94.9899   59.8754    9.6824    5.0650    1.6200    5.9768    1.9116    8.2780    5.3480    4.8370   90.6160    0.1860    2.5312   -0.0867   31.0785   37.0000 
16059.5092 16059.5092    8.7500    7.9800   96.4377   60.1881    9.8978    5.2047    1.6000    6.1861    1.9017    8.1940    5.1070    4.6810   92.5000    0.1840    2.5263   -0.0920   32.6034   37.0000 
16060.0092 16060.0092    8.7500    7.9770   96.4508   60.7689   10.2222    5.1396    1.5800    6.4697    1.9889    8.1570    4.9590    4.5460   92.8950    0.1840    2.5137   -0.0995   40.9523   37.0000 
16060.5092 16060.5092    8.7500    7.9790   96.8351   60.7269   10.3109    5.1950    1.5600    6.6095    1.9848    8.2910    4.9240    4.5550   94.3610    0.1890    2.5037   -0.1066   22.8209   37.0000 
16061.0092 16061.0092    8.7500    7.9780   97.4702   60.4363   10.1672    5.2813    1.5700    6.4759    1.9251    8.8800    5.1410    4.6150   93.7400    0.1950    2.5001   -0.0916   30.4770   37.0000 
16061.5092 16061.5092    8.7500    7.9780   96.1382   60.5246   10.2615    5.1151    1.5600    6.5779    2.0061    9.4070    5.2810    4.6760   93.8530    0.1990    2.4967   -0.0875   26.3281   37.0000 
16062.0092 16062.0092    8.7500    7.9790   93.7364   59.2101   10.0338    4.9555    1.5300    6.5580    2.0248    9.1000    5.1810    4.5810   92.4540    0.1980    2.4995   -0.0963   18.9069   37.0000 
16062.5092 16062.5092    8.7500    7.9770   92.4169   58.1534    9.7064    4.8879    1.5200    6.3858    1.9858    8.7420    5.0910    4.5840   94.0970    0.1900    2.5029   -0.1001   38.8852   37.0000 
16063.0092 16063.0092    8.7500    7.9790   92.9085   57.9933    9.6057    4.9520    1.5300    6.2782    1.9398    8.2720    4.9760    4.5100   94.6600    0.1820    2.5056   -0.0983   24.5791   37.0000 
16063.5092 16063.5092    8.7500    7.9830   96.8031   60.5923   10.0896    5.0961    1.5900    6.3457    1.9799    7.7620    4.7450    4.3010   96.5120    0.1810    2.5098   -0.0839   28.6768   37.0000 
16064.0092 16064.0092    8.7500    7.9860  101.5089   65.5181   11.0351    5.0808    1.7000    6.4913    2.1719    7.3640    4.6580    4.0800   97.0050    0.1870    2.5184   -0.0836   29.2919   37.0000 
16064.5092 16064.5092    8.7500    7.9890  107.5336   70.6399   11.7773    5.1945    1.8500    6.3661    2.2673    7.5810    4.6630    3.9240   97.0660    0.1940    2.5195   -0.0783   24.4738   37.0000 
16065.0092 16065.0092    8.7500    7.9880  112.5692   74.4252   12.3008    5.3158    1.9700    6.2441    2.3140    7.7500    4.5160    3.8520   95.6380    0.1980    2.5195   -0.0883   23.9618   37.0000 
16065.5092 16065.5092    8.7500    7.9940  115.5453   76.7069   12.5960    5.3377    2.0500    6.1444    2.3598    7.6800    4.8690    4.0710   93.8380    0.2000    2.5200   -0.0799   32.4094   37.0000 
16066.0092 16066.0092    8.7500    7.9960  111.0170   73.4146   12.0404    5.1189    1.9600    6.1431    2.3521    8.5380    5.1080    4.3790   91.8570    0.2020    2.5244   -0.0648   14.5368   37.0000 
16066.5092 16066.5092    8.7500    7.9920  101.3955   67.0135   11.1265    4.6803    1.7700    6.2861    2.3773    9.1230    5.5970    4.7030   90.2250    0.2110    2.5289   -0.0590   32.1296   37.0000 
16067.0092 16067.0092    8.7500    7.9880   89.2547   58.6814    9.8825    4.1132    1.5200    6.5016    2.4026    9.2040    5.4030    4.6590   87.5280    0.2140    2.5261   -0.0695   16.7915   37.0000 
16067.5092 16067.5092    8.7500    7.9880   80.9194   54.0475    9.1787    3.6198    1.3900    6.6034    2.5357    9.4000    5.1770    4.5440   86.3880    0.2060    2.5225   -0.0689   24.3940   37.0000 
16068.0092 16068.0092    8.7500    7.9890   76.5295   52.0399    8.9309    3.3145    1.3200    6.7658    2.6945    8.8350    4.7890    4.2380   86.2040    0.1900    2.5190   -0.0667   23.6519   37.0000 
16068.5092 16068.5092    8.7500    7.9880   78.8944   54.3001    9.3650    3.3886    1.3700    6.8358    2.7637    8.0440    4.4900    4.0130   86.4190    0.1770    2.5115   -0.0722   31.4129   37.0000 
