~VERSION INFORMATION
 VERS.                 2.0:   CWLS LOG ASCII STANDARD - VERSION 2.0
 WRAP.                  NO:   SINGLE LINE PER DEPTH STEP
 CREA.                 08/02/2018 08:46:35
#CREATED USING DSPetro VERSION 5000.10.1.3 BY H191660 ON 08/02/2018 08:46:35
~WELL INFORMATION
#MNEM.UNIT       DATA                          DESCRIPTION MNEMONIC
#---------      ---------------------------   --------------------------
 STRT    .FT        12311.0000                : START DEPTH
 STOP    .FT        17628.0000                : STOP DEPTH
 STEP    .FT        0.5000                    : STEP VALUE
 NULL    .      -999.0000                     : NULL VALUE
 DATE    .      08/02/2018                    : LAS file Creation Date
 WELL  .      UNIVERSITY_20_5                  : Well Name
 COMP  .      Neftex Exploration Insights      : Company
 FLD   .      HALEY (LWR. WOLFCAMP-PENN CONS.) : Field
 STATE .      TEXAS                            : State
 COUNT .      LOVING                           : Country
 API   .      42-301-31423                     : API Number
 UWI   .      212                              : Unique Well Identifier (UWI)
 LOC   .      1320' FNL & 1320' FWL            : Location
 PDAT  .      G.L.                             : Permanent Datum
 EPDAT .      2805                             : Reference Elevation
 LGMEA .      K.B.                             : Log Measured from
 DRMEA .      KELLY BUSHING                    : Drill Measured From
 APDAT .      30                               : Elevation Above Permanent Datum
 KB    .      2835                             : KB Elevation
 DF    .      2834                             : DF Elevation
 GL    .      2805                             : GL Elevation
 RWS   .      -999                             : Def_Rw
 WST   .      -999                             : Def_Rwt
 CNTY  .      LOVING                           : County
 SRVC  .      Baker Atlas                      : Contractor
~CURVE INFORMATION
#MNEM              UNIT       API CODE   Curve Type Comments
#----------  --------------- ----------  ---------- -----------
 DEPTH      .FT                        : Depth       
 DEPTH      .FT                        : Depth       
 BS         .inch                      : BitSize     
 CAL        .inch                      :             
 GR         .API                       : GammaRay    
 K          .%                         : Spectral    Potassium
 TH         .PPM                       : Spectral    Thorium
 U          .PPM                       : Spectral    Uranium
 Th/k       .PPM                       : Spectral    
 Th/U       .PPM                       : Spectral    
 RESD       .ohmm                      :             
 RESM       .ohmm                      :             
 RESS       .ohmm                      :             
 DT         .us/ft                     :             
 DRHO       .G/C3                      : Drho        
 NPHI       .dec                       : Neutron     
 RHOB       .G/C3                      : Density     
 PEF        .b/e-                      : PEF         
 LITH       .                          : LITH        Lithology Curve
~A  DEPTH   DEPTH       BS       CAL        GR        K         TH        U        Th/k      Th/U      RESD      RESM      RESS       DT       DRHO      NPHI      RHOB      PEF       LITH   
12311.0000 12311.0000   12.2500   10.2060   37.1537 -999.0000 -999.0000 -999.0000 -999.0000 -999.0000    3.4990    0.2020    5.6530   89.2680 -999.0000    0.2728 -999.0000 -999.0000   11.0000 
12311.5000 12311.5000   12.2500   10.4760   36.2638 -999.0000 -999.0000 -999.0000 -999.0000 -999.0000    3.2510    0.2020    4.0270   89.2240 -999.0000    0.2790 -999.0000 -999.0000   11.0000 
12312.0000 12312.0000   12.2500   10.9290   39.2482 -999.0000 -999.0000 -999.0000 -999.0000 -999.0000    2.9680    0.2020    3.3140   90.6810 -999.0000    0.2888 -999.0000 -999.0000   11.0000 
12312.5000 12312.5000   12.2500   11.5490   42.7234 -999.0000 -999.0000 -999.0000 -999.0000 -999.0000    2.7480    0.2020    3.0250   92.4860 -999.0000    0.2982 -999.0000 -999.0000   11.0000 
12313.0000 12313.0000   12.2500   12.1750   41.1314 -999.0000 -999.0000 -999.0000 -999.0000 -999.0000    2.6240    0.2020    2.9820   93.2580 -999.0000    0.3160 -999.0000 -999.0000   11.0000 
12313.5000 12313.5000   12.2500   12.5570   39.0165 -999.0000 -999.0000 -999.0000 -999.0000 -999.0000    2.6690    0.2020    3.1280   92.4260   -0.0820    0.3387    2.4380   12.6870   11.0000 
12314.0000 12314.0000   12.2500   12.6110   40.2978 -999.0000 -999.0000 -999.0000 -999.0000 -999.0000    2.9040    0.2020    3.4870   91.1030   -0.0880    0.3466    2.5110   12.8930   11.0000 
12314.5000 12314.5000   12.2500   12.4280   41.6959 -999.0000 -999.0000 -999.0000 -999.0000 -999.0000    3.4390    0.2020    4.1470   91.0040   -0.0780    0.3413    2.5560   13.0820   11.0000 
12315.0000 12315.0000   12.2500   12.0320   42.0675 -999.0000 -999.0000 -999.0000 -999.0000 -999.0000    4.2920    0.2020    5.1350   92.7240   -0.0680    0.3273    2.5640   13.3660   11.0000 
12315.5000 12315.5000   12.2500   11.4910   42.3001 -999.0000 -999.0000 -999.0000 -999.0000 -999.0000    5.3240    0.2020    6.1490   95.1240   -0.0730    0.3067    2.5380   13.7690   11.0000 
12316.0000 12316.0000   12.2500   11.0380   42.9933 -999.0000 -999.0000 -999.0000 -999.0000 -999.0000    6.3320    0.2020    7.0130   95.8780   -0.0880    0.2998    2.5040   14.0770   11.0000 
12316.5000 12316.5000   12.2500   10.6310   43.7523 -999.0000 -999.0000 -999.0000 -999.0000 -999.0000    7.7090    0.2020    8.1520   93.5140   -0.0920    0.3119    2.5080   13.2410   11.0000 
12317.0000 12317.0000   12.2500   10.1020   43.3040 -999.0000 -999.0000 -999.0000 -999.0000 -999.0000    9.1190    0.2020    9.3350   89.1540   -0.0720    0.3021    2.5520   10.2100   11.0000 
12317.5000 12317.5000   12.2500    9.6220   44.4627 -999.0000 -999.0000 -999.0000 -999.0000 -999.0000    8.9130    0.2020    8.8030   85.2110   -0.0440    0.2619    2.5810    6.8750   11.0000 
12318.0000 12318.0000   12.2500    9.4170   48.1619 -999.0000 -999.0000 -999.0000 -999.0000 -999.0000    6.8440    0.2020    6.6780   82.5790   -0.0240    0.2284    2.5670    5.1320   11.0000 
12318.5000 12318.5000   12.2500    9.3860   47.6457 -999.0000 -999.0000 -999.0000 -999.0000 -999.0000    5.2370    0.2020    5.1460   80.1360   -0.0160    0.2130    2.5440    4.5930   37.0000 
12319.0000 12319.0000   12.2500    9.3750   42.5394 -999.0000 -999.0000 -999.0000 -999.0000 -999.0000    4.8510    0.2020    4.8300   76.7470   -0.0160    0.2143    2.5440    4.4440   37.0000 
12319.5000 12319.5000   12.2500    9.3700   41.9422 -999.0000 -999.0000 -999.0000 -999.0000 -999.0000    5.4250    0.2020    5.4220   73.3240   -0.0180    0.2207    2.5830    4.3320   37.0000 
12320.0000 12320.0000   12.2500    9.3740   48.7615 -999.0000 -999.0000 -999.0000 -999.0000 -999.0000    5.5440    0.2020    5.5720   72.7460   -0.0160    0.2143    2.6580    4.5190   37.0000 
12320.5000 12320.5000   12.2500    9.3780   55.9523 -999.0000 -999.0000 -999.0000 -999.0000 -999.0000    4.3270    0.2020    4.3610   76.4920   -0.0130    0.2008    2.7190    5.0080   37.0000 
12321.0000 12321.0000   12.2500    9.3750   57.8684 -999.0000 -999.0000 -999.0000 -999.0000 -999.0000    3.1540    0.2020    3.2040   81.9880   -0.0180    0.2056    2.6970    5.0800   37.0000 
12321.5000 12321.5000   12.2500    9.3730   55.5395 -999.0000 -999.0000 -999.0000 -999.0000 -999.0000    2.7890    0.2020    2.8400   84.8960   -0.0260    0.2329    2.6240    4.8340   37.0000 
12322.0000 12322.0000   12.2500    9.3760   54.7120 -999.0000 -999.0000 -999.0000 -999.0000 -999.0000    3.0680    3.0390    3.1380   83.3280   -0.0270    0.2508    2.5800    4.7560   37.0000 
12322.5000 12322.5000   12.2500    9.3780   59.5104 -999.0000 -999.0000 -999.0000 -999.0000 -999.0000    4.0260    3.9380    4.0830   79.5790   -0.0250    0.2432    2.5900    5.0380   37.0000 
12323.0000 12323.0000   12.2500    9.3870   61.4417 -999.0000 -999.0000 -999.0000 -999.0000 -999.0000    5.0750    4.8930    5.0070   77.9730   -0.0220    0.2332    2.6340    5.5380   37.0000 
12323.5000 12323.5000   12.2500    9.3990   58.8331 -999.0000 -999.0000 -999.0000 -999.0000 -999.0000    5.3220    5.0690    5.0300   80.7050   -0.0200    0.2244    2.6590    5.5990   37.0000 
12324.0000 12324.0000   12.2500    9.3940   58.7809 -999.0000 -999.0000 -999.0000 -999.0000 -999.0000    5.4000    5.0440    4.7890   85.8510   -0.0220    0.2235    2.6180    5.0170   37.0000 
12324.5000 12324.5000   12.2500    9.3730   59.4965 -999.0000 -999.0000 -999.0000 -999.0000 -999.0000    6.1970    5.6540    5.0610   89.6920   -0.0260    0.2442    2.5380    4.3730   37.0000 
12325.0000 12325.0000   12.2500    9.3610   58.8584 -999.0000 -999.0000 -999.0000 -999.0000 -999.0000    7.8810    7.0000    5.8810   90.1840   -0.0270    0.2642    2.4750    3.9360   37.0000 
12325.5000 12325.5000   12.2500    9.3660   59.8776 -999.0000 -999.0000 -999.0000 -999.0000 -999.0000   10.2850    8.8700    7.0900   87.9110   -0.0230    0.2470    2.4530    3.6780   37.0000 
12326.0000 12326.0000   12.2500    9.3820   68.6886 -999.0000 -999.0000 -999.0000 -999.0000 -999.0000   13.0230   10.8880    8.5400   85.0560   -0.0180    0.2229    2.4610    3.6270   37.0000 
12326.5000 12326.5000   12.2500    9.3950   86.8411 -999.0000 -999.0000 -999.0000 -999.0000 -999.0000   15.8080   12.8120   10.2770   83.4980   -0.0140    0.2130    2.4750    3.7300   37.0000 
12327.0000 12327.0000   12.2500    9.3890  100.3959 -999.0000 -999.0000 -999.0000 -999.0000 -999.0000   18.3310   14.3940   12.2360   83.6470   -0.0120    0.2085    2.4820    3.7840   37.0000 
12327.5000 12327.5000   12.2500    9.3690   94.3208 -999.0000 -999.0000 -999.0000 -999.0000 -999.0000   19.7240   15.0310   13.8560   84.9550   -0.0120    0.2059    2.4790    3.6990   37.0000 
12328.0000 12328.0000   12.2500    9.3600   73.1742 -999.0000 -999.0000 -999.0000 -999.0000 -999.0000   19.7840   14.6050   14.6420   86.4880   -0.0130    0.2117    2.4730    3.5840   37.0000 
12328.5000 12328.5000   12.2500    9.3720   54.8734 -999.0000 -999.0000 -999.0000 -999.0000 -999.0000   19.4040   13.8680   15.0520   87.2830   -0.0140    0.2233    2.4690    3.5260   22.0000 
12329.0000 12329.0000   12.2500    9.3910   45.7550 -999.0000 -999.0000 -999.0000 -999.0000 -999.0000   19.3610   13.3900   15.4420   86.9030   -0.0130    0.2287    2.4710    3.5120   22.0000 
12329.5000 12329.5000   12.2500    9.4040   54.8079 -999.0000 -999.0000 -999.0000 -999.0000 -999.0000   19.1460   12.8640   15.4970   85.6680   -0.0120    0.2218    2.4780    3.5080   22.0000 
12330.0000 12330.0000   12.2500    9.4060   63.2596 -999.0000 -999.0000 -999.0000 -999.0000 -999.0000   18.8940   12.3400   15.2060   84.3480   -0.0110    0.2140    2.4950    3.6050   22.0000 
12330.5000 12330.5000   12.2500    9.4000   58.7622 -999.0000 -999.0000 -999.0000 -999.0000 -999.0000   19.1490   12.1600   15.1240   83.5830   -0.0090    0.2167    2.5200    3.9320   22.0000 
12331.0000 12331.0000   12.2500    9.3930   51.8403 -999.0000 -999.0000 -999.0000 -999.0000 -999.0000   20.2910   12.4420   15.3950   83.4670   -0.0080    0.2199    2.5380    4.2740   22.0000 
12331.5000 12331.5000    8.5000    9.3980   57.4544 -999.0000 -999.0000 -999.0000 -999.0000 -999.0000   21.7590   12.9250   15.6830   83.5750   -0.0100    0.2128    2.5330    4.2530   22.0000 
