~VERSION INFORMATION
 VERS.                 2.0:   CWLS LOG ASCII STANDARD - VERSION 2.0
 WRAP.                  NO:   SINGLE LINE PER DEPTH STEP
 CREA.                 08/02/2018 08:46:11
#CREATED USING DSPetro VERSION 5000.10.1.3 BY H191660 ON 08/02/2018 08:46:11
~WELL INFORMATION
#MNEM.UNIT       DATA                          DESCRIPTION MNEMONIC
#---------      ---------------------------   --------------------------
 STRT    .FT        12354.5289                : START DEPTH
 STOP    .FT        17894.2270                : STOP DEPTH
 STEP    .FT        1.6404                    : STEP VALUE
 NULL    .      -999.0000                     : NULL VALUE
 DATE    .      08/02/2018                    : LAS file Creation Date
 WELL .      UNIVERSITY_19-5             : Well Name
 COMP .      Neftex Exploration Insights : Company
 FLD  .      PHANTOM (WOLFCAMP)          : Field
 UWI  .      208                         : Unique Well Identifier (UWI)
 LOC  .                                  : Location
 RWS  .      -999                        : Def_Rw
 WST  .      -999                        : Def_Rwt
 SRVC .                                  : Contractor
~CURVE INFORMATION
#MNEM              UNIT       API CODE   Curve Type Comments
#----------  --------------- ----------  ---------- -----------
 DEPTH      .FT                        : Depth       
 DEPTH      .FT                        : Depth       
 BS         .inch                      : BitSize     
 CAL_INCH   .inch                      :             Caliper Log - A representation of the measured diameter of a borehole along its depth
 GR_API     .API                       : GammaRay    Gamma Ray (API) - Measures the intensity of natural gamma-ray radiation emitted from formations containing radioactive elements, such as K, Th and U
 SGR_API    .API                       : GammaRay    Spectral Gamma Ray - Total gamma calibrated to API, measured using a spectoral gamma array tool
 CGR_API    .API                       : GammaRay    Corrected / Computed Gamma Ray - Radiation with the Uranium component removed. Also known as a 'carbonate gamma ray'
 TH_PPM     .ppm                       : Spectral    Thorium Abundance (SGR) - The quantitative elemental abundace of Thorium derived from the Spectral Gamma Ray Log
 K_per        .PC                        :             Potassium Abundance (SGR) - The quantitative elemental abundace of Potassium derived from the Spectral Gamma Ray Log. Also wt_%
 U_PPM      .ppm                       :             Uranium Abundance (SGR) - The quantitative elemental abundace of Uranium derived from the Spectral Gamma Ray Log
 ThK        .PPM                       : Spectral    
 ThU        .PPM                       : Spectral    
 SRES       .ohmm                      :             10" array induction, two foot resistivity
 MRES       .ohm.m                     :             30" array induction, two foot resistivity
 DRES       .ohmm                      :             90" array induction, two foot resistivity log - units of ohmm
 DT_US_FT   .us/ft                     :             Interval Transit Time: Compressional Wave - Evaluates the time it takes for a compressional wave to traverse a fixed distance
 NPHI_RATIO .ratio                     :             Neutron Porosity - Measured with an neutron logging device calibrated to a given matrix (limestone, sandstone and dolomite)
 RHOB_G_CC  .g/cc                      :             Bulk Density - Measures the density of bulk material, including any void space or other materials contained in the subject volume
 DRHO_G_CC  .g/cc                      :             Density Correction - Investigates the correction to the Bulk Density log; used as an indication of hole condition to validate the Bulk Density measure
 PEF_B_E    .b/e-                      : PEF         Photoelectric Factor - A log of photoelectric absorption properties. Often expressed in an approximation unit barns/electron (b/e-)
 LITH       .                          : LITH        Lithology Curve
~A  DEPTH   DEPTH       BS     CAL_INCH   GR_API   SGR_API   CGR_API    TH_PPM     K_per      U_PPM      ThK       ThU       SRES      MRES      DRES    DT_US_FT NPHI_RAT~ RHOB_G_C~ DRHO_G_C~  PEF_B_E     LITH   
# ...
17840.0932 17840.0932    8.7500    8.6239   80.9718  108.6143   80.9718   19.7261    1.0600    4.5266   18.6095    4.3578    2.3304    2.2377    2.2673   95.7794    0.3145    2.6768    0.0073   15.2739   37.0000 
17841.7336 17841.7336    8.7500    8.5712   85.3176  114.7316   85.3176   21.0675    1.0700    4.8894   19.6893    4.3088    2.1607    2.0657    2.0790   98.3530    0.3260    2.5816   -0.0025   13.9937   37.0000 
17843.3740 17843.3740    8.7500    8.5759   80.7054  110.1144   80.7054   20.1225    0.9800    5.1030   20.5332    3.9433    1.9895    1.9469    1.9497   94.7957    0.3311    2.5959   -0.0012   11.0944   37.0000 
17845.0144 17845.0144    8.7500    8.6428   84.4580  115.2005   84.4580   20.9254    1.0500    5.2302   19.9290    4.0009    1.9926    1.9677    1.9903   94.6140    0.3173    2.6395    0.0106   18.0521   37.0000 
17846.6549 17846.6549    8.7500    8.6743   86.0583  117.6717   86.0583   20.9798    1.1300    5.2748   18.5662    3.9774    2.0088    1.9670    2.0040   95.7254    0.3198    2.6074    0.0120   16.2210   37.0000 
17848.2953 17848.2953    8.7500    8.6167   85.0855  116.7930   85.0855   20.0872    1.2300    5.0690   16.3311    3.9628    1.9170    1.8707    1.8852   92.9234    0.3151    2.6045    0.0098    9.1998   37.0000 
17849.9357 17849.9357    8.7500    8.6251   79.8152  114.6324   79.8152   18.5958    1.1900    5.6786   15.6267    3.2747    1.9652    1.9433    1.9555   94.2658    0.3225    2.6132    0.0112   10.4826   37.0000 
17851.5761 17851.5761    8.7500    8.6251   83.0768  118.7753   83.0768   19.6330    1.1900    5.8531   16.4983    3.3543    1.9935    1.9763    1.9026   93.8661    0.3162    2.6174    0.0047   10.8566   37.0000 
17853.2165 17853.2165    8.7500    8.6491   82.9797  118.0488   82.9797   20.2689    1.0800    5.8392   18.7675    3.4712    1.8838    1.8799    1.8615   92.0437    0.3249    2.6080   -0.0003    9.9550   37.0000 
17854.8570 17854.8570    8.7500    8.6478   78.0931  114.2091   78.0931   19.3873    0.9600    5.8576   20.1951    3.3098    1.7004    1.6996    1.6696   91.7655    0.3448    2.5842   -0.0080    8.8929   37.0000 
17856.4974 17856.4974    8.7500    8.6629   78.8846  116.7659   78.8846   19.5567    0.9800    5.9083   19.9558    3.3100    1.7151    1.7373    1.7657   98.0801    0.3320    2.6040    0.0022    9.8381   37.0000 
17858.1378 17858.1378    8.7500    8.7071   80.1570  118.8322   80.1570   20.0565    0.9600    6.0340   20.8922    3.3239    1.8821    1.8860    1.8777   96.8420    0.3182    2.6404    0.0052   12.8816   37.0000 
17859.7782 17859.7782    8.7500    8.7307   79.6316  118.7453   79.6316   19.5001    1.0300    6.1491   18.9321    3.1712    1.9319    1.9130    1.9428   91.5605    0.3087    2.5839    0.0060   11.1737   37.0000 
17861.4186 17861.4186    8.7500    8.6503   74.9222  117.0769   74.9222   18.1969    0.9900    6.6619   18.3807    2.7315    1.9548    1.9298    1.9442   93.0341    0.3016    2.6314    0.0088   10.6340   37.0000 
17863.0591 17863.0591    8.7500    8.6465   82.7353  124.7486   82.7353   20.1519    1.0900    7.0076   18.4880    2.8757    1.9085    1.9131    1.9310   94.1402    0.2990    2.6360    0.0048    9.0148   37.0000 
17864.6995 17864.6995    8.7500    8.6302   82.0761  121.9364   82.0761   19.7861    1.1100    6.9411   17.8253    2.8506    1.8575    1.8590    1.8958   91.6577    0.2869    2.6188   -0.0097    8.5427   37.0000 
17866.3399 17866.3399    8.7500    8.5595   90.0301  124.1385   90.0301   21.1158    1.3200    6.4502   15.9968    3.2737    1.8014    1.7646    1.7953   96.0807    0.2895    2.6354   -0.0054   11.2083   37.0000 
17867.9803 17867.9803    8.7500    8.5923   90.8302  124.1531   90.8302   20.8632    1.4100    6.3202   14.7966    3.3010    1.8466    1.8164    1.8638   96.0768    0.2952    2.6888    0.0094   12.1103   37.0000 
17869.6207 17869.6207    8.7500    8.5895   91.1576  124.1874   91.1576   20.9079    1.4200    6.2992   14.7239    3.3191    1.8763    1.8565    1.9150   94.4608    0.2856    2.6352    0.0044    9.7812   37.0000 
17871.2612 17871.2612    8.7500    8.6213   91.3725  124.4803   91.3725   20.9573    1.4200    6.3141   14.7587    3.3191    1.8929    1.8780    1.9218   93.9914    0.2987    2.6270   -0.0003   11.3164   37.0000 
17872.9016 17872.9016    8.7500    8.6178   91.3811  124.4920   91.3811   20.9595    1.4200    6.3148   14.7602    3.3191    1.8548    1.8826    1.8520   93.8143    0.3053    2.6365   -0.0012   10.1002   37.0000 
17874.5420 17874.5420    8.7500    8.6910   91.5703  124.7497   91.5703   21.0031    1.4200    6.3279   14.7909    3.3191    1.7903    1.7588    1.7270   94.3529    0.2962    2.5975   -0.0022    9.1947   37.0000 
17876.1824 17876.1824    8.7500    8.7287   91.9351  125.2467   91.9351   21.0870    1.4300    6.3532   14.7462    3.3191    1.7025    1.7281    1.8043   97.8936    0.2834    2.6414    0.0015   12.9513   37.0000 
17877.8228 17877.8228    8.7500    8.7298   91.9216  125.2283   91.9216   21.0839    1.4300    6.3522   14.7440    3.3191    1.6725    1.6708    1.7019   99.3758    0.2876    2.6389    0.0041    9.4186   37.0000 
17879.4633 17879.4633    8.7500    8.7184   91.7587  125.0063   91.7587   21.0464    1.4300    6.3409   14.7178    3.3192    1.5854    1.5640    1.6220   98.1731    0.2938    2.6347    0.0030   14.4984   37.0000 
17881.1037 17881.1037    8.7500    8.6024   91.3920  124.5068   91.3920   20.9620    1.4200    6.3155   14.7620    3.3191    1.5692    1.5602    1.6615   97.3470    0.2980    2.6145    0.0019   10.1515   37.0000 
17882.7441 17882.7441    8.7500    8.5999   91.1383  124.1612   91.1383   20.9033    1.4200    6.2978   14.7206    3.3191    1.5324    1.4994    1.5427   96.8185    0.2808    2.6006    0.0125   11.5384   37.0000 
17884.3845 17884.3845    8.7500    8.4546   90.4815  123.2663   90.4815   20.7523    1.4100    6.2523   14.7179    3.3191    1.4860    1.4615    1.4695   96.8845    0.2613    2.5956    0.0020   12.4148   37.0000 
17886.0249 17886.0249    8.7500    8.4545   90.4813  123.2661   90.4813   20.7520    1.4100    6.2522   14.7177    3.3192    1.4104    1.4456    1.4158   96.9391    0.2602    2.5979   -0.0083   10.7214   37.0000 
17887.6654 17887.6654    8.7500    8.4534   90.4834  123.2690   90.4834   20.7525    1.4100    6.2524   14.7181    3.3191    1.4558    1.5214    1.5317   96.9275    0.2589    2.6109    0.0016   12.2339   37.0000 
17889.3058 17889.3058    8.7500    8.4560   90.4835  123.2692   90.4835   20.7525    1.4100    6.2524   14.7181    3.3191    1.7792    1.9350    2.3049   96.9414    0.2588    2.6056   -0.0053   11.0686   37.0000 
17890.9462 17890.9462    8.7500    8.4549   90.4841  123.2700   90.4841   20.7526    1.4100    6.2524   14.7182    3.3191    2.0311    2.8018    4.6098   96.9580    0.2588    2.6033   -0.0079   11.6230   37.0000 
17892.5866 17892.5866    8.7500    8.4549   90.4846  123.2705   90.4846   20.7527    1.4100    6.2525   14.7182    3.3191    1.6732    1.8551    2.0039   97.2625    0.2588    2.5903   -0.0080   11.3075   37.0000 
17894.2270 17894.2270    8.7500    8.4564   90.4823  123.2675   90.4823   20.7522    1.4100    6.2523   14.7179    3.3191    1.8181    1.7593    1.7173   97.2882    0.2588    2.5935   -0.0091   12.1305   37.0000 
