~VERSION INFORMATION
 VERS.                 2.0:   CWLS LOG ASCII STANDARD - VERSION 2.0
 WRAP.                  NO:   SINGLE LINE PER DEPTH STEP
 CREA.                 08/02/2018 08:46:11
#CREATED USING DSPetro VERSION 5000.10.1.3 BY H191660 ON 08/02/2018 08:46:11
~WELL INFORMATION
#MNEM.UNIT       DATA                          DESCRIPTION MNEMONIC
#---------      ---------------------------   --------------------------
 STRT    .FT        12354.5289                : START DEPTH
 STOP    .FT        17894.2270                : STOP DEPTH
 STEP    .FT        1.6404                    : STEP VALUE
 NULL    .      -999.0000                     : NULL VALUE
 DATE    .      08/02/2018                    : LAS file Creation Date
 WELL .      UNIVERSITY_19-5             : Well Name
 COMP .      Neftex Exploration Insights : Company
 FLD  .      PHANTOM (WOLFCAMP)          : Field
 UWI  .      208                         : Unique Well Identifier (UWI)
 LOC  .                                  : Location
 RWS  .      -999                        : Def_Rw
 WST  .      -999                        : Def_Rwt
 SRVC .                                  : Contractor
~CURVE INFORMATION
#MNEM              UNIT       API CODE   Curve Type Comments
#----------  --------------- ----------  ---------- -----------
 DEPTH      .FT                        : Depth       
 DEPTH      .FT                        : Depth       
 BS         .inch                      : BitSize     
 CAL_INCH   .inch                      :             Caliper Log - A representation of the measured diameter of a borehole along its depth
 GR_API     .API                       : GammaRay    Gamma Ray (API) - Measures the intensity of natural gamma-ray radiation emitted from formations containing radioactive elements, such as K, Th and U
 SGR_API    .API                       : GammaRay    Spectral Gamma Ray - Total gamma calibrated to API, measured using a spectoral gamma array tool
 CGR_API    .API                       : GammaRay    Corrected / Computed Gamma Ray - Radiation with the Uranium component removed. Also known as a 'carbonate gamma ray'
 TH_PPM     .ppm                       : Spectral    Thorium Abundance (SGR) - The quantitative elemental abundace of Thorium derived from the Spectral Gamma Ray Log
 K_per        .PC                        :             Potassium Abundance (SGR) - The quantitative elemental abundace of Potassium derived from the Spectral Gamma Ray Log. Also wt_%
 U_PPM      .ppm                       :             Uranium Abundance (SGR) - The quantitative elemental abundace of Uranium derived from the Spectral Gamma Ray Log
 ThK        .PPM                       : Spectral    
 ThU        .PPM                       : Spectral    
 SRES       .ohmm                      :             10" array induction, two foot resistivity
 MRES       .ohm.m                     :             30" array induction, two foot resistivity
 DRES       .ohmm                      :             90" array induction, two foot resistivity log - units of ohmm
 DT_US_FT   .us/ft                     :             Interval Transit Time: Compressional Wave - Evaluates the time it takes for a compressional wave to traverse a fixed distance
 NPHI_RATIO .ratio                     :             Neutron Porosity - Measured with an neutron logging device calibrated to a given matrix (limestone, sandstone and dolomite)
 RHOB_G_CC  .g/cc                      :             Bulk Density - Measures the density of bulk material, including any void space or other materials contained in the subject volume
 DRHO_G_CC  .g/cc                      :             Density Correction - Investigates the correction to the Bulk Density log; used as an indication of hole condition to validate the Bulk Density measure
 PEF_B_E    .b/e-                      : PEF         Photoelectric Factor - A log of photoelectric absorption properties. Often expressed in an approximation unit barns/electron (b/e-)
 LITH       .                          : LITH        Lithology Curve
~A  DEPTH   DEPTH       BS     CAL_INCH   GR_API   SGR_API   CGR_API    TH_PPM     K_per      U_PPM      ThK       ThU       SRES      MRES      DRES    DT_US_FT NPHI_RAT~ RHOB_G_C~ DRHO_G_C~  PEF_B_E     LITH   
# ...
14162.2717 14162.2717    8.7500    8.7537   78.7409   95.2019   78.7409   13.2802    2.0400    2.6566    6.5099    4.9989    4.4634    4.5277    4.0559   88.9920    0.2277    2.6060   -0.0003    6.8785   37.0000 
14163.9121 14163.9121    8.7500    8.7537   79.7819   98.1816   79.7819   13.0116    2.1500    2.7618    6.0519    4.7113    3.7968    3.7047    3.7574   88.8160    0.2181    2.6070    0.0030    7.7530   37.0000 
14165.5525 14165.5525    8.7500    8.7523   77.5908   97.1747   77.5908   12.7095    2.0800    2.9412    6.1103    4.3212    4.1110    4.0504    4.0091   83.5298    0.2009    2.5830    0.0047    8.9263   37.0000 
14167.1929 14167.1929    8.7500    8.7552   86.5110  104.3200   86.5110   13.7850    2.3800    3.0005    5.7920    4.5942    4.2288    4.0565    3.8414   80.1339    0.2236    2.6097   -0.0031    7.9005   37.0000 
14168.8333 14168.8333    8.7500    8.7405   75.4235   90.1912   75.4235   12.0190    2.0800    2.7290    5.7784    4.4042    6.3704    5.8190    5.7926   85.7345    0.2102    2.6167    0.0034    8.7679   37.0000 
14170.4738 14170.4738    8.7500    8.7817   77.4246   94.1610   77.4246   12.0561    2.1800    3.0442    5.5303    3.9604    5.0718    4.7470    5.2309   87.8939    0.2006    2.5948    0.0080    9.4825   37.0000 
14172.1142 14172.1142    8.7500    8.7806   83.8271  101.2360   83.8271   12.9313    2.3800    2.9724    5.4333    4.3505    5.0785    4.9334    5.0153   87.2240    0.2201    2.5969    0.0070    8.8411   37.0000 
14173.7546 14173.7546    8.7500    8.7831   81.4783   99.0667   81.4783   12.2753    2.3600    2.9618    5.2014    4.1445    4.7350    4.1958    3.7769   81.2550    0.1966    2.5655   -0.0025    7.3024   37.0000 
14175.3950 14175.3950    8.7500    8.7787   77.3045   95.8526   77.3045   11.8121    2.2200    3.0389    5.3208    3.8870    5.2982    4.4812    4.2339   73.7295    0.2263    2.6369    0.0060    8.6805   37.0000 
14177.0354 14177.0354    8.7500    8.8107   73.7410   91.2122   73.7410   11.3457    2.1000    2.9120    5.4027    3.8962    6.4254    5.7055    5.5777   80.3982    0.2255    2.6102    0.0003    9.3097   37.0000 
14178.6759 14178.6759    8.7500    8.8126   64.1175   79.3853   64.1175   10.0805    1.7900    2.6063    5.6316    3.8677    6.7699    6.4076    5.8926   86.5771    0.2274    2.5946   -0.0005    9.1625   22.0000 
14180.3163 14180.3163    8.7500    8.8096   77.2408   94.4237   77.2408   12.1449    2.1500    2.8296    5.6488    4.2921    5.5383    5.3406    5.3949   86.9546    0.2336    2.5986    0.0005    8.8768   37.0000 
14181.9567 14181.9567    8.7500    8.8246   78.2153   93.1504   78.2153   12.3875    2.1700    2.4870    5.7085    4.9809    4.6571    4.1678    4.3473   88.3100    0.2460    2.5873   -0.0009    8.4564   37.0000 
14183.5971 14183.5971    8.7500    8.7629   83.4863   96.1328   83.4863   13.5586    2.2600    2.1598    5.9994    6.2777    4.8592    4.7227    3.9005   88.3303    0.2278    2.6080    0.0027    8.4441   37.0000 
14185.2375 14185.2375    8.7500    8.7582   89.4025  103.0713   89.4025   14.8243    2.3600    2.2316    6.2815    6.6429    3.7725    3.6266    3.9557   86.8867    0.2140    2.6113    0.0052    9.2138   37.0000 
14186.8780 14186.8780    8.7500    8.7552   88.5778  107.0035   88.5778   14.3929    2.3900    2.9033    6.0221    4.9574    4.0765    4.0726    4.6088   80.6083    0.2260    2.6132    0.0038   10.3798   37.0000 
14188.5184 14188.5184    8.7500    8.7558   81.6339   99.2824   81.6339   12.9910    2.2500    2.8782    5.7738    4.5136    5.6915    4.4363    4.2425   75.1161    0.1796    2.6032    0.0000    9.8197   37.0000 
14190.1588 14190.1588    8.7500    8.7317   73.3422   94.0422   73.3422   11.5014    2.0500    3.2381    5.6104    3.5519    8.0203    5.2858    4.9295   84.6583    0.1752    2.6278   -0.0012   11.3225   22.0000 
14191.7992 14191.7992    8.7500    8.7317   61.8022   77.2518   61.8022    9.5810    1.7500    2.3012    5.4749    4.1635    9.1849    6.4896    5.5820   86.7445    0.1627    2.6556   -0.0051   10.2244   22.0000 
14193.4396 14193.4396    8.7500    8.7357   82.3080  102.7184   82.3080   13.3615    2.2200    3.0950    6.0187    4.3171    4.5624    4.4708    4.2937   83.1593    0.2139    2.5880   -0.0045   10.4141   37.0000 
14195.0801 14195.0801    8.7500    8.7343   85.6731  102.6630   85.6731   14.1024    2.2800    2.7178    6.1853    5.1889    4.4769    4.6781    4.4133   82.5522    0.2153    2.5795   -0.0032   10.1197   37.0000 
14196.7205 14196.7205    8.7500    8.7302   74.0796   93.2120   74.0796   11.9614    2.0100    3.1732    5.9509    3.7695    4.2521    4.4958    4.8128   88.1666    0.2040    2.5947   -0.0037   10.8237   37.0000 
14198.3609 14198.3609    8.7500    8.7317   79.3889   96.5019   79.3889   12.5619    2.2000    2.9630    5.7100    4.2396    4.0870    4.5023    4.5530   85.9703    0.2243    2.6013   -0.0026   10.6389   37.0000 
14200.0013 14200.0013    8.7500    8.7302   79.5445   98.5916   79.5445   12.2796    2.2600    3.2220    5.4335    3.8112    4.0147    4.4486    4.4742   82.9598    0.2191    2.6120   -0.0001   10.6904   37.0000 
14201.6417 14201.6417    8.7500    8.7287   71.7040   89.3307   71.7040   11.1868    2.0200    2.9932    5.5380    3.7374    4.1443    4.4435    4.4904   81.1686    0.2160    2.6320    0.0112    9.8885   37.0000 
14203.2822 14203.2822    8.7500    8.7289   68.2700   83.8968   68.2700   11.0724    1.8500    2.6416    5.9851    4.1916    4.2310    5.0962    5.8294   87.1945    0.2054    2.6198    0.0110   10.8210   37.0000 
14204.9226 14204.9226    8.7500    8.7302   72.9692   91.3905   72.9692   11.8419    1.9700    3.0679    6.0111    3.8599    3.9595    4.6682    4.9686   87.6295    0.2288    2.5988    0.0014   12.2528   37.0000 
14206.5630 14206.5630    8.7500    8.7302   83.5674  100.1973   83.5674   13.5187    2.2700    2.8819    5.9554    4.6909    4.1603    3.9224    4.1412   89.0177    0.2141    2.6163    0.0009    8.9959   37.0000 
14208.2034 14208.2034    8.7500    8.7434   88.7999  105.9209   88.7999   13.8546    2.5000    2.9859    5.5418    4.6400    4.3174    4.0499    4.2634   89.7752    0.2038    2.5921    0.0016    7.6139   37.0000 
14209.8438 14209.8438    8.7500    8.7409   79.9222   95.7620   79.9222   12.2767    2.2800    2.7001    5.3845    4.5468    4.8621    3.6723    3.5253   89.2353    0.2353    2.5712   -0.0037    7.4719   37.0000 
14211.4843 14211.4843    8.7500    8.7342   77.7144   93.2951   77.7144   11.5152    2.2900    2.5832    5.0285    4.4577    5.1747    4.0981    3.3394   87.8948    0.2270    2.5887   -0.0051    7.5233   37.0000 
14213.1247 14213.1247    8.7500    8.7126   77.1179   94.7925   77.1179   11.9270    2.1900    2.9201    5.4461    4.0844    5.9673    6.1223    4.4912   85.6852    0.2189    2.6059    0.0017    6.9688   37.0000 
14214.7651 14214.7651    8.7500    8.7107   76.6953   95.8704   76.6953   11.9823    2.1500    3.2473    5.5732    3.6899    4.7512    6.2599    4.3106   79.1130    0.2122    2.6021    0.0013    7.7161   37.0000 
14216.4055 14216.4055    8.7500    8.7107   71.0486   93.8042   71.0486   11.3031    1.9600    3.7102    5.7669    3.0465    4.5970    5.9544    4.2927   72.2258    0.1978    2.5985   -0.0025    7.0801   37.0000 
14218.0459 14218.0459    8.7500    8.7096   59.9055   83.5686   59.9055   10.4254    1.5000    3.7706    6.9503    2.7649    5.1851    6.9937    5.7168   76.6730    0.1731    2.5905   -0.0036    7.0165   37.0000 
14219.6864 14219.6864    8.7500    8.6831   23.9413   33.9218   23.9413    4.0522    0.6200    1.4782    6.5358    2.7413    9.8103   17.2654   10.0619   80.3910    0.0665    2.6682    0.0026    7.2971   18.0000 
14221.3268 14221.3268    8.7500    8.6879   42.2716   58.3058   42.2716    6.4606    1.2100    2.4183    5.3393    2.6715    8.9560   17.9750    7.3853   81.8090    0.0950    2.7136    0.0045    8.4605   18.0000 
14222.9672 14222.9672    8.7500    8.7004   60.9953   85.6016   60.9953    8.7521    1.8400    3.7024    4.7566    2.3639    5.4734    5.9131    7.7996   81.5765    0.1764    2.5996   -0.0023    7.0147   22.0000 
