~VERSION INFORMATION
 VERS.                 2.0:   CWLS LOG ASCII STANDARD - VERSION 2.0
 WRAP.                  NO:   SINGLE LINE PER DEPTH STEP
 CREA.                 08/02/2018 08:46:35
#CREATED USING DSPetro VERSION 5000.10.1.3 BY H191660 ON 08/02/2018 08:46:35
~WELL INFORMATION
#MNEM.UNIT       DATA                          DESCRIPTION MNEMONIC
#---------      ---------------------------   --------------------------
 STRT    .FT        12311.0000                : START DEPTH
 STOP    .FT        17628.0000                : STOP DEPTH
 STEP    .FT        0.5000                    : STEP VALUE
 NULL    .      -999.0000                     : NULL VALUE
 DATE    .      08/02/2018                    : LAS file Creation Date
 WELL  .      UNIVERSITY_20_5                  : Well Name
 COMP  .      Neftex Exploration Insights      : Company
 FLD   .      HALEY (LWR. WOLFCAMP-PENN CONS.) : Field
 STATE .      TEXAS                            : State
 COUNT .      LOVING                           : Country
 API   .      42-301-31423                     : API Number
 UWI   .      212                              : Unique Well Identifier (UWI)
 LOC   .      1320' FNL & 1320' FWL            : Location
 PDAT  .      G.L.                             : Permanent Datum
 EPDAT .      2805                             : Reference Elevation
 LGMEA .      K.B.                             : Log Measured from
 DRMEA .      KELLY BUSHING                    : Drill Measured From
 APDAT .      30                               : Elevation Above Permanent Datum
 KB    .      2835                             : KB Elevation
 DF    .      2834                             : DF Elevation
 GL    .      2805                             : GL Elevation
 RWS   .      -999                             : Def_Rw
 WST   .      -999                             : Def_Rwt
 CNTY  .      LOVING                           : County
 SRVC  .      Baker Atlas                      : Contractor
~CURVE INFORMATION
#MNEM              UNIT       API CODE   Curve Type Comments
#----------  --------------- ----------  ---------- -----------
 DEPTH      .FT                        : Depth       
 DEPTH      .FT                        : Depth       
 BS         .inch                      : BitSize     
 CAL        .inch                      :             
 GR         .API                       : GammaRay    
 K          .%                         : Spectral    Potassium
 TH         .PPM                       : Spectral    Thorium
 U          .PPM                       : Spectral    Uranium
 Th/k       .PPM                       : Spectral    
 Th/U       .PPM                       : Spectral    
 RESD       .ohmm                      :             
 RESM       .ohmm                      :             
 RESS       .ohmm                      :             
 DT         .us/ft                     :             
 DRHO       .G/C3                      : Drho        
 NPHI       .dec                       : Neutron     
 RHOB       .G/C3                      : Density     
 PEF        .b/e-                      : PEF         
 LITH       .                          : LITH        Lithology Curve
~A  DEPTH   DEPTH       BS       CAL        GR        K         TH        U        Th/k      Th/U      RESD      RESM      RESS       DT       DRHO      NPHI      RHOB      PEF       LITH   
# ...
14075.0000 14075.0000    8.5000    8.3150   52.3903 -999.0000 -999.0000 -999.0000 -999.0000 -999.0000    4.3060    4.3080    4.4190   86.5480   -0.0170    0.2043    2.5830    4.7450   22.0000 
14075.5000 14075.5000    8.5000    8.3050   54.0568 -999.0000 -999.0000 -999.0000 -999.0000 -999.0000    4.1140    4.1250    4.2230   87.5670   -0.0180    0.2126    2.5720    4.8440   37.0000 
14076.0000 14076.0000    8.5000    8.2820   55.6270 -999.0000 -999.0000 -999.0000 -999.0000 -999.0000    4.0750    4.0940    4.1900   87.9720   -0.0180    0.2175    2.5650    4.6750   37.0000 
14076.5000 14076.5000    8.5000    8.2620   56.0726 -999.0000 -999.0000 -999.0000 -999.0000 -999.0000    4.1450    4.1740    4.2750   87.8800   -0.0170    0.2163    2.5640    4.4630   37.0000 
14077.0000 14077.0000    8.5000    8.2630   54.6002 -999.0000 -999.0000 -999.0000 -999.0000 -999.0000    4.2000    4.2380    4.3460   87.7870   -0.0170    0.2198    2.5630    4.3600   37.0000 
14077.5000 14077.5000    8.5000    8.2800   51.5406 -999.0000 -999.0000 -999.0000 -999.0000 -999.0000    4.1810    4.2280    4.3370   88.1160   -0.0170    0.2272    2.5630    4.3690   37.0000 
14078.0000 14078.0000    8.5000    8.3000   50.6283 -999.0000 -999.0000 -999.0000 -999.0000 -999.0000    4.1600    4.2150    4.3120   88.7030   -0.0160    0.2343    2.5670    4.4750   37.0000 
14078.5000 14078.5000    8.5000    8.3090   54.3599 -999.0000 -999.0000 -999.0000 -999.0000 -999.0000    4.1980    4.2600    4.3220   89.1060   -0.0130    0.2426    2.5740    4.6600   37.0000 
14079.0000 14079.0000    8.5000    8.3010   58.7258 -999.0000 -999.0000 -999.0000 -999.0000 -999.0000    4.2930    4.3630    4.3600   89.0490   -0.0110    0.2440    2.5760    4.7490   37.0000 
14079.5000 14079.5000    8.5000    8.2910   59.0436 -999.0000 -999.0000 -999.0000 -999.0000 -999.0000    4.4770    4.5560    4.4560   88.4860   -0.0120    0.2313    2.5680    4.5960   37.0000 
14080.0000 14080.0000    8.5000    8.2970   56.9801 -999.0000 -999.0000 -999.0000 -999.0000 -999.0000    4.7750    4.8570    4.6220   87.6990   -0.0150    0.2170    2.5600    4.3530   37.0000 
14080.5000 14080.5000    8.5000    8.3050   56.6865 -999.0000 -999.0000 -999.0000 -999.0000 -999.0000    5.0990    5.1760    4.7750   87.1370   -0.0150    0.2169    2.5610    4.2610   37.0000 
14081.0000 14081.0000    8.5000    8.2980   58.0926 -999.0000 -999.0000 -999.0000 -999.0000 -999.0000    5.3500    5.4110    4.8420   86.9770   -0.0140    0.2252    2.5670    4.3020   37.0000 
14081.5000 14081.5000    8.5000    8.2950   58.4152 -999.0000 -999.0000 -999.0000 -999.0000 -999.0000    5.5240    5.5570    4.8410   87.1390   -0.0150    0.2295    2.5710    4.3250   37.0000 
14082.0000 14082.0000    8.5000    8.3060   56.5026 -999.0000 -999.0000 -999.0000 -999.0000 -999.0000    5.6650    5.6610    4.8270   87.4800   -0.0160    0.2280    2.5730    4.3370   37.0000 
14082.5000 14082.5000    8.5000    8.3090   53.7415 -999.0000 -999.0000 -999.0000 -999.0000 -999.0000    5.8470    5.8000    4.8610   87.8510   -0.0160    0.2255    2.5750    4.4970   37.0000 
14083.0000 14083.0000    8.5000    8.3070   52.2180 -999.0000 -999.0000 -999.0000 -999.0000 -999.0000    6.1060    6.0100    4.9660   88.2110   -0.0160    0.2272    2.5750    4.8020   37.0000 
14083.5000 14083.5000    8.5000    8.3160   53.1033 -999.0000 -999.0000 -999.0000 -999.0000 -999.0000    6.3450    6.1950    5.0710   88.4950   -0.0160    0.2344    2.5720    4.9850   37.0000 
14084.0000 14084.0000    8.5000    8.3210   54.8963 -999.0000 -999.0000 -999.0000 -999.0000 -999.0000    6.4850    6.2800    5.1340   88.5300   -0.0160    0.2400    2.5690    4.8950   37.0000 
14084.5000 14084.5000    8.5000    8.3120   55.3781 -999.0000 -999.0000 -999.0000 -999.0000 -999.0000    6.5990    6.3370    5.2250   88.3160   -0.0160    0.2376    2.5660    4.7440   37.0000 
14085.0000 14085.0000    8.5000    8.3030   54.8548 -999.0000 -999.0000 -999.0000 -999.0000 -999.0000    6.7230    6.4060    5.3650   88.1980   -0.0160    0.2372    2.5630    4.8220   37.0000 
14085.5000 14085.5000    8.5000    8.2960   54.7488 -999.0000 -999.0000 -999.0000 -999.0000 -999.0000    6.6920    6.3150    5.3940   88.5790   -0.0170    0.2476    2.5600    5.0770   37.0000 
14086.0000 14086.0000    8.5000    8.2880   55.4824 -999.0000 -999.0000 -999.0000 -999.0000 -999.0000    6.3770    5.9540    5.1700   89.4780   -0.0180    0.2616    2.5600    5.1700   37.0000 
14086.5000 14086.5000    8.5000    8.2910   56.6638 -999.0000 -999.0000 -999.0000 -999.0000 -999.0000    6.0000    5.5380    4.8580   90.3880   -0.0170    0.2611    2.5630    4.9220   37.0000 
14087.0000 14087.0000    8.5000    8.3000   57.2317 -999.0000 -999.0000 -999.0000 -999.0000 -999.0000    5.8720    5.3540    4.7100   90.5520   -0.0160    0.2528    2.5650    4.6180   37.0000 
14087.5000 14087.5000    8.5000    8.3040   56.2358 -999.0000 -999.0000 -999.0000 -999.0000 -999.0000    6.0440    5.4460    4.7830   89.5630   -0.0150    0.2498    2.5650    4.5710   37.0000 
14088.0000 14088.0000    8.5000    8.3080   53.8729 -999.0000 -999.0000 -999.0000 -999.0000 -999.0000    6.4320    5.7350    5.0150   87.6530   -0.0150    0.2438    2.5640    4.7300   37.0000 
14088.5000 14088.5000    8.5000    8.3200   50.7529 -999.0000 -999.0000 -999.0000 -999.0000 -999.0000    6.9270    6.1260    5.3320   85.4520   -0.0160    0.2293    2.5670    4.8990   37.0000 
14089.0000 14089.0000    8.5000    8.3330   47.3965 -999.0000 -999.0000 -999.0000 -999.0000 -999.0000    7.4250    6.5350    5.6620   83.6010   -0.0160    0.2164    2.5740    4.9970   37.0000 
14089.5000 14089.5000    8.5000    8.3320   44.8895 -999.0000 -999.0000 -999.0000 -999.0000 -999.0000    7.8320    6.8900    5.9400   82.4520   -0.0150    0.2105    2.5840    4.9710   37.0000 
14090.0000 14090.0000    8.5000    8.3160   44.0840 -999.0000 -999.0000 -999.0000 -999.0000 -999.0000    8.1160    7.1680    6.1440   81.9890   -0.0140    0.2096    2.5930    4.8470   22.0000 
14090.5000 14090.5000    8.5000    8.3090   44.4076 -999.0000 -999.0000 -999.0000 -999.0000 -999.0000    8.3270    7.4160    6.3180   81.8720   -0.0120    0.2147    2.6030    4.8480   22.0000 
14091.0000 14091.0000    8.5000    8.3130   44.6904 -999.0000 -999.0000 -999.0000 -999.0000 -999.0000    8.5800    7.7280    6.5440   81.7230   -0.0100    0.2158    2.6080    5.0740   22.0000 
14091.5000 14091.5000    8.5000    8.3040   44.4452 -999.0000 -999.0000 -999.0000 -999.0000 -999.0000    8.9350    8.1560    6.8660   81.5330   -0.0120    0.2117    2.6020    5.3390   22.0000 
14092.0000 14092.0000    8.5000    8.2870   44.1334 -999.0000 -999.0000 -999.0000 -999.0000 -999.0000    9.2150    8.5260    7.1350   81.6500   -0.0150    0.2127    2.5910    5.5310   22.0000 
14092.5000 14092.5000    8.5000    8.2830   44.5454 -999.0000 -999.0000 -999.0000 -999.0000 -999.0000    8.9010    8.3380    6.9400   82.3120   -0.0170    0.2145    2.5880    5.6130   22.0000 
14093.0000 14093.0000    8.5000    8.2980   46.5407 -999.0000 -999.0000 -999.0000 -999.0000 -999.0000    7.8510    7.4300    6.1730   83.2400   -0.0170    0.2061    2.5920    5.5240   22.0000 
14093.5000 14093.5000    8.5000    8.3050   50.2016 -999.0000 -999.0000 -999.0000 -999.0000 -999.0000    6.8110    6.5000    5.4250   83.8990   -0.0160    0.2012    2.5940    5.2820   22.0000 
14094.0000 14094.0000    8.5000    8.3000   52.9951 -999.0000 -999.0000 -999.0000 -999.0000 -999.0000    6.3940    6.1350    5.1600   84.0990   -0.0150    0.2115    2.5860    4.9730   37.0000 
14094.5000 14094.5000    8.5000    8.3080   52.3201 -999.0000 -999.0000 -999.0000 -999.0000 -999.0000    6.4610    6.2270    5.2800   84.0800   -0.0150    0.2242    2.5740    4.6150   37.0000 
14095.0000 14095.0000    8.5000    8.3190   49.9304 -999.0000 -999.0000 -999.0000 -999.0000 -999.0000    6.4260    6.2120    5.3200   84.0480   -0.0120    0.2243    2.5710    4.2740   37.0000 
14095.5000 14095.5000    8.5000    8.3050   48.9458 -999.0000 -999.0000 -999.0000 -999.0000 -999.0000    6.0530    5.8610    5.0850   83.8850   -0.0080    0.2182    2.5770    4.1430   37.0000 
