~VERSION INFORMATION
 VERS.                 2.0:   CWLS LOG ASCII STANDARD - VERSION 2.0
 WRAP.                  NO:   SINGLE LINE PER DEPTH STEP
 CREA.                 08/02/2018 08:46:11
#CREATED USING DSPetro VERSION 5000.10.1.3 BY H191660 ON 08/02/2018 08:46:11
~WELL INFORMATION
#MNEM.UNIT       DATA                          DESCRIPTION MNEMONIC
#---------      ---------------------------   --------------------------
 STRT    .FT        12354.5289                : START DEPTH
 STOP    .FT        17894.2270                : STOP DEPTH
 STEP    .FT        1.6404                    : STEP VALUE
 NULL    .      -999.0000                     : NULL VALUE
 DATE    .      08/02/2018                    : LAS file Creation Date
 WELL .      UNIVERSITY_19-5             : Well Name
 COMP .      Neftex Exploration Insights : Company
 FLD  .      PHANTOM (WOLFCAMP)          : Field
 UWI  .      208                         : Unique Well Identifier (UWI)
 LOC  .                                  : Location
 RWS  .      -999                        : Def_Rw
 WST  .      -999                        : Def_Rwt
 SRVC .                                  : Contractor
~CURVE INFORMATION
#MNEM              UNIT       API CODE   Curve Type Comments
#----------  --------------- ----------  ---------- -----------
 DEPTH      .FT                        : Depth       
 DEPTH      .FT                        : Depth       
 BS         .inch                      : BitSize     
 CAL_INCH   .inch                      :             Caliper Log - A representation of the measured diameter of a borehole along its depth
 GR_API     .API                       : GammaRay    Gamma Ray (API) - Measures the intensity of natural gamma-ray radiation emitted from formations containing radioactive elements, such as K, Th and U
 SGR_API    .API                       : GammaRay    Spectral Gamma Ray - Total gamma calibrated to API, measured using a spectoral gamma array tool
 CGR_API    .API                       : GammaRay    Corrected / Computed Gamma Ray - Radiation with the Uranium component removed. Also known as a 'carbonate gamma ray'
 TH_PPM     .ppm                       : Spectral    Thorium Abundance (SGR) - The quantitative elemental abundace of Thorium derived from the Spectral Gamma Ray Log
 K_per        .PC                        :             Potassium Abundance (SGR) - The quantitative elemental abundace of Potassium derived from the Spectral Gamma Ray Log. Also wt_%
 U_PPM      .ppm                       :             Uranium Abundance (SGR) - The quantitative elemental abundace of Uranium derived from the Spectral Gamma Ray Log
 ThK        .PPM                       : Spectral    
 ThU        .PPM                       : Spectral    
 SRES       .ohmm                      :             10" array induction, two foot resistivity
 MRES       .ohm.m                     :             30" array induction, two foot resistivity
 DRES       .ohmm                      :             90" array induction, two foot resistivity log - units of ohmm
 DT_US_FT   .us/ft                     :             Interval Transit Time: Compressional Wave - Evaluates the time it takes for a compressional wave to traverse a fixed distance
 NPHI_RATIO .ratio                     :             Neutron Porosity - Measured with an neutron logging device calibrated to a given matrix (limestone, sandstone and dolomite)
 RHOB_G_CC  .g/cc                      :             Bulk Density - Measures the density of bulk material, including any void space or other materials contained in the subject volume
 DRHO_G_CC  .g/cc                      :             Density Correction - Investigates the correction to the Bulk Density log; used as an indication of hole condition to validate the Bulk Density measure
 PEF_B_E    .b/e-                      : PEF         Photoelectric Factor - A log of photoelectric absorption properties. Often expressed in an approximation unit barns/electron (b/e-)
 LITH       .                          : LITH        Lithology Curve
~A  DEPTH   DEPTH       BS     CAL_INCH   GR_API   SGR_API   CGR_API    TH_PPM     K_per      U_PPM      ThK       ThU       SRES      MRES      DRES    DT_US_FT NPHI_RAT~ RHOB_G_C~ DRHO_G_C~  PEF_B_E     LITH   
# ...
16032.3504 16032.3504    8.7500    8.8100   63.8247   97.7952   63.8247   10.5377    1.6900    5.1428    6.2353    2.0490    6.1571    4.6246    4.5669   87.8947    0.2212    2.5724    0.0110    7.9654   22.0000 
16033.9908 16033.9908    8.7500    8.8122   52.9061   88.2631   52.9061    9.0109    1.3600    5.3260    6.6257    1.6919    6.0698    4.8466    4.3539   79.5984    0.1856    2.5743    0.0096    8.4541   22.0000 
16035.6312 16035.6312    8.7500    8.7815   43.6218   79.3708   43.6218    7.1344    1.1700    5.3449    6.0978    1.3348   10.8318    8.4086    6.7659   73.0286    0.1768    2.5865    0.0034    8.3360   22.0000 
16037.2717 16037.2717    8.7500    8.7830   45.0278   79.0030   45.0278    7.2074    1.2300    5.0980    5.8597    1.4138   11.5335    9.7005    9.5918   85.0410    0.1447    2.5778   -0.0056    9.1433   22.0000 
16038.9121 16038.9121    8.7500    8.7857   46.2336   81.4504   46.2336    7.2182    1.3000    5.1010    5.5525    1.4151   10.8085    8.6199    7.5202   84.9040    0.1836    2.5942   -0.0016    7.4640   22.0000 
16040.5525 16040.5525    8.7500    8.8119   45.7564   77.3039   45.7564    7.2192    1.2700    4.5416    5.6844    1.5896    7.8927    6.4115    5.6211   82.4368    0.1772    2.5921    0.0071    9.9392   22.0000 
16042.1929 16042.1929    8.7500    8.7646   42.6016   73.3747   42.6016    6.7215    1.1800    4.3338    5.6962    1.5509    7.3318    6.2058    5.6852   75.2441    0.1633    2.5719    0.0060   10.1767   22.0000 
16043.8333 16043.8333    8.7500    8.7824   38.6943   63.1434   38.6943    6.7487    0.9700    3.5890    6.9574    1.8804    8.9162    8.7421    9.3384   74.9661    0.1551    2.5893    0.0090    8.8807   22.0000 
16045.4738 16045.4738    8.7500    8.7559   39.4945   66.5901   39.4945    6.8540    0.9900    3.9227    6.9232    1.7473   11.6052   11.5857   12.7312   81.2895    0.1500    2.5884    0.0075    7.4497   22.0000 
16047.1142 16047.1142    8.7500    8.8310   59.0194   94.8932   59.0194   10.4062    1.4500    5.1637    7.1767    2.0153   13.3587   10.2712    8.1913   80.7163    0.1963    2.5043   -0.0029    7.0107   22.0000 
16048.7546 16048.7546    8.7500    8.7810   56.7135   93.9785   56.7135    9.6199    1.4600    5.2764    6.5890    1.8232    8.5300    6.7744    5.9793   70.7977    0.1849    2.5567   -0.0023    9.0550   22.0000 
16050.3950 16050.3950    8.7500    8.7677   46.5445   76.7866   46.5445    7.7552    1.2200    4.2917    6.3567    1.8070    7.7416    6.5858    6.1461   72.9257    0.1780    2.5741   -0.0018    8.0318   22.0000 
16052.0354 16052.0354    8.7500    8.7615   50.3663   83.4075   50.3663    8.5794    1.2900    4.7419    6.6507    1.8093    7.8032    7.0572    6.5890   72.4683    0.1573    2.5776   -0.0030    8.9855   22.0000 
16053.6759 16053.6759    8.7500    8.7604   41.3451   72.0942   41.3451    6.9778    1.0700    4.3724    6.5213    1.5959    8.5133    7.4770    6.9374   74.3706    0.1632    2.5658   -0.0035    9.2830   22.0000 
16055.3163 16055.3163    8.7500    8.7938   37.3684   64.2249   37.3684    6.2764    0.9700    4.0642    6.4705    1.5443    9.0139    7.4879    6.8501   80.1014    0.1598    2.6141    0.0014   10.0228   22.0000 
16056.9567 16056.9567    8.7500    8.8107   43.9867   69.8630   43.9867    7.4745    1.1300    3.8842    6.6146    1.9243    8.6903    7.1573    6.6207   80.2345    0.1741    2.5817   -0.0033    9.4183   22.0000 
16058.5971 16058.5971    8.7500    8.7835   45.8507   65.1744   45.8507    8.1422    1.1200    3.0438    7.2698    2.6750    9.3371    7.8666    7.2557   75.2082    0.1812    2.5732    0.0003    9.4183   22.0000 
16060.2375 16060.2375    8.7500    8.7839   45.5246   65.2375   45.5246    7.9571    1.1300    2.9714    7.0417    2.6779   10.6845    9.0859    8.4583   75.9913    0.1810    2.5868   -0.0014    8.3313   22.0000 
16061.8780 16061.8780    8.7500    8.7830   54.2543   81.8317   54.2543    9.8878    1.2800    4.0558    7.7248    2.4379    9.8829    8.2741    8.1683   89.7717    0.2313    2.6002    0.0020    9.5977   22.0000 
16063.5184 16063.5184    8.7500    8.8613   60.4374   93.6451   60.4374   10.9517    1.4400    4.8514    7.6053    2.2574    8.0241    6.8670    5.9424   93.4128    0.2169    2.5225   -0.0060   12.0357   37.0000 
16065.1588 16065.1588    8.7500    8.8619   56.3508   92.2499   56.3508   10.0114    1.3700    5.2120    7.3076    1.9208    6.9619    5.4934    4.9153   88.3932    0.2210    2.5136   -0.0054    9.9384   37.0000 
16066.7992 16066.7992    8.7500    8.8001   53.4033   81.8879   53.4033    9.3688    1.3200    4.2288    7.0976    2.2155    8.0718    5.8747    5.2378   81.8817    0.2218    2.5770    0.0046    9.5259   37.0000 
16068.4396 16068.4396    8.7500    8.8119   60.2908   89.1750   60.2908   10.7068    1.4700    4.3573    7.2835    2.4572    6.2579    5.2675    4.9885   86.4338    0.1883    2.5725    0.0050    8.6983   37.0000 
16070.0801 16070.0801    8.7500    8.8119   59.8889   93.7697   59.8889   10.5114    1.4800    4.9195    7.1023    2.1367    5.2438    4.5453    4.5401   85.1740    0.2392    2.5799    0.0077    9.6102   37.0000 
16071.7205 16071.7205    8.7500    8.8348   66.2830  113.2230   66.2830   11.3626    1.6900    6.7397    6.7234    1.6859    6.9927    6.0325    5.4125   92.4236    0.2006    2.5700    0.0095    7.9559   37.0000 
16073.3609 16073.3609    8.7500    8.8354   64.4966  118.4387   64.4966   10.8682    1.6700    7.5162    6.5079    1.4460    7.0902    6.2734    5.0794   94.3607    0.2154    2.5224    0.0054    9.0499   37.0000 
16075.0013 16075.0013    8.7500    8.8104   71.8077  124.2463   71.8077   12.0376    1.8800    7.5786    6.4030    1.5884    6.8145    5.1554    3.5882   85.2529    0.2290    2.5574    0.0043   10.4567   37.0000 
16076.6417 16076.6417    8.7500    8.8747   60.3823   93.6882   60.3823   10.3463    1.5400    4.8493    6.7184    2.1336    4.9127    4.0575    4.0290   89.2926    0.2051    2.5599   -0.0052   11.1588   37.0000 
16078.2822 16078.2822    8.7500    8.8936   74.2980  100.1844   74.2980   12.8444    1.8700    3.8423    6.8687    3.3429    3.1288    2.9257    3.3614   92.9991    0.2745    2.5467   -0.0150   13.7620   37.0000 
16079.9226 16079.9226    8.7500    8.8339   76.2166   96.6171   76.2166   13.2004    1.9200    3.1102    6.8752    4.2442    2.9166    2.5399    2.6201   95.8122    0.2689    2.5846    0.0019    9.7841   37.0000 
16081.5630 16081.5630    8.7500    8.7839   74.0212   97.0898   74.0212   12.4391    1.9300    3.4564    6.4451    3.5989    2.9130    2.6171    2.4532   89.3158    0.2213    2.6064    0.0045    9.3126   37.0000 
16083.2034 16083.2034    8.7500    8.7839   61.4395   79.9248   61.4395   10.0915    1.6400    2.9751    6.1534    3.3920    3.5184    2.9011    2.8975   79.2549    0.2186    2.6193    0.0001    8.8321   37.0000 
16084.8438 16084.8438    8.7500    8.7824   60.2424   77.9156   60.2424   10.0437    1.5800    2.9060    6.3568    3.4562    4.3520    3.2687    3.3358   84.0685    0.2199    2.5754   -0.0051   11.3015   22.0000 
16086.4843 16086.4843    8.7500    8.7784   60.7006   80.9393   60.7006   10.1988    1.5800    3.2781    6.4549    3.1112    5.1293    3.6181    3.4467   83.8341    0.1977    2.6105    0.0038   12.5357   22.0000 
16088.1247 16088.1247    8.7500    8.7795   50.2913   68.2166   50.2913    9.0151    1.2100    2.7938    7.4505    3.2268    6.5343    5.3317    5.1835   83.3576    0.1742    2.6090    0.0061   10.8139   22.0000 
16089.7651 16089.7651    8.7500    8.7584   44.2865   60.6199   44.2865    8.7742    0.9300    2.4534    9.4346    3.5763   12.1175    9.7583   12.1276   63.8229    0.1363    2.5914   -0.0002   10.6624   18.0000 
16091.4055 16091.4055    8.7500    8.7589   38.7181   54.6601   38.7181    8.3184    0.7000    2.4062   11.8834    3.4571   30.1956   17.1040   13.1008   62.4692    0.1391    2.5894    0.0001    9.3369   18.0000 
16093.0459 16093.0459    8.7500    8.7883   37.5374   53.7518   37.5374    7.5951    0.7600    2.4034    9.9936    3.1601   14.6623   10.9521    8.5015   78.2042    0.1442    2.6096   -0.0005    9.9943   18.0000 
