~VERSION INFORMATION
 VERS.                 2.0:   CWLS LOG ASCII STANDARD - VERSION 2.0
 WRAP.                  NO:   SINGLE LINE PER DEPTH STEP
 CREA.                 08/02/2018 08:46:35
#CREATED USING DSPetro VERSION 5000.10.1.3 BY H191660 ON 08/02/2018 08:46:35
~WELL INFORMATION
#MNEM.UNIT       DATA                          DESCRIPTION MNEMONIC
#---------      ---------------------------   --------------------------
 STRT    .FT        12311.0000                : START DEPTH
 STOP    .FT        17628.0000                : STOP DEPTH
 STEP    .FT        0.5000                    : STEP VALUE
 NULL    .      -999.0000                     : NULL VALUE
 DATE    .      08/02/2018                    : LAS file Creation Date
 WELL  .      UNIVERSITY_20_5                  : Well Name
 COMP  .      Neftex Exploration Insights      : Company
 FLD   .      HALEY (LWR. WOLFCAMP-PENN CONS.) : Field
 STATE .      TEXAS                            : State
 COUNT .      LOVING                           : Country
 API   .      42-301-31423                     : API Number
 UWI   .      212                              : Unique Well Identifier (UWI)
 LOC   .      1320' FNL & 1320' FWL            : Location
 PDAT  .      G.L.                             : Permanent Datum
 EPDAT .      2805                             : Reference Elevation
 LGMEA .      K.B.                             : Log Measured from
 DRMEA .      KELLY BUSHING                    : Drill Measured From
 APDAT .      30                               : Elevation Above Permanent Datum
 KB    .      2835                             : KB Elevation
 DF    .      2834                             : DF Elevation
 GL    .      2805                             : GL Elevation
 RWS   .      -999                             : Def_Rw
 WST   .      -999                             : Def_Rwt
 CNTY  .      LOVING                           : County
 SRVC  .      Baker Atlas                      : Contractor
~CURVE INFORMATION
#MNEM              UNIT       API CODE   Curve Type Comments
#----------  --------------- ----------  ---------- -----------
 DEPTH      .FT                        : Depth       
 DEPTH      .FT                        : Depth       
 BS         .inch                      : BitSize     
 CAL        .inch                      :             
 GR         .API                       : GammaRay    
 K          .%                         : Spectral    Potassium
 TH         .PPM                       : Spectral    Thorium
 U          .PPM                       : Spectral    Uranium
 Th/k       .PPM                       : Spectral    
 Th/U       .PPM                       : Spectral    
 RESD       .ohmm                      :             
 RESM       .ohmm                      :             
 RESS       .ohmm                      :             
 DT         .us/ft                     :             
 DRHO       .G/C3                      : Drho        
 NPHI       .dec                       : Neutron     
 RHOB       .G/C3                      : Density     
 PEF        .b/e-                      : PEF         
 LITH       .                          : LITH        Lithology Curve
~A  DEPTH   DEPTH       BS       CAL        GR        K         TH        U        Th/k      Th/U      RESD      RESM      RESS       DT       DRHO      NPHI      RHOB      PEF       LITH   
# ...
13718.0000 13718.0000    8.5000    8.4930   24.7622 -999.0000 -999.0000 -999.0000 -999.0000 -999.0000   28.1240   25.7050   24.9120   67.5730   -0.0270    0.0812    2.6660    5.6860   18.0000 
13718.5000 13718.5000    8.5000    8.4980   22.2048 -999.0000 -999.0000 -999.0000 -999.0000 -999.0000   27.0870   24.7380   22.6910   68.0210   -0.0230    0.0704    2.6760    5.7210   18.0000 
13719.0000 13719.0000    8.5000    8.5010   21.9213 -999.0000 -999.0000 -999.0000 -999.0000 -999.0000   18.5320   16.8590   14.7680   70.5760   -0.0160    0.0715    2.6860    5.9520   18.0000 
13719.5000 13719.5000    8.5000    8.4930   26.4090 -999.0000 -999.0000 -999.0000 -999.0000 -999.0000   11.0670   10.0430    8.7190   75.1780   -0.0110    0.0879    2.6740    5.9550   18.0000 
13720.0000 13720.0000    8.5000    8.4800   34.9733 -999.0000 -999.0000 -999.0000 -999.0000 -999.0000    7.2600    6.5890    5.8250   80.5060   -0.0110    0.1203    2.6340    5.4480   18.0000 
13720.5000 13720.5000    8.5000    8.4800   43.5725 -999.0000 -999.0000 -999.0000 -999.0000 -999.0000    5.8440    5.3040    4.7990   84.3620   -0.0120    0.1622    2.5910    4.7940   22.0000 
13721.0000 13721.0000    8.5000    8.4970   48.9937 -999.0000 -999.0000 -999.0000 -999.0000 -999.0000    5.6460    5.1190    4.7520   85.2190   -0.0120    0.1946    2.5680    4.4690   22.0000 
13721.5000 13721.5000    8.5000    8.5170   50.5270 -999.0000 -999.0000 -999.0000 -999.0000 -999.0000    6.2330    5.6410    5.3560   83.2680   -0.0120    0.1979    2.5630    4.6920   22.0000 
13722.0000 13722.0000    8.5000    8.5140   48.5225 -999.0000 -999.0000 -999.0000 -999.0000 -999.0000    7.2920    6.5790    6.3330   80.2250   -0.0150    0.1884    2.5680    5.2460   22.0000 
13722.5000 13722.5000    8.5000    8.4870   44.9415 -999.0000 -999.0000 -999.0000 -999.0000 -999.0000    8.0580    7.2450    7.0150   78.4060   -0.0160    0.1846    2.5810    5.6470   22.0000 
13723.0000 13723.0000    8.5000    8.4660   43.6975 -999.0000 -999.0000 -999.0000 -999.0000 -999.0000    7.7610    6.9550    6.6980   79.1310   -0.0160    0.1886    2.5910    5.7320   22.0000 
13723.5000 13723.5000    8.5000    8.4720   46.5483 -999.0000 -999.0000 -999.0000 -999.0000 -999.0000    6.7170    6.0020    5.7120   81.8770   -0.0160    0.1994    2.5850    5.6870   22.0000 
13724.0000 13724.0000    8.5000    8.4970   50.9268 -999.0000 -999.0000 -999.0000 -999.0000 -999.0000    5.7110    5.0930    4.7970   85.1020   -0.0170    0.2116    2.5700    5.5570   37.0000 
13724.5000 13724.5000    8.5000    8.5150   53.5315 -999.0000 -999.0000 -999.0000 -999.0000 -999.0000    5.0440    4.4910    4.2050   87.5290   -0.0160    0.2193    2.5600    5.2850   37.0000 
13725.0000 13725.0000    8.5000    8.5210   54.1053 -999.0000 -999.0000 -999.0000 -999.0000 -999.0000    4.7100    4.1860    3.9140   88.7140   -0.0150    0.2291    2.5580    4.8700   37.0000 
13725.5000 13725.5000    8.5000    8.5160   54.0835 -999.0000 -999.0000 -999.0000 -999.0000 -999.0000    4.6040    4.0830    3.8270   89.0310   -0.0130    0.2446    2.5610    4.4090   37.0000 
13726.0000 13726.0000    8.5000    8.5030   54.5051 -999.0000 -999.0000 -999.0000 -999.0000 -999.0000    4.5860    4.0550    3.8140   89.0930   -0.0110    0.2487    2.5660    4.1190   37.0000 
13726.5000 13726.5000    8.5000    8.5010   55.9878 -999.0000 -999.0000 -999.0000 -999.0000 -999.0000    4.6060    4.0550    3.8260   89.0490   -0.0100    0.2344    2.5680    4.1510   37.0000 
13727.0000 13727.0000    8.5000    8.5090   57.7116 -999.0000 -999.0000 -999.0000 -999.0000 -999.0000    4.7190    4.1310    3.9020   88.5280   -0.0090    0.2211    2.5710    4.4750   37.0000 
13727.5000 13727.5000    8.5000    8.5030   57.5495 -999.0000 -999.0000 -999.0000 -999.0000 -999.0000    4.9600    4.3140    4.0690   86.8610   -0.0070    0.2156    2.5790    4.9800   37.0000 
13728.0000 13728.0000    8.5000    8.4940   54.9024 -999.0000 -999.0000 -999.0000 -999.0000 -999.0000    5.4030    4.6650    4.3820   83.6580   -0.0070    0.2155    2.5890    5.4790   37.0000 
13728.5000 13728.5000    8.5000    8.4930   50.5993 -999.0000 -999.0000 -999.0000 -999.0000 -999.0000    6.3480    5.4420    5.0690   79.6370   -0.0090    0.2171    2.5920    5.7750   37.0000 
13729.0000 13729.0000    8.5000    8.4830   44.8375 -999.0000 -999.0000 -999.0000 -999.0000 -999.0000    8.0620    6.8690    6.2990   76.5010   -0.0140    0.2107    2.5930    5.8740   37.0000 
13729.5000 13729.5000    8.5000    8.4710   38.7307 -999.0000 -999.0000 -999.0000 -999.0000 -999.0000    9.4030    7.9790    7.1630   75.7470   -0.0180    0.1920    2.6010    5.8900   22.0000 
13730.0000 13730.0000    8.5000    8.4730   35.5912 -999.0000 -999.0000 -999.0000 -999.0000 -999.0000    8.8280    7.4670    6.5330   77.4440   -0.0200    0.1744    2.6050    5.8710   22.0000 
13730.5000 13730.5000    8.5000    8.4810   37.1783 -999.0000 -999.0000 -999.0000 -999.0000 -999.0000    7.6010    6.4290    5.5260   80.1840   -0.0230    0.1687    2.5940    5.9010   22.0000 
13731.0000 13731.0000    8.5000    8.4880   41.7375 -999.0000 -999.0000 -999.0000 -999.0000 -999.0000    7.2070    6.1140    5.1920   82.4650   -0.0240    0.1790    2.5790    6.0190   22.0000 
13731.5000 13731.5000    8.5000    8.4990   46.4285 -999.0000 -999.0000 -999.0000 -999.0000 -999.0000    7.2850    6.2150    5.2500   83.8800   -0.0210    0.1984    2.5800    6.1220   22.0000 
13732.0000 13732.0000    8.5000    8.5090   49.3985 -999.0000 -999.0000 -999.0000 -999.0000 -999.0000    6.8970    5.9280    5.0310   85.0180   -0.0170    0.2111    2.5840    6.2140   37.0000 
13732.5000 13732.5000    8.5000    8.5100   50.9588 -999.0000 -999.0000 -999.0000 -999.0000 -999.0000    6.0340    5.2300    4.5000   86.3780   -0.0160    0.2156    2.5750    6.3440   37.0000 
13733.0000 13733.0000    8.5000    8.5020   52.8770 -999.0000 -999.0000 -999.0000 -999.0000 -999.0000    5.3580    4.6860    4.1040   87.5790   -0.0180    0.2218    2.5600    6.3440   37.0000 
13733.5000 13733.5000    8.5000    8.4980   55.0088 -999.0000 -999.0000 -999.0000 -999.0000 -999.0000    5.1080    4.5050    4.0100   87.9240   -0.0200    0.2255    2.5540    6.1050   37.0000 
13734.0000 13734.0000    8.5000    8.5040   55.3880 -999.0000 -999.0000 -999.0000 -999.0000 -999.0000    5.1920    4.6120    4.1540   87.3270   -0.0200    0.2192    2.5580    5.8830   37.0000 
13734.5000 13734.5000    8.5000    8.5020   53.9901 -999.0000 -999.0000 -999.0000 -999.0000 -999.0000    5.4160    4.8370    4.3660   86.5530   -0.0210    0.2100    2.5640    5.9160   37.0000 
13735.0000 13735.0000    8.5000    8.4910   52.6042 -999.0000 -999.0000 -999.0000 -999.0000 -999.0000    5.5090    4.9370    4.4100   86.5070   -0.0210    0.2103    2.5680    6.1020   37.0000 
13735.5000 13735.5000    8.5000    8.4930   52.2829 -999.0000 -999.0000 -999.0000 -999.0000 -999.0000    5.3620    4.8120    4.2060   87.3400   -0.0200    0.2187    2.5690    6.1460   37.0000 
13736.0000 13736.0000    8.5000    8.5030   53.4114 -999.0000 -999.0000 -999.0000 -999.0000 -999.0000    5.1390    4.6110    3.9350   88.3640   -0.0190    0.2244    2.5680    5.8380   37.0000 
13736.5000 13736.5000    8.5000    8.5010   55.6651 -999.0000 -999.0000 -999.0000 -999.0000 -999.0000    5.0120    4.4920    3.7790   88.7580   -0.0170    0.2231    2.5680    5.3670   37.0000 
13737.0000 13737.0000    8.5000    8.4940   57.1637 -999.0000 -999.0000 -999.0000 -999.0000 -999.0000    5.0100    4.4790    3.7830   88.3020   -0.0150    0.2230    2.5690    5.1180   37.0000 
13737.5000 13737.5000    8.5000    8.4900   56.5250 -999.0000 -999.0000 -999.0000 -999.0000 -999.0000    5.1110    4.5510    3.9330   87.4460   -0.0140    0.2272    2.5710    5.1480   37.0000 
13738.0000 13738.0000    8.5000    8.4840   54.6970 -999.0000 -999.0000 -999.0000 -999.0000 -999.0000    5.2340    4.6320    4.1540   86.8130   -0.0160    0.2275    2.5730    5.1640   37.0000 
13738.5000 13738.5000    8.5000    8.4760   53.5560 -999.0000 -999.0000 -999.0000 -999.0000 -999.0000    5.2470    4.5990    4.3030   86.6280   -0.0170    0.2267    2.5750    5.0170   37.0000 
