~VERSION INFORMATION
 VERS.                 2.0:   CWLS LOG ASCII STANDARD - VERSION 2.0
 WRAP.                  NO:   SINGLE LINE PER DEPTH STEP
 CREA.                 08/02/2018 08:46:35
#CREATED USING DSPetro VERSION 5000.10.1.3 BY H191660 ON 08/02/2018 08:46:35
~WELL INFORMATION
#MNEM.UNIT       DATA                          DESCRIPTION MNEMONIC
#---------      ---------------------------   --------------------------
 STRT    .FT        12311.0000                : START DEPTH
 STOP    .FT        17628.0000                : STOP DEPTH
 STEP    .FT        0.5000                    : STEP VALUE
 NULL    .      -999.0000                     : NULL VALUE
 DATE    .      08/02/2018                    : LAS file Creation Date
 WELL  .      UNIVERSITY_20_5                  : Well Name
 COMP  .      Neftex Exploration Insights      : Company
 FLD   .      HALEY (LWR. WOLFCAMP-PENN CONS.) : Field
 STATE .      TEXAS                            : State
 COUNT .      LOVING                           : Country
 API   .      42-301-31423                     : API Number
 UWI   .      212                              : Unique Well Identifier (UWI)
 LOC   .      1320' FNL & 1320' FWL            : Location
 PDAT  .      G.L.                             : Permanent Datum
 EPDAT .      2805                             : Reference Elevation
 LGMEA .      K.B.                             : Log Measured from
 DRMEA .      KELLY BUSHING                    : Drill Measured From
 APDAT .      30                               : Elevation Above Permanent Datum
 KB    .      2835                             : KB Elevation
 DF    .      2834                             : DF Elevation
 GL    .      2805                             : GL Elevation
 RWS   .      -999                             : Def_Rw
 WST   .      -999                             : Def_Rwt
 CNTY  .      LOVING                           : County
 SRVC  .      Baker Atlas                      : Contractor
~CURVE INFORMATION
#MNEM              UNIT       API CODE   Curve Type Comments
#----------  --------------- ----------  ---------- -----------
 DEPTH      .FT                        : Depth       
 DEPTH      .FT                        : Depth       
 BS         .inch                      : BitSize     
 CAL        .inch                      :             
 GR         .API                       : GammaRay    
 K          .%                         : Spectral    Potassium
 TH         .PPM                       : Spectral    Thorium
 U          .PPM                       : Spectral    Uranium
 Th/k       .PPM                       : Spectral    
 Th/U       .PPM                       : Spectral    
 RESD       .ohmm                      :             
 RESM       .ohmm                      :             
 RESS       .ohmm                      :             
 DT         .us/ft                     :             
 DRHO       .G/C3                      : Drho        
 NPHI       .dec                       : Neutron     
 RHOB       .G/C3                      : Density     
 PEF        .b/e-                      : PEF         
 LITH       .                          : LITH        Lithology Curve
~A  DEPTH   DEPTH       BS       CAL        GR        K         TH        U        Th/k      Th/U      RESD      RESM      RESS       DT       DRHO      NPHI      RHOB      PEF       LITH   
# ...
15125.0000 15125.0000    8.5000    8.1050   49.8913 -999.0000 -999.0000 -999.0000 -999.0000 -999.0000    4.1410    4.1270    4.2330   85.2660   -0.0120    0.2289    2.6020    5.1440   37.0000 
15125.5000 15125.5000    8.5000    8.0990   50.7928 -999.0000 -999.0000 -999.0000 -999.0000 -999.0000    4.1990    4.1890    4.3100   85.4850   -0.0150    0.2478    2.5810    5.2660   37.0000 
15126.0000 15126.0000    8.5000    8.0900   50.0289 -999.0000 -999.0000 -999.0000 -999.0000 -999.0000    4.2800    4.2740    4.4210   85.1740   -0.0150    0.2525    2.5750    5.2660   37.0000 
15126.5000 15126.5000    8.5000    8.0950   48.5000 -999.0000 -999.0000 -999.0000 -999.0000 -999.0000    4.3080    4.3040    4.4760   85.0300   -0.0140    0.2439    2.5780    5.1940   37.0000 
15127.0000 15127.0000    8.5000    8.1110   47.9904 -999.0000 -999.0000 -999.0000 -999.0000 -999.0000    4.3140    4.3150    4.5030   85.4510   -0.0130    0.2344    2.5840    5.0540   37.0000 
15127.5000 15127.5000    8.5000    8.1180   49.1519 -999.0000 -999.0000 -999.0000 -999.0000 -999.0000    4.3200    4.3230    4.5140   86.2530   -0.0140    0.2343    2.5870    4.9060   37.0000 
15128.0000 15128.0000    8.5000    8.1030   51.1236 -999.0000 -999.0000 -999.0000 -999.0000 -999.0000    4.2790    4.2820    4.4590   87.1420   -0.0130    0.2412    2.5910    4.8450   37.0000 
15128.5000 15128.5000    8.5000    8.0780   51.6554 -999.0000 -999.0000 -999.0000 -999.0000 -999.0000    4.1990    4.2010    4.3540   88.0750   -0.0120    0.2508    2.5950    4.8530   37.0000 
15129.0000 15129.0000    8.5000    8.0670   50.6605 -999.0000 -999.0000 -999.0000 -999.0000 -999.0000    4.1020    4.1030    4.2290   88.9640   -0.0120    0.2639    2.5960    4.9340   37.0000 
15129.5000 15129.5000    8.5000    8.0750   51.3430 -999.0000 -999.0000 -999.0000 -999.0000 -999.0000    3.9280    3.9280    4.0310   89.3530   -0.0130    0.2749    2.5870    5.0510   37.0000 
15130.0000 15130.0000    8.5000    8.0830   54.4954 -999.0000 -999.0000 -999.0000 -999.0000 -999.0000    3.7370    3.7350    3.8220   88.6660   -0.0140    0.2726    2.5770    5.0720   37.0000 
15130.5000 15130.5000    8.5000    8.0800   56.6918 -999.0000 -999.0000 -999.0000 -999.0000 -999.0000    3.7670    3.7640    3.8480   86.7970   -0.0140    0.2638    2.5780    5.0060   37.0000 
15131.0000 15131.0000    8.5000    8.0740   55.0945 -999.0000 -999.0000 -999.0000 -999.0000 -999.0000    4.1610    4.1560    4.2460   84.6690   -0.0120    0.2467    2.5960    5.0050   37.0000 
15131.5000 15131.5000    8.5000    8.0760   51.2439 -999.0000 -999.0000 -999.0000 -999.0000 -999.0000    4.6610    4.6560    4.7460   83.8660   -0.0100    0.2271    2.6230    5.0080   37.0000 
15132.0000 15132.0000    8.5000    8.0770   49.2463 -999.0000 -999.0000 -999.0000 -999.0000 -999.0000    4.6750    4.6740    4.7580   84.8720   -0.0120    0.2173    2.6330    4.8850   37.0000 
15132.5000 15132.5000    8.5000    8.0620   50.8870 -999.0000 -999.0000 -999.0000 -999.0000 -999.0000    4.2860    4.2940    4.3910   85.9620   -0.0160    0.2232    2.6170    4.8160   37.0000 
15133.0000 15133.0000    8.5000    8.0470   53.8653 -999.0000 -999.0000 -999.0000 -999.0000 -999.0000    4.1030    4.1210    4.2620   84.4160   -0.0190    0.2337    2.5930    4.8820   37.0000 
15133.5000 15133.5000    8.5000    8.0480   53.9770 -999.0000 -999.0000 -999.0000 -999.0000 -999.0000    4.4360    4.4720    4.7300   78.9880   -0.0190    0.2279    2.5830    4.9470   37.0000 
15134.0000 15134.0000    8.5000    8.0640   47.8517 -999.0000 -999.0000 -999.0000 -999.0000 -999.0000    5.5810    5.6630    6.2450   71.3930   -0.0190    0.1982    2.5930    5.0730   22.0000 
15134.5000 15134.5000    8.5000    8.0790   37.4268 -999.0000 -999.0000 -999.0000 -999.0000 -999.0000    7.5650    7.7680    9.1830   65.3360   -0.0210    0.1553    2.6200    5.5320   22.0000 
15135.0000 15135.0000    8.5000    8.0880   30.0438 -999.0000 -999.0000 -999.0000 -999.0000 -999.0000    8.8490    9.1900   11.4830   63.5320   -0.0230    0.1201    2.6570    6.1500   18.0000 
15135.5000 15135.5000    8.5000    8.1030   30.0762 -999.0000 -999.0000 -999.0000 -999.0000 -999.0000    8.3250    8.6490   10.5790   65.6470   -0.0210    0.1054    2.6810    6.2550   18.0000 
15136.0000 15136.0000    8.5000    8.1190   34.6447 -999.0000 -999.0000 -999.0000 -999.0000 -999.0000    7.3280    7.5990    8.9150   69.1930   -0.0200    0.1139    2.6730    5.8920   18.0000 
15136.5000 15136.5000    8.5000    8.1150   38.9960 -999.0000 -999.0000 -999.0000 -999.0000 -999.0000    6.9960    7.2530    8.2780   71.7680   -0.0190    0.1364    2.6450    5.6050   22.0000 
15137.0000 15137.0000    8.5000    8.0960   40.7061 -999.0000 -999.0000 -999.0000 -999.0000 -999.0000    7.1460    7.4130    8.3250   72.7080   -0.0190    0.1476    2.6220    5.5390   22.0000 
15137.5000 15137.5000    8.5000    8.0900   39.9460 -999.0000 -999.0000 -999.0000 -999.0000 -999.0000    7.3400    7.6120    8.4530   73.1960   -0.0190    0.1464    2.6200    5.6510   22.0000 
15138.0000 15138.0000    8.5000    8.0870   38.8229 -999.0000 -999.0000 -999.0000 -999.0000 -999.0000    7.2220    7.4660    8.1650   74.8230   -0.0170    0.1508    2.6340    5.9440   22.0000 
15138.5000 15138.5000    8.5000    8.0720   39.8993 -999.0000 -999.0000 -999.0000 -999.0000 -999.0000    6.7010    6.8900    7.3710   77.9980   -0.0150    0.1667    2.6480    6.2730   22.0000 
15139.0000 15139.0000    8.5000    8.0580   43.7955 -999.0000 -999.0000 -999.0000 -999.0000 -999.0000    6.0020    6.1340    6.4260   81.7100   -0.0120    0.1869    2.6480    6.3510   22.0000 
15139.5000 15139.5000    8.5000    8.0680   48.8166 -999.0000 -999.0000 -999.0000 -999.0000 -999.0000    5.5960    5.6980    5.8960   84.3920   -0.0110    0.2012    2.6340    6.0830   22.0000 
15140.0000 15140.0000    8.5000    8.0920   51.9651 -999.0000 -999.0000 -999.0000 -999.0000 -999.0000    5.8010    5.9020    6.1200   84.9870   -0.0100    0.2049    2.6130    5.6650   22.0000 
15140.5000 15140.5000    8.5000    8.0970   50.4157 -999.0000 -999.0000 -999.0000 -999.0000 -999.0000    6.6970    6.8350    7.2290   83.5720   -0.0100    0.2025    2.5980    5.3840   22.0000 
15141.0000 15141.0000    8.5000    8.0770   45.2732 -999.0000 -999.0000 -999.0000 -999.0000 -999.0000    7.7910    7.9980    8.7850   80.9890   -0.0100    0.1985    2.5950    5.4120   22.0000 
15141.5000 15141.5000    8.5000    8.0600   40.7932 -999.0000 -999.0000 -999.0000 -999.0000 -999.0000    8.2060    8.4740    9.7190   78.0910   -0.0110    0.1978    2.6000    5.7000   22.0000 
15142.0000 15142.0000    8.5000    8.0610   39.0590 -999.0000 -999.0000 -999.0000 -999.0000 -999.0000    8.1750    8.4930   10.0750   75.4430   -0.0110    0.1976    2.6090    6.0930   22.0000 
15142.5000 15142.5000    8.5000    8.0680   38.8746 -999.0000 -999.0000 -999.0000 -999.0000 -999.0000    8.4740    8.8820   10.8470   73.4240   -0.0110    0.1876    2.6190    6.4770   22.0000 
15143.0000 15143.0000    8.5000    8.0830   39.1179 -999.0000 -999.0000 -999.0000 -999.0000 -999.0000    9.0660    9.6140   12.0240   72.2640   -0.0140    0.1737    2.6230    6.7670   22.0000 
15143.5000 15143.5000    8.5000    8.1080   39.3061 -999.0000 -999.0000 -999.0000 -999.0000 -999.0000    9.2920    9.9480   12.5060   71.9040   -0.0200    0.1685    2.6200    6.8430   22.0000 
15144.0000 15144.0000    8.5000    8.1220   38.8575 -999.0000 -999.0000 -999.0000 -999.0000 -999.0000    8.9090    9.5730   11.8830   71.9870   -0.0250    0.1692    2.6130    6.6660   22.0000 
15144.5000 15144.5000    8.5000    8.1100   37.7644 -999.0000 -999.0000 -999.0000 -999.0000 -999.0000    8.3780    9.0090   11.0460   72.1590   -0.0260    0.1667    2.6110    6.3700   22.0000 
15145.0000 15145.0000    8.5000    8.0820   36.6552 -999.0000 -999.0000 -999.0000 -999.0000 -999.0000    8.1170    8.7430   10.6930   72.3930   -0.0220    0.1616    2.6200    6.0980   22.0000 
15145.5000 15145.5000    8.5000    8.0630   36.0783 -999.0000 -999.0000 -999.0000 -999.0000 -999.0000    8.0870    8.7330   10.7420   72.8570   -0.0170    0.1604    2.6320    5.9480   22.0000 
